~V
VERS. 2.00: Ver 2.00
~W
STRT.M 55.0000:
STOP.M 224.0000:
STEP.M 0.1250:
NULL. -999.2500:
UWI. F10137:
~C
DEPT.M :
DEN.GM/CC :
SP.MV :
GR.API :
RML.OHMM :
RI. :
RXO.OHMM :
CALI.CM :
~A
# ...
  190.0000     2.3470   -14.1580    80.0960     9.3460     8.7940     9.6800    24.5570 
  190.1250     2.3600   -14.1460    83.0180     9.4160     8.9050    10.4680    24.6320 
  190.2500     2.3730   -14.1420    83.1780     9.4640     9.0100    10.0450    24.7230 
  190.3750     2.3860   -14.1680    78.9100     9.4460     9.0690     9.4240    24.7800 
  190.5000     2.3940   -14.2310    74.0820     9.3170     9.0400     9.4320    24.7780 
  190.6250     2.3880   -14.3030    73.5380     9.0550     8.8950     9.6140    24.7070 
  190.7500     2.3600   -14.3500    76.5920     8.6710     8.6330     9.4230    24.5890 
  190.8750     2.3090   -14.3730    78.1400     8.2200     8.2890     8.6450    24.4780 
  191.0000     2.2590   -14.4040    76.7850     7.7860     7.9260     7.9180    24.4070 
  191.1250     2.2350   -14.4490    76.2250     7.4330     7.6010     7.7180    24.3880 
  191.2500     2.2410   -14.4850    78.4400     7.2010     7.3540     7.8320    24.4290 
  191.3750     2.2610   -14.5140    79.9150     7.1350     7.2250     7.5540    24.5340 
  191.5000     2.2770   -14.5760    78.1860     7.2510     7.2340     7.0090    24.6680 
  191.6250     2.2840   -14.6910    75.9070     7.5210     7.3670     6.8650    24.7990 
  191.7500     2.2910   -14.8380    76.6160     7.8590     7.5670     7.4700    24.8940 
  191.8750     2.3010   -14.9810    77.9400     8.0920     7.7140     8.7940    24.9350 
  192.0000     2.3100   -15.1180    76.0080     8.0880     7.7080     9.9930    24.9470 
  192.1250     2.3170   -15.2530    72.4070     7.8720     7.5520     9.9440    24.9550 
  192.2500     2.3260   -15.3770    70.9970     7.6390     7.3750     8.5280    24.9550 
  192.3750     2.3460   -15.4860    71.2280     7.7580     7.4390     7.6090    24.9590 
  192.5000     2.3730   -15.5770    68.8860     8.5400     7.9900     8.5980    24.9820 
  192.6250     2.3980   -15.6450    63.6390    10.1920     9.2300    12.3020    25.0240 
  192.7500     2.4070   -15.6980    58.5900    12.8500    11.3410    18.9840    25.0940 
  192.8750     2.3850   -15.7340    54.9590    16.5460    14.4870    27.3660    25.2660 
  193.0000     2.3320   -15.7650    52.3140    20.7900    18.3640    33.1770    25.5360 
  193.1250     2.2620   -15.8160    50.8800    24.6460    22.1820    35.0470    25.7780 
  193.2500     2.1970   -15.8950    51.2280    27.0880    24.9300    34.2130    25.8700 
  193.3750     2.1560   -15.9560    53.3270    27.2400    25.5970    33.7030    25.7540 
  193.5000     2.1480   -15.9690    56.3630    25.4180    24.2950    33.5340    25.5280 
  193.6250     2.1660   -15.9630    58.9570    22.6980    21.9500    29.3810    25.3470 
  193.7500     2.1900   -15.9720    59.8050    20.1000    19.5100    20.9520    25.2650 
  193.8750     2.2010   -15.9840    59.4040    18.5380    17.8190    14.9410    25.2480 
  194.0000     2.1990   -15.9640    58.6410    18.4200    17.2970    14.5090    25.2750 
  194.1250     2.1920   -15.9140    56.6310    19.8110    18.0930    18.6800    25.3390 
  194.2500     2.1830   -15.8710    53.4250    22.6310    20.2760    26.2580    25.3870 
  194.3750     2.1740   -15.8440    51.8820    26.5630    23.7900    34.7020    25.3730 
  194.5000     2.1690   -15.8280    53.0720    30.8050    28.0210    41.6720    25.3330 
  194.6250     2.1740   -15.8210    54.6660    34.5370    32.1160    46.3230    25.3400 
  194.7500     2.1860   -15.8160    54.8200    37.4310    35.5340    48.1600    25.3760 
  194.8750     2.2040   -15.8060    54.3530    39.4000    37.9910    46.4420    25.3030 
  195.0000     2.2330   -15.8010    55.2660    40.0420    39.0890    43.9810    25.0310 
  195.1250     2.2840   -15.8110    57.5310    38.3500    37.9090    45.0990    24.6620 
  195.2500     2.3650   -15.8220    58.9430    33.6340    33.7290    54.9040    24.3770 
  195.3750     2.4580   -15.8320    57.9330    26.7320    27.2550    65.1720    24.3300 
  195.5000     2.5170   -15.8470    55.3670    19.7990    20.5710    51.4540    24.5110 
  195.6250     2.5070   -15.8680    52.6280    14.3810    15.2160    26.2160    24.7940 
  195.7500     2.4450   -15.9020    49.5530    10.8080    11.5370    12.1510    25.0290 
  195.8750     2.3810   -15.9550    45.6280     8.8990     9.4000     8.2960    25.1350 
  196.0000     2.3440   -16.0160    42.1110     8.1150     8.3550     7.8990    25.1580 
  196.1250     2.3300   -16.0800    40.4140     7.9630     7.9930     8.0020    25.1560 
  196.2500     2.3250   -16.1500    40.5630     8.1480     8.0610     7.9970    25.1400 
  196.3750     2.3220   -16.2400    41.3500     8.4420     8.3310     8.0150    25.1030 
  196.5000     2.3210   -16.3280    41.1230     8.6910     8.6130     8.2160    25.0570 
  196.6250     2.3190   -16.3820    40.1810     8.8350     8.8000     8.4340    25.0160 
  196.7500     2.3140   -16.4130    40.2150     8.8620     8.8690     8.4110    24.9790 
  196.8750     2.3070   -16.4690    41.8910     8.7760     8.8170     8.3190    24.9360 
  197.0000     2.2950   -16.5440    43.8580     8.6050     8.6690     8.3530    24.8430 
  197.1250     2.2820   -16.5870    44.7320     8.3930     8.4570     8.4420    24.6550 
  197.2500     2.2790   -16.5840    44.6990     8.1910     8.2180     8.4820    24.4320 
  197.3750     2.2970   -16.5820    44.6440     8.0740     8.0150     8.2450    24.3000 
  197.5000     2.3250   -16.6170    44.9510     8.1010     7.9060     7.7880    24.2960 
  197.6250     2.3480   -16.6660    46.0990     8.2940     7.9200     7.6570    24.3190 
  197.7500     2.3600   -16.6900    47.5450     8.6250     8.0460     8.3450    24.3030 
  197.8750     2.3610   -16.6960    47.8190     8.9960     8.2220     9.7800    24.3520 
  198.0000     2.3480   -16.7150    47.1200     9.2700     8.3600    10.8670    24.5750 
  198.1250     2.3190   -16.7410    47.1430     9.3510     8.3940    10.9140    24.9130 
  198.2500     2.2810   -16.7460    48.4010     9.2220     8.3070    10.0910    25.2020 
  198.3750     2.2500   -16.7260    49.4270     8.9430     8.1230     9.1230    25.3090 
  198.5000     2.2380   -16.6880    50.3700     8.6400     7.9080     8.6560    25.2420 
  198.6250     2.2470   -16.6260    52.6960     8.4300     7.7370     8.6100    25.0840 
  198.7500     2.2760   -16.5490    55.5020     8.3800     7.6630     8.6540    24.9560 
  198.8750     2.3180   -16.4440    55.7750     8.5220     7.7220     8.4310    24.9710 
  199.0000     2.3560   -16.3130    53.4570     8.7970     7.8910     8.2800    25.0960 
  199.1250     2.3760   -16.1900    50.9090     9.0780     8.0890     8.8900    25.2150 
  199.2500     2.3790   -16.0710    49.4250     9.2170     8.2140    10.4060    25.2570 
  199.3750     2.3690   -15.8930    49.3300     9.0750     8.1540    11.2270    25.2160 
  199.5000     2.3490   -15.6610    50.6810     8.6730     7.8960    10.4910    25.1370 
  199.6250     2.3180   -15.4400    51.9890     8.1590     7.5280     9.1750    25.0600 
  199.7500     2.2740   -15.2470    51.2460     7.7010     7.1630     7.9360    24.9680 
  199.8750     2.2340   -15.0510    49.5940     7.4500     6.9120     7.2700    24.8400 
  200.0000     2.2170   -14.8370    50.3220     7.4280     6.8100     7.1220    24.7040 
  200.1250     2.2290   -14.6300    53.8550     7.5500     6.8220     7.2600    24.5790 
  200.2500     2.2590   -14.4700    57.2370     7.6960     6.8790     7.3460    24.4530 
  200.3750     2.2840   -14.3570    57.6760     7.7310     6.8920     7.2660    24.3380 
  200.5000     2.2970   -14.2590    56.8730     7.5960     6.8110     7.0250    24.2990 
  200.6250     2.2980   -14.1720    58.1450     7.3240     6.6330     6.6210    24.3450 
  200.7500     2.2820   -14.1010    62.6400     6.9910     6.3960     6.2250    24.4380 
  200.8750     2.2440   -14.0340    67.7740     6.7000     6.1650     5.9850    24.5740 
  201.0000     2.1910   -13.9700    69.5450     6.5140     5.9970     5.6950    24.7480 
  201.1250     2.1420   -13.9210    67.4710     6.4490     5.9140     5.3750    24.8690 
