~V
VERS. 2.00: Ver 2.00
~W
STRT.M 43.0000:
STOP.M 249.0000:
STEP.M 0.1250:
NULL. -999.2500:
UWI. F10197:
~C
DEPT.M :
GR.API :
RML.OHMM :
RI. :
RXO.OHMM :
CALI.CM :
SP.MV :
DEN.GM/CC :
~A
# ...
  133.0000    81.5440    24.6280    23.0350    25.4430    24.6800    -5.9630     2.1950 
  133.1250    82.1050    23.4770    21.9230    24.2800    25.1190    -5.8870     2.1620 
  133.2500    79.5380    22.3990    20.8390    22.8180    25.3960    -5.8170     2.1070 
  133.3750    75.7090    21.5560    19.9320    20.9510    25.4670    -5.7650     2.0600 
  133.5000    74.0230    21.0490    19.3010    19.9420    25.4430    -5.7190     2.0440 
  133.6250    75.9770    20.9500    19.0250    19.3000    25.3470    -5.6580     2.0670 
  133.7500    79.2360    21.1060    18.9890    19.2340    25.1460    -5.6120     2.1140 
  133.8750    81.1270    21.3290    19.0520    19.5020    24.8820    -5.6210     2.1770 
  134.0000    82.1310    21.3930    19.0360    20.1140    24.5230    -5.6760     2.2450 
  134.1250    85.0480    21.0610    18.7380    22.1560    24.3240    -5.7240     2.3050 
  134.2500    86.4990    20.4010    18.1770    22.5840    24.2830    -5.7310     2.3470 
  134.3750    84.4660    19.5870    17.4680    19.9890    24.2860    -5.7110     2.3680 
  134.5000    81.3640    18.8520    16.7870    16.7490    24.1640    -5.6760     2.3760 
  134.6250    80.2660    18.4470    16.3460    15.2800    23.8000    -5.6060     2.3890 
  134.7500    80.0120    18.3760    16.1970    15.0430    23.2310    -5.5240     2.4140 
  134.8750    78.2460    18.5480    16.3020    15.0420    22.6400    -5.4090     2.4420 
  135.0000    75.8760    18.7890    16.5310    14.9820    22.2490    -5.2430     2.4640 
  135.1250    74.3510    18.8360    16.6480    15.4690    22.1770    -5.0340     2.4730 
  135.2500    73.1800    18.5240    16.4680    16.1570    22.3590    -4.8070     2.4710 
  135.3750    72.4750    17.7540    15.8870    16.8540    22.8770    -4.5650     2.4560 
  135.5000    72.4180    16.4740    14.8530    16.7580    23.7690    -4.3330     2.4250 
  135.6250    72.5760    14.6390    13.3120    14.9650    24.4450    -4.1290     2.3860 
  135.7500    72.5510    12.5140    11.4790    13.1430    24.6820    -3.9280     2.3500 
  135.8750    73.0240    10.3740     9.5820    11.8100    24.6970    -3.7310     2.3210 
  136.0000    75.8710     7.9940     7.8520    10.0500    24.6160    -3.5580     2.3030 
  136.1250    83.0700     6.6600     6.5140     7.4470    24.4390    -3.4260     2.3020 
  136.2500    91.8320     5.7620     5.5700     5.5400    24.3660    -3.3660     2.3030 
  136.3750    97.7490     5.2680     4.9960     4.8530    24.2930    -3.3570     2.2940 
  136.5000    96.3860     5.1050     4.7320     4.7830    24.1990    -3.3630     2.2760 
  136.6250    88.6090     5.1930     4.7270     4.8550    24.1270    -3.4160     2.2650 
  136.7500    81.0190     5.3750     4.8440     4.8740    24.0700    -3.5100     2.2650 
  136.8750    77.2020     5.5570     4.9950     4.8580    24.0340    -3.6120     2.2730 
  137.0000    78.3130     5.6790     5.1170     4.9290    24.0270    -3.7050     2.2800 
  137.1250    84.8350     5.7010     5.1580     5.0400    23.9880    -3.7980     2.2790 
  137.2500    90.9580     5.6430     5.1240     5.0800    23.8900    -3.8540     2.2690 
  137.3750    91.8940     5.5230     5.0270     5.1040    23.7190    -3.8880     2.2580 
  137.5000    86.9870     5.3820     4.8940     5.1270    23.6420    -3.9250     2.2510 
  137.6250    82.3050     5.2900     4.7780     5.1320    23.7330    -3.9630     2.2530 
  137.7500    81.3410     5.2980     4.7260     5.0960    23.7840    -4.0040     2.2610 
  137.8750    81.5360     5.4340     4.7650     5.0950    23.7650    -4.0680     2.2740 
  138.0000    79.6950     5.6910     4.9010     5.3450    23.7350    -4.1750     2.2870 
  138.1250    77.1410     6.0200     5.1170     5.9100    23.7700    -4.2950     2.2940 
  138.2500    77.8670     6.3160     5.3360     6.3120    23.8320    -4.3950     2.2930 
  138.3750    80.7720     6.4910     5.4910     6.4360    23.8580    -4.4480     2.2840 
  138.5000    82.5550     6.4820     5.5230     6.3610    23.8820    -4.4740     2.2690 
  138.6250    80.0370     6.2570     5.3830     6.0350    23.9520    -4.4750     2.2580 
  138.7500    77.6100     5.9350     5.1420     5.6830    24.0380    -4.4430     2.2560 
  138.8750    79.3370     5.6400     4.8880     5.4860    24.1240    -4.3790     2.2630 
  139.0000    84.7190     5.4840     4.7140     5.2590    24.2250    -4.2790     2.2730 
  139.1250    89.0070     5.5620     4.7030     5.0510    24.3960    -4.1850     2.2810 
  139.2500    89.1680     5.8190     4.8330     5.3290    24.5990    -4.1260     2.2820 
  139.3750    86.8710     6.1590     5.0510     6.1580    24.7470    -4.0760     2.2770 
  139.5000    83.3610     6.4410     5.2640     6.7510    24.8210    -4.0160     2.2660 
  139.6250    80.5790     6.4930     5.3480     6.3730    24.7900    -3.9640     2.2540 
  139.7500    80.7270     6.3240     5.2790     5.6700    24.7350    -3.9610     2.2510 
  139.8750    82.7040     6.0420     5.1010     5.3050    24.7210    -3.9810     2.2580 
  140.0000    82.8670     5.8010     4.9070     5.2260    24.7490    -4.0100     2.2690 
  140.1250    79.3300     5.7450     4.8010     5.2360    24.7230    -4.0310     2.2740 
  140.2500    76.2110     5.8360     4.7970     5.3400    24.6440    -4.0590     2.2740 
  140.3750    75.0360     5.9900     4.8590     5.6810    24.5760    -4.1370     2.2720 
  140.5000    74.0310     6.1170     4.9340     6.1150    24.5480    -4.2480     2.2670 
  140.6250    72.0970     6.1770     4.9790     6.2620    24.5530    -4.3780     2.2590 
  140.7500    70.9250     6.2400     5.0200     5.9220    24.5790    -4.5140     2.2510 
  140.8750    73.9100     6.4010     5.1130     5.6430    24.6170    -4.6630     2.2510 
  141.0000    79.2020     6.7300     5.3140     6.0330    24.6780    -4.8220     2.2560 
  141.1250    82.1090     7.2390     5.6540     6.9070    24.7550    -4.9740     2.2580 
  141.2500    78.7880     7.8100     6.0680     7.8620    24.8090    -5.0780     2.2540 
  141.3750    70.5040     8.3410     6.4940     8.8840    24.7900    -5.1360     2.2450 
  141.5000    64.1480     8.7640     6.8750     9.4290    24.7150    -5.1700     2.2380 
  141.6250    66.1200     9.0980     7.1950     9.2560    24.6620    -5.1730     2.2360 
  141.7500    71.4120     9.4650     7.5130     9.3460    24.6860    -5.1450     2.2400 
  141.8750    73.3010     9.9440     7.8860    10.1840    24.8040    -5.0900     2.2470 
  142.0000    70.7240    10.5320     8.3380    11.4540    25.0410    -5.0230     2.2480 
  142.1250    69.8230    11.1360     8.8390    12.1800    25.3640    -4.9710     2.2300 
  142.2500    69.1280    11.6290     9.3080    12.2560    25.6000    -4.9740     2.1990 
  142.3750    67.0200    11.9270     9.6690    11.9900    25.5970    -5.0140     2.1770 
  142.5000    67.6150    12.0060     9.8710    11.7720    25.3900    -5.0480     2.1870 
  142.6250    71.5900    11.8510     9.8660    11.6910    25.2540    -5.0800     2.2220 
  142.7500    72.4860    11.4890     9.6660    11.6480    25.2510    -5.1210     2.2470 
  142.8750    68.9510    10.8930     9.2480    11.3270    25.3610    -5.1760     2.2460 
  143.0000    66.3960    10.0780     8.6180    10.6580    25.5490    -5.2370     2.2370 
  143.1250    66.9760     9.1610     7.8520     9.4930    25.7420    -5.2760     2.2320 
  143.2500    66.5610     8.3450     7.1180     8.1160    25.7190    -5.2860     2.2280 
  143.3750    66.0050     7.7440     6.5270     6.9870    25.4260    -5.2860     2.2220 
  143.5000    67.2940     7.3930     6.1270     6.4070    25.0760    -5.2860     2.2200 
  143.6250    70.2620     7.2760     5.9330     6.4140    24.7490    -5.2660     2.2250 
  143.7500    74.4620     7.2650     5.8520     6.5640    24.4400    -5.2220     2.2300 
  143.8750    78.5610     7.2790     5.8200     6.6120    24.1630    -5.1590     2.2300 
  144.0000    79.7900     7.2550     5.7820     6.4160    24.0090    -5.0900     2.2300 
  144.1250    78.4240     7.1510     5.6950     6.2570    23.9680    -5.0320     2.2380 
