~V
VERS. 2.00: Ver 2.00
~W
STRT.M 52.0000:
STOP.M 326.0000:
STEP.M 0.1250:
NULL. -999.2500:
UWI. F10108:
~C
DEPT.M :
DEN.GM/CC :
SP.MV :
GR.API :
RML.OHMM :
RI. :
RXO.OHMM :
CALI.CM :
~A
# ...
  277.0000     2.3050    -5.0600    79.6070     4.7260     4.3440     4.0170    24.9880 
  277.1250     2.3030    -4.9720    82.4340     4.6700     4.2180     3.8350    25.0310 
  277.2500     2.2950    -4.9180    85.8170     4.6200     4.0980     3.8050    24.9990 
  277.3750     2.2850    -4.9070    85.7310     4.5730     3.9910     3.7680    24.9380 
  277.5000     2.2800    -4.9400    82.4230     4.5440     3.9190     3.6690    24.8930 
  277.6250     2.2800    -5.0470    79.8690     4.6040     3.9370     3.5380    24.9010 
  277.7500     2.2820    -5.2470    81.8190     4.8760     4.1210     3.5100    24.9130 
  277.8750     2.2780    -5.5280    84.9160     5.5690     4.6090     3.7790    24.8890 
  278.0000     2.2660    -5.8960    82.5680     7.1040     5.6100     4.5310    24.8260 
  278.1250     2.2470    -6.3430    72.2830    10.0230     7.6000     6.6850    24.7700 
  278.2500     2.2300    -6.8320    61.4980    14.5160    10.8130    10.6150    24.7760 
  278.3750     2.2200    -7.3390    56.1810    20.6150    15.4140    17.4310    24.8580 
  278.5000     2.2190    -7.8420    56.3570    27.2350    21.1840    29.5930    24.9820 
  278.6250     2.2240    -8.3120    57.2030    33.2820    27.2910    41.7940    25.0760 
  278.7500     2.2280    -8.7250    56.3940    37.6280    32.3930    46.1330    25.0980 
  278.8750     2.2240    -9.0860    56.7450    39.7650    35.5910    43.4180    25.0730 
  279.0000     2.2110    -9.3950    59.5650    40.2150    36.8940    41.9710    25.0560 
  279.1250     2.1900    -9.6470    62.0560    40.1030    37.0840    42.2430    25.0740 
  279.2500     2.1710    -9.8360    62.1050    40.1390    37.0690    43.1630    25.1100 
  279.3750     2.1590    -9.9810    59.2690    40.2020    36.9470    43.4660    25.1240 
  279.5000     2.1540   -10.0920    55.6980    40.0510    36.6310    44.2210    25.0860 
  279.6250     2.1540   -10.1730    55.4930    39.7160    36.1770    41.3030    24.9780 
  279.7500     2.1580   -10.2470    57.3980    39.6900    35.9840    39.2320    24.8730 
  279.8750     2.1730   -10.3060    57.6270    40.5590    36.5360    37.5280    24.8170 
  280.0000     2.2090   -10.3440    54.5930    42.7980    38.2690    36.2550    24.8300 
  280.1250     2.2780   -10.3640    50.4970    46.8010    41.6190    40.3540    24.8710 
  280.2500     2.3650   -10.4020    46.6540    51.9620    46.1550    48.3110    24.8850 
  280.3750     2.4520   -10.4550    43.6070    57.6040    51.3600    60.2350    24.8440 
  280.5000     2.5190   -10.5250    42.0460    62.9010    56.5310    78.0740    24.7570 
  280.6250     2.5510   -10.6340    41.0400    66.8420    60.7580    80.6470    24.7040 
  280.7500     2.5570   -10.7760    39.7810    69.1850    63.6900    70.5510    24.7260 
  280.8750     2.5430   -10.9530    39.9730    69.8470    65.1640    65.7190    24.7910 
  281.0000     2.5120   -11.1660    42.2960    68.7650    65.0620    70.1130    24.8220 
  281.1250     2.4700   -11.4210    44.6260    65.4710    62.8700    78.7880    24.7690 
  281.2500     2.4270   -11.6980    46.8450    60.3000    58.7800    77.4070    24.6820 
  281.3750     2.3890   -12.0010    49.9760    53.6780    53.0640    59.3820    24.6130 
  281.5000     2.3600   -12.3200    54.1950    46.3490    46.3520    41.0420    24.6120 
  281.6250     2.3400   -12.6380    56.8080    39.1140    39.4080    35.1490    24.7220 
  281.7500     2.3280   -12.9420    59.3680    32.4230    32.8310    34.3900    24.8540 
  281.8750     2.3210   -13.2210    64.1490    26.4960    26.9240    32.2420    24.9440 
  282.0000     2.3150   -13.4850    69.3350    21.5290    21.9170    27.7330    24.9550 
  282.1250     2.3090   -13.7480    72.8780    17.8970    18.1810    21.6820    24.9170 
  282.2500     2.2990   -14.0150    75.1700    15.4690    15.5950    15.5410    24.8780 
  282.3750     2.2880   -14.2830    76.9550    14.1550    14.0850    12.7480    24.8900 
  282.5000     2.2790   -14.5650    78.1080    13.7650    13.4930    12.4440    24.9410 
  282.6250     2.2750   -14.8750    77.1910    14.1310    13.6980    13.0430    24.9680 
  282.7500     2.2780   -15.2190    75.5700    14.8590    14.3290    13.7570    24.9320 
  282.8750     2.2870   -15.5990    75.2150    15.7170    15.1550    14.5650    24.8630 
  283.0000     2.3010   -16.0000    76.4370    16.5170    15.9670    15.4100    24.8030 
  283.1250     2.3140   -16.3970    77.5430    17.0970    16.5780    15.8310    24.8150 
  283.2500     2.3200   -16.7820    77.1780    17.4450    16.9540    16.2470    24.8740 
  283.3750     2.3180   -17.1500    76.4710    17.5720    17.1030    16.4580    24.9380 
  283.5000     2.3090   -17.4880    76.4260    17.5120    17.0580    16.6810    24.9500 
  283.6250     2.2970   -17.7720    77.8120    17.3030    16.8410    17.2790    24.8930 
  283.7500     2.2900   -18.0150    80.5620    17.0350    16.5370    17.2980    24.8150 
  283.8750     2.2910   -18.2180    81.9630    16.7710    16.2030    16.6490    24.7850 
  284.0000     2.3000   -18.3770    80.9180    16.5620    15.8990    15.9140    24.8210 
  284.1250     2.3150   -18.5020    80.1860    16.4550    15.6860    15.9600    24.8960 
  284.2500     2.3320   -18.6010    80.5310    16.4280    15.5640    16.4670    24.9250 
  284.3750     2.3460   -18.6930    80.7650    16.4350    15.5000    17.1810    24.8720 
  284.5000     2.3560   -18.7870    81.3770    16.3930    15.4200    18.0040    24.7580 
  284.6250     2.3570   -18.8900    82.5900    16.1480    15.1920    18.3010    24.6530 
  284.7500     2.3500   -18.9850    82.3300    15.6140    14.7250    17.9390    24.6020 
  284.8750     2.3370   -19.0710    80.3050    14.7550    13.9750    17.0010    24.5650 
  285.0000     2.3190   -19.1600    78.6850    13.6270    12.9730    15.8850    24.4800 
  285.1250     2.3010   -19.2490    77.9440    12.3840    11.8360    14.2740    24.3150 
  285.2500     2.2820   -19.3620    78.8360    11.2620    10.7680    11.8950    24.1140 
  285.3750     2.2640   -19.4860    82.0790    10.4220     9.9240     9.4640    23.9500 
  285.5000     2.2520   -19.6040    86.0290     9.9630     9.4100     8.0010    23.8720 
  285.6250     2.2520   -19.7120    87.0290     9.9650     9.3280     7.4260    23.8930 
  285.7500     2.2620   -19.8250    85.4570    10.2800     9.5680     7.4610    23.9440 
  285.8750     2.2740   -19.9210    83.8200    10.7630    10.0080     8.1190    23.9780 
  286.0000     2.2800   -19.9800    82.8890    11.2240    10.4700     9.2080    24.0040 
  286.1250     2.2700   -19.9780    83.2630    11.4100    10.7060    10.3640    24.1000 
  286.2500     2.2490   -19.9240    85.7830    11.2440    10.6120    10.7830    24.2850 
  286.3750     2.2250   -19.8370    87.9110    10.7550    10.1930    10.4490    24.4910 
  286.5000     2.2070   -19.7460    87.1200    10.0790     9.5700     9.6000    24.6290 
  286.6250     2.2040   -19.6590    83.7190     9.4470     8.9470     9.0690    24.6400 
  286.7500     2.2130   -19.5620    80.6030     9.0720     8.5210     9.5720    24.6050 
  286.8750     2.2340   -19.4700    77.1130     9.0940     8.4110    10.1240    24.6040 
  287.0000     2.2610   -19.3950    75.2650     9.5660     8.6790     9.9390    24.6480 
  287.1250     2.2850   -19.3660    76.9280    10.4560     9.3370    10.0810    24.6710 
  287.2500     2.3000   -19.3770    78.4110    11.4370    10.1490    11.7350    24.6420 
  287.3750     2.3020   -19.4070    77.3210    12.1810    10.8530    15.0760    24.5640 
  287.5000     2.2920   -19.4530    75.4620    12.4010    11.1800    18.9780    24.4850 
  287.6250     2.2750   -19.5190    75.3040    11.8990    10.8860    19.7340    24.4820 
  287.7500     2.2560   -19.6090    75.9470    10.9900    10.1750    13.8510    24.5440 
  287.8750     2.2400   -19.7300    77.4330    10.0290     9.3380     9.1090    24.6390 
  288.0000     2.2280   -19.9080    80.8400     9.3260     8.6570     7.8780    24.6880 
  288.1250     2.2230   -20.0950    84.8790     9.0690     8.3310     8.4230    24.6470 
