~V
VERS. 2.00: Ver 2.00
~W
STRT.M 52.0000:
STOP.M 236.0000:
STEP.M 0.1250:
NULL. -999.2500:
UWI. F10181:
~C
DEPT.M :
GR.API :
RML.OHMM :
RI. :
RXO.OHMM :
CALI.CM :
DEN.GM/CC :
SP.MV :
~A
# ...
   74.5000    56.2300     8.8870     7.2220     7.7230    22.1550     2.2040   -18.9640 
   74.6250    58.9880     8.7990     7.1090     7.5840    22.0540     2.1880   -18.8780 
   74.7500    62.3050     8.7670     7.0430     7.3740    21.9820     2.1770   -18.8170 
   74.8750    62.2290     8.7830     7.0230     7.1560    21.9640     2.1680   -18.7600 
   75.0000    58.8540     8.8410     7.0430     6.9530    21.9820     2.1620   -18.7130 
   75.1250    56.8840     8.9360     7.0980     6.9730    22.0060     2.1600   -18.6550 
   75.2500    60.1240     9.0460     7.1720     7.0790    22.0200     2.1620   -18.5690 
   75.3750    65.5870     9.1430     7.2460     7.3150    22.0420     2.1670   -18.4790 
   75.5000    68.0410     9.2030     7.3010     7.5360    22.0890     2.1730   -18.4010 
   75.6250    67.3640     9.2020     7.3160     7.6150    22.1330     2.1780   -18.3660 
   75.7500    67.1710     9.1580     7.2960     7.5830    22.1500     2.1800   -18.3340 
   75.8750    67.6440     9.0910     7.2520     7.5800    22.1530     2.1800   -18.2880 
   76.0000    67.0020     9.0230     7.2010     7.6410    22.1530     2.1800   -18.2240 
   76.1250    65.5650     8.9810     7.1640     7.6190    22.1530     2.1800   -18.1930 
   76.2500    65.7740     8.9700     7.1500     7.7520    22.1530     2.1810   -18.1930 
   76.3750    65.2470     8.9950     7.1630     7.9220    22.1530     2.1830   -18.2160 
   76.5000    63.1650     9.0520     7.2020     8.0040    22.1530     2.1870   -18.2600 
   76.6250    60.7490     9.1330     7.2620     8.0880    22.1530     2.1920   -18.3300 
   76.7500    58.5950     9.2150     7.3270     8.2410    22.1480     2.1980   -18.4490 
   76.8750    57.9810     9.2800     7.3810     8.2660    22.1170     2.2030   -18.6230 
   77.0000    59.5220     9.3070     7.4120     8.1990    22.0440     2.2080   -18.8270 
   77.1250    61.0050     9.2750     7.4050     8.1490    21.9720     2.2090   -19.0070 
   77.2500    60.2720     9.1940     7.3630     8.1580    21.9910     2.2060   -19.1570 
   77.3750    59.5490     9.0780     7.2930     8.0980    22.1010     2.1980   -19.2740 
   77.5000    62.4400     8.9460     7.2040     8.0350    22.2760     2.1860   -19.3760 
   77.6250    65.6230     8.8220     7.1110     7.9650    22.4620     2.1730   -19.4110 
   77.7500    65.1720     8.7270     7.0310     7.8870    22.6370     2.1630   -19.3760 
   77.8750    62.6610     8.6720     6.9770     7.9170    22.7900     2.1560   -19.2810 
   78.0000    61.9850     8.6560     6.9550     7.9470    22.8720     2.1530   -19.1620 
   78.1250    63.0320     8.6660     6.9630     7.9840    22.7970     2.1550   -19.0290 
   78.2500    64.3540     8.6680     6.9770     8.0320    22.6530     2.1580   -18.8750 
   78.3750    64.0130     8.6300     6.9740     8.2380    22.5760     2.1610   -18.7020 
   78.5000    60.6410     8.5370     6.9370     8.4930    22.5590     2.1620   -18.4840 
   78.6250    57.9080     8.3840     6.8590     8.4970    22.5590     2.1610   -18.2580 
   78.7500    57.3800     8.2090     6.7580     8.1770    22.5590     2.1600   -18.0350 
   78.8750    57.6630     8.0460     6.6570     7.8870    22.5590     2.1600   -17.8080 
   79.0000    57.0360     7.9190     6.5730     7.7200    22.5590     2.1610   -17.5620 
   79.1250    56.1090     7.8410     6.5180     7.5890    22.5610     2.1620   -17.2510 
   79.2500    56.5460     7.7850     6.4770     7.4700    22.5730     2.1630   -16.8960 
   79.3750    58.1110     7.7280     6.4350     7.3970    22.5970     2.1640   -16.5150 
   79.5000    61.4170     7.6470     6.3740     7.2600    22.6020     2.1660   -16.1150 
   79.6250    65.4760     7.5290     6.2750     6.9840    22.6150     2.1710   -15.6710 
   79.7500    68.2070     7.3810     6.1420     6.7150    22.7170     2.1790   -15.2180 
   79.8750    70.7640     7.2070     5.9790     6.6040    22.9130     2.1900   -14.7730 
   80.0000    74.6530     7.0100     5.7920     6.5960    23.0810     2.2020   -14.3450 
   80.1250    80.7070     6.7970     5.5980     6.5440    23.2560     2.2160   -13.9750 
   80.2500    87.1120     6.6140     5.4320     6.3350    23.5340     2.2300   -13.6730 
   80.3750    91.7210     6.5410     5.3440     6.0850    23.8290     2.2450   -13.4350 
   80.5000    93.5960     6.6840     5.4030     5.9720    24.0630     2.2570   -13.2700 
   80.6250    92.7840     7.1860     5.7170     6.0770    24.0660     2.2670   -13.2480 
   80.7500    90.6790     7.9770     6.2600     6.3780    23.8830     2.2790   -13.3030 
   80.8750    86.6510     8.9050     6.9620     7.0720    23.5940     2.2940   -13.3950 
   81.0000    78.9600     9.7380     7.6800     8.3470    23.2910     2.3100   -13.5200 
   81.1250    70.2220    10.1590     8.1920    10.4910    23.0080     2.3150   -13.6890 
   81.2500    63.2290    10.1230     8.4000    11.5390    22.7570     2.3000   -13.8520 
   81.3750    58.6210     9.7570     8.3340     9.5370    22.6250     2.2690   -13.9830 
   81.5000    57.3680     9.3170     8.1430     7.7200    22.6190     2.2370   -14.0500 
   81.6250    60.6860     9.0700     8.0110     7.3090    22.7120     2.2280   -14.0010 
   81.7500    64.6870     9.0300     7.9910     7.4690    22.7870     2.2460   -13.8490 
   81.8750    65.7470     9.0780     8.0210     7.8270    22.8290     2.2800   -13.6360 
   82.0000    66.9430     9.0410     7.9850     8.2660    22.8620     2.3110   -13.3660 
   82.1250    69.7010     8.7440     7.7400     8.3490    22.8920     2.3180   -13.0180 
   82.2500    71.9580     8.2310     7.3040     7.6210    22.9200     2.3040   -12.6310 
   82.3750    75.0770     7.5980     6.7490     7.0640    23.0710     2.2810   -12.2290 
   82.5000    79.7490     6.9530     6.1730     6.6500    23.4300     2.2610   -11.8700 
   82.6250    85.9910     6.4070     5.6790     6.0910    23.8620     2.2470   -11.5680 
   82.7500    93.2480     6.0250     5.3210     5.6150    24.1790     2.2360   -11.3240 
   82.8750    99.0620     5.8810     5.1540     5.4380    24.3200     2.2270   -11.1530 
   83.0000    99.4970     6.0490     5.2250     5.3950    24.3190     2.2220   -11.0700 
   83.1250    92.4740     6.6000     5.6010     5.4760    24.1810     2.2300   -11.0920 
   83.2500    85.2280     7.3650     6.1760     5.8060    23.9100     2.2520   -11.1860 
   83.3750    78.3440     8.1270     6.8050     6.5640    23.5390     2.2860   -11.3130 
   83.5000    71.1560     8.6290     7.2920     7.8340    23.1710     2.3200   -11.4120 
   83.6250    68.4840     8.5890     7.3840     9.1580    22.9530     2.3370   -11.4820 
   83.7500    72.3130     8.1020     7.0890     8.8520    22.9360     2.3320   -11.5520 
   83.8750    77.2470     7.3950     6.5440     7.3050    23.1170     2.3130   -11.6130 
   84.0000    78.7590     6.7570     5.9690     6.2210    23.3320     2.2940   -11.6680 
   84.1250    78.2340     6.4490     5.5800     5.8990    23.4130     2.2830   -11.7270 
   84.2500    79.6140     6.4530     5.4150     5.8810    23.3880     2.2770   -11.8170 
   84.3750    82.2370     6.6910     5.4440     6.0570    23.2460     2.2710   -11.9530 
   84.5000    83.7320     7.0720     5.6180     6.2370    23.0090     2.2620   -12.1370 
   84.6250    79.9850     7.5920     5.9370     6.5320    22.8180     2.2520   -12.3550 
   84.7500    74.3230     8.3310     6.4350     6.8230    22.7830     2.2460   -12.5830 
   84.8750    70.4060     9.5070     7.2480     7.2940    22.7950     2.2460   -12.7960 
   85.0000    70.0210    11.4230     8.5850     8.2040    22.7420     2.2590   -12.9730 
   85.1250    70.6370    14.5330    10.8170    10.5920    22.6620     2.2950   -13.1060 
   85.2500    68.8370    18.5630    13.8420    14.4060    22.7020     2.3570   -13.1990 
   85.3750    64.4290    22.8090    17.2350    20.5450    22.9690     2.4370   -13.2690 
   85.5000    58.9100    26.0580    20.1430    30.5740    23.3330     2.5130   -13.3330 
   85.6250    55.9120    26.4430    21.0750    42.3820    23.5910     2.5500   -13.4000 
