~V
VERS. 2.00: Ver 2.00
~W
STRT.M 53.0000:
STOP.M 246.0000:
STEP.M 0.1250:
NULL. -999.2500:
UWI. F10192:
~C
DEPT.M :
DEN.GM/CC :
GR.API :
RML.OHMM :
RI. :
RXO.OHMM :
CALI.CM :
SP.MV :
~A
# ...
   75.5000     2.1460    62.7500     9.3150     6.4080    10.8670    24.7380   -40.9930 
   75.6250     2.1500    60.0340     9.2460     6.3100    11.0020    24.7000   -40.8630 
   75.7500     2.1550    59.3290     9.2020     6.2280    10.9830    24.6230   -40.6660 
   75.8750     2.1610    62.9870     9.1770     6.1620    11.0400    24.5310   -40.4480 
   76.0000     2.1650    65.2910     9.1760     6.1150    11.0860    24.5110   -40.2530 
   76.1250     2.1680    63.4340     9.2090     6.0960    11.0160    24.5860   -40.0820 
   76.2500     2.1670    60.7980     9.2880     6.1160    10.8660    24.6800   -39.8880 
   76.3750     2.1670    59.6900     9.3920     6.1660    10.7740    24.6940   -39.6300 
   76.5000     2.1730    59.1610     9.4940     6.2310    10.9100    24.5710   -39.3080 
   76.6250     2.1810    58.0160     9.5570     6.2890    11.4850    24.3250   -38.9220 
   76.7500     2.1790    58.8280     9.5420     6.3080    11.8260    24.1280   -38.5070 
   76.8750     2.1670    63.1870     9.4620     6.2810    11.6260    24.0020   -38.0680 
   77.0000     2.1540    67.6320     9.3490     6.2210    11.3090    23.9320   -37.6010 
   77.1250     2.1480    68.8390     9.2390     6.1480    11.0640    23.8840   -37.1280 
   77.2500     2.1490    66.7360     9.1690     6.0870    10.9130    23.8210   -36.6810 
   77.3750     2.1500    64.8560     9.1430     6.0510    10.8430    23.7640   -36.2550 
   77.5000     2.1490    63.0230     9.1480     6.0390    10.7840    23.7130   -35.8700 
   77.6250     2.1470    61.9510     9.1660     6.0410    10.7340    23.6690   -35.5280 
   77.7500     2.1470    64.2110     9.1770     6.0490    10.7390    23.6130   -35.2220 
   77.8750     2.1470    67.7410     9.1720     6.0560    10.7130    23.5630   -34.9520 
   78.0000     2.1470    67.7720     9.1550     6.0650    10.5980    23.5290   -34.7140 
   78.1250     2.1470    64.4490     9.1320     6.0820    10.4960    23.5010   -34.4790 
   78.2500     2.1490    64.7820     9.1170     6.1150    10.5650    23.4560   -34.1960 
   78.3750     2.1520    68.4080     9.1150     6.1600    10.5960    23.3970   -33.9170 
   78.5000     2.1550    68.5750     9.1250     6.2120    10.5130    23.3310   -33.6520 
   78.6250     2.1580    65.8120     9.1440     6.2630    10.4740    23.2790   -33.4410 
   78.7500     2.1580    65.9980     9.1630     6.3030    10.4330    23.2380   -33.3010 
   78.8750     2.1550    67.6980     9.1690     6.3290    10.3840    23.2060   -33.1690 
   79.0000     2.1520    66.4290     9.1580     6.3350    10.4080    23.1790   -32.9740 
   79.1250     2.1470    62.5120     9.1240     6.3190    10.5130    23.1640   -32.6840 
   79.2500     2.1380    60.7860     9.0540     6.2740    10.5040    23.1710   -32.3740 
   79.3750     2.1270    62.0440     8.9280     6.1940    10.3340    23.1970   -32.0740 
   79.5000     2.1190    64.4550     8.7220     6.0670    10.0770    23.2210   -31.7140 
   79.6250     2.1180    66.0020     8.4290     5.8860     9.8810    23.2320   -31.2380 
   79.7500     2.1300    65.0650     8.1410     5.6810     9.7890    23.2320   -30.6460 
   79.8750     2.1570    62.5520     8.0780     5.5610     9.9120    23.2430   -29.9500 
   80.0000     2.1960    60.1490     8.4630     5.6600    10.3890    23.2940   -29.1990 
   80.1250     2.2460    60.0240     9.3890     6.0730    10.9010    23.4170   -28.4000 
   80.2500     2.3090    65.0020    10.7260     6.8240    11.9330    23.5660   -27.4780 
   80.3750     2.3810    74.0830    11.8910     7.6330    15.5350    23.6830   -26.4400 
   80.5000     2.4370    85.0890    12.2680     8.1140    21.1980    23.7680   -25.3660 
   80.6250     2.4450    95.4220    11.4640     7.9060    19.8620    23.8050   -24.3220 
   80.7500     2.4060   100.2270     9.6540     6.9540    10.7110    23.7860   -23.3370 
   80.8750     2.3740   101.7100     7.8010     5.8220     6.4740    23.7450   -22.5010 
   81.0000     2.3610   104.8380     6.4270     4.8690     5.1110    23.7450   -21.8800 
   81.1250     2.3550   108.1560     5.6940     4.2510     4.7720    23.7810   -21.5030 
   81.2500     2.3430   108.9860     5.6260     4.0550     4.6250    23.7720   -21.4460 
   81.3750     2.3260   108.0470     5.9930     4.1780     4.6180    23.7200   -21.6340 
   81.5000     2.3060   104.8610     6.6890     4.5650     4.7750    23.6490   -22.0550 
   81.6250     2.2840    98.2830     7.6230     5.1610     5.3350    23.5780   -22.6990 
   81.7500     2.2590    89.1780     8.6580     5.9020     6.5830    23.5590   -23.5030 
   81.8750     2.2400    81.3060     9.5480     6.6330     7.9710    23.5690   -24.3320 
   82.0000     2.2410    75.0510    10.0990     7.2140     8.4290    23.5660   -25.0910 
   82.1250     2.2650    71.1660    10.2440     7.5510     8.4350    23.5560   -25.8060 
   82.2500     2.2980    71.3630    10.0750     7.6310     9.0190    23.5510   -26.5170 
   82.3750     2.3170    71.2590     9.8720     7.6100    10.2540    23.6420   -27.1880 
   82.5000     2.3120    69.5920     9.7850     7.5950    10.9500    23.8950   -27.7950 
   82.6250     2.2820    67.6650     9.8610     7.6420    10.7870    24.2130   -28.2840 
   82.7500     2.2390    65.3020    10.0870     7.7580    10.1990    24.4870   -28.6090 
   82.8750     2.2000    62.1150    10.4000     7.9050    10.0720    24.8080   -28.7810 
   83.0000     2.1720    58.2240    10.7670     8.0560    10.3950    25.1940   -28.7840 
   83.1250     2.1530    55.7290    11.1220     8.1690    10.4780    25.3920   -28.5700 
   83.2500     2.1450    56.1340    11.2710     8.1250    10.3820    25.3380   -28.0440 
   83.3750     2.1500    58.4030    11.0310     7.8300    10.3470    25.2830   -27.2490 
   83.5000     2.1730    61.7220    10.2950     7.2330    10.1050    25.3210   -26.2160 
   83.6250     2.2130    66.1620     9.1270     6.3890     9.0820    25.2970   -25.0370 
   83.7500     2.2660    74.2760     7.8330     5.4890     7.2930    24.9870   -23.8830 
   83.8750     2.3190    83.5510     6.8880     4.7850     5.7660    24.6170   -22.8910 
   84.0000     2.3660    90.2490     6.6660     4.4520     5.1830    24.4960   -22.1830 
   84.1250     2.4120    92.2970     7.4700     4.6300     5.4420    24.5620   -21.8320 
   84.2500     2.4690    88.6890     9.7550     5.6000     7.4450    24.6320   -21.9340 
   84.3750     2.5250    81.8100    13.3490     7.4340    12.3520    24.6310   -22.4640 
   84.5000     2.5570    74.0470    17.8450    10.1710    19.8070    24.6760   -23.3920 
   84.6250     2.5480    67.7710    22.0640    13.3690    25.7840    24.8280   -24.6460 
   84.7500     2.5080    64.3570    23.4910    15.3900    30.3370    24.9470   -26.1520 
   84.8750     2.4560    61.0130    21.5800    15.1480    32.7820    24.8430   -27.7890 
   85.0000     2.3880    58.0520    17.7500    13.1900    28.0410    24.5840   -29.4490 
   85.1250     2.3040    57.6150    14.0070    10.8260    19.5370    24.4150   -30.9940 
   85.2500     2.2220    60.9360    11.6070     9.0060    13.6350    24.5760   -32.2780 
   85.3750     2.1620    62.8360    10.3340     7.8150    11.2330    24.8570   -33.3100 
   85.5000     2.1250    61.4320     9.8580     7.1570    10.5290    24.9650   -34.0900 
   85.6250     2.1040    59.5690     9.8540     6.8890    10.3220    24.7910   -34.6070 
   85.7500     2.0970    58.6870    10.0480     6.8810    10.2060    24.6070   -34.7610 
   85.8750     2.0980    57.6110    10.2180     6.9550    10.2050    24.5290   -34.5640 
   86.0000     2.1010    57.0940    10.2900     7.0280    10.2290    24.5070   -34.0560 
   86.1250     2.1040    58.5730    10.2650     7.0650    10.1780    24.4430   -33.3130 
   86.2500     2.1150    62.1780    10.1840     7.0650     9.9750    24.3480   -32.4160 
   86.3750     2.1330    64.5830    10.1110     7.0570     9.7310    24.3040   -31.4480 
   86.5000     2.1530    62.9020    10.0840     7.0640     9.5810    24.3200   -30.4210 
   86.6250     2.1690    58.6220    10.1210     7.0990     9.6290    24.4210   -29.3330 
