~V
VERS. 2.00: Ver 2.00
~W
STRT.M 59.0000:
STOP.M 212.0000:
STEP.M 0.1250:
NULL. -999.2500:
UWI. F10143:
~C
DEPT.M :
GR.API :
RML.OHMM :
RI. :
RXO.OHMM :
CALI.CM :
SP.MV :
DEN.GM/CC :
~A
# ...
  171.5000    58.5610   103.3460    92.3800    92.6770    24.8350   -38.5130     2.2240 
  171.6250    59.8180   103.7200    92.3550    82.2960    24.8360   -38.6110     2.2210 
  171.7500    58.3700   107.5010    95.2180    90.4680    24.9280   -38.6960     2.2110 
  171.8750    56.8470   114.0960   100.8550   117.3090    25.2480   -38.7720     2.1990 
  172.0000    56.7170   121.4940   107.8710   144.5690    25.7600   -38.8490     2.1890 
  172.1250    56.5300   126.6500   113.9270   133.9170    26.0320   -38.9270     2.1840 
  172.2500    57.1020   128.9800   118.0440   116.5200    26.0100   -39.0110     2.1840 
  172.3750    58.5630   130.2310   121.1520   111.1320    25.7270   -39.0940     2.1890 
  172.5000    59.3220   133.1880   125.3620   110.3050    25.3630   -39.1970     2.1990 
  172.6250    58.1600   140.4590   133.2030   112.9780    25.0160   -39.3230     2.2080 
  172.7500    58.3540   150.7550   143.9990   132.3640    24.8410   -39.4710     2.2070 
  172.8750    61.0820   161.0350   155.2690   167.6420    24.7750   -39.6010     2.2010 
  173.0000    63.4010   163.5230   167.3340   201.1410    24.7610   -39.6790     2.1970 
  173.1250    63.6890   165.0880   165.9060   204.6180    24.7530   -39.7190     2.2010 
  173.2500    63.2660   160.9770   158.7600   198.3660    24.7410   -39.7250     2.2060 
  173.3750    62.0380   153.2560   148.7580   207.4360    24.7090   -39.7030     2.2090 
  173.5000    59.4490   144.4190   138.5770   292.4030    24.5690   -39.6420     2.2140 
  173.6250    56.8240   136.5090   129.9530   453.9000    24.2730   -39.5320     2.2230 
  173.7500    56.8310   130.1240   123.0480   307.6670    24.1260   -39.3740     2.2350 
  173.8750    59.4640   125.4420   117.9220   143.4500    24.2490   -39.2240     2.2430 
  174.0000    62.7040   122.5230   114.5700   105.9300    24.4090   -39.1300     2.2450 
  174.1250    63.3820   121.5240   113.0850   107.9780    24.4790   -39.0990     2.2390 
  174.2500    62.5910   121.9480   112.9940   120.0500    24.5620   -39.1080     2.2300 
  174.3750    61.7430   123.7540   114.2670   130.6630    24.7160   -39.1450     2.2220 
  174.5000    61.8180   126.9770   116.8250   132.8150    24.8470   -39.2150     2.2150 
  174.6250    61.9540   130.7970   119.7040   126.8870    24.9230   -39.3160     2.2100 
  174.7500    61.0370   132.6350   120.6180   131.7100    24.9090   -39.4100     2.2070 
  174.8750    59.1860   130.3020   117.8460   157.5140    24.8660   -39.4770     2.2060 
  175.0000    58.1220   123.5780   111.5440   201.6200    24.8400   -39.5260     2.2030 
  175.1250    59.4310   114.9870   104.2850   172.4470    24.8360   -39.5580     2.2050 
  175.2500    61.4780   108.9690    99.7900   104.1410    24.8360   -39.6030     2.2110 
  175.3750    62.3990   108.8550   100.6360    70.5250    24.8360   -39.6650     2.2100 
  175.5000    61.7430   116.7690   108.4290    95.3930    24.8350   -39.7460     2.1980 
  175.6250    59.6130   134.5830   125.1420   135.1380    24.8340   -39.8380     2.1800 
  175.7500    55.4570   159.1440   148.7080   165.5250    24.8310   -39.9840     2.1720 
  175.8750    50.3120   186.5400   175.9370   171.5950    24.8300   -40.1810     2.1710 
  176.0000    47.6890   211.2520   201.1150   171.6820    24.8300   -40.3870     2.1730 
  176.1250    51.3520   228.1440   218.0900   170.5190    24.8300   -40.5820     2.1720 
  176.2500    57.0820   239.2760   228.8040   177.6500    24.8300   -40.7620     2.1720 
  176.3750    58.4750   245.9510   234.8410   194.8940    24.8320   -40.9330     2.1750 
  176.5000    55.4970   245.8560   233.7350   212.6810    24.8340   -41.0830     2.1800 
  176.6250    54.3500   233.5750   220.1910   224.2810    24.8360   -41.2150     2.1840 
  176.7500    56.2620   212.3420   198.7020   226.4820    24.8360   -41.3120     2.1890 
  176.8750    58.9490   188.2250   176.1000   185.7730    24.8360   -41.3440     2.1980 
  177.0000    60.7830   167.7890   158.3820   128.7090    24.8330   -41.3270     2.2080 
  177.1250    61.0580   156.9160   150.0260   104.5820    24.8180   -41.3160     2.2100 
  177.2500    59.9810   155.3170   149.9430   115.6170    24.7900   -41.3270     2.2000 
  177.3750    59.3110   161.8760   156.9680   146.4990    24.7690   -41.3190     2.1840 
  177.5000    59.9870   174.4320   169.1340   176.4600    24.7610   -41.2660     2.1730 
  177.6250    58.9400   189.7930   183.4180   186.1770    24.7630   -41.1760     2.1700 
  177.7500    56.4020   203.4330   195.7550   194.3760    24.7750   -41.0580     2.1730 
  177.8750    55.8570   212.8390   204.0660   204.2880    24.8020   -40.9680     2.1780 
  178.0000    56.7920   217.5250   208.2810   213.7380    24.8220   -40.9240     2.1840 
  178.1250    56.4280   218.0210   209.2100   211.5230    24.8440   -40.8260     2.1840 
  178.2500    55.1850   216.2020   208.4800   196.1420    24.8960   -40.6070     2.1770 
  178.3750    55.4380   213.0920   207.0370   177.2670    24.9780   -40.3140     2.1670 
  178.5000    56.5900   209.9190   205.9970   167.2340    25.0300   -39.9900     2.1640 
  178.6250    55.9680   208.4400   206.9850   169.4630    25.0430   -39.6360     2.1690 
  178.7500    54.6250   209.7710   211.0160   174.9490    25.0520   -39.2640     2.1950 
  178.8750    54.1460   214.9160   219.3040   184.1390    25.0630   -38.8550     2.2650 
  179.0000    53.3170   224.7150   232.9840   205.2070    25.0390   -38.3670     2.3890 
  179.1250    52.2640   240.9570   254.2650   243.3450    24.8670   -37.7720     2.5230 
  179.2500    51.9890   263.7790   283.0120   279.0450    24.7380   -37.1340     2.5990 
  179.3750    52.2960   294.2910   319.9380   333.2520    24.7270   -36.4590     2.6170 
  179.5000    52.0020   332.7970   365.0570   406.2160    24.7540   -35.7670     2.6210 
  179.6250    51.6490   376.1240   414.8070   490.6460    24.7610   -35.0360     2.6330 
  179.7500    52.1140   412.5910   455.3260   569.8000    24.7610   -34.2650     2.6500 
  179.8750    51.2370   428.7270   468.3940   641.9440    24.7610   -33.4350     2.6700 
  180.0000    49.6670   414.0200   437.8540   665.1100    24.7610   -32.5440     2.6850 
  180.1250    49.3110   352.7690   358.8360   558.6290    24.7610   -31.6280     2.6930 
  180.2500    49.4250   245.8560   275.2170   409.9320    24.7640   -30.7160     2.6930 
  180.3750    49.0970   150.9840   183.4650   304.3740    24.7780   -29.8310     2.6760 
  180.5000    49.1040    85.7430   107.1990   207.8510    24.8230   -28.9860     2.6340 
  180.6250    51.4010    50.5330    61.2180    93.8610    24.8860   -28.1740     2.5590 
  180.7500    52.6110    30.9690    35.7090    37.0380    24.9440   -27.3930     2.4750 
  180.8750    51.5910    20.5030    22.7170    17.1580    24.9650   -26.6620     2.4070 
  181.0000    49.9330    15.1440    16.3770    11.8230    24.9590   -26.0250     2.3710 
  181.1250    48.8960    12.8710    13.5630    11.6490    24.9520   -25.5920     2.3670 
  181.2500    49.6010    11.8900    12.1280    12.1520    24.9680   -25.3360     2.3810 
  181.3750    52.1210    11.4650    11.4040    12.4050    25.0100   -25.1850     2.4020 
  181.5000    54.7910    11.1080    10.9600    12.3020    25.0390   -25.0790     2.4200 
  181.6250    54.0900    10.5690    10.5290    11.1600    25.0740   -25.0380     2.4100 
  181.7500    51.9430     9.9470    10.0670     9.4070    25.1630   -25.0670     2.3730 
  181.8750    51.5810     9.4230     9.6530     8.0500    25.2930   -25.1460     2.3290 
  182.0000    52.1310     9.1390     9.3590     7.6420    25.3810   -25.2440     2.3080 
  182.1250    50.3690     9.1910     9.2360     8.1330    25.4300   -25.3160     2.3240 
  182.2500    48.4620     9.4650     9.2300     8.9640    25.4090   -25.3600     2.3540 
  182.3750    48.1860     9.8290     9.2980     9.2960    25.3590   -25.3770     2.3740 
  182.5000    49.8120    10.1490     9.3970     9.2490    25.3340   -25.3780     2.3820 
  182.6250    53.2760    10.3390     9.5180     9.5280    25.3350   -25.3680     2.3930 
