~V
VERS. 2.00: Ver 2.00
~W
STRT.M 50.0000:
STOP.M 222.0000:
STEP.M 0.1250:
NULL. -999.2500:
UWI. F10145:
~C
DEPT.M :
DEN.GM/CC :
GR.API :
RML.OHMM :
RI. :
RXO.OHMM :
CALI.CM :
SP.MV :
~A
# ...
  117.5000     2.5390    72.4260    10.8410    10.4620    13.6120    24.1250     2.7140 
  117.6250     2.5370    71.5940    10.6630    10.8000    13.3450    24.1290     2.7060 
  117.7500     2.5170    70.5470     9.8660    10.4720    15.4260    24.1300     2.5620 
  117.8750     2.4820    72.3000     8.7050     9.6000    13.6100    24.1540     2.3460 
  118.0000     2.4350    78.1270     7.5080     8.4710     9.1710    24.2240     2.1390 
  118.1250     2.3820    83.6480     6.6180     7.4270     7.2850    24.3450     1.9320 
  118.2500     2.3340    86.8930     6.1750     6.6910     6.4890    24.4160     1.6990 
  118.3750     2.3030    87.4900     6.2650     6.3910     6.5300    24.4390     1.4510 
  118.5000     2.3020    85.6580     6.8980     6.6100     6.7600    24.4220     1.2070 
  118.6250     2.3460    81.5910     7.9850     7.4160     7.3720    24.3420     1.0000 
  118.7500     2.4200    77.0280     9.1090     8.5150    10.0110    24.2310     0.8770 
  118.8750     2.4980    72.3650     9.8880     9.5400    16.8170    24.0730     0.8660 
  119.0000     2.5480    68.2160    10.0540    10.1130    22.3780    23.9330     0.9350 
  119.1250     2.5450    68.8270     9.7110    10.0140    17.1420    23.8590     1.0520 
  119.2500     2.5120    74.5430     9.5860     9.6450     9.8990    23.8550     1.1810 
  119.3750     2.4790    79.9080    10.1910     9.4780     7.6480    23.9270     1.3200 
  119.5000     2.4700    77.5700    11.6950     9.9470     9.3830    23.9570     1.4850 
  119.6250     2.4960    67.5760    14.1670    11.4940    15.3130    23.9620     1.6920 
  119.7500     2.5400    58.3250    17.2600    13.9580    20.2760    23.9490     1.9120 
  119.8750     2.5840    53.8880    20.5180    16.9690    22.7050    23.9370     2.0790 
  120.0000     2.6170    53.6550    23.2510    19.8610    24.9770    23.9240     2.1520 
  120.1250     2.6340    54.4110    24.7690    21.7860    26.2960    23.9150     2.1940 
  120.2500     2.6390    54.2770    25.3260    22.6960    25.0480    23.9120     2.3040 
  120.3750     2.6370    53.4580    25.3870    22.9280    22.7730    23.9170     2.4770 
  120.5000     2.6330    54.1510    25.4270    22.9640    21.9510    23.9250     2.6560 
  120.6250     2.6340    56.0540    25.7360    23.1720    23.8660    23.9310     2.7790 
  120.7500     2.6410    56.7230    26.2190    23.5760    26.4530    23.9390     2.8210 
  120.8750     2.6510    56.1850    26.6720    24.0380    28.4810    23.9530     2.8390 
  121.0000     2.6630    54.8310    26.8660    24.3510    29.3740    23.9720     2.8960 
  121.1250     2.6720    55.0070    26.5570    24.2580    27.5560    23.9630     2.9760 
  121.2500     2.6730    56.8280    25.8270    23.7610    24.4390    23.9160     2.9990 
  121.3750     2.6630    58.3560    24.8380    22.9750    23.3740    23.8560     2.9730 
  121.5000     2.6400    58.0730    23.8080    22.1020    23.1160    23.8420     2.9410 
  121.6250     2.6150    57.0010    22.9640    21.3760    21.9760    23.8060     2.9470 
  121.7500     2.6010    57.8510    22.3570    20.8780    19.8150    23.7910     3.0350 
  121.8750     2.6030    58.6820    21.9450    20.5780    22.8520    23.8230     3.1750 
  122.0000     2.6150    58.3180    21.6270    20.3690    28.6550    23.8990     3.3550 
  122.1250     2.6190    57.5720    21.2770    20.1120    26.8810    23.9370     3.5180 
  122.2500     2.6040    57.3530    20.8440    19.7460    21.2910    23.9240     3.6460 
  122.3750     2.5760    57.9160    20.3460    19.2890    18.5730    23.8940     3.7500 
  122.5000     2.5490    57.6660    19.8440    18.7970    17.2560    23.8930     3.8660 
  122.6250     2.5360    55.2920    19.4100    18.3490    17.1520    23.9290     3.9990 
  122.7500     2.5340    52.7890    19.0440    17.9720    17.7120    23.9640     4.0990 
  122.8750     2.5370    53.4800    18.7120    17.6600    18.5950    24.0220     4.1510 
  123.0000     2.5400    56.7860    18.3810    17.3870    17.1350    24.0770     4.1250 
  123.1250     2.5470    58.8200    18.0520    17.1530    15.5720    24.1290     4.0410 
  123.2500     2.5600    58.1640    17.7690    16.9700    15.1200    24.0910     3.9920 
  123.3750     2.5790    58.0170    17.5800    16.8610    15.6150    24.0100     3.9680 
  123.5000     2.6000    60.9380    17.5280    16.8430    16.4500    23.9490     3.9180 
  123.6250     2.6170    64.6340    17.6660    16.9500    16.1070    23.9110     3.7930 
  123.7500     2.6320    64.6050    17.9540    17.1620    15.9070    23.8750     3.6170 
  123.8750     2.6450    63.2390    18.3290    17.4450    15.6460    23.8410     3.4410 
  124.0000     2.6550    63.6320    18.6890    17.7340    15.6490    23.8490     3.3030 
  124.1250     2.6560    63.1040    18.8850    17.9250    17.5490    23.9480     3.2010 
  124.2500     2.6470    59.7360    18.8720    17.9710    19.8490    24.0630     3.0670 
  124.3750     2.6310    56.3730    18.6730    17.8750    19.5470    24.1720     2.8990 
  124.5000     2.6130    56.1450    18.3750    17.6850    17.7210    24.2220     2.7080 
  124.6250     2.6000    58.9910    18.0950    17.4720    16.3350    24.2110     2.5610 
  124.7500     2.5950    62.0300    17.8830    17.2830    17.0560    24.1610     2.4980 
  124.8750     2.5930    63.1570    17.7090    17.1070    18.9130    24.1080     2.4980 
  125.0000     2.5900    62.0890    17.5120    16.9110    18.8860    24.1210     2.5200 
  125.1250     2.5830    60.1750    17.2520    16.6660    17.3080    24.1250     2.5370 
  125.2500     2.5740    59.3340    17.0050    16.4140    16.2470    24.1300     2.5530 
  125.3750     2.5680    61.2200    16.8880    16.2320    15.2380    24.1270     2.5830 
  125.5000     2.5690    64.4460    17.0010    16.2020    14.5410    24.1320     2.6500 
  125.6250     2.5770    63.6760    17.3880    16.3860    14.5620    24.1120     2.7340 
  125.7500     2.5850    59.4680    17.9030    16.7150    15.9990    24.0780     2.8280 
  125.8750     2.5880    56.1600    18.4230    17.1200    17.7540    24.0380     2.8830 
  126.0000     2.5840    55.6000    18.8700    17.5450    18.5420    23.9840     2.8830 
  126.1250     2.5790    55.0930    19.2420    17.9790    17.6650    23.9690     2.8830 
  126.2500     2.5780    53.8350    19.6350    18.4450    17.8250    23.9790     2.9440 
  126.3750     2.5800    53.1050    20.1250    18.9770    19.8570    24.0010     3.0830 
  126.5000     2.5820    52.9790    20.7360    19.5860    22.9420    24.0050     3.2450 
  126.6250     2.5780    55.7380    21.3890    20.2340    22.5850    23.9750     3.3630 
  126.7500     2.5700    60.0950    21.9100    20.8180    22.0540    23.9960     3.3580 
  126.8750     2.5650    61.6690    22.1570    21.2360    22.0310    24.0210     3.2850 
  127.0000     2.5660    59.1660    22.0580    21.4070    22.4160    24.0830     3.2510 
  127.1250     2.5720    58.9270    21.5950    21.2470    23.2940    24.1160     3.2560 
  127.2500     2.5780    61.8520    20.9170    20.8210    23.0130    24.1480     3.2260 
  127.3750     2.5790    63.4340    20.1210    20.1830    21.0990    24.1790     3.1220 
  127.5000     2.5740    62.6270    19.2920    19.4140    19.6760    24.1880     2.9800 
  127.6250     2.5640    63.0920    18.5400    18.6400    18.4040    24.1650     2.8600 
  127.7500     2.5540    64.6960    17.9490    17.9900    17.0900    24.1860     2.8180 
  127.8750     2.5510    66.1070    17.5790    17.5460    15.3620    24.2050     2.8730 
  128.0000     2.5530    66.2490    17.4410    17.3370    14.6780    24.2260     2.9670 
  128.1250     2.5570    63.0990    17.4940    17.3530    16.3060    24.2750     3.0510 
  128.2500     2.5560    59.9760    17.5710    17.4540    17.6540    24.3190     3.1090 
  128.3750     2.5490    61.3890    17.5250    17.5100    17.7390    24.2750     3.1670 
  128.5000     2.5380    66.1730    17.2470    17.3990    16.0010    24.2110     3.2640 
  128.6250     2.5260    67.4680    16.6940    17.0200    15.9040    24.1970     3.4050 
