~V
VERS. 2.00: Ver 2.00
~W
STRT.M 50.0000:
STOP.M 222.0000:
STEP.M 0.1250:
NULL. -999.2500:
UWI. F10145:
~C
DEPT.M :
DEN.GM/CC :
GR.API :
RML.OHMM :
RI. :
RXO.OHMM :
CALI.CM :
SP.MV :
~A
# ...
  162.5000     2.2480    61.1290   215.2860   216.4300   269.5720    24.6850    -9.6560 
  162.6250     2.2670    65.1840   167.1800   177.8620   122.1800    24.6460    -9.5990 
  162.7500     2.2770    66.5470   143.4790   152.5110    89.0810    24.6730    -9.4780 
  162.8750     2.2730    68.1700   134.0300   138.3350    97.5380    24.8820    -9.4150 
  163.0000     2.2600    70.6790   130.5820   132.3570   112.7060    25.1560    -9.4360 
  163.1250     2.2480    70.7850   131.6440   132.0640   116.0650    25.2170    -9.3430 
  163.2500     2.2460    69.3210   133.8040   133.6170   116.3660    25.0940    -9.0900 
  163.3750     2.2500    69.0860   135.1710   134.9180   142.4200    24.8700    -8.7290 
  163.5000     2.2560    69.9150   134.8660   134.8380   157.0490    24.6230    -8.4260 
  163.6250     2.2560    68.2600   133.1370   133.3370   145.0040    24.3900    -8.2840 
  163.7500     2.2490    65.4280   131.4450   131.6870   120.9940    24.2400    -8.1710 
  163.8750     2.2390    65.2190   130.7360   130.8060   112.0120    24.1290    -7.9650 
  164.0000     2.2300    69.3070   131.2270   131.0210   131.3320    24.0020    -7.6890 
  164.1250     2.2270    74.0310   131.9350   131.6120   148.5650    23.8210    -7.5820 
  164.2500     2.2310    75.5230   130.7990   130.7190   143.4650    23.6960    -7.6400 
  164.3750     2.2400    75.1990   126.0730   126.6150   133.6540    23.6510    -7.7810 
  164.5000     2.2520    75.1360   117.0680   118.4190   117.1190    23.6260    -7.8700 
  164.6250     2.2670    74.4110   104.1990   106.1690   108.1890    23.5970    -7.8020 
  164.7500     2.2830    73.5540    90.0230    92.2200    90.1440    23.5680    -7.7210 
  164.8750     2.2980    75.8530    76.3230    78.3560    69.9070    23.5160    -7.7520 
  165.0000     2.3140    81.0570    64.4850    66.0390    61.4500    23.4900    -7.8250 
  165.1250     2.3250    84.0080    55.6050    56.6870    59.3820    23.5310    -7.7790 
  165.2500     2.3300    84.0810    50.3170    50.2520    47.5950    23.5690    -7.6080 
  165.3750     2.3280    82.4790    49.7030    46.7010    39.5750    23.5720    -7.3300 
  165.5000     2.3220    80.5540    52.9620    45.7460    42.4800    23.5370    -7.0220 
  165.6250     2.3210    83.1050    56.9720    46.9150    50.4920    23.5300    -6.8530 
  165.7500     2.3340    87.9320    58.9920    48.5610    54.7060    23.5410    -6.7800 
  165.8750     2.3640    89.3190    58.3950    49.1510    58.8440    23.5660    -6.6920 
  166.0000     2.4030    84.2210    54.9700    47.3860    70.8420    23.5860    -6.6080 
  166.1250     2.4360    79.3140    48.2700    42.5200    67.9180    23.5600    -6.5910 
  166.2500     2.4530    80.1740    40.2510    36.0570    46.0890    23.5470    -6.6600 
  166.3750     2.4530    85.1960    32.4970    29.4300    28.5050    23.5470    -6.7830 
  166.5000     2.4450    90.4100    26.0580    23.7190    20.9400    23.5470    -6.9060 
  166.6250     2.4390    94.1970    21.5230    19.5890    17.7790    23.5850    -7.0000 
  166.7500     2.4400    98.7320    18.4030    16.7130    15.3710    23.7060    -7.1000 
  166.8750     2.4450   104.5000    16.3630    14.8370    12.9370    23.8900    -7.2440 
  167.0000     2.4510   108.7900    15.0930    13.7050    11.4660    24.0790    -7.3780 
  167.1250     2.4530   109.7710    14.4060    13.1630    11.2760    24.1890    -7.4400 
  167.2500     2.4520   110.4340    14.0280    12.9380    11.5120    24.2140    -7.4560 
  167.3750     2.4520   111.4600    13.8500    12.9080    11.6360    24.2340    -7.5250 
  167.5000     2.4530   109.7020    13.8110    12.9890    11.6580    24.2790    -7.6890 
  167.6250     2.4570   103.3480    13.9020    13.1420    11.5740    24.3080    -7.7970 
  167.7500     2.4610    96.8640    14.0950    13.3360    11.3920    24.2920    -7.7830 
  167.8750     2.4620    94.3600    14.3590    13.5380    11.6760    24.3180    -7.7000 
  168.0000     2.4620    96.3330    14.6190    13.6750    12.5050    24.3600    -7.6440 
  168.1250     2.4610   100.5950    14.7330    13.5940    13.5060    24.3850    -7.6420 
  168.2500     2.4630   104.3170    14.6370    13.2360    13.5500    24.3490    -7.6560 
  168.3750     2.4690   107.4140    14.3830    12.6380    12.3970    24.2690    -7.6030 
  168.5000     2.4800   108.8550    14.2020    11.9790    10.9170    24.2120    -7.4370 
  168.6250     2.4900   108.4800    14.6980    11.6570    10.4220    24.1870    -7.2720 
  168.7500     2.4910   107.9430    16.4980    12.0690    10.7030    24.1740    -7.2330 
  168.8750     2.4780   106.2400    20.3770    13.7310    12.0070    24.1660    -7.2910 
  169.0000     2.4480   102.7420    27.1150    17.3500    16.2280    24.1910    -7.3780 
  169.1250     2.4030    95.2990    37.9800    24.3790    31.1590    24.2400    -7.4190 
  169.2500     2.3560    86.2010    51.5430    34.7890    62.7080    24.3200    -7.4460 
  169.3750     2.3180    78.6360    65.2120    47.5440    98.3330    24.4020    -7.5510 
  169.5000     2.2960    74.8360    75.9650    59.9560   101.3650    24.4640    -7.7210 
  169.6250     2.2930    78.9050    80.9520    67.8210    90.7070    24.4660    -7.9010 
  169.7500     2.3010    85.2650    81.0940    70.2920    80.7810    24.4070    -8.0350 
  169.8750     2.3140    87.7500    77.9620    68.6330    70.3290    24.2980    -8.1260 
  170.0000     2.3260    86.0470    73.7000    65.1520    65.7870    24.2250    -8.2130 
  170.1250     2.3340    83.2840    70.2600    61.7980    62.4680    24.2290    -8.3580 
  170.2500     2.3410    81.6220    67.8540    59.1860    58.9900    24.3010    -8.5270 
  170.3750     2.3490    79.1380    66.1920    57.2160    50.4100    24.3970    -8.6800 
  170.5000     2.3570    78.5220    65.0470    55.7220    45.4980    24.4440    -8.8660 
  170.6250     2.3640    81.0310    64.6280    54.8220    47.7550    24.4640    -9.1150 
  170.7500     2.3650    82.2810    65.3220    54.7600    50.3010    24.4820    -9.3770 
  170.8750     2.3590    81.7130    67.7930    56.0470    49.8800    24.4920    -9.5620 
  171.0000     2.3460    82.1390    72.7730    59.3260    52.3540    24.4930    -9.6430 
  171.1250     2.3310    82.1790    81.5580    65.8480    63.7320    24.4910    -9.6770 
  171.2500     2.3180    77.9870    94.0650    75.7660    80.2020    24.4850    -9.7240 
  171.3750     2.3070    73.3130   110.1540    89.1370    89.9500    24.4690    -9.7510 
  171.5000     2.2990    72.6640   128.8490   105.2280    95.0580    24.4340    -9.7140 
  171.6250     2.2910    74.3640   147.7540   122.1500   113.4880    24.3980    -9.6010 
  171.7500     2.2820    73.1130   163.6000   137.0530   151.7070    24.4150    -9.4910 
  171.8750     2.2700    70.3800   173.9570   147.7670   181.1670    24.4820    -9.5260 
  172.0000     2.2570    70.9010   177.5160   153.0950   181.3510    24.5540    -9.6750 
  172.1250     2.2450    73.1480   174.6050   152.4430   162.9580    24.6100    -9.8240 
  172.2500     2.2400    72.0150   169.7350   148.2110   150.0940    24.6510    -9.9500 
  172.3750     2.2460    69.1970   164.8240   142.1590   149.2350    24.7000   -10.1050 
  172.5000     2.2610    68.1900   159.6120   135.8320   136.1360    24.7440   -10.3410 
  172.6250     2.2800    68.9960   153.6940   130.5410   121.8830    24.7420   -10.6030 
  172.7500     2.2960    68.3420   148.4850   126.6590   119.4130    24.7300   -10.8170 
  172.8750     2.3060    66.5480   144.9160   124.1140   123.6630    24.7480   -10.9620 
  173.0000     2.3090    66.4760   142.3750   122.4510   122.9450    24.7550   -11.1440 
  173.1250     2.3090    69.0190   140.1270   121.0310   118.2830    24.6540   -11.3650 
  173.2500     2.3050    73.0380   137.9160   119.4580   117.0080    24.5660   -11.5450 
  173.3750     2.3000    75.6630   136.2300   118.0140   113.7660    24.5370   -11.6370 
  173.5000     2.2930    75.1840   136.0200   117.4950   104.6390    24.5100   -11.7000 
  173.6250     2.2860    75.5530   138.7180   119.2460   100.1340    24.4860   -11.8620 
