~V
VERS. 2.00: Ver 2.00
~W
STRT.M 50.0000:
STOP.M 251.0000:
STEP.M 0.1250:
NULL. -999.2500:
UWI. F10193:
~C
DEPT.M :
DEN.GM/CC :
GR.API :
RML.OHMM :
RI. :
RXO.OHMM :
CALI.CM :
SP.MV :
~A
# ...
   72.5000     2.1660    67.0510    10.4280     7.7980     7.9660    25.8710   -24.5410 
   72.6250     2.1460    61.5620    10.4400     7.8490     7.8930    25.8690   -25.3830 
   72.7500     2.1360    59.3120    10.1840     7.7170     8.4770    25.8370   -26.1250 
   72.8750     2.1350    60.3190     9.7670     7.4600     9.0430    25.7460   -26.7410 
   73.0000     2.1370    60.3680     9.3340     7.1640     9.3550    25.6100   -27.2230 
   73.1250     2.1360    58.8300     9.0700     6.9410     9.6230    25.5060   -27.5700 
   73.2500     2.1250    59.5300     9.0940     6.8790     9.9880    25.4980   -27.8430 
   73.3750     2.1050    62.4200     9.4960     7.0520    10.3540    25.5850   -28.0890 
   73.5000     2.0960    62.4360    10.2900     7.4950    10.8150    25.7200   -28.3230 
   73.6250     2.1370    57.9190    11.3830     8.1920    11.1640    25.8450   -28.5130 
   73.7500     2.2380    55.1160    12.4040     8.9260    11.2110    25.9320   -28.6190 
   73.8750     2.3660    55.6290    12.9540     9.4300    11.0480    25.9820   -28.6100 
   74.0000     2.4440    58.4970    12.7250     9.4510    10.8120    26.0060   -28.4830 
   74.1250     2.4150    60.8410    11.6950     8.8820    10.4140    26.0000   -28.2430 
   74.2500     2.3400    62.3310    10.4820     8.0810     9.8610    25.9490   -27.9510 
   74.3750     2.2680    62.6370     9.5400     7.3440     9.5980    25.8350   -27.6510 
   74.5000     2.2210    62.4610     9.0950     6.8620     9.7760    25.6600   -27.3900 
   74.6250     2.1980    63.0970     9.1860     6.7340    10.1410    25.4400   -27.2110 
   74.7500     2.1870    62.9640     9.5030     6.8240    10.4380    25.2330   -27.1070 
   74.8750     2.1830    61.3460     9.7930     6.9960    10.6560    25.1090   -27.0470 
   75.0000     2.1870    60.1400     9.8860     7.1190    10.8900    25.1000   -26.9920 
   75.1250     2.1930    60.6250     9.7410     7.1130    11.1380    25.1820   -26.8960 
   75.2500     2.1930    61.6070     9.4980     7.0170    11.0950    25.2910   -26.7500 
   75.3750     2.1880    62.7100     9.2580     6.8850    10.7420    25.3940   -26.5600 
   75.5000     2.1790    64.1310     9.0870     6.7670    10.4850    25.4580   -26.3390 
   75.6250     2.1710    65.2180     9.0200     6.7050    10.2180    25.4700   -26.0890 
   75.7500     2.1650    65.2360     9.0170     6.6890    10.2300    25.4670   -25.8030 
   75.8750     2.1570    65.4340     9.0370     6.6940    10.3620    25.4660   -25.4740 
   76.0000     2.1480    65.7280     9.0400     6.6910    10.6020    25.4690   -25.1040 
   76.1250     2.1390    65.2740     8.9920     6.6500    10.7390    25.4640   -24.7140 
   76.2500     2.1330    64.4970     8.9020     6.5720    10.4180    25.4460   -24.3290 
   76.3750     2.1310    64.3080     8.7880     6.4690    10.0590    25.4220   -23.9630 
   76.5000     2.1310    65.1820     8.6690     6.3560     9.8040    25.3790   -23.6270 
   76.6250     2.1370    65.8880     8.5670     6.2510     9.6910    25.2910   -23.3420 
   76.7500     2.1460    65.0140     8.4930     6.1620     9.4780    25.1550   -23.1140 
   76.8750     2.1560    64.7860     8.4560     6.0930     9.2760    24.9760   -22.9470 
   77.0000     2.1610    67.1720     8.4500     6.0440     9.2160    24.7970   -22.8300 
   77.1250     2.1580    68.9150     8.4640     6.0140     9.3640    24.6880   -22.7490 
   77.2500     2.1500    67.1140     8.4740     5.9920     9.6270    24.6600   -22.6960 
   77.3750     2.1420    64.4670     8.4600     5.9710    10.0880    24.6670   -22.6850 
   77.5000     2.1410    63.7210     8.4120     5.9390    10.4260    24.6650   -22.7300 
   77.6250     2.1540    64.5150     8.3580     5.9030    10.5220    24.6650   -22.8310 
   77.7500     2.1780    67.0300     8.3690     5.9010    10.5740    24.6980   -22.9490 
   77.8750     2.2060    70.4610     8.5120     5.9750    10.6550    24.7780   -23.0500 
   78.0000     2.2230    71.4010     8.8130     6.1460    10.9050    24.8890   -23.1110 
   78.1250     2.2170    68.9300     9.2460     6.4150    12.2620    24.9840   -23.1230 
   78.2500     2.1900    67.8990     9.6630     6.7000    15.2380    25.0420   -23.1050 
   78.3750     2.1550    67.4550     9.9230     6.9140    17.6330    25.0660   -23.0690 
   78.5000     2.1280    65.6960     9.9290     6.9830    14.9190    25.0690   -23.0190 
   78.6250     2.1270    66.1540     9.6890     6.8730    12.1510    25.0640   -22.9550 
   78.7500     2.1440    69.6410     9.3870     6.6770    11.0940    25.0660   -22.8760 
   78.8750     2.1700    72.2410     9.1520     6.4770    10.9150    25.1180   -22.7720 
   79.0000     2.1870    71.2320     9.0440     6.3270    10.9080    25.2450   -22.6290 
   79.1250     2.1870    67.5310     9.0430     6.2450    10.9220    25.3870   -22.4260 
   79.2500     2.1790    63.7980     9.0400     6.1860    10.8330    25.4600   -22.1780 
   79.3750     2.1710    62.2100     8.9770     6.1180    10.6430    25.4690   -21.9080 
   79.5000     2.1690    64.2530     8.8560     6.0310    10.1570    25.4750   -21.6500 
   79.6250     2.1730    66.1190     8.7480     5.9540     9.5110    25.5230   -21.4410 
   79.7500     2.1790    66.9550     8.7180     5.9250     9.1630    25.5980   -21.2900 
   79.8750     2.1850    70.1250     8.7840     5.9610     9.3400    25.6870   -21.2040 
   80.0000     2.1880    74.6260     8.9200     6.0540     9.6750    25.7580   -21.1820 
   80.1250     2.1830    74.3970     9.0430     6.1700    10.3510    25.7770   -21.2220 
   80.2500     2.1730    70.4460     9.0590     6.2550    11.0810    25.7600   -21.2810 
   80.3750     2.1590    66.5020     8.9210     6.2760    10.9290    25.7280   -21.3070 
   80.5000     2.1470    63.8730     8.6580     6.2380    10.4380    25.6880   -21.2530 
   80.6250     2.1400    63.8850     8.3810     6.1840    10.1500    25.6360   -21.0460 
   80.7500     2.1390    66.9640     8.2100     6.1730    10.0400    25.5770   -20.6750 
   80.8750     2.1440    71.3460     8.1990     6.2390    10.0380    25.5220   -20.1310 
   81.0000     2.1550    73.5930     8.3410     6.3900    10.0920    25.4680   -19.4150 
   81.1250     2.1710    71.8710     8.5730     6.6010    10.1200    25.4100   -18.5050 
   81.2500     2.1880    68.2790     8.7670     6.7850    10.1260    25.3280   -17.4320 
   81.3750     2.2070    65.9930     8.8220     6.8610    10.1220    25.2180   -16.1880 
   81.5000     2.2270    68.9020     8.6760     6.7600    10.1600    25.1290   -14.7540 
   81.6250     2.2490    77.5340     8.2860     6.4290     9.6220    25.1250   -13.0920 
   81.7500     2.2740    87.5620     7.7390     5.9490     8.1690    25.2180   -11.2800 
   81.8750     2.2970    98.8790     7.1280     5.3990     6.2920    25.3960    -9.4270 
   82.0000     2.3140   109.5780     6.5450     4.8610     5.1780    25.6300    -7.6980 
   82.1250     2.3210   112.3610     6.0590     4.4040     5.0090    25.9430    -6.3340 
   82.2500     2.3190   108.2530     5.7020     4.0650     4.9240    26.4620    -5.3940 
   82.3750     2.3120   104.2470     5.5650     3.9050     4.8140    27.2290    -4.8710 
   82.5000     2.3070   105.0290     5.8120     4.0160     4.9410    27.9960    -4.6910 
   82.6250     2.3220   105.0750     6.8900     4.6330     5.7490    28.3270    -4.7950 
   82.7500     2.3650    97.6730     9.1560     5.9520     8.8480    28.2240    -5.0740 
   82.8750     2.4350    85.1220    13.0100     8.2930    17.8340    27.8580    -5.5100 
   83.0000     2.5230    74.7380    18.5190    11.9090    29.5380    27.3830    -6.1040 
   83.1250     2.6120    69.3870    24.6930    16.6060    33.6960    26.8940    -6.8990 
   83.2500     2.6730    65.0380    28.8310    20.5600    37.4380    26.4970    -7.8900 
   83.3750     2.6740    61.0880    28.7900    21.7930    41.6380    26.2430    -9.0910 
   83.5000     2.6060    60.4610    24.8920    19.9040    35.9900    26.1300   -10.4980 
   83.6250     2.4880    62.9550    19.7020    16.4300    25.0540    26.1290   -12.0760 
