~V
VERS. 2.00: Ver 2.00
~W
STRT.M 63.0000:
STOP.M 207.0000:
STEP.M 0.1250:
NULL. -999.2500:
UWI. F10132:
~C
DEPT.M :
SP.MV :
DEN.GM/CC :
GR.API :
RML.OHMM :
RI. :
RXO.OHMM :
CALI.CM :
~A
# ...
   85.5000   -40.8910     2.2190    66.9900     9.0580     6.7390     6.1250    23.2360 
   85.6250   -40.4330     2.1960    69.2520     8.5830     6.4410     6.0600    23.2810 
   85.7500   -40.0780     2.1690    71.4750     8.2290     6.2630     5.9230    23.3460 
   85.8750   -39.8330     2.1470    74.1220     7.9860     6.1940     5.7670    23.3650 
   86.0000   -39.6860     2.1280    75.8220     7.8120     6.2160     5.5960    23.3180 
   86.1250   -39.6400     2.1110    76.3460     7.6640     6.2850     5.5100    23.4230 
   86.2500   -39.6700     2.0960    77.1000     7.5250     6.3020     5.3800    23.8420 
   86.3750   -39.7690     2.0850    76.4080     7.4350     6.2040     5.2920    24.3070 
   86.5000   -39.9200     2.0830    73.1950     7.4560     6.0340     5.2420    24.3980 
   86.6250   -40.1170     2.0900    69.9980     7.6570     5.9360     5.2570    24.0550 
   86.7500   -40.3290     2.0990    69.8280     7.9870     6.0060     5.3650    23.7580 
   86.8750   -40.5310     2.1040    71.9560     8.3690     6.2310     5.4720    23.6670 
   87.0000   -40.7050     2.1040    73.5080     8.6920     6.4990     5.5910    23.6260 
   87.1250   -40.7990     2.1020    71.2300     8.8390     6.6890     5.6650    23.5140 
   87.2500   -40.7860     2.1040    67.1850     8.8360     6.7940     5.7370    23.3920 
   87.3750   -40.6590     2.1120    65.6960     8.7580     6.8520     5.8240    23.3070 
   87.5000   -40.4370     2.1260    68.4810     8.7090     6.8820     5.8760    23.2510 
   87.6250   -40.1550     2.1400    71.1150     8.8580     6.8970     6.0030    23.1950 
   87.7500   -39.8590     2.1490    68.8470     9.3760     7.0220     6.1790    23.1430 
   87.8750   -39.5610     2.1570    64.7080    10.4810     7.4580     6.5410    23.1150 
   88.0000   -39.2560     2.1820    63.7300    12.3190     8.3960     7.0700    23.1320 
   88.1250   -38.9200     2.2450    65.1300    14.8030     9.9060     7.8030    23.2400 
   88.2500   -38.5590     2.3330    65.2830    17.0820    11.4670     8.6850    23.5000 
   88.3750   -38.1740     2.4110    66.3370    18.0570    12.3840     9.5410    23.9020 
   88.5000   -37.7900     2.4480    71.5120    16.8580    12.0480    10.2910    24.2980 
   88.6250   -37.4520     2.4320    78.9420    13.6390    10.3930    10.5130    24.4910 
   88.7500   -37.2130     2.3950    84.8410    10.2510     8.4280     9.8110    24.5260 
   88.8750   -37.1180     2.3570    89.7580     7.7470     6.7840     7.9180    24.5240 
   89.0000   -37.1970     2.3270    92.5750     6.4420     5.7500     5.8700    24.5260 
   89.1250   -37.4790     2.3050    90.8170     6.3740     5.4810     5.1810    24.3720 
   89.2500   -37.9190     2.2870    85.4320     7.0970     5.7770     5.6130    23.9760 
   89.3750   -38.4780     2.2670    78.3820     8.2880     6.4880     7.7950    23.4410 
   89.5000   -39.1030     2.2420    72.9790     9.5350     7.3810     9.4130    23.0060 
   89.6250   -39.7340     2.2080    71.5750    10.3260     8.1200     8.7860    22.8410 
   89.7500   -40.3200     2.1730    72.1340    10.5510     8.5020     7.6960    22.8120 
   89.8750   -40.8410     2.1440    71.2720    10.3660     8.5140     7.3840    22.8150 
   90.0000   -41.2730     2.1280    69.3400    10.0650     8.3000     7.4300    22.8180 
   90.1250   -41.6060     2.1260    69.5070     9.9290     8.0940     7.5210    22.8180 
   90.2500   -41.8600     2.1320    71.0070     9.9950     8.0260     7.6230    22.8170 
   90.3750   -42.0450     2.1430    71.1000    10.1820     8.0600     7.7160    22.8140 
   90.5000   -42.1790     2.1560    68.5330    10.3830     8.0650     7.7510    22.8110 
   90.6250   -42.2600     2.1650    66.1760    10.5080     7.9260     7.7350    22.8080 
   90.7500   -42.2920     2.1690    67.7080    10.5520     7.7290     7.6720    22.8100 
   90.8750   -42.2730     2.1700    70.7580    10.5320     7.6000     7.5510    22.8120 
   91.0000   -42.2070     2.1700    70.9800    10.4870     7.6200     7.4040    22.8120 
   91.1250   -42.0940     2.1730    67.6160    10.4580     7.7430     7.2220    22.8150 
   91.2500   -41.9250     2.1780    65.1960    10.4460     7.8350     7.0410    22.8180 
   91.3750   -41.6940     2.1830    66.1820    10.4320     7.8380     6.9920    22.7970 
   91.5000   -41.4060     2.1840    68.1990    10.3870     7.7370     7.0820    22.7170 
   91.6250   -41.0840     2.1810    66.7700    10.2940     7.5550     7.2770    22.5920 
   91.7500   -40.7760     2.1740    62.9320    10.1840     7.3710     7.2380    22.4850 
   91.8750   -40.5080     2.1650    60.8390    10.0940     7.2390     7.1120    22.4220 
   92.0000   -40.3000     2.1560    62.5290    10.0660     7.1850     7.0720    22.4240 
   92.1250   -40.1790     2.1510    65.3580    10.1450     7.1910     7.1150    22.5060 
   92.2500   -40.1290     2.1510    66.1350    10.2900     7.1870     7.2100    22.6150 
   92.3750   -40.1330     2.1560    65.9210    10.4150     7.0990     7.2820    22.7040 
   92.5000   -40.1520     2.1630    66.6350    10.4110     6.8810     7.2920    22.7640 
   92.6250   -40.1150     2.1690    69.0980    10.1670     6.5680     7.1760    22.8500 
   92.7500   -39.9990     2.1710    71.1910     9.7580     6.3040     6.8060    23.0220 
   92.8750   -39.8130     2.1690    71.9550     9.3150     6.2010     6.3180    23.3360 
   93.0000   -39.5740     2.1650    72.4290     8.9950     6.3000     6.1310    23.7460 
   93.1250   -39.2920     2.1610    71.9310     8.9490     6.5950     6.4750    24.0520 
   93.2500   -38.9770     2.1580    70.1210     9.1510     6.9540     6.9340    24.1130 
   93.3750   -38.6280     2.1580    69.1590     9.5560     7.2850     7.2200    23.9670 
   93.5000   -38.2490     2.1620    71.3280    10.0810     7.5510     7.3160    23.7680 
   93.6250   -37.8270     2.1750    73.4380    10.5760     7.7990     7.3850    23.6570 
   93.7500   -37.3430     2.1940    72.2830    10.8410     8.0500     7.6580    23.6230 
   93.8750   -36.7640     2.2130    68.9770    10.6930     8.1980     7.8960    23.6280 
   94.0000   -36.0800     2.2310    66.7600    10.0420     8.0610     8.1220    23.7070 
   94.1250   -35.3020     2.2430    69.4250     8.9210     7.4730     7.3240    24.0040 
   94.2500   -34.4880     2.2510    75.0390     7.6920     6.6230     5.8430    24.4970 
   94.3750   -33.6810     2.2590    82.3620     6.6340     5.7400     4.6140    25.0240 
   94.5000   -32.9190     2.2680    90.0100     5.9090     5.0220     4.1570    25.3870 
   94.6250   -32.2610     2.2730    96.6270     5.5730     4.6050     4.3290    25.4990 
   94.7500   -31.7180     2.2740   100.3270     5.4500     4.3970     4.5470    25.5040 
   94.8750   -31.2920     2.2760   101.0900     5.4050     4.3010     4.7420    25.4970 
   95.0000   -30.9740     2.2840   102.3580     5.3390     4.2390     4.6380    25.5190 
   95.1250   -30.7740     2.3020   104.5260     5.2270     4.1850     4.2490    25.5740 
   95.2500   -30.6830     2.3160   106.2420     5.1580     4.1460     4.0910    25.6410 
   95.3750   -30.7130     2.3160   106.4570     5.2170     4.1400     4.1740    25.7170 
   95.5000   -30.8700     2.2990   103.9420     5.4510     4.2110     4.3620    25.8130 
   95.6250   -31.1620     2.2720    99.7930     5.8630     4.4730     4.7310    25.9010 
   95.7500   -31.5600     2.2480    97.7860     6.3360     4.9310     5.2740    25.9430 
   95.8750   -32.0380     2.2340    99.5750     6.7600     5.5180     5.8520    25.9760 
   96.0000   -32.5470     2.2270   100.9040     7.0390     6.0680     6.3110    26.0540 
   96.1250   -33.0170     2.2250    95.3580     7.1140     6.3310     6.4370    26.1620 
   96.2500   -33.4050     2.2260    86.7840     7.0760     6.3130     6.3480    26.2320 
   96.3750   -33.6960     2.2350    81.2690     7.0170     6.1320     6.0140    26.2560 
   96.5000   -33.8940     2.2500    81.1300     7.0200     5.9460     5.7910    26.2630 
   96.6250   -34.0120     2.2640    83.3000     7.1470     5.8790     5.9950    26.2600 
