~V
VERS. 2.00: Ver 2.00
~W
STRT.M 56.0000:
STOP.M 352.0000:
STEP.M 0.1250:
NULL. -999.2500:
UWI. F10109:
~C
DEPT.M :
DEN.GM/CC :
SP.MV :
GR.API :
RML.OHMM :
RI. :
RXO.OHMM :
CALI.CM :
~A
# ...
  168.5000     2.3910    -1.5730    79.0280     6.8190     6.2870     8.6700    25.3340 
  168.6250     2.3600    -2.0970    82.1640     6.2900     5.8890     6.8940    25.2790 
  168.7500     2.3310    -2.7000    83.6250     5.8000     5.4600     5.4770    25.2410 
  168.8750     2.3060    -3.3580    83.3580     5.5150     5.1470     4.9910    25.2040 
  169.0000     2.2830    -4.0830    82.8300     5.5070     5.0370     4.9030    25.1780 
  169.1250     2.2590    -4.9030    82.7420     5.7840     5.1760     4.9590    25.1330 
  169.2500     2.2330    -5.8030    78.7690     6.2030     5.4690     5.2600    24.9930 
  169.3750     2.2100    -6.7560    72.4710     6.6490     5.8350     5.7300    24.7230 
  169.5000     2.1940    -7.7190    69.3350     7.0230     6.1890     6.3780    24.3430 
  169.6250     2.1890    -8.6290    71.6110     7.2260     6.4410     7.0420    24.0340 
  169.7500     2.1920    -9.4840    72.7680     7.2700     6.5760     7.2360    23.9070 
  169.8750     2.1980   -10.2960    70.8430     7.2020     6.6070     7.0990    23.9120 
  170.0000     2.2040   -11.0270    70.4410     7.0970     6.5770     6.9120    23.9130 
  170.1250     2.2060   -11.6100    73.9500     7.0350     6.5410     7.0800    23.8640 
  170.2500     2.2030   -12.0580    75.4520     7.0470     6.5390     7.0200    23.7760 
  170.3750     2.1980   -12.4070    74.1820     7.1160     6.5770     6.9940    23.6370 
  170.5000     2.1900   -12.6970    72.6930     7.1970     6.6400     7.1830    23.4880 
  170.6250     2.1810   -12.9370    73.9560     7.2260     6.6870     7.8270    23.4380 
  170.7500     2.1730   -13.1470    75.2950     7.1840     6.6910     8.7120    23.4720 
  170.8750     2.1650   -13.3450    72.8070     7.0850     6.6440     8.7340    23.5290 
  171.0000     2.1600   -13.5270    68.8390     6.9680     6.5630     7.2440    23.5780 
  171.1250     2.1570   -13.6550    67.9900     6.8900     6.4810     6.3590    23.6040 
  171.2500     2.1570   -13.7680    70.8670     6.8690     6.4270     6.1760    23.5930 
  171.3750     2.1580   -13.8510    73.2810     6.8950     6.4010     6.3570    23.5870 
  171.5000     2.1590   -13.8150    71.9270     6.9400     6.3830     6.6370    23.5900 
  171.6250     2.1590   -13.6420    70.0730     6.9580     6.3320     6.9630    23.5660 
  171.7500     2.1570   -13.3800    69.6890     6.9100     6.2160     7.0130    23.5280 
  171.8750     2.1540   -13.0160    69.8290     6.7770     6.0290     6.8130    23.4930 
  172.0000     2.1510   -12.5430    69.4780     6.5730     5.7960     6.6060    23.4430 
  172.1250     2.1530   -11.9640    68.5830     6.4190     5.6140     6.6010    23.3920 
  172.2500     2.1670   -11.2620    66.6740     6.5980     5.6380     6.9100    23.3840 
  172.3750     2.2020   -10.4290    64.6850     7.4470     6.0650     7.6320    23.4340 
  172.5000     2.2640    -9.5420    65.4710     9.3500     7.1480     9.2520    23.5460 
  172.6250     2.3540    -8.6370    67.9040    12.9050     9.4300    12.9300    23.8050 
  172.7500     2.4510    -7.7100    67.6160    18.0670    13.1430    19.5760    24.1750 
  172.8750     2.5320    -6.8030    65.2080    24.3420    18.4670    30.6360    24.5740 
  173.0000     2.5780    -5.9590    63.5890    31.3220    25.1000    43.7000    24.9300 
  173.1250     2.5800    -5.2120    63.2930    37.2830    31.7860    50.6850    25.1080 
  173.2500     2.5620    -4.6060    63.6860    40.4400    36.4970    54.6550    25.1440 
  173.3750     2.5370    -4.1780    64.6860    39.6030    37.5650    60.1010    25.1220 
  173.5000     2.5150    -3.8780    66.8280    34.8350    34.4530    61.1390    25.0880 
  173.6250     2.4950    -3.7090    68.5530    27.5120    28.0340    44.6420    25.0140 
  173.7500     2.4720    -3.6820    67.7920    20.2250    21.0720    28.7110    24.8770 
  173.8750     2.4440    -3.7660    67.4870    14.2600    15.0810    19.4120    24.6970 
  174.0000     2.4140    -3.9280    71.1290    10.0540    10.6650    12.8390    24.4490 
  174.1250     2.3890    -4.1930    78.5650     7.6780     7.9870     7.1680    24.1390 
  174.2500     2.3730    -4.5600    84.1430     6.4300     6.4300     5.2380    23.8690 
  174.3750     2.3650    -5.0050    86.2130     5.9490     5.6760     4.7250    23.6610 
  174.5000     2.3600    -5.5580    86.8980     5.9730     5.4830     4.6500    23.5390 
  174.6250     2.3520    -6.2680    84.0400     6.3360     5.7080     4.7790    23.5390 
  174.7500     2.3350    -7.1140    79.4150     6.8230     6.1330     5.1500    23.5740 
  174.8750     2.3120    -8.0970    75.5300     7.3110     6.6340     5.6000    23.5660 
  175.0000     2.2850    -9.1630    73.9960     7.7020     7.1050     6.0990    23.5130 
  175.1250     2.2620   -10.2810    73.1240     7.9100     7.4370     6.6930    23.4610 
  175.2500     2.2460   -11.3750    69.3400     7.9660     7.6190     7.3410    23.3950 
  175.3750     2.2400   -12.4020    65.7710     7.9560     7.6910     8.0660    23.3140 
  175.5000     2.2430   -13.2950    66.0540     8.0340     7.7640     8.7160    23.2690 
  175.6250     2.2560   -14.0090    68.8760     8.4440     8.0270     9.1390    23.3120 
  175.7500     2.2770   -14.5580    69.8480     9.2780     8.5900     9.5190    23.4740 
  175.8750     2.3030   -14.9170    68.9670    10.5510     9.5050    10.3020    23.7970 
  176.0000     2.3290   -15.1210    69.2430    12.1620    10.7380    11.9320    24.2150 
  176.1250     2.3500   -15.1610    68.7180    13.8770    12.1610    14.7330    24.5330 
  176.2500     2.3650   -15.0970    66.0930    15.3930    13.5190    17.0030    24.6950 
  176.3750     2.3760   -14.9620    62.4850    16.5310    14.6280    17.7000    24.7800 
  176.5000     2.3860   -14.8050    59.6510    17.2550    15.3970    17.5830    24.8150 
  176.6250     2.3990   -14.6470    58.4860    17.6510    15.8410    17.6740    24.7950 
  176.7500     2.4120   -14.4950    58.8720    17.9580    16.1560    18.1830    24.7400 
  176.8750     2.4260   -14.3320    61.2970    18.2840    16.4570    18.7010    24.6440 
  177.0000     2.4390   -14.1470    65.5760    18.6640    16.8000    18.8420    24.5220 
  177.1250     2.4490   -14.0020    68.6300    19.1110    17.2070    19.0250    24.3850 
  177.2500     2.4570   -13.8980    67.6890    19.6480    17.6850    19.8180    24.2430 
  177.3750     2.4630   -13.7890    63.8210    20.3460    18.2720    20.8670    24.1210 
  177.5000     2.4690   -13.6830    61.3380    21.2750    19.0170    22.0510    24.0620 
  177.6250     2.4750   -13.6200    63.6060    22.4520    19.9700    23.2160    24.0560 
  177.7500     2.4780   -13.5440    67.0550    23.6660    21.0290    23.5040    24.0520 
  177.8750     2.4760   -13.4380    67.6530    24.6440    22.0280    24.6120    24.0990 
  178.0000     2.4670   -13.3340    65.6350    25.1000    22.7530    26.9160    24.2280 
  178.1250     2.4520   -13.2300    64.7800    24.7750    22.9260    29.3200    24.3510 
  178.2500     2.4350   -13.1070    64.9370    23.9170    22.6090    29.0060    24.4030 
  178.3750     2.4210   -13.0040    62.9900    22.8610    21.9830    26.2480    24.4400 
  178.5000     2.4110   -12.9060    60.1940    21.9690    21.3190    23.4140    24.4840 
  178.6250     2.4070   -12.7750    60.8670    21.5400    20.8980    22.3820    24.5100 
  178.7500     2.4080   -12.6860    64.5570    21.4920    20.7600    23.2750    24.4910 
  178.8750     2.4140   -12.6500    68.8260    21.6490    20.8180    24.8130    24.4300 
  179.0000     2.4240   -12.6210    71.9680    21.7800    20.9070    26.0630    24.3730 
  179.1250     2.4330   -12.5880    72.5650    21.6530    20.8240    27.1650    24.3630 
  179.2500     2.4370   -12.5590    70.0210    21.2790    20.5300    27.7060    24.3730 
  179.3750     2.4340   -12.4910    65.4360    20.7900    20.1110    25.2210    24.3770 
  179.5000     2.4260   -12.3710    62.7060    20.4050    19.7370    22.4330    24.4000 
  179.6250     2.4190   -12.2020    63.0880    20.4660    19.6890    20.7060    24.4320 
