~V
VERS. 2.00: Ver 2.00
~W
STRT.M 52.0000:
STOP.M 224.0000:
STEP.M 0.1250:
NULL. -999.2500:
UWI. F10155:
~C
DEPT.M :
SP.MV :
GR.API :
RML.OHMM :
RI. :
RXO.OHMM :
CALI.CM :
DEN.GM/CC :
~A
# ...
   63.2500   -18.7700   101.3360     7.7910     6.7090     7.8490    23.5440     2.2490 
   63.3750   -17.2870   114.2530     7.0010     5.9780     5.4470    23.6960     2.2770 
   63.5000   -15.5800   122.5500     6.4110     5.3700     4.4890    23.9380     2.3080 
   63.6250   -13.9480   122.1800     6.0910     4.9720     4.1920    24.1150     2.3370 
   63.7500   -12.4750   115.2650     6.0080     4.7860     4.2650    24.1950     2.3570 
   63.8750   -11.1430   108.5220     6.0640     4.7590     4.3590    24.2260     2.3640 
   64.0000    -9.9550   109.7660     6.1280     4.7960     4.2990    24.2430     2.3520 
   64.1250    -8.9980   113.5810     6.1090     4.8000     4.1270    24.4810     2.3310 
   64.2500    -8.4010   113.8420     6.0080     4.7510     3.9780    25.0050     2.3120 
   64.3750    -8.2030   111.9220     5.9030     4.6920     4.0450    25.3980     2.3060 
   64.5000    -8.3470   112.9730     5.9420     4.7300     4.2420    25.3410     2.3190 
   64.6250    -8.7110   117.4600     6.2160     4.9370     4.4520    25.1960     2.3360 
   64.7500    -9.3270   118.1370     6.7640     5.3580     4.7720    25.0810     2.3410 
   64.8750   -10.2670   109.6570     7.5540     5.9870     5.4780    24.9900     2.3230 
   65.0000   -11.5980    94.7750     8.4680     6.7640     6.0910    25.2590     2.2820 
   65.1250   -13.1640    80.0870     9.2880     7.5110     6.6460    25.5580     2.2360 
   65.2500   -14.8080    69.8930     9.8560     8.0710     6.8020    25.8160     2.2020 
   65.3750   -16.3970    66.4110    10.0990     8.3460     6.7460    25.9490     2.1860 
   65.5000   -17.8320    67.7120    10.0150     8.3040     6.7430    25.9890     2.1860 
   65.6250   -19.1360    68.3780     9.7690     8.0880     6.8110    26.0760     2.1900 
   65.7500   -20.3010    68.4310     9.4540     7.7860     6.8410    26.2460     2.1900 
   65.8750   -21.2750    71.8480     9.1440     7.4560     6.7290    26.3660     2.1780 
   66.0000   -22.0330    76.0210     8.9520     7.1810     6.6990    26.4870     2.1490 
   66.1250   -22.6590    75.5340     9.0020     7.0690     6.7930    26.5640     2.1170 
   66.2500   -23.1960    72.3290     9.4350     7.2280     7.0050    26.3980     2.1100 
   66.3750   -23.6680    71.0300    10.3430     7.7430     7.6440    25.8850     2.1510 
   66.5000   -24.1010    71.3680    11.7470     8.7030    10.0380    25.2460     2.2390 
   66.6250   -24.5080    70.2410    13.2870     9.9240    15.4230    24.7040     2.3290 
   66.7500   -24.8950    68.5590    14.5440    11.1070    19.5890    24.4000     2.3800 
   66.8750   -25.3290    69.1340    15.1260    11.8630    15.1570    24.1890     2.3740 
   67.0000   -25.8590    70.6730    14.7600    11.8350    11.6050    23.8650     2.3210 
   67.1250   -26.4560    69.8480    13.8210    11.2640    10.5270    23.6620     2.2580 
   67.2500   -27.1270    69.0390    12.6900    10.4610    10.5420    23.8140     2.2030 
   67.3750   -27.8600    70.8040    11.6920     9.7070    11.1720    24.1380     2.1620 
   67.5000   -28.5640    72.3100    11.0690     9.1920    11.1640    24.3140     2.1420 
   67.6250   -29.1850    72.2540    10.7970     8.9080    10.9740    24.3270     2.1420 
   67.7500   -29.6880    73.0040    10.8340     8.8460    10.5980    24.2590     2.1590 
   67.8750   -29.9430    75.1310    11.0810     8.9710    10.5240    24.1130     2.1850 
   68.0000   -29.7520    75.2910    11.3510     9.1710    10.4350    23.9110     2.2080 
   68.1250   -29.1490    74.0620    11.4070     9.2420    10.2390    23.6810     2.2220 
   68.2500   -28.1200    73.7000    11.1000     9.0270    10.0120    23.5420     2.2270 
   68.3750   -26.7390    75.1180    10.4190     8.4790    10.2910    23.6420     2.2230 
   68.5000   -25.1510    79.3670     9.5130     7.7070     8.5200    24.0500     2.2160 
   68.6250   -23.5620    85.6230     8.7010     6.9910     6.8080    24.4900     2.2120 
   68.7500   -22.1220    89.5930     8.2040     6.5110     5.9840    24.7700     2.2160 
   68.8750   -21.0240    88.2760     8.1390     6.3580     5.8490    24.7750     2.2280 
   69.0000   -20.4970    83.3730     8.5710     6.6120     6.3500    24.5000     2.2420 
   69.1250   -20.4610    78.3850     9.3050     7.1620     7.9300    24.0970     2.2480 
   69.2500   -20.8890    74.0480    10.1650     7.8960    10.0740    23.6580     2.2410 
   69.3750   -21.6900    69.8900    10.9580     8.6540    11.4810    23.3350     2.2240 
   69.5000   -22.7150    66.0130    11.4520     9.2160    11.1220    23.2570     2.2050 
   69.6250   -23.7070    62.7330    11.5840     9.4610    10.4250    23.3150     2.1970 
   69.7500   -24.5060    61.7350    11.3520     9.3570    10.4240    23.4190     2.2030 
   69.8750   -25.0320    65.3590    10.8370     8.9610    10.5700    23.5530     2.2240 
   70.0000   -25.2430    72.1860    10.1860     8.3900    10.0190    23.7450     2.2510 
   70.1250   -25.2600    77.1220     9.6030     7.8380     8.9070    23.9240     2.2720 
   70.2500   -25.1330    80.4790     9.2240     7.4250     7.8400    24.1160     2.2780 
   70.3750   -24.9000    82.9560     9.1300     7.2190     7.6240    24.4020     2.2600 
   70.5000   -24.6710    82.4220     9.3990     7.2930     8.2980    24.6580     2.2140 
   70.6250   -24.4980    80.2220     9.9540     7.6120     9.1160    24.6870     2.1610 
   70.7500   -24.3700    78.9210    10.7250     8.1480     9.7780    24.5290     2.1290 
   70.8750   -24.2740    78.2290    11.5970     8.8300     9.8110    24.2810     2.1390 
   71.0000   -24.2110    73.7990    12.3680     9.5240     9.7870    24.0920     2.1950 
   71.1250   -24.1650    70.2590    12.8540    10.0440     9.9480    24.0430     2.2580 
   71.2500   -24.1490    72.7390    12.9430    10.2420    10.1110    23.9850     2.2940 
   71.3750   -24.1690    77.7790    12.6550    10.0800    10.3810    23.8520     2.2910 
   71.5000   -24.1460    78.8940    12.1440     9.6620    10.5740    23.5870     2.2630 
   71.6250   -24.0990    77.7410    11.6870     9.2280    10.5240    23.3720     2.2420 
   71.7500   -24.0780    79.6000    11.4260     8.9130    10.7180    23.1730     2.2390 
   71.8750   -24.1030    84.5330    11.3730     8.7620    12.1030    22.9840     2.2470 
   72.0000   -24.1370    86.4260    11.4030     8.7220    14.2600    22.8110     2.2550 
   72.1250   -24.1190    83.3860    11.3340     8.6380    13.4670    22.7500     2.2580 
   72.2500   -23.9870    77.5000    11.1120     8.4530    11.2910    22.8890     2.2570 
   72.3750   -23.6870    73.2100    10.8290     8.2190    10.3450    23.3190     2.2580 
   72.5000   -23.1800    72.8280    10.7360     8.1050    10.0930    24.0140     2.2670 
   72.6250   -22.4380    73.8400    11.0170     8.2450    10.0140    24.4750     2.2890 
   72.7500   -21.4640    72.8400    11.7250     8.7130    11.1200    24.7610     2.3230 
   72.8750   -20.3060    70.9450    12.7230     9.4780    13.8680    24.9170     2.3650 
   73.0000   -19.0900    72.6690    13.6250    10.3230    16.1990    24.9650     2.3960 
   73.1250   -17.9760    77.0730    14.0310    10.8700    15.0170    24.9420     2.4000 
   73.2500   -17.0990    80.4680    13.7600    10.8670    13.5120    24.8550     2.3730 
   73.3750   -16.5880    81.4970    12.9050    10.3140    12.4400    24.6420     2.3250 
   73.5000   -16.4920    81.0330    11.7870     9.4500    10.5620    24.1890     2.2780 
   73.6250   -16.7070    79.2120    10.8150     8.6370     9.7110    23.6100     2.2480 
   73.7500   -17.2130    76.9410    10.1600     8.0320     9.6470    23.2030     2.2390 
   73.8750   -17.9590    77.0280     9.8470     7.6830     9.5010    23.0800     2.2440 
   74.0000   -18.8540    78.8710     9.8450     7.5990     9.1750    23.1420     2.2520 
   74.1250   -19.7950    78.0960    10.0030     7.6740     9.1270    23.2340     2.2530 
   74.2500   -20.6270    75.3210    10.2240     7.8340     9.4550    23.3970     2.2460 
   74.3750   -21.1830    75.0870    10.3970     7.9940     9.8330    23.7310     2.2310 
