~V
VERS. 2.00: Ver 2.00
~W
STRT.M 45.0000:
STOP.M 252.0000:
STEP.M 0.1250:
NULL. -999.2500:
UWI. F10190:
~C
DEPT.M :
GR.API :
RML.OHMM :
RI. :
RXO.OHMM :
CALI.CM :
SP.MV :
DEN.GM/CC :
~A
# ...
   78.7500    84.4220     7.8910     5.9690     6.4930    25.0360   -19.9120     2.2310 
   78.8750    90.8890     7.4740     5.5110     5.7000    25.0970   -19.6160     2.2190 
   79.0000    98.0970     7.1760     5.1850     5.3150    25.0730   -19.4290     2.2180 
   79.1250   100.1630     6.9410     4.9500     5.1210    25.0350   -19.3080     2.2340 
   79.2500    97.4360     6.8230     4.8230     5.0380    25.0180   -19.2840     2.2610 
   79.3750    94.6370     6.9120     4.8450     4.8640    25.0060   -19.3970     2.2860 
   79.5000    93.5560     7.3440     5.0940     4.9940    24.9530   -19.7380     2.2980 
   79.6250    90.2070     8.0860     5.5590     5.8540    24.8240   -20.2880     2.2980 
   79.7500    82.6920     9.0500     6.2050     7.7180    24.6240   -20.9970     2.2930 
   79.8750    74.1760    10.0440     6.9310     8.9590    24.4560   -21.7890     2.2850 
   80.0000    69.0720    10.7660     7.5540     9.3850    24.4530   -22.5800     2.2670 
   80.1250    66.3180    11.0950     7.9480    10.0930    24.6070   -23.3460     2.2310 
   80.2500    63.4660    11.0710     8.0890    10.6220    24.8690   -24.0660     2.1810 
   80.3750    60.6020    10.8630     8.0490    10.1480    25.1240   -24.7370     2.1300 
   80.5000    59.6170    10.6680     7.9340     9.7110    25.3350   -25.3230     2.0880 
   80.6250    59.4860    10.5720     7.8300     9.4030    25.5190   -25.7990     2.0510 
   80.7500    59.5740    10.5700     7.7600     9.1420    25.7220   -26.1610     2.0140 
   80.8750    59.7090    10.6430     7.7290     8.8130    26.0100   -26.4520     1.9790 
   81.0000    59.1620    10.7560     7.7360     8.6560    26.0640   -26.6740     1.9700 
   81.1250    58.5810    10.8440     7.7470     8.7150    25.6570   -26.8730     1.9950 
   81.2500    57.6660    10.8490     7.7260     8.9600    25.0550   -27.0960     2.0500 
   81.3750    55.7390    10.7290     7.6390     9.2570    24.6800   -27.2950     2.1130 
   81.5000    54.7460    10.5210     7.4900     9.2710    24.5660   -27.4580     2.1540 
   81.6250    55.4290    10.4190     7.3920     9.1740    24.5510   -27.6550     2.1730 
   81.7500    57.1090    10.6150     7.4670     9.1160    24.6190   -27.9060     2.1810 
   81.8750    57.1070    11.2120     7.7980     9.4390    24.7700   -28.1860     2.1830 
   82.0000    56.0330    12.1740     8.3990    10.7560    24.9480   -28.4760     2.1750 
   82.1250    56.4270    13.1390     9.0650    14.7780    25.0290   -28.7590     2.1740 
   82.2500    57.5330    13.7050     9.5410    21.7620    24.9730   -29.0300     2.1930 
   82.3750    57.4390    13.5550     9.5990    19.4340    24.8060   -29.3090     2.2200 
   82.5000    56.2670    12.6580     9.1520    12.9690    24.6110   -29.5740     2.2120 
   82.6250    55.6180    11.5710     8.5050    10.3640    24.5290   -29.7910     2.1750 
   82.7500    55.4050    10.6830     7.8940     9.8960    24.5110   -29.9660     2.1400 
   82.8750    55.6450    10.1920     7.4720     9.7720    24.5100   -30.0720     2.1230 
   83.0000    58.0070    10.1250     7.3210     9.5870    24.5220   -30.0790     2.1230 
   83.1250    60.7670    10.2430     7.3430     9.4410    24.5590   -29.9860     2.1260 
   83.2500    60.7410    10.4050     7.4600     9.2770    24.6130   -29.7510     2.1260 
   83.3750    58.4610    10.5690     7.6200     9.0230    24.6500   -29.3450     2.1220 
   83.5000    56.6110    10.7570     7.7950     8.8710    24.6450   -28.7880     2.1170 
   83.6250    56.2390    10.9250     7.9330     9.1400    24.6110   -28.1280     2.1150 
   83.7500    56.2120    10.9670     7.9620     9.6900    24.5910   -27.3300     2.1200 
   83.8750    55.9560    10.7770     7.8150     9.9500    24.6650   -26.4100     2.1310 
   84.0000    59.5220    10.2940     7.4470     9.3950    24.8520   -25.4040     2.1470 
   84.1250    68.5610     9.6560     6.9550     8.1470    25.0500   -24.3920     2.1670 
   84.2500    79.3610     9.0120     6.4360     6.6870    25.1740   -23.5130     2.1910 
   84.3750    85.9850     8.5100     5.9920     6.0050    25.1920   -22.9000     2.2160 
   84.5000    84.8420     8.2970     5.7320     6.1080    25.1270   -22.5900     2.2310 
   84.6250    81.6560     8.3650     5.6740     6.3350    25.0800   -22.5430     2.2320 
   84.7500    79.0790     8.6960     5.8210     6.3810    25.0180   -22.8070     2.2170 
   84.8750    75.7000     9.2380     6.1480     7.0200    24.9320   -23.4070     2.1860 
   85.0000    69.4680     9.8960     6.6060     8.5680    24.8570   -24.3730     2.1490 
   85.1250    63.2980    10.5190     7.0800     9.5550    24.8340   -25.5430     2.1180 
   85.2500    60.6960    11.0020     7.4820     9.8150    24.8710   -26.7220     2.0990 
   85.3750    60.4760    11.2820     7.7490     9.8750    24.9640   -27.7890     2.0910 
   85.5000    58.7700    11.3220     7.8340     9.9100    25.1240   -28.7080     2.0880 
   85.6250    56.7800    11.2290     7.8000     9.7950    25.3320   -29.4460     2.0810 
   85.7500    55.1500    11.0940     7.7110     9.5510    25.5050   -29.9560     2.0710 
   85.8750    53.4110    10.9850     7.6200     9.3510    25.5700   -30.2240     2.0610 
   86.0000    53.5110    10.9460     7.5680     9.2040    25.5150   -30.2320     2.0610 
   86.1250    55.5140    10.9690     7.5610     9.3210    25.4010   -30.0290     2.0750 
   86.2500    57.1420    11.0360     7.6010    10.0710    25.3400   -29.6890     2.1030 
   86.3750    57.5790    11.1140     7.6760    11.1440    25.4030   -29.2290     2.1290 
   86.5000    58.7900    11.1750     7.7740    11.4380    25.5610   -28.6310     2.1330 
   86.6250    60.8800    11.2240     7.8800    11.2210    25.6820   -27.9140     2.1190 
   86.7500    62.0530    11.2690     7.9860    10.7270    25.7180   -27.0870     2.1000 
   86.8750    61.5390    11.3110     8.0890    10.1440    25.6730   -26.1900     2.0840 
   87.0000    58.5080    11.3380     8.1760     9.9670    25.5240   -25.1950     2.0800 
   87.1250    55.4380    11.3270     8.2330    10.0260    25.2640   -24.1270     2.0940 
   87.2500    56.8160    11.2470     8.2300    10.1500    25.0450   -22.9530     2.1260 
   87.3750    62.2140    11.0590     8.1290     9.9500    25.0640   -21.7040     2.1610 
   87.5000    66.3410    10.7080     7.8730     9.3210    25.3550   -20.4100     2.1730 
   87.6250    67.5420    10.2190     7.4850     8.2970    25.6550   -19.1070     2.1640 
   87.7500    67.9130     9.6230     6.9990     7.2490    25.6900   -17.8360     2.1540 
   87.8750    70.6450     8.9730     6.4680     6.3000    25.3890   -16.6010     2.1580 
   88.0000    75.5320     8.3460     5.9620     5.7180    25.0460   -15.4460     2.1740 
   88.1250    78.4380     7.8700     5.5630     5.3480    24.8590   -14.4470     2.1880 
   88.2500    77.6800     7.7050     5.3700     5.2210    24.8140   -13.6990     2.1980 
   88.3750    76.9840     7.9790     5.4650     5.2680    24.8280   -13.2020     2.2100 
   88.5000    79.2150     8.7610     5.9210     5.5530    24.8570   -12.9740     2.2390 
   88.6250    80.5320     9.7960     6.6070     6.8490    24.8700   -12.9730     2.2890 
   88.7500    79.9300    10.7760     7.3560     9.7850    24.8730   -13.1500     2.3500 
   88.8750    80.7080    11.3570     7.9460    12.3610    24.8730   -13.4580     2.3920 
   89.0000    82.6420    11.2820     8.1590    10.5260    24.8660   -13.8970     2.3720 
   89.1250    81.7010    10.8630     8.0960     7.8270    24.8120   -14.3770     2.3080 
   89.2500    78.6810    10.4070     7.9080     6.9950    24.6290   -14.7960     2.2430 
   89.3750    77.7960    10.0660     7.6980     7.7680    24.3250   -15.0880     2.2040 
   89.5000    79.6620     9.7630     7.4560     8.0860    24.0250   -15.1820     2.2030 
   89.6250    81.2310     9.3230     7.1210     7.3060    23.9540   -15.1300     2.2200 
   89.7500    84.1500     8.7270     6.6810     6.0060    23.9810   -14.9780     2.2410 
   89.8750    89.6760     8.1560     6.2320     5.2790    23.9970   -14.7460     2.2600 
