~V
VERS. 2.00: Ver 2.00
~W
STRT.M 62.0000:
STOP.M 235.0000:
STEP.M 0.1250:
NULL. -999.2500:
UWI. F10157:
~C
DEPT.M :
SP.MV :
DEN.GM/CC :
GR.API :
RML.OHMM :
RI. :
RXO.OHMM :
CALI.CM :
~A
# ...
  185.7500    -9.8440     2.3030    97.2190     8.9440     7.5430     7.9680    25.1570 
  185.8750    -8.7350     2.3150   101.1920     8.6350     7.2900     7.7500    25.0640 
  186.0000    -7.6340     2.3310    99.2980     8.2290     6.9560     7.7530    24.9700 
  186.1250    -6.6210     2.3360    94.6230     7.8370     6.6220     7.4620    24.9000 
  186.2500    -5.7440     2.3230    91.0260     7.5920     6.3890     6.6090    24.8680 
  186.3750    -5.0490     2.3000    88.2150     7.5900     6.3320     6.1090    24.8760 
  186.5000    -4.5620     2.2840    85.1730     7.8670     6.4880     6.4510    24.9230 
  186.6250    -4.2850     2.2850    82.1350     8.3780     6.8570     7.3530    25.0050 
  186.7500    -4.1330     2.2870    78.4820     8.9050     7.2960     8.1150    25.0920 
  186.8750    -4.0170     2.2740    74.7020     9.2420     7.6540     8.5620    25.1570 
  187.0000    -3.8640     2.2430    72.6300     9.2400     7.7930     8.3880    25.1950 
  187.1250    -3.5920     2.2130    71.5880     8.8470     7.6220     7.7810    25.2080 
  187.2500    -3.2030     2.2050    67.8830     8.2810     7.2640     6.9260    25.2030 
  187.3750    -2.7150     2.2210    63.1610     7.7120     6.8340     6.1600    25.1950 
  187.5000    -2.1700     2.2500    60.8160     7.2460     6.4260     5.7810    25.1860 
  187.6250    -1.6550     2.2790    61.4520     6.9290     6.1110     5.4600    25.1740 
  187.7500    -1.2410     2.3040    63.3150     6.7170     5.8910     4.9950    25.1610 
  187.8750    -0.9550     2.3240    67.2130     6.5810     5.7580     4.6210    25.1460 
  188.0000    -0.8200     2.3330    73.3010     6.5000     5.6900     4.5740    25.1300 
  188.1250    -0.8500     2.3230    78.4470     6.4720     5.6710     4.5450    25.1130 
  188.2500    -1.0070     2.3080    80.3250     6.4860     5.6780     4.6440    25.0970 
  188.3750    -1.2540     2.3030    79.8500     6.5320     5.7040     4.8230    25.0820 
  188.5000    -1.5490     2.3120    78.5440     6.5950     5.7400     5.0540    25.0720 
  188.6250    -1.8370     2.3250    77.6570     6.6470     5.7700     5.2610    25.0670 
  188.7500    -2.0840     2.3270    78.3460     6.6690     5.7750     5.4830    25.0630 
  188.8750    -2.2820     2.3190    80.4840     6.6390     5.7420     5.7060    25.0600 
  189.0000    -2.4350     2.3070    84.1510     6.5530     5.6640     5.8720    25.0570 
  189.1250    -2.5810     2.3020    86.2330     6.4270     5.5510     5.7320    25.0560 
  189.2500    -2.7520     2.3050    86.2440     6.3130     5.4400     5.5090    25.0570 
  189.3750    -2.9820     2.3170    87.4210     6.2650     5.3680     5.4150    25.0570 
  189.5000    -3.2790     2.3380    89.8290     6.3290     5.3730     5.4300    25.0560 
  189.6250    -3.6720     2.3600    90.0730     6.5440     5.4980     5.5790    25.0560 
  189.7500    -4.0940     2.3750    88.3320     6.8570     5.7160     5.8150    25.0550 
  189.8750    -4.5100     2.3770    87.8330     7.2020     5.9860     6.5520    25.0530 
  190.0000    -4.8650     2.3700    88.9280     7.4900     6.2420     7.6540    25.0510 
  190.1250    -5.1050     2.3620    88.8480     7.6160     6.3970     7.6840    25.0490 
  190.2500    -5.2340     2.3590    86.8040     7.5930     6.4370     7.0350    25.0490 
  190.3750    -5.2850     2.3600    84.3050     7.4820     6.3970     6.6680    25.0480 
  190.5000    -5.2840     2.3600    83.6420     7.3690     6.3320     6.5320    25.0490 
  190.6250    -5.2630     2.3580    83.9070     7.3270     6.3040     6.3310    25.0540 
  190.7500    -5.2550     2.3540    84.0490     7.3450     6.3200     6.3970    25.0660 
  190.8750    -5.2670     2.3510    85.3530     7.3680     6.3560     6.7610    25.0840 
  191.0000    -5.3080     2.3520    87.6540     7.3400     6.3760     6.6910    25.1040 
  191.1250    -5.3770     2.3560    87.9100     7.2330     6.3500     6.5630    25.1200 
  191.2500    -5.4460     2.3620    87.7090     7.0970     6.3020     6.3580    25.1320 
  191.3750    -5.5050     2.3680    90.1770     6.9830     6.2670     6.3810    25.1400 
  191.5000    -5.5690     2.3710    92.5950     6.9290     6.2750     6.5980    25.1420 
  191.6250    -5.6390     2.3720    92.1610     6.9490     6.3510     6.8020    25.1370 
  191.7500    -5.7390     2.3710    92.2030     7.0070     6.4660     7.0110    25.1290 
  191.8750    -5.8480     2.3720    92.9190     7.0650     6.5880     7.2030    25.1230 
  192.0000    -5.9400     2.3760    92.5200     7.0930     6.6830     7.2770    25.1160 
  192.1250    -5.9680     2.3800    90.9910     7.0780     6.7260     7.1920    25.1110 
  192.2500    -5.9410     2.3830    90.0210     7.0430     6.7300     7.0860    25.1070 
  192.3750    -5.8640     2.3830    88.4210     7.0070     6.7100     6.9830    25.1030 
  192.5000    -5.7540     2.3770    88.0930     6.9880     6.6840     6.8130    25.0980 
  192.6250    -5.6320     2.3660    91.5740     7.0050     6.6630     6.9580    25.0850 
  192.7500    -5.5340     2.3530    94.4190     7.0490     6.6410     7.2020    25.0620 
  192.8750    -5.4930     2.3410    93.8650     7.0960     6.5950     7.3200    25.0360 
  193.0000    -5.5300     2.3330    90.9290     7.1200     6.5070     7.1650    25.0150 
  193.1250    -5.6340     2.3310    87.8460     7.1310     6.3970     7.1050    25.0070 
  193.2500    -5.7650     2.3350    84.9440     7.2440     6.3650     7.0240    25.0060 
  193.3750    -5.9080     2.3420    82.2540     7.6930     6.5690     7.3010    25.0100 
  193.5000    -6.0480     2.3550    80.8810     8.8500     7.2450     8.0500    25.0220 
  193.6250    -6.1720     2.3700    78.1420    11.5670     8.9510    10.6530    25.0400 
  193.7500    -6.2910     2.3720    73.5460    16.4750    12.2020    16.9150    25.0610 
  193.8750    -6.3970     2.3510    69.6650    24.5110    17.9030    27.9120    25.0800 
  194.0000    -6.5050     2.3110    68.0870    36.5840    27.1260    47.4280    25.0890 
  194.1250    -6.6090     2.2670    67.8390    53.3300    40.9090    76.1410    25.0930 
  194.2500    -6.7110     2.2340    66.4480    71.1290    56.3860    97.7720    25.0990 
  194.3750    -6.7980     2.2160    65.6550    84.4640    69.0990   102.5900    25.1080 
  194.5000    -6.8560     2.2090    66.4870    88.7800    75.1140    94.7810    25.1100 
  194.6250    -6.9130     2.2060    66.4980    83.7310    73.1370    72.9650    25.1010 
  194.7500    -6.9420     2.2030    65.0370    75.4230    67.4270    53.3290    25.0800 
  194.8750    -6.9760     2.1990    64.4330    67.1660    60.8080    38.0810    25.0490 
  195.0000    -6.9980     2.1940    66.2180    60.3470    54.8620    29.1510    25.0140 
  195.1250    -7.0330     2.1830    67.2340    54.8670    49.8970    25.1130    24.9790 
  195.2500    -7.0570     2.1750    65.5820    49.3090    44.9280    22.1930    24.9450 
  195.3750    -7.0690     2.1780    64.3020    42.9270    39.3370    20.8070    24.9140 
  195.5000    -7.0760     2.1970    66.1290    36.0440    33.3510    20.6880    24.8910 
  195.6250    -7.0520     2.2280    72.2230    30.1530    28.1480    19.2470    24.8770 
  195.7500    -7.0370     2.2540    77.3200    26.4620    24.6470    15.5860    24.8730 
  195.8750    -7.0370     2.2650    78.6270    25.7610    23.4380    12.3170    24.8840 
  196.0000    -7.0490     2.2590    76.2560    28.5810    25.0010    13.3740    24.9120 
  196.1250    -7.0830     2.2390    73.5820    36.1580    30.6100    18.8430    24.9590 
  196.2500    -7.1260     2.2130    71.1850    48.2230    40.3650    30.4720    25.0120 
  196.3750    -7.1700     2.1850    67.0860    64.1900    53.9440    49.2370    25.0670 
  196.5000    -7.1840     2.1630    62.0580    81.4300    69.0280    69.9960    25.1180 
  196.6250    -7.1640     2.1550    59.8150    94.4170    80.7110    81.8610    25.1570 
  196.7500    -7.0980     2.1580    60.7660   101.1880    87.0720    91.0800    25.1810 
  196.8750    -7.0020     2.1680    62.2490   103.3010    89.1840    94.9850    25.1890 
