~V
VERS. 2.00: Ver 2.00
~W
STRT.M 50.0000:
STOP.M 236.0000:
STEP.M 0.1250:
NULL. -999.2500:
UWI. F10180:
~C
DEPT.M :
SP.MV :
GR.API :
RML.OHMM :
RI. :
RXO.OHMM :
CALI.CM :
DEN.GM/CC :
~A
# ...
  151.2500   -33.1420    65.7460   283.2060   253.0270   280.7620    24.5140     2.2070 
  151.3750   -33.3160    67.2030   270.7660   240.1470   245.1200    24.4420     2.2020 
  151.5000   -33.3570    66.2610   258.5620   228.9480   232.8570    24.4000     2.2040 
  151.6250   -33.1900    65.5240   247.1060   221.1530   224.5550    24.3340     2.2130 
  151.7500   -33.0480    65.7720   238.5140   218.6260   210.2300    24.2500     2.2240 
  151.8750   -32.9290    65.2370   236.8590   223.9480   202.6680    24.1770     2.2310 
  152.0000   -32.6010    64.0750   243.2960   236.0530   213.9710    24.2100     2.2320 
  152.1250   -32.2340    64.2120   257.8660   253.2650   247.1470    24.2990     2.2300 
  152.2500   -31.9870    64.8590   278.2580   272.0370   290.3250    24.3940     2.2250 
  152.3750   -31.6380    65.4660   298.0700   285.4850   332.8110    24.4600     2.2170 
  152.5000   -31.1710    64.4950   308.6060   288.3940   336.5730    24.5280     2.2080 
  152.6250   -30.7700    61.8570   304.1010   278.8310   327.4500    24.5610     2.2010 
  152.7500   -30.3290    59.8020   284.7090   259.5020   303.4920    24.5640     2.1970 
  152.8750   -29.7330    60.6900   257.0630   237.0230   241.7790    24.4920     2.2010 
  153.0000   -29.2510    63.0550   232.3070   218.7010   164.9900    24.4690     2.2090 
  153.1250   -28.7690    63.4520   216.1680   207.7590   112.5700    24.5690     2.2160 
  153.2500   -28.1600    60.9410   210.4370   204.7090   115.4830    24.7890     2.2200 
  153.3750   -27.6630    58.7440   214.8740   208.9520   192.1890    25.0660     2.2180 
  153.5000   -27.2670    59.4420   224.3170   216.8540   265.0780    25.3200     2.2140 
  153.6250   -26.9110    61.9630   235.3090   226.3240   257.1380    25.5280     2.2090 
  153.7500   -26.6900    63.8170   245.6430   236.2970   218.7320    25.6370     2.2060 
  153.8750   -26.5550    62.6020   255.4310   247.5430   224.6650    25.6200     2.2040 
  154.0000   -26.4480    59.6960   267.1130   261.3640   271.7930    25.5150     2.2020 
  154.1250   -26.4670    57.5360   282.8010   278.1640   311.9180    25.3540     2.1980 
  154.2500   -26.5350    57.5720   302.7120   296.4940   332.7620    25.1840     2.1940 
  154.3750   -26.3840    58.1560   324.0890   312.5730   382.4470    25.1000     2.1920 
  154.5000   -26.2300    57.4890   341.8350   322.8580   450.3080    25.0790     2.1950 
  154.6250   -26.0500    57.7350   351.3110   324.2150   450.0220    25.0910     2.2030 
  154.7500   -25.6560    61.1620   347.9160   313.9020   372.7150    25.1190     2.2120 
  154.8750   -25.2110    64.3850   325.2330   288.6660   337.2300    25.1560     2.2190 
  155.0000   -24.7560    62.9200   287.4120   253.5610   311.3870    25.1750     2.2250 
  155.1250   -24.1250    57.7160   241.3560   214.4910   262.6300    25.1750     2.2320 
  155.2500   -23.3870    54.1390   196.0310   177.8110   180.0320    25.1320     2.2410 
  155.3750   -22.8070    57.6310   159.8480   149.0720   106.5560    25.0840     2.2510 
  155.5000   -22.2050    62.4050   133.3360   127.9040    74.6620    25.0580     2.2590 
  155.6250   -21.4920    64.1350   114.9580   112.9460    60.0310    25.0350     2.2630 
  155.7500   -20.8760    64.3370   102.3480   102.3450    52.5720    25.0240     2.2640 
  155.8750   -20.2290    67.1130    93.7270    94.6930    50.2010    25.0020     2.2640 
  156.0000   -19.4720    70.9340    87.0060    88.4090    50.6000    24.9740     2.2670 
  156.1250   -18.8510    72.0130    81.5620    83.1490    51.8140    24.9610     2.2720 
  156.2500   -18.3040    69.6340    77.2200    79.0950    52.8620    24.9920     2.2820 
  156.3750   -17.6760    67.0360    74.3390    77.1100    52.8480    25.0250     2.2950 
  156.5000   -17.1390    67.1790    73.0960    77.4620    56.5430    25.0380     2.3040 
  156.6250   -16.6780    70.8610    73.9960    80.3420    61.6760    25.0340     2.3070 
  156.7500   -16.2230    74.2640    77.5480    85.4810    68.8300    25.0230     2.2980 
  156.8750   -15.9390    73.7280    84.3600    92.1380    78.6660    25.0040     2.2810 
  157.0000   -15.7260    72.0850    93.1650    98.8070    95.3900    25.0000     2.2620 
  157.1250   -15.5430    72.0590   102.4750   104.6320   122.4670    24.9750     2.2500 
  157.2500   -15.4780    73.1650   110.8450   109.4970   135.2780    24.9320     2.2470 
  157.3750   -15.4540    72.2120   117.7180   114.4040   112.2580    24.9090     2.2520 
  157.5000   -15.3800    69.3840   124.6160   121.0370    91.2690    24.8870     2.2580 
  157.6250   -15.4020    67.8790   133.3960   130.7370   103.9340    24.8300     2.2620 
  157.7500   -15.4310    70.5790   145.6270   143.9780   145.3620    24.8230     2.2600 
  157.8750   -15.3320    75.3620   162.2730   159.5480   174.2750    24.8660     2.2520 
  158.0000   -15.2760    77.0500   180.1760   173.0250   171.1440    24.8080     2.2410 
  158.1250   -15.1650    76.4890   193.9900   179.6840   150.3790    24.7260     2.2310 
  158.2500   -14.9810    77.3540   197.6570   176.2520   127.5960    24.7950     2.2270 
  158.3750   -14.8430    78.1930   186.6130   161.8680   125.0500    24.9910     2.2340 
  158.5000   -14.7490    77.1000   167.0300   142.6230   130.1160    25.0860     2.2490 
  158.6250   -14.5700    75.9700   145.0680   123.1200   110.2540    25.1110     2.2680 
  158.7500   -14.3560    75.7730   125.2830   106.4120    83.0920    25.1100     2.2860 
  158.8750   -14.2310    74.7740   110.0750    94.1250    79.4170    25.0830     2.2970 
  159.0000   -14.0370    73.0640    98.4040    85.0340    95.6090    25.0390     2.3050 
  159.1250   -13.7840    72.4480    89.4100    78.2620   102.1960    25.0710     2.3110 
  159.2500   -13.5640    73.0570    82.4160    73.1700    88.4980    25.1330     2.3150 
  159.3750   -13.3440    73.6480    77.2800    69.6160    76.6740    25.1640     2.3150 
  159.5000   -13.0370    72.5550    73.5410    67.1840    70.2760    25.1610     2.3110 
  159.6250   -12.7400    70.6860    71.0960    65.7070    67.7470    25.1450     2.3030 
  159.7500   -12.4360    70.5240    69.8120    64.9560    73.7770    25.1340     2.2960 
  159.8750   -12.1060    72.4970    69.5360    64.7430    79.0580    25.0990     2.2930 
  160.0000   -11.8450    74.0410    69.6850    64.9000    76.5460    25.0110     2.2950 
  160.1250   -11.6050    74.2900    69.9730    65.6040    65.6930    24.9070     2.2980 
  160.2500   -11.3750    73.2890    70.3950    67.1600    60.3370    24.8290     2.2970 
  160.3750   -11.2480    71.5150    71.3440    69.8650    71.1990    24.7640     2.2870 
  160.5000   -11.1770    70.1970    72.9140    72.9900    83.0240    24.7310     2.2710 
  160.6250   -11.1070    70.1420    74.4470    75.1690    87.3500    24.7230     2.2540 
  160.7500   -11.1200    70.6620    74.2520    74.5560    85.1690    24.7280     2.2460 
  160.8750   -11.1320    71.8790    69.5800    68.9990    80.1040    24.7150     2.2530 
  161.0000   -11.0570    74.1710    60.7470    59.6130    68.6230    24.6720     2.2730 
  161.1250   -11.0210    77.9580    49.6340    48.3550    50.0160    24.6680     2.3010 
  161.2500   -10.9660    83.3870    38.8620    37.5690    33.3100    24.6970     2.3310 
  161.3750   -10.7930    90.4120    30.7380    29.3840    22.1190    24.7210     2.3550 
  161.5000   -10.6700    95.3700    25.2180    23.8580    16.3990    24.7490     2.3690 
  161.6250   -10.6080    95.4330    21.8290    20.6460    13.8100    24.8150     2.3760 
  161.7500   -10.4890    90.3240    20.0450    19.2860    15.1210    24.9120     2.3790 
  161.8750   -10.3940    85.1300    19.6970    19.6920    20.3920    25.0020     2.3800 
  162.0000   -10.3990    84.3440    20.4410    21.5380    24.7680    25.0490     2.3760 
  162.1250   -10.3780    86.1080    22.3430    24.9660    25.8080    25.0580     2.3660 
  162.2500   -10.3280    86.6840    25.6460    30.1490    26.7900    25.0670     2.3490 
  162.3750   -10.3500    83.5790    30.9920    37.1220    33.7640    25.0770     2.3270 
