~V
VERS. 2.00: Ver 2.00
~W
STRT.M 64.0000:
STOP.M 215.0000:
STEP.M 0.1250:
NULL. -999.2500:
UWI. F10146:
~C
DEPT.M :
DEN.GM/CC :
GR.API :
RML.OHMM :
RI. :
RXO.OHMM :
CALI.CM :
SP.MV :
~A
# ...
  176.5000     2.1850    64.4640   372.0510   314.0920    65.7970    23.8400   -29.7700 
  176.6250     2.1810    67.2020   384.0820   326.4880    61.8050    23.8350   -29.7880 
  176.7500     2.1760    69.4050   374.8590   320.9540    57.0770    23.8340   -29.7660 
  176.8750     2.1710    69.3090   357.0750   307.3330    53.1280    23.8340   -29.7480 
  177.0000     2.1660    68.2770   336.9750   291.2660    51.4350    23.8340   -29.7430 
  177.1250     2.1640    66.9590   316.0650   274.5690    50.3650    23.8340   -29.7560 
  177.2500     2.1650    63.6430   290.6060   258.0590    50.4070    23.8340   -29.8120 
  177.3750     2.1700    58.8250   270.1820   242.0270    53.9740    23.8340   -29.8720 
  177.5000     2.1780    56.5070   255.5490   226.3280    60.5680    23.8340   -29.9960 
  177.6250     2.1870    60.5360   238.0980   210.3120    70.5370    23.8340   -30.0950 
  177.7500     2.1960    66.1880   226.0090   193.4740    72.6300    23.8340   -30.2020 
  177.8750     2.2030    69.9170   203.1760   176.0770    70.5050    23.8340   -30.3050 
  178.0000     2.2100    69.8870   182.4070   159.4590    68.6260    23.8340   -30.4020 
  178.1250     2.2160    68.3140   167.3800   146.4480    63.9950    23.8340   -30.5240 
  178.2500     2.2250    69.1390   159.2770   138.5510    56.8840    23.8340   -30.6150 
  178.3750     2.2380    71.2390   158.5170   136.5690    51.9760    23.8320   -30.7100 
  178.5000     2.2560    71.3920   164.3070   140.2480    49.9780    23.8240   -30.7410 
  178.6250     2.2770    68.5400   174.6500   148.4240    45.8680    23.7770   -30.7910 
  178.7500     2.2910    66.0770   184.2770   156.9810    36.6290    23.7760   -30.8370 
  178.8750     2.2870    65.9080   188.4300   162.0880    28.2480    23.8120   -30.8840 
  179.0000     2.2550    66.3440   184.0650   160.8920    24.3540    24.0400   -30.9280 
  179.1250     2.1940    64.3360   170.9340   152.2760    24.5150    24.8850   -30.9330 
  179.2500     2.1240    62.3360   154.2610   139.9550    29.7810    27.1560   -30.9410 
  179.3750     2.0620    62.9710   137.1850   126.5500    39.6710    29.6470   -30.9220 
  179.5000     2.0250    63.9590   121.4240   113.7370    44.9410    30.6170   -30.9250 
  179.6250     2.0270    62.1730   108.0460   102.5110    39.4970    30.6140   -30.9060 
  179.7500     2.0560    59.5110    97.0180    92.9600    34.5800    30.2490   -30.8990 
  179.8750     2.1000    58.7020    88.4240    85.2550    38.2450    30.5280   -30.8780 
  180.0000     2.1440    59.1930    82.0830    79.3800    44.2070    31.4670   -30.8850 
  180.1250     2.1720    58.3840    77.8480    75.3240    46.1410    32.4980   -30.8740 
  180.2500     2.1720    56.5150    74.9520    72.4440    41.5970    33.8240   -30.8590 
  180.3750     2.1360    54.7410    73.1810    70.4990    35.0050    34.7810   -30.8490 
  180.5000     2.0580    54.2790    72.6210    69.4770    30.3160    35.2230   -30.8330 
  180.6250     1.9430    56.0340    73.9570    69.8790    25.4430    36.0040   -30.8490 
  180.7500     1.8290    57.8680    77.4180    71.9700    16.4460    35.8730   -30.8440 
  180.8750     1.7510    57.8810    83.2580    76.1030     9.4660    32.1870   -30.8660 
  181.0000     1.7410    56.0630    91.3940    82.3730     7.8510    26.7800   -30.8670 
  181.1250     1.8220    55.9170   101.4760    90.6550    11.3440    23.8510   -30.9270 
  181.2500     1.9580    60.6350   112.1570    99.7150    20.4370    22.9450   -31.0090 
  181.3750     2.1030    67.3000   122.4060   108.5030    33.4050    22.5280   -31.1230 
  181.5000     2.2060    70.3310   131.4540   116.1510    41.7310    22.3140   -31.2550 
  181.6250     2.2410    68.0710   138.6510   121.9340    41.3400    22.1290   -31.3840 
  181.7500     2.2430    65.9180   144.2120   126.1010    39.5820    21.9620   -31.5220 
  181.8750     2.2350    65.9220   148.2910   128.8680    38.3210    21.7700   -31.6370 
  182.0000     2.2300    66.6990   151.1820   130.5670    38.6250    21.6410   -31.7580 
  182.1250     2.2290    65.7290   153.2270   131.5930    38.1590    21.6230   -31.8140 
  182.2500     2.2280    63.3400   154.9110   132.5120    35.8960    21.5020   -31.8730 
  182.3750     2.2260    60.3590   155.9730   133.3300    33.0670    21.4050   -31.8860 
  182.5000     2.2270    59.1350   155.3700   133.3750    29.4690    21.3400   -31.8900 
  182.6250     2.2410    62.3950   151.2590   131.1040    25.1470    21.2820   -31.8570 
  182.7500     2.2690    67.6800   144.2040   126.3850    21.3550    21.1980   -31.8000 
  182.8750     2.3030    72.3160   135.9830   120.1750    18.3730    21.1720   -31.7560 
  183.0000     2.3220    75.0480   128.8820   114.1860    16.0580    21.1860   -31.6980 
  183.1250     2.2950    74.9920   125.0220   110.3470    15.0730    21.3300   -31.6480 
  183.2500     2.2310    72.8610   124.2800   109.0200    14.5900    21.6760   -31.4950 
  183.3750     2.1550    68.9590   126.2410   110.0760    14.1960    22.5300   -31.3050 
  183.5000     2.0980    65.2120   130.4850   113.1710    14.4180    23.2000   -31.0360 
  183.6250     2.0890    62.4100   137.7310   118.6970    15.9290    22.3670   -30.7080 
  183.7500     2.1160    61.0790   148.8490   127.2310    19.3270    21.7290   -30.3410 
  183.8750     2.1570    60.7360   165.4400   140.2000    23.4950    21.4420   -29.8830 
  184.0000     2.1880    60.9150   177.9990   158.8610    25.5760    21.2260   -29.3790 
  184.1250     2.1930    62.1310   206.2640   183.7600    24.9030    21.1020   -28.7860 
  184.2500     2.1850    62.9710   234.9950   210.1380    23.4210    21.0590   -28.2110 
  184.3750     2.1740    61.7240   255.7530   231.1620    21.9900    21.0660   -27.6320 
  184.5000     2.1660    59.2290   260.7850   239.8650    21.1800    21.0640   -27.0630 
  184.6250     2.1670    58.6100   248.2920   232.6070    21.2520    21.0070   -26.4970 
  184.7500     2.1770    59.0120   229.4230   217.6900    21.6960    20.9280   -25.9530 
  184.8750     2.1930    58.0290   210.7680   201.3640    21.7910    20.8690   -25.4510 
  185.0000     2.2070    57.1790   194.8040   186.8740    22.1130    21.0440   -24.9600 
  185.1250     2.2010    57.1040   181.1670   174.6590    24.0420    21.3020   -24.5460 
  185.2500     2.1720    57.5540   167.4280   162.7120    28.5710    21.5760   -24.1220 
  185.3750     2.1330    56.9330   152.2910   149.6140    38.1060    21.8890   -23.7310 
  185.5000     2.1090    55.7410   136.1890   135.2600    53.8850    22.4800   -23.3460 
  185.6250     2.1340    56.6710   121.7100   121.4450    68.0650    23.3200   -23.0170 
  185.7500     2.2090    59.1110   111.3060   110.5840    69.3360    24.0240   -22.6940 
  185.8750     2.3170    61.6690   106.6740   104.6310    61.1960    24.2150   -22.3670 
  186.0000     2.4260    63.2350   108.8230   105.0530    56.6570    24.0000   -22.0430 
  186.1250     2.5040    64.5800   119.6190   114.1970    64.0330    23.4770   -21.6930 
  186.2500     2.5510    65.4590   138.1330   131.3660    83.6170    22.9900   -21.3910 
  186.3750     2.5800    65.4040   174.1700   156.2410   108.1530    22.7920   -21.0670 
  186.5000     2.6030    65.6960   210.6450   186.7590   139.4010    22.6730   -20.7890 
  186.6250     2.6230    65.8820   242.0760   216.6430   177.3080    22.6400   -20.4690 
  186.7500     2.6390    65.6190   259.6780   236.3160   209.1850    22.5700   -20.1770 
  186.8750     2.6460    64.0100   253.2560   237.1890   236.1530    22.3770   -19.9120 
  187.0000     2.6410    61.4180   218.4330   213.8880   212.2110    22.1740   -19.6570 
  187.1250     2.6250    61.2160   160.9240   165.7060   153.0610    21.9980   -19.4240 
  187.2500     2.6070    63.3320   103.9730   111.1300   116.6340    21.9010   -19.1610 
  187.3750     2.5890    62.5190    60.6270    65.6760    82.5220    21.9740   -18.9200 
  187.5000     2.5680    58.9900    33.2790    35.8520    40.0130    22.0010   -18.6340 
  187.6250     2.5380    63.1590    19.5050    20.8210    18.7710    22.0930   -18.3990 
