~V
VERS. 2.00: Ver 2.00
~W
STRT.M 54.0000:
STOP.M 236.0000:
STEP.M 0.1250:
NULL. -999.2500:
UWI. F10195:
~C
DEPT.M :
GR.API :
RML.OHMM :
RI. :
RXO.OHMM :
CALI.CM :
SP.MV :
DEN.GM/CC :
~A
# ...
  144.0000    83.0490     7.0570     5.7240     6.1100    23.0570   -11.1450     2.2690 
  144.1250    80.8800     6.7790     5.5200     5.9740    23.0390   -11.1340     2.2770 
  144.2500    83.3480     6.4470     5.2220     5.5490    23.0180   -11.1830     2.2920 
  144.3750    84.8770     6.1510     4.9290     5.1740    22.9630   -11.1920     2.3050 
  144.5000    82.7090     5.9410     4.6970     4.9600    22.8830   -11.1420     2.3120 
  144.6250    80.9870     5.8460     4.5530     4.8380    22.8010   -11.0610     2.3110 
  144.7500    83.6700     5.8880     4.5120     4.8430    22.7790   -11.0200     2.3110 
  144.8750    85.7610     6.0200     4.5480     4.8870    22.7430   -11.0460     2.3120 
  145.0000    84.1680     6.1910     4.6390     5.0050    22.6760   -11.0810     2.3140 
  145.1250    80.7980     6.3480     4.7500     5.1340    22.6060   -11.0490     2.3160 
  145.2500    79.5750     6.4250     4.8280     5.2150    22.5650   -10.9960     2.3180 
  145.3750    81.1030     6.4120     4.8440     5.1330    22.6480   -10.9820     2.3200 
  145.5000    84.2390     6.3240     4.8030     5.0320    22.8050   -10.9820     2.3170 
  145.6250    85.2670     6.1990     4.7320     4.9720    22.8860   -10.9570     2.3130 
  145.7500    82.3590     6.0830     4.6610     4.9410    22.7830   -10.8580     2.3130 
  145.8750    79.2280     6.0030     4.5990     4.8800    22.7010   -10.7260     2.3180 
  146.0000    78.5890     5.9620     4.5410     4.8730    22.7530   -10.5970     2.3220 
  146.1250    80.6410     5.9460     4.4810     4.9360    22.9820   -10.4750     2.3250 
  146.2500    84.3030     5.9340     4.4230     4.9480    23.2420   -10.2890     2.3260 
  146.3750    87.4710     5.9080     4.3680     4.9330    23.3900   -10.0570     2.3290 
  146.5000    89.9770     5.8650     4.3190     4.9340    23.4420    -9.8300     2.3310 
  146.6250    91.8520     5.8130     4.2810     4.9090    23.4580    -9.6330     2.3300 
  146.7500    91.4020     5.7700     4.2640     4.8280    23.4650    -9.5020     2.3240 
  146.8750    89.6560     5.7440     4.2630     4.7610    23.4620    -9.3920     2.3190 
  147.0000    90.3860     5.7330     4.2680     4.7430    23.4480    -9.2730     2.3150 
  147.1250    94.6770     5.7300     4.2700     4.7340    23.4180    -9.1750     2.3130 
  147.2500    96.0060     5.7240     4.2580     4.7960    23.4030    -9.1400     2.3130 
  147.3750    93.9640     5.7150     4.2410     4.8420    23.4000    -9.1630     2.3130 
  147.5000    92.3430     5.7110     4.2250     4.8890    23.4090    -9.2000     2.3120 
  147.6250    90.4500     5.7230     4.2210     4.9250    23.4310    -9.2120     2.3100 
  147.7500    87.5940     5.7670     4.2480     4.9480    23.4460    -9.2190     2.3090 
  147.8750    87.0730     5.8460     4.3150     4.9610    23.4530    -9.2270     2.3090 
  148.0000    90.1830     5.9490     4.4220     5.0300    23.4450    -9.2390     2.3100 
  148.1250    92.9450     6.0540     4.5510     5.1520    23.4320    -9.2300     2.3110 
  148.2500    92.4070     6.1230     4.6580     5.2890    23.4570    -9.1620     2.3120 
  148.3750    91.1120     6.1290     4.7150     5.4260    23.4850    -9.0560     2.3140 
  148.5000    91.3780     6.0520     4.7040     5.4000    23.5290    -8.9650     2.3180 
  148.6250    94.6220     5.8910     4.6210     5.1980    23.5770    -8.9130     2.3250 
  148.7500    96.9040     5.6690     4.4740     4.9390    23.5500    -8.8150     2.3350 
  148.8750    96.0530     5.4490     4.3070     4.6260    23.4530    -8.6440     2.3460 
  149.0000    92.8450     5.2770     4.1610     4.4400    23.3220    -8.4500     2.3550 
  149.1250    90.0070     5.1810     4.0680     4.3770    23.2570    -8.3150     2.3600 
  149.2500    88.4130     5.1760     4.0450     4.4530    23.2640    -8.2700     2.3550 
  149.3750    89.4670     5.2290     4.0690     4.5680    23.2710    -8.2080     2.3440 
  149.5000    93.6900     5.3160     4.1260     4.6580    23.2530    -8.0810     2.3330 
  149.6250    97.5840     5.4160     4.2070     4.6850    23.2220    -7.9360     2.3280 
  149.7500    95.6150     5.5070     4.3000     4.7500    23.1830    -7.8230     2.3300 
  149.8750    91.6960     5.5690     4.3780     4.8550    23.1330    -7.7740     2.3340 
  150.0000    90.8550     5.5900     4.4200     4.7910    23.0130    -7.7940     2.3410 
  150.1250    93.8380     5.5630     4.4090     4.6070    22.8840    -7.8140     2.3520 
  150.2500    95.4000     5.4820     4.3390     4.4570    22.7810    -7.7850     2.3620 
  150.3750    93.6430     5.3730     4.2390     4.4590    22.7520    -7.7870     2.3660 
  150.5000    91.9540     5.2920     4.1450     4.4980    22.7450    -7.8570     2.3640 
  150.6250    91.9270     5.3150     4.1140     4.5560    22.7470    -7.9910     2.3590 
  150.7500    91.0290     5.5550     4.2370     4.7080    22.7870    -8.1940     2.3530 
  150.8750    88.7170     6.0110     4.5310     5.1180    22.8410    -8.4090     2.3460 
  151.0000    86.0960     6.6390     4.9810     5.8670    22.9600    -8.5970     2.3390 
  151.1250    84.4340     7.3290     5.5260     7.0460    23.0580    -8.8150     2.3310 
  151.2500    85.2110     7.9090     6.0580     7.5630    23.0960    -9.1280     2.3180 
  151.3750    86.7220     8.2990     6.4910     7.8170    23.0640    -9.4800     2.3060 
  151.5000    85.8690     8.5330     6.8080     7.5700    22.9280    -9.8370     2.2970 
  151.6250    81.8870     8.7300     7.0490     7.4090    22.6750   -10.1700     2.2920 
  151.7500    79.7270     9.0420     7.2920     7.9100    22.6420   -10.5260     2.2860 
  151.8750    80.5330     9.4890     7.5900     8.5440    22.6180   -10.8960     2.2780 
  152.0000    81.3730    10.0080     7.9420     8.9490    22.5700   -11.2580     2.2670 
  152.1250    81.8100    10.4910     8.2990     9.3470    22.5580   -11.5860     2.2540 
  152.2500    81.5040    10.8240     8.5800     9.9800    22.5420   -11.8560     2.2440 
  152.3750    80.4460    11.0240     8.7660    10.0070    22.5190   -12.1050     2.2400 
  152.5000    79.9610    11.1490     8.8890     9.5670    22.5130   -12.3490     2.2430 
  152.6250    81.8120    11.2650     9.0080     9.2080    22.4950   -12.5630     2.2520 
  152.7500    83.0560    11.4610     9.2010     9.4020    22.5410   -12.6360     2.2610 
  152.8750    81.5300    11.8020     9.5150    10.0520    22.7800   -12.6330     2.2680 
  153.0000    78.3440    12.3060     9.9650    10.6030    22.9470   -12.6390     2.2730 
  153.1250    75.0610    12.9160    10.5150    10.7670    22.8390   -12.6730     2.2750 
  153.2500    71.3170    13.4680    11.0510    10.9850    22.4920   -12.7350     2.2770 
  153.3750    69.2040    13.7910    11.4250    12.3600    22.2420   -12.7890     2.2790 
  153.5000    70.3690    13.7940    11.5520    14.5580    22.1430   -12.8010     2.2770 
  153.6250    72.6220    13.5430    11.4530    13.4090    22.1290   -12.8190     2.2710 
  153.7500    72.7760    13.2960    11.2940    11.1280    22.1350   -12.9230     2.2680 
  153.8750    71.9540    13.3190    11.2880    10.4300    22.1230   -13.0780     2.2730 
  154.0000    71.4540    13.7120    11.5440    10.9700    22.1040   -13.2110     2.2800 
  154.1250    72.5170    14.4100    12.0700    12.4870    22.0910   -13.2650     2.2860 
  154.2500    75.9520    15.1840    12.7580    14.3140    22.0670   -13.2480     2.2890 
  154.3750    79.6930    15.7790    13.3880    14.8680    22.0270   -13.2370     2.2880 
  154.5000    79.5050    16.1800    13.8690    13.8060    21.9600   -13.2450     2.2860 
  154.6250    74.2580    16.6060    14.2890    12.7950    21.9090   -13.1910     2.2840 
  154.7500    70.0370    17.4870    14.9400    13.7880    21.8640   -12.9880     2.2760 
  154.8750    69.9500    19.0200    16.0430    15.7060    21.8090   -12.6820     2.2600 
  155.0000    72.3950    21.2350    17.7110    18.4140    21.8840   -12.3430     2.2410 
  155.1250    73.2620    23.9500    19.8910    20.9810    22.2620   -12.0190     2.2270 
