~V
VERS. 2.00: Ver 2.00
~W
STRT.M 52.0000:
STOP.M 233.0000:
STEP.M 0.1250:
NULL. -999.2500:
UWI. F10175:
~C
DEPT.M :
GR.API :
RML.OHMM :
RI. :
RXO.OHMM :
CALI.CM :
DEN.GM/CC :
SP.MV :
~A
# ...
  108.2500    70.7770     8.8170     7.9900     7.9900    23.4650     2.2140   -11.7550 
  108.3750    69.0130     8.3180     7.5840     7.7890    23.5030     2.1950   -12.1130 
  108.5000    68.7940     8.0040     7.3490     7.5540    23.5610     2.1790   -12.2440 
  108.6250    69.6840     7.9320     7.2570     7.7720    23.6490     2.1640   -12.1710 
  108.7500    70.9110     8.1470     7.3430     8.1510    23.7700     2.1560   -11.9230 
  108.8750    70.2650     8.6980     7.7180     8.0950    23.9040     2.1690   -11.4870 
  109.0000    67.1110     9.5010     8.4190     7.9150    24.0160     2.2160   -10.9370 
  109.1250    64.2580    10.2060     9.2500     9.0130    24.0510     2.3070   -10.1720 
  109.2500    65.6970    10.3930     9.6830    13.8050    24.0670     2.4110    -9.3060 
  109.3750    69.4210     9.8430     9.2930    22.6520    24.1310     2.4910    -8.3930 
  109.5000    72.5090     8.6580     8.1100    20.0630    24.2850     2.5170    -7.5530 
  109.6250    77.0650     7.2520     6.6550     9.3120    24.6290     2.4740    -6.9270 
  109.7500    83.3010     6.1240     5.4770     4.9810    24.8600     2.4000    -6.4270 
  109.8750    88.3130     5.4720     4.7410     4.1410    24.6120     2.3260    -6.0680 
  110.0000    90.0650     5.2890     4.4430     4.6970    24.1430     2.2730    -5.8650 
  110.1250    87.8760     5.5000     4.5580     5.1830    23.8710     2.2490    -5.8650 
  110.2500    84.2010     5.8980     4.8990     5.4700    23.8250     2.2430    -6.0070 
  110.3750    80.5230     6.3790     5.3390     5.6040    23.8380     2.2460    -6.3090 
  110.5000    77.3180     6.8830     5.7940     5.6810    23.8790     2.2490    -6.7250 
  110.6250    74.6590     7.3910     6.2420     5.9560    23.9300     2.2450    -7.1050 
  110.7500    72.1380     7.8850     6.6910     6.9270    23.9500     2.2360    -7.5010 
  110.8750    70.6290     8.3270     7.1090     7.5070    23.8680     2.2260    -7.8930 
  111.0000    70.3640     8.6560     7.4330     7.5420    23.6610     2.2180    -8.2390 
  111.1250    70.7860     8.7990     7.5680     7.3730    23.4240     2.2180    -8.5930 
  111.2500    71.3350     8.7890     7.5280     7.2240    23.2380     2.2220    -8.9250 
  111.3750    72.3120     8.6770     7.3630     7.1250    23.0960     2.2240    -9.1690 
  111.5000    73.0800     8.5280     7.1460     7.1580    22.8600     2.2210    -9.2680 
  111.6250    72.1670     8.4100     6.9540     7.0690    22.6050     2.2110    -9.2790 
  111.7500    70.2990     8.3550     6.8220     6.9490    22.4790     2.1990    -9.2160 
  111.8750    69.4030     8.3690     6.7670     6.8870    22.4640     2.1890    -9.1770 
  112.0000    70.3640     8.4460     6.7860     6.9130    22.4880     2.1810    -9.1960 
  112.1250    71.9640     8.5650     6.8700     6.8980    22.5000     2.1780    -9.1880 
  112.2500    74.4160     8.6840     6.9740     6.9660    22.5040     2.1780    -9.1960 
  112.3750    75.4670     8.7720     7.0650     7.0190    22.5040     2.1790    -9.1660 
  112.5000    71.5870     8.8150     7.1200     7.0810    22.5030     2.1790    -9.1640 
  112.6250    66.5330     8.8100     7.1320     7.2290    22.5050     2.1770    -9.1500 
  112.7500    65.7230     8.7900     7.1250     7.2390    22.5300     2.1730    -9.1540 
  112.8750    67.4340     8.7760     7.1230     7.1870    22.6030     2.1720    -9.1300 
  113.0000    68.0500     8.7730     7.1450     7.2940    22.7050     2.1750    -9.0480 
  113.1250    67.6250     8.7520     7.1830     7.6390    22.8060     2.1800    -8.9940 
  113.2500    66.6560     8.6760     7.1950     7.8170    22.8700     2.1820    -8.9250 
  113.3750    66.0000     8.5220     7.1440     7.8020    22.8970     2.1790    -8.8750 
  113.5000    67.1770     8.3040     7.0190     7.7460    22.9130     2.1720    -8.8600 
  113.6250    69.6570     8.0810     6.8620     7.4990    22.9180     2.1660    -8.8700 
  113.7500    69.5450     7.9240     6.7510     7.1200    22.8680     2.1650    -8.8440 
  113.8750    68.8920     7.8520     6.7250     6.8580    22.7890     2.1690    -8.7740 
  114.0000    71.5710     7.8310     6.7650     7.1430    22.7530     2.1780    -8.6600 
  114.1250    75.3230     7.7580     6.7780     7.6160    22.7670     2.1930    -8.4930 
  114.2500    77.8650     7.5530     6.6640     7.7390    22.8750     2.2120    -8.2750 
  114.3750    81.0260     7.1910     6.3780     7.1310    23.1940     2.2370    -8.0560 
  114.5000    84.1440     6.7090     5.9540     6.0380    23.7880     2.2620    -7.8060 
  114.6250    84.4100     6.2000     5.4810     5.4040    24.5100     2.2800    -7.5950 
  114.7500    82.8580     5.7570     5.0600     5.4100    24.9200     2.2860    -7.4270 
  114.8750    83.9370     5.4220     4.7340     5.5250    25.0110     2.2800    -7.3270 
  115.0000    87.6500     5.1960     4.5080     5.3660    24.9660     2.2680    -7.2560 
  115.1250    89.2280     5.0640     4.3730     4.9720    24.9360     2.2580    -7.1920 
  115.2500    88.0980     4.9820     4.2870     4.7790    24.9020     2.2570    -7.2040 
  115.3750    86.7600     4.9360     4.2310     4.8250    24.8760     2.2670    -7.2150 
  115.5000    86.3410     4.9270     4.2050     5.1130    24.8700     2.2830    -7.2170 
  115.6250    85.5390     4.9820     4.2270     4.9180    24.9140     2.2980    -7.1330 
  115.7500    84.2170     5.1150     4.3120     4.6950    24.9600     2.3010    -7.0390 
  115.8750    83.7420     5.3390     4.4730     4.7340    24.9160     2.2910    -6.9400 
  116.0000    84.8620     5.6510     4.7110     5.0890    24.4920     2.2690    -6.9190 
  116.1250    85.1260     6.0260     5.0100     5.6670    23.8640     2.2430    -7.0340 
  116.2500    82.3250     6.3920     5.3020     6.1750    23.4360     2.2230    -7.1620 
  116.3750    76.4550     6.6860     5.5240     6.3660    23.5340     2.2120    -7.3280 
  116.5000    69.4950     6.8570     5.6280     6.3890    23.9430     2.2100    -7.5660 
  116.6250    65.6040     6.8650     5.5830     6.3930    24.1490     2.2170    -7.8380 
  116.7500    65.8690     6.7750     5.4490     6.4150    24.1940     2.2240    -8.0800 
  116.8750    69.7600     6.6700     5.2940     6.4950    24.1760     2.2290    -8.2600 
  117.0000    74.4750     6.6860     5.2080     6.6070    24.1450     2.2300    -8.3550 
  117.1250    75.6670     7.0780     5.3560     6.7830    24.1350     2.2390    -8.2810 
  117.2500    72.8040     8.0050     5.8650     7.1070    24.1910     2.2690    -8.1350 
  117.3750    67.6910     9.5720     6.8820     8.0830    24.3880     2.3280    -7.9510 
  117.5000    64.2270    11.6800     8.4940    10.4320    25.2510     2.4110    -7.6890 
  117.6250    63.6620    13.8390    10.6020    15.4790    26.2940     2.4910    -7.5080 
  117.7500    64.4750    15.2920    12.4600    20.8890    26.5290     2.5360    -7.4040 
  117.8750    68.1770    15.5200    13.2160    22.4640    25.3590     2.5310    -7.4030 
  118.0000    75.1570    14.4680    12.5220    16.9140    24.3810     2.4820    -7.4560 
  118.1250    80.3890    12.5860    10.9060    10.3270    24.0690     2.4080    -7.5520 
  118.2500    80.0340    10.7810     9.3920     8.5180    23.8580     2.3410    -7.6080 
  118.3750    76.3730     9.5140     8.3620     8.3430    23.7430     2.2940    -7.6020 
  118.5000    72.5600     8.8780     7.8620     8.6050    23.6430     2.2700    -7.5140 
  118.6250    71.1910     8.6910     7.7660     8.9970    23.5960     2.2660    -7.2090 
  118.7500    72.0590     8.5320     7.6980     9.2980    23.5920     2.2730    -6.7610 
  118.8750    73.8800     8.1670     7.3940     8.7690    23.5750     2.2870    -6.1430 
  119.0000    76.2180     7.5250     6.7600     7.2380    23.5320     2.3030    -5.4570 
  119.1250    80.0540     6.6740     5.9040     5.2920    23.5070     2.3160    -4.8960 
  119.2500    84.9480     5.8220     5.0730     4.2830    23.5170     2.3230    -4.5090 
  119.3750    87.0530     5.1090     4.3920     4.1730    23.5400     2.3230    -4.2920 
