~V
VERS. 2.00: Ver 2.00
~W
STRT.M 55.0000:
STOP.M 251.0000:
STEP.M 0.1250:
NULL. -999.2500:
UWI. F10189:
~C
DEPT.M :
DEN.GM/CC :
SP.MV :
GR.API :
RML.OHMM :
RI. :
RXO.OHMM :
CALI.CM :
~A
# ...
  223.7500     2.3540   -29.3300    91.4240     8.1060     6.9340    11.7730    24.1740 
  223.8750     2.3540   -29.6840    92.9100     8.3030     7.0460    12.1380    24.3480 
  224.0000     2.3530   -30.0410    94.9630     8.6090     7.2550    13.2410    24.3890 
  224.1250     2.3520   -30.4630    95.8020     9.0510     7.5910    14.9980    24.3640 
  224.2500     2.3510   -30.9600    91.3190     9.5980     8.0140    16.7300    24.3020 
  224.3750     2.3480   -31.4570    82.0530    10.1910     8.4760    18.1070    24.2000 
  224.5000     2.3420   -31.9030    74.4280    10.7360     8.9110    18.3410    24.0510 
  224.6250     2.3370   -32.2420    73.0930    11.1210     9.2450    16.6510    23.9570 
  224.7500     2.3380   -32.5620    74.3980    11.3660     9.4840    15.7400    23.9740 
  224.8750     2.3430   -32.8550    76.3000    11.5270     9.6580    15.7530    24.0770 
  225.0000     2.3410   -33.0990    77.8020    11.6730     9.8080    16.2590    24.1890 
  225.1250     2.3290   -33.1820    77.3880    11.8690     9.9610    16.9420    24.2410 
  225.2500     2.3190   -33.1150    75.3800    12.1090    10.1110    17.0600    24.2510 
  225.3750     2.3210   -32.9560    74.9520    12.3480    10.2350    16.9220    24.2540 
  225.5000     2.3350   -32.7150    77.9560    12.5320    10.3170    16.6560    24.2440 
  225.6250     2.3540   -32.4400    80.8000    12.6060    10.3430    16.3260    24.0610 
  225.7500     2.3660   -32.0830    80.1460    12.5760    10.3190    16.0820    23.6790 
  225.8750     2.3700   -31.6760    77.3910    12.4480    10.2440    16.1580    23.3770 
  226.0000     2.3710   -31.2500    75.0210    12.2300    10.1200    16.3320    23.4300 
  226.1250     2.3660   -30.8490    74.7600    11.9030     9.9390    15.7360    23.8460 
  226.2500     2.3570   -30.4560    73.2960    11.5090     9.7200    14.8110    24.2560 
  226.3750     2.3470   -30.0690    72.2910    11.1360     9.4910    14.3290    24.4990 
  226.5000     2.3420   -29.6510    75.3290    10.8710     9.2950    14.3110    24.5370 
  226.6250     2.3360   -29.2240    80.8940    10.7720     9.1910    14.5970    24.5030 
  226.7500     2.3240   -28.7840    81.7550    10.7830     9.1850    14.7660    24.4680 
  226.8750     2.3140   -28.3630    76.9550    10.8680     9.2620    14.5740    24.4650 
  227.0000     2.3140   -27.9420    71.7410    11.0230     9.3960    14.4310    24.4940 
  227.1250     2.3230   -27.4610    70.8880    11.2740     9.5720    14.7560    24.4930 
  227.2500     2.3300   -26.9590    72.0140    11.5910     9.7770    15.3120    24.4650 
  227.3750     2.3310   -26.4300    71.4020    11.9170    10.0000    16.0780    24.4320 
  227.5000     2.3310   -25.9580    68.6180    12.1770    10.2170    16.7640    24.4030 
  227.6250     2.3360   -25.4760    68.5710    12.2980    10.3920    17.0370    24.3540 
  227.7500     2.3470   -25.0430    72.1050    12.2940    10.5000    17.1360    24.2820 
  227.8750     2.3630   -24.6280    75.6240    12.2020    10.5260    16.7590    24.2090 
  228.0000     2.3760   -24.1880    76.3030    12.0690    10.4820    16.1040    24.1870 
  228.1250     2.3830   -23.7470    75.6230    11.9480    10.4080    16.1900    24.2200 
  228.2500     2.3880   -23.3150    75.6680    11.8920    10.3660    17.0700    24.2470 
  228.3750     2.3940   -22.8700    75.5500    12.0000    10.4380    18.3960    24.2480 
  228.5000     2.4030   -22.3940    75.2420    12.4210    10.7350    19.4970    24.2580 
  228.6250     2.4100   -21.8780    75.1140    13.4010    11.4500    20.1550    24.2940 
  228.7500     2.4170   -21.2890    72.7480    14.9390    12.6210    21.1010    24.3160 
  228.8750     2.4320   -20.6450    68.1500    16.9150    14.2280    22.7420    24.3040 
  229.0000     2.4560   -20.0070    63.8730    18.9450    16.0450    25.2850    24.2850 
  229.1250     2.4790   -19.4310    64.8830    20.1970    17.4440    27.6030    24.2440 
  229.2500     2.4900   -18.8380    68.6120    20.1780    17.8800    28.2580    24.2300 
  229.3750     2.4850   -18.2880    71.8830    18.8770    17.1850    26.2100    24.2380 
  229.5000     2.4680   -17.7370    73.9540    16.7480    15.6060    22.2170    24.2760 
  229.6250     2.4510   -17.2530    74.4020    14.4070    13.6110    19.5040    24.2980 
  229.7500     2.4380   -16.8210    73.1290    12.2710    11.6640    17.2520    24.2950 
  229.8750     2.4150   -16.4210    69.9520    10.4250     9.9190    15.8870    24.2590 
  230.0000     2.3760   -16.0340    66.3260     8.8890     8.4400    14.0280    24.2300 
  230.1250     2.3410   -15.5930    64.0870     7.7360     7.3210    11.0040    24.2100 
  230.2500     2.3230   -15.1790    61.3670     6.9130     6.5220     8.5330    24.1990 
  230.3750     2.3170   -14.8120    57.7950     6.4150     6.0280     7.4220    24.1770 
  230.5000     2.3140   -14.4840    55.9760     6.2170     5.8020     7.1790    24.1380 
  230.6250     2.3140   -14.1940    58.1760     6.2710     5.8030     6.9630    24.1070 
  230.7500     2.3200   -13.9530    60.0310     6.4200     5.9020     6.8730    24.0930 
  230.8750     2.3330   -13.7480    58.9540     6.5790     6.0300     6.7390    24.0910 
  231.0000     2.3470   -13.6290    55.8450     6.7030     6.1480     6.5640    24.0910 
  231.1250     2.3510   -13.6230    54.9300     6.7850     6.2250     6.2470    24.0910 
  231.2500     2.3430   -13.6200    56.6210     6.8520     6.2550     6.1410    24.0910 
  231.3750     2.3290   -13.5760    59.6060     6.9230     6.2460     6.1510    24.0910 
  231.5000     2.3150   -13.4950    61.6140     7.0060     6.2180     6.3050    24.0910 
  231.6250     2.3060   -13.4020    59.1580     7.0890     6.1990     6.8460    24.0910 
  231.7500     2.3080   -13.2780    54.6930     7.1740     6.2080     7.4670    24.0910 
  231.8750     2.3240   -13.1550    52.5590     7.2670     6.2510     7.8480    24.0870 
  232.0000     2.3460   -12.9760    55.6610     7.3680     6.3200     8.0980    24.0760 
  232.1250     2.3650   -12.8040    62.8350     7.4790     6.4020     7.8710    24.0520 
  232.2500     2.3810   -12.6890    66.7340     7.5950     6.4850     8.0310    24.0420 
  232.3750     2.4010   -12.6480    65.0060     7.7060     6.5590     8.7700    24.0390 
  232.5000     2.4230   -12.6400    60.4950     7.7900     6.6220    10.0810    24.0390 
  232.6250     2.4390   -12.6510    55.2430     7.8280     6.6700    11.2760    24.0350 
  232.7500     2.4420   -12.6980    51.8560     7.8330     6.7040    11.7240    24.0190 
  232.8750     2.4350   -12.7360    52.2510     7.8200     6.7200    10.9850    23.9820 
  233.0000     2.4260   -12.7750    58.2420     7.8230     6.7220    10.2950    23.9350 
  233.1250     2.4210   -12.7650    66.8090     7.9100     6.7360    10.0950    23.8870 
  233.2500     2.4190   -12.7200    70.3620     8.1070     6.7920    10.6300    23.8700 
  233.3750     2.4180   -12.6740    67.8940     8.4130     6.9120    11.7240    23.9120 
  233.5000     2.4180   -12.6530    62.9670     8.7960     7.1060    12.8350    23.9620 
  233.6250     2.4180   -12.5880    60.6510     9.1870     7.3720    13.4390    23.9910 
  233.7500     2.4130   -12.4850    60.9460     9.5150     7.6680    13.2510    23.9840 
  233.8750     2.4060   -12.4040    60.8430     9.7500     7.9620    12.8670    23.9090 
  234.0000     2.4010   -12.3840    59.5060     9.8930     8.2250    13.0070    23.7460 
  234.1250     2.4010   -12.4210    59.6760     9.9600     8.4250    13.3240    23.5140 
  234.2500     2.4010   -12.4730    61.7490    10.0100     8.5650    13.3380    23.4520 
  234.3750     2.4030   -12.5060    63.5310    10.0840     8.6620    12.5860    23.6630 
  234.5000     2.4120   -12.5370    63.8520    10.2000     8.7350    12.1420    23.8650 
  234.6250     2.4250   -12.5630    63.7830    10.3500     8.7990    12.2750    23.8690 
  234.7500     2.4340   -12.6010    64.0540    10.4990     8.8630    12.4870    23.7980 
  234.8750     2.4370   -12.6530    64.2820    10.6240     8.9290    12.5390    23.7600 
