~V
VERS. 2.00: Ver 2.00
~W
STRT.M 50.0000:
STOP.M 237.0000:
STEP.M 0.1250:
NULL. -999.2500:
UWI. F10163:
~C
DEPT.M :
DEN.GM/CC :
GR.API :
RML.OHMM :
RI. :
RXO.OHMM :
CALI.CM :
SP.MV :
~A
# ...
   95.0000     2.1480    63.6280     7.8680     7.1540    10.2340    24.3220   -24.8900 
   95.1250     2.1480    62.1170     7.7480     7.1480    10.1300    24.2970   -25.0660 
   95.2500     2.1460    61.1840     7.6960     7.1320    10.0180    24.2050   -25.2350 
   95.3750     2.1420    62.2620     7.7090     7.1080    10.0350    24.0110   -25.3630 
   95.5000     2.1390    66.6050     7.7510     7.0780    10.2390    23.8550   -25.4330 
   95.6250     2.1420    70.9220     7.7820     7.0430    10.2730    23.8130   -25.4620 
   95.7500     2.1510    71.7530     7.8030     7.0130    10.1260    23.7650   -25.4430 
   95.8750     2.1650    71.3100     7.8360     6.9990    10.0150    23.7380   -25.4230 
   96.0000     2.1800    73.7550     7.8970     7.0140    10.2140    23.7170   -25.4270 
   96.1250     2.1880    77.4060     7.9830     7.0700    10.5800    23.6670   -25.4350 
   96.2500     2.1900    76.8360     8.0690     7.1520    10.8650    23.6870   -25.4400 
   96.3750     2.1850    73.1360     8.1440     7.2450    10.9190    23.6720   -25.4400 
   96.5000     2.1780    68.2630     8.1980     7.3220    10.9160    23.6540   -25.4400 
   96.6250     2.1710    66.5240     8.2110     7.3580    10.9700    23.6450   -25.4410 
   96.7500     2.1670    67.4010     8.1740     7.3570    10.9920    23.6500   -25.4400 
   96.8750     2.1660    69.5870     8.0840     7.3340    11.0190    23.6510   -25.4010 
   97.0000     2.1680    71.3950     7.9570     7.3070    11.0500    23.6560   -25.3360 
   97.1250     2.1730    69.7720     7.8330     7.2910    11.1390    23.6820   -25.2140 
   97.2500     2.1800    65.8880     7.7510     7.2910    11.2430    23.6990   -25.0520 
   97.3750     2.1850    62.3250     7.7290     7.3030    11.2990    23.5580   -24.8540 
   97.5000     2.1860    61.6980     7.7560     7.3180    11.2290    23.4870   -24.6340 
   97.6250     2.1810    61.6960     7.7970     7.3230    11.2580    23.4740   -24.4190 
   97.7500     2.1720    59.4590     7.8120     7.3040    11.1570    23.4740   -24.1880 
   97.8750     2.1630    60.4110     7.7830     7.2520    10.9470    23.4740   -23.9080 
   98.0000     2.1560    66.7020     7.7000     7.1650    10.7130    23.4740   -23.5600 
   98.1250     2.1540    73.0670     7.5510     7.0400    10.4360    23.4800   -23.2090 
   98.2500     2.1560    74.6950     7.3530     6.8860    10.0960    23.5240   -22.8490 
   98.3750     2.1610    72.8340     7.1300     6.7160     9.7210    23.7560   -22.4840 
   98.5000     2.1690    70.6190     6.9200     6.5480     9.2040    24.0690   -22.1680 
   98.6250     2.1790    69.9610     6.7920     6.4200     8.7730    24.0650   -21.9470 
   98.7500     2.1880    70.0540     6.7730     6.3590     8.6150    23.9130   -21.8230 
   98.8750     2.1950    69.2090     6.8620     6.3830     8.7370    23.6980   -21.8140 
   99.0000     2.1950    67.2610     7.0220     6.4830     9.0790    23.4160   -21.8990 
   99.1250     2.1900    65.9030     7.1770     6.6220     9.5910    23.3460   -22.0320 
   99.2500     2.1800    66.0450     7.2550     6.7390     9.9810    23.3680   -22.1830 
   99.3750     2.1680    66.8060     7.2220     6.7890    10.1780    23.3170   -22.3340 
   99.5000     2.1600    67.0280     7.0890     6.7580    10.2350    23.2490   -22.4240 
   99.6250     2.1590    67.4420     6.9040     6.6600    10.0230    23.3010   -22.3880 
   99.7500     2.1670    69.1950     6.7400     6.5500     9.6250    23.4280   -22.2810 
   99.8750     2.1790    70.8540     6.6370     6.4650     9.3940    23.4940   -22.1330 
  100.0000     2.1900    69.9780     6.6070     6.4320     9.4870    23.4260   -21.9540 
  100.1250     2.1930    68.4600     6.6300     6.4610     9.6740    23.3280   -21.7530 
  100.2500     2.1880    69.3590     6.6620     6.5240     9.6880    23.3150   -21.5330 
  100.3750     2.1810    71.6240     6.6900     6.5980     9.7170    23.3000   -21.3040 
  100.5000     2.1770    73.5790     6.7150     6.6610     9.8520    23.2980   -21.0820 
  100.6250     2.1760    74.5640     6.7380     6.6930     9.9070    23.2950   -20.8730 
  100.7500     2.1780    75.7530     6.7400     6.6860     9.8460    23.2800   -20.6330 
  100.8750     2.1800    74.8500     6.6840     6.6210     9.7420    23.3180   -20.3340 
  101.0000     2.1810    71.3180     6.5390     6.4800     9.5840    23.4810   -19.9650 
  101.1250     2.1840    70.6680     6.2940     6.2430     9.3150    23.7950   -19.5370 
  101.2500     2.1940    74.6090     6.0070     5.9580     8.9020    23.8740   -19.1280 
  101.3750     2.2110    78.9130     5.7470     5.6790     8.4330    23.8490   -18.7930 
  101.5000     2.2300    78.6790     5.5910     5.4710     8.2400    23.8260   -18.5490 
  101.6250     2.2450    76.3240     5.6410     5.4230     7.9100    23.7760   -18.4240 
  101.7500     2.2510    75.4150     5.8900     5.5450     8.0090    23.5860   -18.4200 
  101.8750     2.2500    75.2650     6.2950     5.8330     8.7000    23.3990   -18.5500 
  102.0000     2.2460    75.4710     6.7720     6.2490     9.4750    23.2360   -18.8110 
  102.1250     2.2440    76.3700     7.2140     6.7240    10.2210    23.0270   -19.1620 
  102.2500     2.2460    76.9750     7.5670     7.1660    10.7470    22.9080   -19.4980 
  102.3750     2.2460    74.8220     7.8250     7.5200    10.9220    22.9660   -19.7650 
  102.5000     2.2420    71.6560     7.9790     7.7550    10.8820    23.1040   -19.9160 
  102.6250     2.2300    70.7670     7.9420     7.8060    10.9570    23.1720   -19.8780 
  102.7500     2.2180    69.9760     7.6620     7.6460    10.9690    23.1820   -19.6660 
  102.8750     2.2150    68.2270     7.1310     7.2550    10.7230    23.1570   -19.3070 
  103.0000     2.2230    66.3930     6.4380     6.6780     9.9210    23.1980   -18.8540 
  103.1250     2.2440    66.3640     5.7790     6.0520     8.3130    23.2000   -18.3920 
  103.2500     2.2660    67.5130     5.3390     5.5500     6.8800    23.1880   -18.0210 
  103.3750     2.2840    70.3250     5.2180     5.2810     6.1520    23.1950   -17.8150 
  103.5000     2.2930    74.9080     5.4400     5.2970     6.3450    23.1790   -17.8160 
  103.6250     2.2940    79.1530     6.0040     5.6350     7.1800    23.1320   -18.0500 
  103.7500     2.2890    80.8630     6.7290     6.1770     8.8820    23.1240   -18.4450 
  103.8750     2.2790    79.2350     7.4310     6.8000    10.5600    23.1210   -18.9960 
  104.0000     2.2590    74.9250     7.9200     7.3450    11.3330    23.1170   -19.6530 
  104.1250     2.2320    70.0540     8.0460     7.6290    11.1830    23.1000   -20.3420 
  104.2500     2.2040    66.7090     7.9150     7.6580    10.8920    23.1180   -20.9500 
  104.3750     2.1840    65.9270     7.6590     7.5070    10.4000    23.1680   -21.3940 
  104.5000     2.1760    66.9760     7.4020     7.2800     9.6550    23.1320   -21.6860 
  104.6250     2.1820    66.7330     7.2420     7.0850     9.1340    23.1200   -21.8810 
  104.7500     2.1910    65.7170     7.1890     6.9710     8.9500    23.0900   -22.0490 
  104.8750     2.1980    65.6840     7.2260     6.9400     9.2110    23.0960   -22.1530 
  105.0000     2.1990    65.8390     7.3160     6.9670     9.4920    23.0790   -22.1990 
  105.1250     2.1940    66.3800     7.4030     7.0130     9.5670    23.0570   -22.2350 
  105.2500     2.1880    67.5470     7.4440     7.0380     9.5960    23.0140   -22.3240 
  105.3750     2.1830    68.7590     7.4340     7.0250     9.6750    22.9300   -22.4670 
  105.5000     2.1800    68.8510     7.3980     6.9810     9.7150    22.9180   -22.6200 
  105.6250     2.1790    69.5020     7.3680     6.9280     9.6910    22.9400   -22.7230 
  105.7500     2.1780    71.1410     7.3590     6.8830     9.7580    22.9370   -22.7750 
  105.8750     2.1750    70.6680     7.3650     6.8530     9.9200    22.8940   -22.8130 
  106.0000     2.1710    68.5800     7.3770     6.8430    10.0360    22.8730   -22.8640 
  106.1250     2.1650    65.9920     7.3840     6.8490     9.9550    22.8690   -22.9110 
