~V
VERS. 2.00: Ver 2.00
~W
STRT.M 57.0000:
STOP.M 247.0000:
STEP.M 0.1250:
NULL. -999.2500:
UWI. F10194:
~C
DEPT.M :
SP.MV :
DEN.GM/CC :
GR.API :
RML.OHMM :
RI. :
RXO.OHMM :
CALI.CM :
~A
# ...
  203.2500   -23.7140     2.4310    97.8370     9.0840     7.5030     9.2150    25.1900 
  203.3750   -23.8060     2.3840    93.1910     9.5520     7.8750     9.5450    25.5650 
  203.5000   -24.0640     2.3520    90.8280    10.0310     8.2950     9.9320    25.6410 
  203.6250   -24.3300     2.3470    90.4040    10.4520     8.6780    10.3850    25.3290 
  203.7500   -24.4820     2.3610    90.7700    10.7340     8.9490    10.8750    24.9060 
  203.8750   -24.4540     2.3740    91.8350    10.7360     8.9940    11.2930    24.6650 
  204.0000   -24.2140     2.3770    92.9770    10.3840     8.7460    11.4940    24.5720 
  204.1250   -23.7050     2.3710    93.0420     9.7210     8.2190    11.2480    24.5020 
  204.2500   -22.8710     2.3570    91.1750     8.8780     7.5050    10.2250    24.4280 
  204.3750   -21.7340     2.3440    85.9520     7.9880     6.7660     8.3900    24.3340 
  204.5000   -20.4220     2.3430    77.5950     7.2080     6.1490     6.7220    24.2200 
  204.6250   -19.1000     2.3560    69.4280     6.6040     5.7220     5.9000    24.1420 
  204.7500   -17.8430     2.3760    64.6810     6.0580     5.4810     5.6070    24.0970 
  204.8750   -16.7060     2.3910    63.8780     5.8290     5.3820     5.4190    24.1040 
  205.0000   -15.7410     2.3960    65.9840     5.8150     5.3490     5.2120    24.1190 
  205.1250   -15.0380     2.3950    70.2660     5.7810     5.3190     5.0260    23.9350 
  205.2500   -14.6400     2.3910    75.9580     5.7190     5.2670     4.8970    23.6220 
  205.3750   -14.5370     2.3910    81.5240     5.6520     5.1950     4.8410    23.4280 
  205.5000   -14.6460     2.4030    86.1960     5.6110     5.1270     4.8950    23.4510 
  205.6250   -14.8810     2.4220    90.7000     5.6110     5.0850     5.0830    23.6010 
  205.7500   -15.1950     2.4410    95.0300     5.6630     5.0870     5.3700    23.7990 
  205.8750   -15.5920     2.4500    96.8190     5.7920     5.1570     5.6680    24.0090 
  206.0000   -16.0560     2.4420    94.8490     6.0220     5.3150     5.9470    24.1840 
  206.1250   -16.5520     2.4230    91.6470     6.3710     5.5740     6.2710    24.3050 
  206.2500   -17.0580     2.4050    90.1060     6.8440     5.9380     6.7700    24.3760 
  206.3750   -17.5380     2.3870    90.2650     7.4190     6.4030     7.5740    24.4140 
  206.5000   -17.9690     2.3630    90.2720     8.0330     6.9260     8.6050    24.4290 
  206.6250   -18.3820     2.3340    89.2060     8.6170     7.4510     9.5040    24.4400 
  206.7500   -18.8070     2.3070    87.6210     9.1230     7.9270    10.0120    24.4490 
  206.8750   -19.1540     2.2910    86.1650     9.5110     8.2980    10.2800    24.4550 
  207.0000   -19.3760     2.2870    85.2260     9.7720     8.5400    10.5010    24.4250 
  207.1250   -19.5400     2.2910    84.3970     9.9160     8.6600    10.6770    24.3870 
  207.2500   -19.6540     2.2950    82.5290     9.9710     8.6870    10.7570    24.3730 
  207.3750   -19.7020     2.2950    79.8880     9.9920     8.6750    10.6550    24.3710 
  207.5000   -19.7180     2.2930    78.6300    10.0620     8.6980    10.4040    24.3680 
  207.6250   -19.7250     2.2920    80.1760    10.2580     8.8270    10.1790    24.3500 
  207.7500   -19.7420     2.2930    83.4650    10.6400     9.1140    10.2290    24.2910 
  207.8750   -19.8440     2.2920    85.6330    11.2590     9.6140    10.7280    24.1100 
  208.0000   -20.0560     2.2890    84.7890    12.0960    10.3210    11.3730    23.8190 
  208.1250   -20.2730     2.2830    81.5850    13.0810    11.1870    12.0900    23.5160 
  208.2500   -20.4770     2.2750    78.7780    14.1180    12.1430    12.9690    23.2480 
  208.3750   -20.6580     2.2680    78.9540    15.0490    13.0670    13.9170    22.9760 
  208.5000   -20.7850     2.2630    80.8320    15.7360    13.8320    14.7230    22.7340 
  208.6250   -20.8190     2.2570    81.6990    16.1060    14.3490    15.2460    22.6690 
  208.7500   -20.7400     2.2520    81.1290    16.1660    14.5970    15.4610    22.9910 
  208.8750   -20.5530     2.2480    80.6890    15.9980    14.6120    15.3930    23.6010 
  209.0000   -20.2580     2.2460    81.1390    15.7620    14.5110    15.3330    24.1710 
  209.1250   -19.8440     2.2430    81.4150    15.5930    14.4130    15.5470    24.4720 
  209.2500   -19.3420     2.2390    80.1970    15.5580    14.3790    15.9720    24.5540 
  209.3750   -18.8360     2.2350    78.1190    15.6840    14.4480    16.2530    24.5690 
  209.5000   -18.3890     2.2320    77.4230    15.9500    14.6230    16.2820    24.5880 
  209.6250   -18.0000     2.2290    78.9740    16.3260    14.9000    16.2810    24.6360 
  209.7500   -17.6470     2.2240    80.8780    16.7990    15.2820    16.5090    24.7220 
  209.8750   -17.3390     2.2140    80.2020    17.3780    15.7750    17.0350    24.7910 
  210.0000   -17.0780     2.2050    77.2740    18.0670    16.3730    17.7920    24.7730 
  210.1250   -16.8960     2.2020    75.2640    18.8970    17.0870    18.6610    24.6280 
  210.2500   -16.7490     2.2060    76.2240    20.0890    17.9880    19.3680    24.3780 
  210.3750   -16.5880     2.2150    78.6510    21.8740    19.2610    20.1170    24.1840 
  210.5000   -16.4410     2.2230    79.7040    24.4180    21.0560    21.8660    24.1310 
  210.6250   -16.3640     2.2270    78.5450    27.8080    23.3950    25.4200    24.1950 
  210.7500   -16.3300     2.2200    75.9980    31.2210    26.1120    30.3710    24.3210 
  210.8750   -16.2630     2.2180    73.2410    33.8490    28.7290    34.9820    24.4080 
  211.0000   -16.2040     2.2400    71.4130    35.3040    30.6330    36.8860    24.3940 
  211.1250   -16.1920     2.2750    71.4910    35.2850    31.3630    34.9770    24.2460 
  211.2500   -16.2230     2.3080    73.2740    33.8460    30.7950    31.0340    24.0100 
  211.3750   -16.2580     2.3160    74.1020    31.4590    29.1480    27.8740    23.8160 
  211.5000   -16.2230     2.2980    72.5550    28.7990    26.9750    25.9770    23.7270 
  211.6250   -16.1170     2.2810    70.8950    26.2930    24.7320    24.3880    23.7420 
  211.7500   -16.0260     2.2770    71.8010    24.0890    22.6420    22.4940    23.8680 
  211.8750   -15.9740     2.2760    74.3440    22.3580    20.9070    20.5230    24.0400 
  212.0000   -15.8720     2.2700    75.5740    21.2800    19.7130    19.0340    24.1130 
  212.1250   -15.6920     2.2590    75.1290    21.0360    19.2400    18.1280    24.0600 
  212.2500   -15.5080     2.2490    74.7010    21.7620    19.6400    18.2580    23.9670 
  212.3750   -15.3980     2.2460    74.7290    23.5040    21.0320    20.5440    23.9000 
  212.5000   -15.3780     2.2530    73.5740    25.9650    23.2220    24.7160    23.8680 
  212.6250   -15.4180     2.2610    70.1600    28.7020    25.8370    29.1440    23.8900 
  212.7500   -15.4750     2.2590    66.0620    31.3490    28.5120    32.1940    23.9540 
  212.8750   -15.5290     2.2460    64.4010    33.6710    30.9450    33.0130    24.0180 
  213.0000   -15.6110     2.2260    65.6290    35.7700    33.1250    32.6770    24.0560 
  213.1250   -15.7450     2.2040    68.1390    37.9530    35.2880    32.9500    24.0910 
  213.2500   -15.9560     2.1850    70.1080    40.4550    37.6750    34.4680    24.1510 
  213.3750   -16.2610     2.1670    69.7950    43.2400    40.3240    37.8240    24.1580 
  213.5000   -16.5890     2.1530    67.4990    45.9150    42.9220    41.7530    24.1290 
  213.6250   -16.8970     2.1440    65.0110    47.9820    45.0120    44.3330    24.1120 
  213.7500   -17.1630     2.1410    63.0690    49.1170    46.2600    44.8270    24.1080 
  213.8750   -17.4180     2.1460    61.4910    49.3080    46.5770    43.9720    24.1130 
  214.0000   -17.7210     2.1560    61.1680    49.0790    46.3850    43.2130    24.1260 
  214.1250   -18.0420     2.1680    62.5780    49.1240    46.3020    42.9180    24.1330 
  214.2500   -18.2980     2.1840    64.4110    49.9510    46.8280    43.1750    24.1070 
  214.3750   -18.4550     2.1970    65.4460    51.9430    48.3830    43.9260    24.0740 
