~V
VERS. 2.00: Ver 2.00
~W
STRT.M 50.0000:
STOP.M 236.0000:
STEP.M 0.1250:
NULL. -999.2500:
UWI. F10144:
~C
DEPT.M :
DEN.GM/CC :
GR.API :
RML.OHMM :
RI. :
RXO.OHMM :
CALI.CM :
SP.MV :
~A
# ...
  196.2500     2.3760    72.9820    14.3100    10.7160    10.0990    23.9570   -22.3770 
  196.3750     2.3740    78.5940    16.2220    11.9930    12.3990    24.1880   -22.1770 
  196.5000     2.3640    82.3750    17.4140    12.9050    14.7650    24.3990   -21.9360 
  196.6250     2.3560    82.1580    17.0690    12.9160    17.1160    24.5370   -21.6750 
  196.7500     2.3600    80.4800    15.4490    12.0940    17.0070    24.6190   -21.4320 
  196.8750     2.3690    79.0690    13.1670    10.7410    13.5550    24.6740   -21.2340 
  197.0000     2.3750    79.1020    10.9380     9.2780     9.8600    24.7300   -21.1040 
  197.1250     2.3730    77.6620     9.3660     8.1080     8.2880    24.7680   -21.0750 
  197.2500     2.3720    72.0060     8.5030     7.3530     7.8510    24.7770   -21.1390 
  197.3750     2.3790    65.0840     8.2930     7.0330     7.7020    24.7760   -21.2840 
  197.5000     2.3890    61.1740     8.6110     7.1060     7.7900    24.7770   -21.4900 
  197.6250     2.3900    61.4670     9.3070     7.5120     7.9040    24.7770   -21.7160 
  197.7500     2.3750    62.7620    10.0450     8.0310     8.6870    24.7770   -21.9140 
  197.8750     2.3520    64.5720    10.5510     8.4690     9.8330    24.7750   -22.0450 
  198.0000     2.3310    65.4460    10.6200     8.6590    10.5600    24.7730   -22.0750 
  198.1250     2.3160    63.8950    10.1320     8.4680     9.7040    24.7710   -21.9560 
  198.2500     2.3100    62.2120     9.3460     8.0240     8.4910    24.7800   -21.7120 
  198.3750     2.3110    61.8570     8.5130     7.4800     7.5630    24.8000   -21.3710 
  198.5000     2.3170    64.2440     7.8550     6.9950     6.8180    24.8190   -20.9750 
  198.6250     2.3270    67.3130     7.5580     6.7180     6.4590    24.8270   -20.5800 
  198.7500     2.3360    70.2230     7.5700     6.6500     6.7790    24.8260   -20.2480 
  198.8750     2.3430    75.6110     7.8050     6.7560     7.9770    24.8230   -19.9990 
  199.0000     2.3450    82.8230     8.1330     6.9600     8.9640    24.8200   -19.8430 
  199.1250     2.3460    85.1580     8.3870     7.1610     9.0360    24.8200   -19.7660 
  199.2500     2.3440    79.5180     8.4810     7.2840     8.4710    24.8190   -19.7200 
  199.3750     2.3420    71.3450     8.4260     7.3120     8.3600    24.8160   -19.6700 
  199.5000     2.3420    66.3350     8.2960     7.2770     8.2950    24.8170   -19.6130 
  199.6250     2.3470    64.8240     8.1810     7.2230     7.9290    24.8200   -19.5510 
  199.7500     2.3580    64.4800     8.1290     7.1920     7.5010    24.8210   -19.5010 
  199.8750     2.3710    64.2950     8.1470     7.1910     7.5590    24.8200   -19.4790 
  200.0000     2.3820    64.2540     8.2130     7.2090     7.4800    24.8200   -19.4920 
  200.1250     2.3870    65.1410     8.2830     7.2180     7.1130    24.8180   -19.5500 
  200.2500     2.3850    65.3170     8.3230     7.2030     7.0260    24.8160   -19.6440 
  200.3750     2.3760    64.7570     8.3180     7.1620     7.1800    24.8120   -19.7740 
  200.5000     2.3630    64.1840     8.2670     7.1010     7.3750    24.8090   -19.9350 
  200.6250     2.3490    63.4540     8.1830     7.0370     7.5580    24.8080   -20.1240 
  200.7500     2.3370    64.1100     8.1200     7.0030     7.6070    24.8120   -20.3340 
  200.8750     2.3310    67.8010     8.1600     7.0480     8.1930    24.8190   -20.5500 
  201.0000     2.3300    73.2150     8.4160     7.2430     8.8560    24.8220   -20.7580 
  201.1250     2.3310    75.5730     9.0720     7.7080     9.5840    24.8190   -20.9350 
  201.2500     2.3330    75.8320    10.1430     8.4560    11.3720    24.8180   -21.0650 
  201.3750     2.3410    77.0510    11.5730     9.4710    16.0920    24.8220   -21.1390 
  201.5000     2.3620    78.7100    13.1420    10.6380    20.0930    24.8280   -21.1520 
  201.6250     2.3950    78.8770    14.3560    11.6580    18.0350    24.8320   -21.1110 
  201.7500     2.4270    77.6850    14.8020    12.2180    14.6520    24.8330   -21.0320 
  201.8750     2.4430    76.2090    14.2790    12.1140    13.7340    24.8350   -20.9170 
  202.0000     2.4410    75.4150    12.8760    11.3540    12.2760    24.8310   -20.7690 
  202.1250     2.4230    75.5870    10.9520    10.1380    11.4720    24.8080   -20.5860 
  202.2500     2.3960    75.5690     9.0900     8.8770     9.3360    24.7820   -20.3820 
  202.3750     2.3670    73.2130     7.6140     7.8050     6.8250    24.7680   -20.1780 
  202.5000     2.3400    69.1540     6.7190     7.0570     5.5220    24.7670   -20.0010 
  202.6250     2.3200    67.3590     6.5590     6.7410     6.2300    24.7660   -19.8960 
  202.7500     2.3150    68.7840     6.9100     6.7510     8.6590    24.7630   -19.8580 
  202.8750     2.3230    71.5370     7.5620     6.9960    11.9810    24.7650   -19.8990 
  203.0000     2.3380    73.4930     8.2790     7.3630    13.4450    24.7710   -20.0020 
  203.1250     2.3500    74.2820     8.8490     7.7470    11.7410    24.7620   -20.1600 
  203.2500     2.3500    74.3230     9.2740     8.1070    10.1220    24.7370   -20.3370 
  203.3750     2.3430    73.5720     9.6540     8.4590    10.9130    24.7060   -20.5180 
  203.5000     2.3370    72.7070    10.0590     8.8080    13.0600    24.6730   -20.6860 
  203.6250     2.3400    73.3100    10.4150     9.0860    13.4180    24.6450   -20.8260 
  203.7500     2.3570    74.2530    10.5960     9.2200    12.5990    24.6250   -20.9440 
  203.8750     2.3730    74.3390    10.5580     9.1910    11.6370    24.6300   -21.0440 
  204.0000     2.3730    72.7580    10.4080     9.0680    10.7100    24.6680   -21.1310 
  204.1250     2.3540    74.2210    10.4240     9.0240    10.7020    24.7210   -21.2180 
  204.2500     2.3250    80.0200    10.7830     9.1860    11.6950    24.7540   -21.3080 
  204.3750     2.3080    83.7830    11.5070     9.5920    13.0660    24.7590   -21.4040 
  204.5000     2.3100    81.0320    12.4720    10.1900    14.2400    24.7550   -21.4980 
  204.6250     2.3270    75.5830    13.3840    10.8250    15.2660    24.7580   -21.5830 
  204.7500     2.3500    74.5780    13.9410    11.2860    15.6990    24.7590   -21.6360 
  204.8750     2.3710    77.2930    14.0230    11.4520    16.3780    24.7570   -21.6570 
  205.0000     2.3930    79.7420    13.7060    11.3220    14.3580    24.7540   -21.6400 
  205.1250     2.4170    80.1310    13.1750    10.9820    12.7380    24.7540   -21.5920 
  205.2500     2.4320    79.2270    12.6520    10.6010    10.3830    24.7550   -21.5270 
  205.3750     2.4290    78.5540    12.2500    10.2730    10.5110    24.7550   -21.4510 
  205.5000     2.4090    77.2750    12.0170    10.0480    11.3540    24.7550   -21.3570 
  205.6250     2.3850    74.2810    11.9360     9.9250    11.1180    24.7580   -21.2240 
  205.7500     2.3720    73.9770    11.8730     9.8200     9.8780    24.7610   -21.0380 
  205.8750     2.3720    78.4040    11.6750     9.6390    10.2750    24.7630   -20.7850 
  206.0000     2.3820    84.0250    11.2060     9.3030    11.1000    24.7630   -20.4640 
  206.1250     2.3940    82.8760    10.4220     8.7800    10.1190    24.7590   -20.0920 
  206.2500     2.3930    77.3240     9.5620     8.2000     8.6270    24.7580   -19.7110 
  206.3750     2.3740    72.1580     8.8410     7.6920     7.7670    24.7600   -19.3590 
  206.5000     2.3390    69.7310     8.4120     7.3540     8.0580    24.7630   -19.0650 
  206.6250     2.2970    70.9160     8.3900     7.2790     8.1310    24.7540   -18.8610 
  206.7500     2.2670    73.7170     8.6420     7.4080     8.1330    24.7040   -18.7140 
  206.8750     2.2590    76.4860     8.9990     7.6470     8.7000    24.5710   -18.6120 
  207.0000     2.2760    77.5310     9.2540     7.8560     8.8670    24.3960   -18.5420 
  207.1250     2.3060    77.5410     9.1880     7.8620     9.3060    24.3380   -18.4910 
  207.2500     2.3290    78.2880     8.8000     7.6280     9.3230    24.4100   -18.4220 
  207.3750     2.3340    78.1150     8.1650     7.1780     9.1720    24.5230   -18.3250 
