~V
VERS. 2.00: Ver 2.00
~W
STRT.M 64.0000:
STOP.M 235.0000:
STEP.M 0.1250:
NULL. -999.2500:
UWI. F10178:
~C
DEPT.M :
GR.API :
RML.OHMM :
RI. :
RXO.OHMM :
CALI.CM :
DEN.GM/CC :
SP.MV :
~A
# ...
   75.2500    68.4630    10.7760     8.9200    16.3640    23.2040     2.3630   -24.8940 
   75.3750    68.6190    10.6130     8.8640    21.9200    23.2130     2.3450   -24.9850 
   75.5000    66.0800    10.2410     8.6070    16.1040    23.3620     2.2890   -24.9550 
   75.6250    62.1610     9.7900     8.2320    10.5390    23.4350     2.2290   -24.8440 
   75.7500    61.3040     9.4300     7.8890     8.6310    23.3820     2.1940   -24.7980 
   75.8750    64.6770     9.2440     7.6700     8.1810    23.1990     2.1890   -24.8190 
   76.0000    70.2150     9.2480     7.6170     8.1630    23.2290     2.2000   -24.8780 
   76.1250    74.3450     9.4010     7.7280     8.2740    23.3270     2.2140   -24.9470 
   76.2500    76.4430     9.5700     7.8990     8.2940    23.5040     2.2210   -25.0540 
   76.3750    76.6930     9.6660     8.0470     8.5950    23.6930     2.2180   -25.2380 
   76.5000    75.4030     9.6370     8.1140     8.8880    23.8150     2.2070   -25.5440 
   76.6250    71.6860     9.4810     8.0710     8.7490    23.8460     2.1870   -25.8860 
   76.7500    66.4890     9.2900     7.9710     8.2980    23.8470     2.1670   -26.1690 
   76.8750    63.0560     9.1370     7.8700     7.9130    23.8330     2.1520   -26.3760 
   77.0000    64.3740     9.0590     7.8110     7.7510    23.8070     2.1480   -26.3970 
   77.1250    66.6550     9.0260     7.7920     7.7770    23.8060     2.1520   -26.1850 
   77.2500    65.9740     8.9330     7.7350     7.9070    23.8330     2.1600   -25.7370 
   77.3750    64.8690     8.6970     7.5550     8.0310    23.8890     2.1690   -24.9810 
   77.5000    68.2950     8.2870     7.2010     7.9520    23.9670     2.1820   -23.8780 
   77.6250    76.2810     7.7340     6.6820     7.3950    24.1230     2.2020   -22.4390 
   77.7500    83.7000     7.1700     6.1340     6.3280    24.3130     2.2280   -20.8600 
   77.8750    89.9400     6.6960     5.6610     5.5720    24.4710     2.2570   -19.2420 
   78.0000    96.2840     6.3860     5.3330     5.4600    24.5630     2.2850   -17.6940 
   78.1250   103.5920     6.3100     5.2060     5.6480    24.5680     2.3090   -16.4440 
   78.2500   106.5770     6.4300     5.2440     5.7100    24.4580     2.3250   -15.5850 
   78.3750   101.9510     6.7080     5.4180     5.7460    24.2140     2.3310   -15.1640 
   78.5000    92.6750     7.0850     5.6920     6.0280    23.7980     2.3210   -15.2840 
   78.6250    85.6140     7.4770     6.0300     6.9570    23.4470     2.2940   -15.9780 
   78.7500    81.5110     7.8080     6.3660     7.9380    23.2330     2.2560   -16.9470 
   78.8750    76.1610     8.0460     6.6460     8.2810    23.1380     2.2150   -18.0700 
   79.0000    68.7820     8.2070     6.8430     8.0560    23.1160     2.1770   -19.2260 
   79.1250    63.2380     8.3410     6.9600     7.8430    23.2880     2.1520   -20.2540 
   79.2500    63.0180     8.4950     7.0500     7.7730    23.4520     2.1420   -21.1000 
   79.3750    65.1150     8.6570     7.1320     7.8030    23.2280     2.1460   -21.7010 
   79.5000    64.0710     8.7610     7.1790     8.0160    22.8750     2.1600   -21.9300 
   79.6250    60.1490     8.6950     7.1140     8.4000    22.6990     2.1760   -21.6780 
   79.7500    58.8210     8.4530     6.9180     8.2010    22.7930     2.1900   -21.0810 
   79.8750    62.8860     8.0880     6.6260     7.5040    22.9970     2.2100   -20.1900 
   80.0000    71.6320     7.7020     6.3050     6.6900    23.3290     2.2400   -19.1420 
   80.1250    84.3210     7.4210     6.0490     6.2710    23.5210     2.2780   -18.1100 
   80.2500    96.0510     7.2840     5.9020     6.4960    23.7700     2.3110   -17.2100 
   80.3750    98.9320     7.2730     5.8690     6.9350    23.9570     2.3260   -16.4970 
   80.5000    90.6650     7.3360     5.9240     6.7350    24.0580     2.3160   -15.9890 
   80.6250    80.9110     7.4230     6.0260     6.6980    24.0740     2.2890   -15.7900 
   80.7500    78.6030     7.5050     6.1240     6.7220    24.0010     2.2600   -15.8830 
   80.8750    80.6890     7.5890     6.1980     6.7840    23.9350     2.2390   -16.2070 
   81.0000    80.5260     7.6870     6.2500     6.7970    23.9100     2.2280   -16.6490 
   81.1250    78.7900     7.7910     6.2860     6.8580    23.9100     2.2240   -17.1040 
   81.2500    80.7850     7.8680     6.3000     6.9660    23.9100     2.2230   -17.4150 
   81.3750    85.8260     7.8820     6.2810     7.0700    23.9100     2.2240   -17.5240 
   81.5000    88.5780     7.8190     6.2230     7.0770    23.9100     2.2280   -17.5340 
   81.6250    87.0190     7.6770     6.1210     7.0270    23.9120     2.2380   -17.4810 
   81.7500    87.2510     7.5020     5.9890     6.9210    23.9180     2.2460   -17.3730 
   81.8750    88.9620     7.3360     5.8430     6.8240    23.9240     2.2480   -17.2710 
   82.0000    87.7980     7.2430     5.7230     6.8380    23.9130     2.2390   -17.1680 
   82.1250    83.8250     7.3530     5.7350     6.9760    23.8880     2.2210   -17.0690 
   82.2500    82.3190     7.7420     5.9620     7.1240    23.8540     2.2140   -17.0050 
   82.3750    80.9840     8.4580     6.4640     7.3130    23.8400     2.2350   -16.9740 
   82.5000    77.4870     9.4430     7.2340     7.6520    23.8760     2.2970   -16.9250 
   82.6250    75.9820    10.4640     8.1540     8.7310    23.9390     2.3900   -16.8930 
   82.7500    78.2890    11.1650     8.9180    10.4840    23.9520     2.4710   -16.9470 
   82.8750    79.8500    11.3080     9.2590    11.0340    23.8690     2.5030   -17.0550 
   83.0000    78.4640    10.8540     9.0760     9.7710    23.7400     2.4750   -17.2070 
   83.1250    78.2890     9.9610     8.4740     8.4200    23.6520     2.3970   -17.3590 
   83.2500    81.5970     9.0120     7.7760     7.8710    23.6050     2.3160   -17.4570 
   83.3750    85.6840     8.2100     7.1460     7.7140    23.6070     2.2580   -17.4820 
   83.5000    86.8020     7.6340     6.6580     7.5920    23.6700     2.2320   -17.4180 
   83.6250    86.4100     7.3110     6.3500     7.0960    23.8380     2.2360   -17.2360 
   83.7500    89.5810     7.1690     6.1760     6.2090    24.0480     2.2540   -16.9760 
   83.8750    94.6930     7.1740     6.1160     5.7020    24.1730     2.2730   -16.6590 
   84.0000    95.7810     7.2760     6.1370     5.8800    24.0870     2.2860   -16.2900 
   84.1250    90.5920     7.3610     6.1620     6.5910    23.8990     2.2880   -15.8350 
   84.2500    86.2760     7.3080     6.0930     6.8670    23.8260     2.2850   -15.2650 
   84.3750    86.6890     7.0680     5.8790     6.4310    23.9630     2.2840   -14.6950 
   84.5000    89.4470     6.7000     5.5530     5.6510    24.2930     2.2880   -14.2780 
   84.6250    91.4380     6.4040     5.2560     5.3130    24.6000     2.3020   -14.0910 
   84.7500    92.8070     6.3770     5.1390     5.1490    24.6750     2.3220   -14.0760 
   84.8750    93.4330     6.7210     5.2870     5.3770    24.6310     2.3400   -14.2490 
   85.0000    91.5310     7.4150     5.7250     6.2270    24.5110     2.3470   -14.6370 
   85.1250    82.4590     8.3100     6.4180     7.8780    24.2040     2.3320   -15.3290 
   85.2500    70.5150     9.1180     7.1530     9.3600    23.9070     2.3000   -16.3000 
   85.3750    64.0720     9.6590     7.7440     9.0950    23.7520     2.2600   -17.4010 
   85.5000    66.0240     9.8760     8.0870     8.4050    23.7150     2.2240   -18.4310 
   85.6250    69.8810     9.8200     8.1720     8.0860    23.7090     2.2050   -19.2100 
   85.7500    71.3080     9.6600     8.1300     7.7920    23.6700     2.2020   -19.7030 
   85.8750    70.7610     9.4480     8.0140     7.7090    23.5420     2.2090   -19.9030 
   86.0000    68.9560     9.1730     7.8160     7.6200    23.3500     2.2200   -19.8150 
   86.1250    68.2460     8.7880     7.4790     7.6350    23.3260     2.2230   -19.4480 
   86.2500    70.1300     8.3490     7.0490     7.8080    23.5230     2.2140   -18.9950 
   86.3750    74.2750     7.9510     6.6250     7.7540    23.6800     2.1950   -18.6090 
