~V
VERS. 2.00: Ver 2.00
~W
STRT.M 55.0000:
STOP.M 288.0000:
STEP.M 0.1250:
NULL. -999.2500:
UWI. F10106:
~C
DEPT.M :
DEN.GM/CC :
SP.MV :
GR.API :
RML.OHMM :
RI. :
RXO.OHMM :
CALI.CM :
~A
# ...
  156.2500     2.2590   -12.0570    64.0260     9.4080     8.6310     8.5710    23.2850 
  156.3750     2.2780   -12.2370    61.0030     9.8240     8.9460    10.0830    23.5890 
  156.5000     2.2890   -12.4460    56.1480    10.3020     9.3510    12.5190    23.8040 
  156.6250     2.2850   -12.6740    53.3830    10.6220     9.6720    14.8970    23.8430 
  156.7500     2.2710   -12.8860    53.8390    10.6760     9.7910    16.0700    23.7940 
  156.8750     2.2500   -13.0590    56.0920    10.4750     9.6860    14.0160    23.7140 
  157.0000     2.2280   -13.1890    58.3840    10.1400     9.4340     9.9870    23.6290 
  157.1250     2.2090   -13.2750    58.1220     9.8610     9.1830     8.2500    23.5850 
  157.2500     2.1960   -13.3340    55.1300     9.7440     9.0500     7.7520    23.6020 
  157.3750     2.1870   -13.3820    52.3210     9.7890     9.0550     7.8530    23.6740 
  157.5000     2.1820   -13.4310    52.4290     9.9280     9.1620     8.2100    23.7690 
  157.6250     2.1840   -13.4390    54.6580    10.0690     9.2980     8.3730    23.8360 
  157.7500     2.1880   -13.3760    58.2610    10.1590     9.4030     8.4010    23.8520 
  157.8750     2.1890   -13.2400    62.8600    10.1930     9.4640     8.3350    23.8370 
  158.0000     2.1870   -13.0510    64.9430    10.1930     9.4920     8.2420    23.7770 
  158.1250     2.1840   -12.8350    62.0680    10.1840     9.5070     8.1410    23.6540 
  158.2500     2.1830   -12.6000    57.5240    10.1750     9.5190     8.0960    23.5460 
  158.3750     2.1830   -12.3640    53.4760    10.1510     9.5160     8.1350    23.5330 
  158.5000     2.1790   -12.1480    52.0550    10.0800     9.4690     8.2110    23.6020 
  158.6250     2.1690   -11.9910    52.7210     9.9080     9.3300     8.2270    23.7160 
  158.7500     2.1580   -11.9010    54.1100     9.6410     9.1030     8.1550    23.8280 
  158.8750     2.1570   -11.8890    56.9530     9.3200     8.8220     8.0510    23.9450 
  159.0000     2.1740   -11.9330    61.7440     9.0220     8.5540     7.9640    24.0750 
  159.1250     2.2110   -12.0120    65.8430     8.8610     8.4010     7.9840    24.1570 
  159.2500     2.2530   -12.0720    65.0180     8.8750     8.4070     8.2080    24.1480 
  159.3750     2.2880   -12.0980    61.8580     9.0620     8.5810     8.6490    24.0720 
  159.5000     2.3040   -12.0820    60.8310     9.3800     8.8980     9.2220    23.9630 
  159.6250     2.3020   -12.0050    63.6260     9.7650     9.3100     9.5780    23.8710 
  159.7500     2.2920   -11.8830    66.5750    10.1330     9.7320     9.6980    23.8370 
  159.8750     2.2840   -11.7380    65.1460    10.4290    10.0970     9.8450    23.8770 
  160.0000     2.2780   -11.5800    59.6410    10.5980    10.3420    10.1900    23.9590 
  160.1250     2.2770   -11.3700    57.1250    10.5580    10.3760    10.5120    24.0040 
  160.2500     2.2790   -11.1480    59.4080    10.3100    10.1910    10.4380    24.0430 
  160.3750     2.2860   -10.9090    62.6520     9.8620     9.7940    10.0020    24.0800 
  160.5000     2.2970   -10.6670    64.9480     9.2740     9.2330     9.2750    24.0610 
  160.6250     2.3130   -10.4490    69.2980     8.6680     8.6200     8.2560    23.9610 
  160.7500     2.3300   -10.2800    73.5260     8.1970     8.1020     7.4340    23.8300 
  160.8750     2.3450   -10.1400    73.0840     7.9940     7.7980     7.0910    23.7240 
  161.0000     2.3550   -10.0260    69.2360     8.1850     7.8220     7.1440    23.6740 
  161.1250     2.3580    -9.9940    66.5350     8.9950     8.3690     7.8290    23.6800 
  161.2500     2.3600   -10.0320    64.4910    10.4140     9.4630     9.0360    23.7330 
  161.3750     2.3660   -10.1340    61.6530    12.3850    11.1130    10.4410    23.8020 
  161.5000     2.3840   -10.2890    58.6200    14.6610    13.1820    11.9770    23.7890 
  161.6250     2.4130   -10.5010    57.4590    16.6730    15.2700    13.2300    23.6330 
  161.7500     2.4360   -10.7180    57.0330    17.9190    16.8160    13.0590    23.5140 
  161.8750     2.4340   -10.9250    55.9030    18.1090    17.4070    11.3020    23.5830 
  162.0000     2.3960   -11.0990    55.1840    17.3480    16.9510     9.8650    23.8920 
  162.1250     2.3300   -11.2090    56.8830    16.0580    15.7370     9.5290    24.2960 
  162.2500     2.2620   -11.2570    58.7370    14.8610    14.4540     9.5050    24.5160 
  162.3750     2.2080   -11.2520    57.9160    13.7380    13.4260     9.4690    24.5300 
  162.5000     2.1720   -11.1940    55.8110    13.0780    12.7440     9.3610    24.5450 
  162.6250     2.1470   -11.0290    56.4480    12.8210    12.4060     9.3440    24.8000 
  162.7500     2.1210   -10.8080    57.2090    12.7550    12.2620     9.3270    25.2030 
  162.8750     2.0950   -10.5370    55.7300    12.7600    12.2190     9.3630    25.5530 
  163.0000     2.0820   -10.2420    54.9320    12.7340    12.1830     9.7740    25.6290 
  163.1250     2.1030    -9.9450    58.4230    12.6130    12.0750    11.5410    25.0960 
  163.2500     2.1540    -9.6740    62.3780    12.4720    11.9280    13.9290    24.2420 
  163.3750     2.2260    -9.4400    65.7780    12.4820    11.8630    16.5900    23.5930 
  163.5000     2.3000    -9.2250    69.8080    12.8600    12.0630    18.4990    23.4300 
  163.6250     2.3540    -9.0540    71.3040    13.8480    12.7580    16.1680    23.6340 
  163.7500     2.3920    -8.8790    68.0260    15.2670    13.8560    15.4260    23.8770 
  163.8750     2.4250    -8.7000    61.6390    16.7840    15.1340    18.4750    24.0090 
  164.0000     2.4590    -8.5270    56.8960    17.9400    16.2260    22.4560    23.9820 
  164.1250     2.4870    -8.3620    55.6950    18.1980    16.6350    23.2510    23.7990 
  164.2500     2.5010    -8.2100    54.9370    17.6710    16.3320    20.2760    23.5850 
  164.3750     2.4970    -8.0590    53.4580    16.7550    15.5900    16.1700    23.4380 
  164.5000     2.4780    -7.9210    53.1750    15.9920    14.8740    13.1730    23.3910 
  164.6250     2.4490    -7.8090    56.6620    15.8330    14.6160    12.6740    23.4070 
  164.7500     2.4220    -7.7420    59.9180    16.1340    14.7780    13.1390    23.4050 
  164.8750     2.4010    -7.7130    60.4740    16.6140    15.1710    14.0940    23.3750 
  165.0000     2.3910    -7.7020    59.7640    16.9850    15.5570    15.2720    23.3120 
  165.1250     2.3940    -7.7040    59.4360    17.0540    15.7280    15.5270    23.1710 
  165.2500     2.4060    -7.6950    59.1110    16.9470    15.7220    14.1230    22.9510 
  165.3750     2.4240    -7.6740    59.6130    16.8750    15.6880    12.3170    22.6830 
  165.5000     2.4440    -7.6380    60.0750    17.0300    15.8000    11.6040    22.4380 
  165.6250     2.4640    -7.5860    57.6830    17.5190    16.1880    12.0690    22.2330 
  165.7500     2.4820    -7.5380    54.5080    18.1680    16.7460    12.6620    22.0820 
  165.8750     2.4950    -7.5210    53.0760    18.7770    17.3190    13.1290    22.0140 
  166.0000     2.5010    -7.5540    54.0170    19.1640    17.7340    13.7300    22.0650 
  166.1250     2.4950    -7.6350    55.6460    19.2090    17.8490    14.2230    22.2780 
  166.2500     2.4820    -7.7440    57.1890    19.0500    17.7560    14.1420    22.5070 
  166.3750     2.4690    -7.8730    56.7750    18.8400    17.5850    13.5850    22.6020 
  166.5000     2.4610    -8.0270    53.4440    18.7020    17.4580    13.4790    22.5370 
  166.6250     2.4580    -8.2110    50.0730    18.7150    17.4610    14.0020    22.4310 
  166.7500     2.4550    -8.4040    49.0220    18.8370    17.5740    14.8400    22.4530 
  166.8750     2.4510    -8.5970    50.4700    19.0120    17.7540    15.5400    22.6430 
  167.0000     2.4490    -8.7680    53.6380    19.1800    17.9440    15.7930    22.9860 
  167.1250     2.4570    -8.9160    56.4570    19.2990    18.0950    15.9680    23.3790 
  167.2500     2.4730    -9.0700    56.2720    19.3840    18.2130    16.2980    23.7230 
  167.3750     2.4920    -9.2430    53.1620    19.4620    18.3210    16.7860    23.9350 
