~V
VERS. 2.00: Ver 2.00
~W
STRT.M 59.0000:
STOP.M 212.0000:
STEP.M 0.1250:
NULL. -999.2500:
UWI. F10143:
~C
DEPT.M :
GR.API :
RML.OHMM :
RI. :
RXO.OHMM :
CALI.CM :
SP.MV :
DEN.GM/CC :
~A
# ...
  149.0000    70.0130    19.3570    18.8130    17.1990    24.9960   -21.3680     2.2260 
  149.1250    67.6120    20.1870    19.6360    19.6080    24.9930   -21.2830     2.2280 
  149.2500    64.2940    20.7190    20.2160    23.1630    24.9960   -21.1940     2.2290 
  149.3750    62.2880    20.4680    20.1030    25.4610    25.0120   -21.1150     2.2300 
  149.5000    63.0400    19.1810    18.9970    23.9340    25.0380   -21.0510     2.2370 
  149.6250    65.9540    16.9540    16.9150    17.7960    25.0220   -21.0140     2.2540 
  149.7500    69.1480    14.5250    14.5520    12.7730    24.9740   -20.9900     2.2720 
  149.8750    72.2530    12.3790    12.3770    10.2010    24.9350   -20.9930     2.2840 
  150.0000    75.6060    10.7540    10.6430     8.8670    24.9260   -21.0390     2.2910 
  150.1250    77.9030     9.7440     9.5040     7.4490    24.9520   -21.1350     2.2970 
  150.2500    78.3160     9.1550     8.8260     6.9510    24.9800   -21.2550     2.3000 
  150.3750    76.6560     8.9640     8.5680     7.0910    24.9710   -21.3940     2.2930 
  150.5000    75.3090     9.2840     8.7560     7.4030    24.9150   -21.5450     2.2730 
  150.6250    76.5010    10.5910     9.6730     8.2220    24.8680   -21.7090     2.2460 
  150.7500    75.7590    13.3620    11.6260     9.7670    24.9020   -21.8870     2.2230 
  150.8750    70.1330    18.4540    15.3700    12.9130    25.0080   -22.0660     2.2040 
  151.0000    63.2700    26.9730    22.1810    20.1810    25.1110   -22.2350     2.1900 
  151.1250    58.9860    40.8130    34.5820    45.9610    25.1770   -22.4000     2.1810 
  151.2500    55.9700    58.7150    51.9690    95.7900    25.2440   -22.5370     2.1770 
  151.3750    53.6120    76.1900    70.3620   148.9600    25.2980   -22.6330     2.1790 
  151.5000    53.6050    84.9010    81.8390   164.0040    25.3450   -22.6870     2.1870 
  151.6250    55.6610    77.8160    78.5310   122.8070    25.3460   -22.6900     2.2070 
  151.7500    57.1820    63.0200    66.0570    75.9730    25.3180   -22.6650     2.2320 
  151.8750    58.0890    47.4600    50.9930    49.4700    25.2770   -22.6180     2.2510 
  152.0000    59.6370    34.4570    37.7070    41.1460    25.2360   -22.5520     2.2570 
  152.1250    64.6610    28.3160    25.3460    33.0490    25.2210   -22.4700     2.2580 
  152.2500    71.9570    22.1500    19.3650    21.9580    25.2240   -22.4060     2.2620 
  152.3750    77.7290    18.6370    16.0430    13.9020    25.2620   -22.3780     2.2710 
  152.5000    80.6100    17.1430    14.8000    11.8130    25.3660   -22.4000     2.2750 
  152.6250    80.5950    17.2360    15.1660    13.2410    25.5260   -22.5020     2.2650 
  152.7500    78.2280    18.0070    16.1220    16.5580    25.6960   -22.6620     2.2440 
  152.8750    74.9370    18.6830    16.8650    19.5910    25.7710   -22.8680     2.2260 
  153.0000    73.5020    18.5020    16.7120    18.9070    25.7000   -23.1200     2.2210 
  153.1250    74.9420    17.1110    15.3950    13.9320    25.5150   -23.4190     2.2290 
  153.2500    76.5160    15.3190    13.7020    11.1730    25.3620   -23.7790     2.2390 
  153.3750    76.4860    13.8540    12.3920     9.7490    25.2460   -24.1940     2.2470 
  153.5000    74.7050    13.2390    12.0880     9.4630    25.1640   -24.6400     2.2520 
  153.6250    72.0020    14.1430    13.6890    10.0320    25.0970   -25.1240     2.2500 
  153.7500    69.6120    16.9960    17.7390    12.2690    25.0760   -25.6290     2.2390 
  153.8750    67.0550    22.9440    25.2890    17.5490    25.1050   -26.1610     2.2220 
  154.0000    64.1920    33.8020    37.6900    34.0470    25.2120   -26.7210     2.2050 
  154.1250    62.8000    60.3480    52.7800    80.8980    25.3370   -27.2960     2.1920 
  154.2500    61.8690    87.5620    78.2780   126.7610    25.4080   -27.8350     2.1800 
  154.3750    60.1560   117.0780   105.6600   139.0140    25.4280   -28.3320     2.1690 
  154.5000    58.9620   141.6740   128.4150   147.8510    25.4290   -28.8090     2.1630 
  154.6250    59.4070   155.9320   142.3080   159.4950    25.4290   -29.2360     2.1670 
  154.7500    59.5500   165.5480   151.6450   153.0460    25.4290   -29.6170     2.1740 
  154.8750    57.6790   175.3140   160.0440   166.1660    25.4290   -29.9580     2.1770 
  155.0000    54.7040   185.4260   167.9820   205.5330    25.4290   -30.2610     2.1760 
  155.1250    53.8390   189.6680   171.1830   218.0760    25.4290   -30.5430     2.1760 
  155.2500    56.6180   183.4450   166.4960   198.9630    25.4290   -30.8200     2.1800 
  155.3750    62.5150   166.9520   153.5920   183.3170    25.4290   -31.0820     2.1840 
  155.5000    67.8660   145.4560   135.6770   158.4670    25.4170   -31.3410     2.1880 
  155.6250    70.1960   126.5390   118.5980   114.1920    25.3740   -31.6040     2.1950 
  155.7500    70.6270   113.8290   106.5370    81.7420    25.2980   -31.8940     2.2120 
  155.8750    69.2420   107.9430   100.7290    75.3640    25.1900   -32.2200     2.2360 
  156.0000    66.6810   108.3710   100.9110    83.2800    25.0060   -32.5620     2.2510 
  156.1250    64.7250   114.8890   107.0190    90.0900    24.8330   -32.8930     2.2330 
  156.2500    63.1150   124.8670   116.7670   102.8720    24.7940   -33.2000     2.2040 
  156.3750    60.6720   135.8520   128.0480   118.8030    24.8220   -33.4840     2.1900 
  156.5000    57.5540   144.8130   138.1380   125.4920    24.8450   -33.7340     2.1960 
  156.6250    56.1190   147.8600   143.3680   131.1000    24.8500   -33.9420     2.2060 
  156.7500    56.1580   144.4240   142.5920   142.8220    24.8490   -34.1030     2.2120 
  156.8750    57.8810   135.3030   135.8730   158.7760    24.8490   -34.2010     2.2170 
  157.0000    62.2300   122.9410   125.0060   153.1550    24.8480   -34.2470     2.2240 
  157.1250    67.0610   110.8370   113.1550   120.6800    24.8470   -34.2640     2.2360 
  157.2500    68.6970   101.5340   103.3900    91.8440    24.8470   -34.2930     2.2450 
  157.3750    67.6590    96.0610    97.1760    76.1240    24.8400   -34.3400     2.2470 
  157.5000    66.3160    94.5240    94.9680    70.4470    24.8170   -34.3990     2.2420 
  157.6250    66.8120    96.6710    96.7780    74.2070    24.7710   -34.4820     2.2310 
  157.7500    69.9880   100.4990   100.5480    81.5280    24.7360   -34.6040     2.2230 
  157.8750    73.9420   104.4110   104.5370    84.3970    24.7280   -34.7720     2.2210 
  158.0000    75.4620   107.1410   107.3030    83.2010    24.7520   -34.9850     2.2270 
  158.1250    73.9080   108.0960   108.1280    83.7220    24.7670   -35.2400     2.2380 
  158.2500    73.1570   108.2160   107.9870    84.0550    24.7720   -35.5160     2.2450 
  158.3750    73.4300   108.3750   107.7320    83.5920    24.7660   -35.8200     2.2460 
  158.5000    72.6900   109.0780   107.7980    85.7260    24.7480   -36.1390     2.2410 
  158.6250    72.8020   110.4130   108.1990    94.6380    24.7110   -36.4440     2.2360 
  158.7500    73.4490   112.2640   108.8970    95.4440    24.6790   -36.7060     2.2340 
  158.8750    71.2440   115.1090   110.4500    86.4240    24.6470   -36.9510     2.2310 
  159.0000    66.2470   119.9560   113.8950    81.3330    24.6220   -37.2070     2.2250 
  159.1250    62.6510   128.6220   120.9740    88.3290    24.5990   -37.4790     2.2180 
  159.2500    60.9050   141.1270   131.6370   115.4000    24.5850   -37.7260     2.2110 
  159.3750    59.2780   156.4960   144.9650   157.7420    24.6060   -37.9360     2.2070 
  159.5000    57.3000   171.8300   158.5590   189.4300    24.6410   -38.1160     2.2060 
  159.6250    56.3010   181.5190   168.0140   175.6870    24.6930   -38.2740     2.2060 
  159.7500    55.6920   183.4320   171.3130   152.3900    24.7500   -38.4030     2.2080 
  159.8750    56.4470   179.0990   169.0560   144.4980    24.8230   -38.4690     2.2140 
  160.0000    58.5970   172.5200   164.0210   144.6650    24.8960   -38.3790     2.2210 
  160.1250    59.9120   167.7620   159.6980   137.2060    24.9880   -38.0580     2.2220 
