~V
VERS. 2.00: Ver 2.00
~W
STRT.M 55.0000:
STOP.M 247.0000:
STEP.M 0.1250:
NULL. -999.2500:
UWI. F10183:
~C
DEPT.M :
SP.MV :
GR.API :
RML.OHMM :
RI. :
RXO.OHMM :
CALI.CM :
DEN.GM/CC :
~A
# ...
  156.2500    -2.4960    50.1270    16.4930    14.9700    13.6100    23.4830     2.5050 
  156.3750    -2.4660    47.1680    16.0880    14.7560    13.3750    23.5680     2.5180 
  156.5000    -2.4350    45.4980    15.8540    14.6550    13.2680    23.6540     2.5290 
  156.6250    -2.4480    45.8880    15.7730    14.6440    13.1610    23.6770     2.5350 
  156.7500    -2.4810    46.7960    15.7270    14.6320    13.2990    23.6640     2.5370 
  156.8750    -2.5600    46.5880    15.6010    14.5240    13.6170    23.6290     2.5350 
  157.0000    -2.6730    45.9830    15.2860    14.2260    13.7060    23.5640     2.5250 
  157.1250    -2.7890    45.7280    14.6680    13.6300    13.1000    23.5120     2.5080 
  157.2500    -2.9420    45.3920    13.8030    12.7900    12.1630    23.4850     2.4880 
  157.3750    -3.1360    45.5660    12.8000    11.8020    11.2590    23.4310     2.4680 
  157.5000    -3.4000    47.1860    11.8730    10.8430    10.6180    23.3420     2.4490 
  157.6250    -3.7110    48.6250    11.4970    10.2640    10.2320    23.2650     2.4300 
  157.7500    -4.1110    49.4140    12.1250    10.3720    11.1000    23.1820     2.4080 
  157.8750    -4.5700    49.8070    14.4960    11.5650    15.1100    23.0880     2.3810 
  158.0000    -5.0840    48.8450    19.2580    14.3770    24.2430    23.0160     2.3500 
  158.1250    -5.6920    46.9540    27.7660    19.9900    40.2790    22.9720     2.3200 
  158.2500    -6.2990    46.8600    39.6530    28.6290    59.3580    22.9600     2.2970 
  158.3750    -6.9020    50.1000    53.6380    40.1260    76.1180    23.0090     2.2810 
  158.5000    -7.4460    53.5830    67.6750    53.2660    84.2630    23.1020     2.2720 
  158.6250    -7.9960    53.5980    78.8190    65.2090    92.4210    23.2060     2.2650 
  158.7500    -8.5200    53.2560    85.0920    73.2020   100.5750    23.3440     2.2590 
  158.8750    -8.9720    55.3110    86.1020    76.1520   102.6120    23.5090     2.2540 
  159.0000    -9.3690    58.3540    83.0370    74.8170    94.5250    23.6590     2.2550 
  159.1250    -9.6760    59.1020    77.2110    70.3120    78.2580    23.8010     2.2610 
  159.2500    -9.9490    59.5840    70.1180    64.2490    62.7420    23.9370     2.2690 
  159.3750   -10.2080    61.6050    62.5210    57.4730    51.0110    24.0210     2.2770 
  159.5000   -10.4920    63.4580    55.3160    50.9080    44.0350    24.0570     2.2840 
  159.6250   -10.7280    63.7450    49.7880    45.7540    43.2400    24.0990     2.2940 
  159.7500   -10.9470    64.8240    46.5250    42.5430    41.5880    24.1290     2.3060 
  159.8750   -11.2010    66.4430    45.9730    41.6620    39.5950    24.1390     2.3210 
  160.0000   -11.4810    66.6050    48.3370    43.3480    40.0880    24.1570     2.3330 
  160.1250   -11.7950    63.6600    53.9810    48.1310    45.4910    24.1590     2.3370 
  160.2500   -12.1220    60.7470    61.8880    55.3040    52.6430    24.1280     2.3330 
  160.3750   -12.4570    61.5230    71.0900    64.1240    60.7640    24.1070     2.3220 
  160.5000   -12.7990    65.5730    80.2270    73.3250    69.5010    24.1120     2.3080 
  160.6250   -13.1760    67.1420    87.4050    80.9490    77.8530    24.1130     2.2950 
  160.7500   -13.5280    64.7560    91.9860    86.0140    86.0310    24.1120     2.2850 
  160.8750   -13.8720    61.3110    94.3550    88.6160    93.2150    24.1050     2.2800 
  161.0000   -14.1910    60.1940    96.0100    89.9970    90.7620    24.0520     2.2780 
  161.1250   -14.4410    61.5640    99.9080    92.8240    82.9060    23.9820     2.2770 
  161.2500   -14.6790    62.4150   108.8090    99.9470    84.5310    23.9430     2.2730 
  161.3750   -14.9030    61.4180   125.6730   114.3220    95.0590    23.9180     2.2650 
  161.5000   -15.1240    58.6540   153.6430   138.8750   124.7550    23.9150     2.2530 
  161.6250   -15.3210    55.2670   197.6530   177.6160   185.2660    23.9580     2.2400 
  161.7500   -15.5400    52.4190   254.0200   226.7080   272.4750    23.9970     2.2280 
  161.8750   -15.7350    49.4470   315.4170   279.5300   368.3660    24.0210     2.2210 
  162.0000   -15.9120    47.9010   369.4290   325.6550   424.5970    24.0590     2.2190 
  162.1250   -16.0930    48.7480   396.5980   350.0150   395.0030    24.0960     2.2200 
  162.2500   -16.2110    51.4910   394.2630   351.0360   327.4030    24.1150     2.2210 
  162.3750   -16.2920    54.3920   372.0160   334.9910   272.5210    24.1400     2.2190 
  162.5000   -16.3330    55.7870   345.6330   313.3640   237.9640    24.1680     2.2140 
  162.6250   -16.3470    54.2210   326.8920   296.6290   228.8040    24.1740     2.2090 
  162.7500   -16.3300    50.7730   316.4290   287.1230   230.2470    24.1780     2.2050 
  162.8750   -16.2770    47.6410   311.6460   283.3850   239.2990    24.1770     2.2050 
  163.0000   -16.1930    48.2040   308.1330   281.8860   254.9180    24.1670     2.2050 
  163.1250   -16.0670    51.4240   299.2470   276.8310   274.6860    24.1820     2.2050 
  163.2500   -15.9610    51.3300   281.4950   264.3510   286.1600    24.1980     2.2050 
  163.3750   -15.8400    47.3140   254.7500   243.4610   278.6120    24.2040     2.2050 
  163.5000   -15.7530    44.1810   222.5660   216.4150   246.8190    24.2260     2.2100 
  163.6250   -15.6590    46.2820   191.3340   188.1540   170.3370    24.2420     2.2180 
  163.7500   -15.5640    50.4510   165.7020   163.6180   121.2240    24.2340     2.2280 
  163.8750   -15.4510    53.1220   146.9330   144.8260   107.1550    24.2460     2.2350 
  164.0000   -15.3200    53.7260   134.2990   131.8180   108.6600    24.2990     2.2390 
  164.1250   -15.1760    54.5710   126.6660   123.9940   114.2730    24.3580     2.2420 
  164.2500   -15.0050    57.7750   121.4110   118.8510   118.4120    24.4100     2.2450 
  164.3750   -14.8070    61.0700   117.2320   115.0210   120.2460    24.4340     2.2500 
  164.5000   -14.5630    62.0280   113.3580   111.6010   118.9940    24.3960     2.2560 
  164.6250   -14.3510    61.2280   109.5590   108.2270   115.9140    24.3180     2.2610 
  164.7500   -14.1240    61.8120   106.0060   104.9820   111.0920    24.2430     2.2610 
  164.8750   -13.8780    62.9520   103.0190   102.1340   105.4590    24.1430     2.2550 
  165.0000   -13.6230    62.2090   100.9060    99.9820    99.7560    24.0220     2.2440 
  165.1250   -13.3510    59.8840    99.9620    98.8340    94.7660    23.9160     2.2330 
  165.2500   -13.1380    59.2590    99.8280    98.4220    91.4550    23.7980     2.2270 
  165.3750   -12.9560    60.1040   100.1220    98.4180    90.0860    23.6820     2.2310 
  165.5000   -12.7690    59.7160   100.3880    98.4120    89.8590    23.6210     2.2430 
  165.6250   -12.5150    58.6540   100.0960    97.9050    89.5850    23.6150     2.2590 
  165.7500   -12.2250    60.0710    99.1040    96.7250    88.9030    23.6310     2.2720 
  165.8750   -11.9260    62.4660    97.4840    94.8890    87.1280    23.6670     2.2790 
  166.0000   -11.6390    63.2550    95.5690    92.6500    84.7000    23.7070     2.2790 
  166.1250   -11.4550    62.8210    94.0930    90.6190    83.0350    23.7320     2.2750 
  166.2500   -11.2610    65.1600    93.7540    89.4810    79.6430    23.7770     2.2710 
  166.3750   -11.0630    69.2340    94.9900    89.6870    78.3420    23.8430     2.2710 
  166.5000   -10.8760    70.2350    97.8490    91.3430    81.4610    23.8980     2.2730 
  166.6250   -10.7070    66.4570   102.0420    94.2790    88.2480    23.9690     2.2770 
  166.7500   -10.5530    62.6760   106.4280    97.5660    98.6140    24.0690     2.2790 
  166.8750   -10.4490    61.3220   109.9760   100.3730   105.5030    24.1590     2.2800 
  167.0000   -10.3520    60.0990   111.8480   102.0090   101.3500    24.2410     2.2790 
  167.1250   -10.2250    57.8920   111.4290   101.9790    99.2830    24.3250     2.2750 
  167.2500   -10.1070    58.1960   109.5130   100.8860   100.5610    24.3630     2.2690 
  167.3750   -10.0040    60.0000   106.9630    99.4430   101.7800    24.3570     2.2620 
