~V
VERS. 2.00: Ver 2.00
~W
STRT.M 60.0000:
STOP.M 241.0000:
STEP.M 0.1250:
NULL. -999.2500:
UWI. F10158:
~C
DEPT.M :
SP.MV :
DEN.GM/CC :
GR.API :
RML.OHMM :
RI. :
RXO.OHMM :
CALI.CM :
~A
# ...
  217.5000    83.7190     2.4400    61.0400    11.6170    10.3970     9.7010    24.8840 
  217.6250    83.6770     2.4470    62.6250    11.7140    10.4920     9.3400    24.8170 
  217.7500    83.6100     2.4450    65.1830    11.8150    10.5940     9.1930    24.7140 
  217.8750    83.5110     2.4430    66.3350    11.8960    10.6800     9.1420    24.4980 
  218.0000    83.3910     2.4480    66.3330    11.9360    10.7320     9.2130    24.1590 
  218.1250    83.2720     2.4550    66.4210    11.9180    10.7330     9.7270    24.1510 
  218.2500    83.1600     2.4550    65.4770    11.8620    10.7010    10.8620    24.1520 
  218.3750    83.0650     2.4490    63.5480    11.7990    10.6590    12.4840    24.1540 
  218.5000    82.9880     2.4420    61.8750    11.7600    10.6300    13.6680    24.1500 
  218.6250    82.9420     2.4410    62.4790    11.7790    10.6410    13.4530    24.1410 
  218.7500    82.9290     2.4430    63.7860    11.8580    10.7010    12.6320    24.1320 
  218.8750    82.9410     2.4400    64.6030    11.9760    10.8040    11.9820    24.1190 
  219.0000    82.9550     2.4270    65.2340    12.0990    10.9260    11.7820    24.1000 
  219.1250    82.9640     2.4080    65.0690    12.1830    11.0310    12.2750    24.0790 
  219.2500    82.9750     2.3890    64.5760    12.2120    11.0960    13.1320    24.0580 
  219.3750    82.9990     2.3700    64.7890    12.1860    11.1120    13.5590    24.0430 
  219.5000    83.0420     2.3480    65.5730    12.1200    11.0860    13.2580    24.0390 
  219.6250    83.1180     2.3270    65.6830    12.0230    11.0230    12.9470    24.0440 
  219.7500    83.2150     2.3170    65.7480    11.9120    10.9380    12.8740    24.0470 
  219.8750    83.3230     2.3280    66.5890    11.7990    10.8430    12.4590    24.0430 
  220.0000    83.4370     2.3600    67.6750    11.6920    10.7460    11.3700    24.0360 
  220.1250    83.5300     2.3990    69.3700    11.5950    10.6510    10.2130    24.0770 
  220.2500    83.5920     2.4280    70.4850    11.5060    10.5600     9.7830    24.1910 
  220.3750    83.6240     2.4410    69.1740    11.4320    10.4820    10.0790    24.3330 
  220.5000    83.6280     2.4410    66.2860    11.3750    10.4230    10.6080    24.4260 
  220.6250    83.6210     2.4270    66.7820    11.3430    10.3940    10.9650    24.4420 
  220.7500    83.6060     2.4030    70.2890    11.3410    10.4020    11.1880    24.4250 
  220.8750    83.5790     2.3790    72.4340    11.3840    10.4550    11.2620    24.3800 
  221.0000    83.5410     2.3650    72.4250    11.4850    10.5630    11.0800    24.3100 
  221.1250    83.4890     2.3770    70.5480    11.6500    10.7260    10.8410    24.2530 
  221.2500    83.4270     2.4120    67.0770    11.8330    10.9080    10.7470    24.2350 
  221.3750    83.3500     2.4570    64.4410    11.9770    11.0610    10.6030    24.2410 
  221.5000    83.2690     2.4940    64.8240    12.0310    11.1420    10.2690    24.2440 
  221.6250    83.2010     2.5020    67.3620    11.9680    11.1210    10.0320    24.2360 
  221.7500    83.1610     2.4810    68.9520    11.8440    11.0370    10.0730    24.2290 
  221.8750    83.1590     2.4420    70.1360    11.7110    10.9290    10.2190    24.2280 
  222.0000    83.1870     2.3990    71.3030    11.6070    10.8320    10.2860    24.2280 
  222.1250    83.2520     2.3730    70.8450    11.5520    10.7700    10.3720    24.2280 
  222.2500    83.3410     2.3670    70.9090    11.5210    10.7330    10.5720    24.2290 
  222.3750    83.4450     2.3740    72.7320    11.4930    10.7150    10.7510    24.2270 
  222.5000    83.5490     2.3790    76.2310    11.4700    10.7140    10.7520    24.2200 
  222.6250    83.6430     2.3730    77.3240    11.4850    10.7540    10.8370    24.2050 
  222.7500    83.7270     2.3600    74.2890    11.5560    10.8480    11.2480    24.1920 
  222.8750    83.7940     2.3550    69.0280    11.6780    10.9940    11.6050    24.1820 
  223.0000    83.8420     2.3690    64.7040    11.8130    11.1650    11.4620    24.1700 
  223.1250    83.8700     2.3980    63.9750    11.8930    11.2930    10.9330    24.1380 
  223.2500    83.8920     2.4280    65.0000    11.8860    11.3290    10.6960    24.0830 
  223.3750    83.9090     2.4530    66.9530    11.8000    11.2710    11.1180    24.0450 
  223.5000    83.9100     2.4750    68.7000    11.6880    11.1690    11.9530    24.0700 
  223.6250    83.9040     2.4940    69.2260    11.6550    11.1140    12.4460    24.1340 
  223.7500    83.8970     2.5070    70.5180    11.7530    11.1650    12.0390    24.1110 
  223.8750    83.8920     2.5040    72.4990    11.9680    11.3220    11.0570    23.9720 
  224.0000    83.8990     2.4780    73.3170    12.2130    11.5230    10.2420    23.8690 
  224.1250    83.9130     2.4340    71.4640    12.3190    11.6440    10.1210    23.9640 
  224.2500    83.9390     2.3940    69.2150    12.2220    11.6150    10.5140    24.1290 
  224.3750    83.9790     2.3750    68.9790    11.9740    11.4540    10.9610    24.1930 
  224.5000    84.0310     2.3850    71.0070    11.7230    11.2580    10.9080    24.1330 
  224.6250    84.0840     2.4140    72.9980    11.6780    11.1910    10.0860    24.0580 
  224.7500    84.1300     2.4370    73.1910    11.9050    11.3410     9.4640    24.0380 
  224.8750    84.1780     2.4410    71.4600    12.3980    11.7290    10.2340    24.0850 
  225.0000    84.2240     2.4270    69.0690    13.0680    12.3070    12.4250    24.1760 
  225.1250    84.2670     2.4090    68.7330    13.7530    12.9570    14.5970    24.2350 
  225.2500    84.3150     2.3990    70.4740    14.3000    13.5290    15.1900    24.2280 
  225.3750    84.3680     2.3970    71.9980    14.6470    13.9460    14.9250    24.1950 
  225.5000    84.4200     2.4020    71.6770    14.8150    14.2000    15.1700    24.1800 
  225.6250    84.4640     2.4080    69.3200    14.8680    14.3230    15.2180    24.1840 
  225.7500    84.4870     2.4120    67.3930    14.8970    14.4000    14.2320    24.1860 
  225.8750    84.4850     2.4130    69.4640    14.9390    14.4680    12.8920    24.1860 
  226.0000    84.4480     2.4090    75.0580    15.0020    14.5340    12.3220    24.1810 
  226.1250    84.3770     2.4100    78.0760    15.0770    14.5770    12.5020    24.1650 
  226.2500    84.2880     2.4210    77.5350    15.1230    14.5690    12.3200    24.1410 
  226.3750    84.2000     2.4490    77.3330    15.0840    14.4800    11.8230    24.1150 
  226.5000    84.1370     2.4860    77.6220    14.9250    14.3010    11.2270    24.0870 
  226.6250    84.1290     2.5150    74.2700    14.6630    14.0580    10.5430    24.0740 
  226.7500    84.1580     2.5320    71.1320    14.4090    13.8330    10.0140    24.1150 
  226.8750    84.2020     2.5410    72.9350    14.2640    13.6950    10.1370    24.2200 
  227.0000    84.2400     2.5470    77.0670    14.2930    13.6950    11.3720    24.3320 
  227.1250    84.2520     2.5480    77.2720    14.5250    13.8710    13.8560    24.3740 
  227.2500    84.2410     2.5400    74.4870    14.8650    14.1610    17.0640    24.3750 
  227.3750    84.1950     2.5200    72.4000    15.2310    14.5050    20.2530    24.3870 
  227.5000    84.1160     2.4890    74.0390    15.5540    14.8350    22.4460    24.4170 
  227.6250    84.0460     2.4590    76.7100    15.7570    15.0810    22.6950    24.4300 
  227.7500    83.9940     2.4360    77.7370    15.8400    15.2240    21.7070    24.4250 
  227.8750    83.9670     2.4240    77.2040    15.8180    15.2660    20.6520    24.4210 
  228.0000    83.9700     2.4230    76.6980    15.7150    15.2250    20.3070    24.4270 
  228.1250    83.9730     2.4380    77.0590    15.5690    15.1320    21.2630    24.4350 
  228.2500    83.9630     2.4660    76.7780    15.4380    15.0410    22.9070    24.4350 
  228.3750    83.9700     2.4990    75.9280    15.3690    14.9910    23.3030    24.4310 
  228.5000    83.9980     2.5240    73.1100    15.3900    14.9990    21.4980    24.4270 
  228.6250    84.0190     2.5300    69.3640    15.5070    15.0620    19.2010    24.4280 
