~V
VERS. 2.00: Ver 2.00
~W
STRT.M 59.0000:
STOP.M 216.0000:
STEP.M 0.1250:
NULL. -999.2500:
UWI. F10129:
~C
DEPT.M :
GR.API :
RML.OHMM :
RI. :
RXO.OHMM :
CALI.CM :
DEN.GM/CC :
SP.MV :
~A
# ...
   92.7500    78.5520     9.1910     7.1730     8.1780    24.7400     2.1250   -22.6410 
   92.8750    79.1790     9.2410     7.1650     8.0250    24.7810     2.1470   -21.9830 
   93.0000    79.6870     9.3700     7.2130     8.1540    24.8850     2.1720   -21.2920 
   93.1250    82.5590     9.5480     7.3140     8.3420    24.9150     2.1920   -20.6750 
   93.2500    84.3770     9.6950     7.4270     8.3790    24.8800     2.2030   -20.2440 
   93.3750    83.2920     9.7560     7.5150     8.5430    24.8800     2.2010   -20.0330 
   93.5000    81.5300     9.7150     7.5520     8.6430    24.9560     2.1850   -20.0250 
   93.6250    80.6220     9.6180     7.5390     8.6960    25.0450     2.1560   -20.1980 
   93.7500    79.8330     9.5720     7.5380     8.6460    25.0440     2.1280   -20.3910 
   93.8750    77.8120     9.6410     7.6050     8.6660    25.0090     2.1090   -20.4850 
   94.0000    75.1800     9.8170     7.7520     8.7310    24.9840     2.1120   -20.4100 
   94.1250    74.3050     9.9910     7.9110     8.7310    24.9540     2.1430   -19.9710 
   94.2500    77.2470    10.0080     7.9550     8.6070    24.9090     2.1910   -19.1040 
   94.3750    84.1800     9.7730     7.7900     8.2710    24.9100     2.2410   -17.8800 
   94.5000    93.0890     9.2890     7.4040     7.4380    24.9880     2.2770   -16.4790 
   94.6250    98.4070     8.6550     6.8830     6.6970    25.0180     2.2900   -15.1290 
   94.7500    97.4300     8.0600     6.3930     6.3280    24.9770     2.2880   -13.9740 
   94.8750    95.4700     7.6160     6.0260     6.3300    24.9430     2.2770   -13.0650 
   95.0000    99.7850     7.3820     5.8430     6.3420    24.9180     2.2590   -12.4300 
   95.1250   105.2950     7.4160     5.9080     6.6460    24.8250     2.2340   -12.1770 
   95.2500   101.9930     7.7040     6.1850     7.1510    24.6930     2.2110   -12.2530 
   95.3750    91.8210     8.3070     6.6860     7.5130    24.6200     2.1990   -12.5800 
   95.5000    84.9600     9.3030     7.4670     8.5090    24.6390     2.2040   -12.9980 
   95.6250    87.0070    10.7250     8.6350    11.2010    24.7800     2.2350   -13.2850 
   95.7500    90.3150    12.2370    10.0270    13.9780    24.9830     2.2870   -13.3380 
   95.8750    90.6080    13.3850    11.2960    17.2480    25.1190     2.3500   -13.1890 
   96.0000    88.7590    13.7190    11.9150    20.4580    25.0770     2.4100   -12.8930 
   96.1250    88.8120    12.9130    11.3530    21.1670    24.9840     2.4360   -12.5030 
   96.2500    91.3010    11.4550    10.0530    15.6580    24.9780     2.4210   -12.1390 
   96.3750    95.9250     9.8550     8.5720     9.5150    25.0610     2.3730   -11.8490 
   96.5000   100.0190     8.5210     7.3060     6.6850    25.1300     2.3120   -11.6530 
   96.6250    98.8310     7.6660     6.4330     6.3990    25.1250     2.2650   -11.5630 
   96.7500    93.9780     7.1220     5.8500     6.7740    25.1070     2.2360   -11.5420 
   96.8750    92.2440     6.7800     5.4920     7.4120    25.0650     2.2190   -11.4570 
   97.0000    96.8210     6.6660     5.3430     7.2130    25.0060     2.2130   -11.2540 
   97.1250   103.3930     7.1730     5.5750     6.2600    24.9410     2.2280   -11.0840 
   97.2500   105.3090     8.7450     6.4150     6.0260    24.9330     2.2760   -11.0260 
   97.3750    99.5800    11.8440     8.2310     7.9870    24.9980     2.3610   -11.0890 
   97.5000    87.6320    16.5450    11.3910    15.8380    25.0020     2.4700   -11.3260 
   97.6250    75.1410    21.8220    15.9490    39.9590    24.9710     2.5640   -11.8750 
   97.7500    68.2100    25.3050    19.9320    65.7440    24.9590     2.6070   -12.7330 
   97.8750    68.7690    25.3280    20.8180    55.3830    24.9370     2.5810   -13.9300 
   98.0000    73.4550    21.9910    18.1970    28.7290    24.8710     2.4970   -15.4140 
   98.1250    76.0350    17.2060    14.3750    14.9570    24.7840     2.3790   -16.9880 
   98.2500    75.0830    13.2990    11.3850    10.7750    24.7160     2.2640   -18.4840 
   98.3750    73.2300    10.9120     9.5000     9.7410    24.7620     2.1690   -19.8270 
   98.5000    74.0250     9.8270     8.5130     9.5740    24.8330     2.1020   -20.9200 
   98.6250    77.6460     9.6370     8.2110     9.5420    24.7990     2.0730   -21.7330 
   98.7500    80.8220     9.7790     8.2270     9.6020    24.7270     2.0720   -22.3860 
   98.8750    81.1380    10.0150     8.3700     9.5120    24.7200     2.0910   -22.9020 
   99.0000    79.9370    10.2150     8.5150     9.0990    24.7520     2.1160   -23.3100 
   99.1250    79.1480    10.3070     8.5900     8.5210    24.6220     2.1350   -23.6640 
   99.2500    77.5060    10.2950     8.5880     8.2930    24.4470     2.1440   -24.0320 
   99.3750    74.8360    10.1880     8.5070     8.4750    24.3310     2.1450   -24.3790 
   99.5000    74.0640    10.0050     8.3580     8.6890    24.3230     2.1420   -24.7140 
   99.6250    76.6810     9.7740     8.1540     8.5340    24.3680     2.1370   -24.9770 
   99.7500    78.7360     9.5390     7.9320     8.1630    24.4450     2.1340   -25.1090 
   99.8750    79.3350     9.3310     7.7180     7.7360    24.5600     2.1350   -25.1340 
  100.0000    79.4630     9.1720     7.5320     7.5810    24.6370     2.1410   -25.0800 
  100.1250    78.9990     9.0890     7.3990     7.5370    24.5050     2.1500   -24.9620 
  100.2500    77.1720     9.0690     7.3170     7.7330    24.3790     2.1580   -24.7830 
  100.3750    75.2780     9.0990     7.2830     8.0900    24.2640     2.1660   -24.5930 
  100.5000    75.6700     9.1550     7.2870     8.3190    24.1500     2.1710   -24.4720 
  100.6250    77.7050     9.2200     7.3160     8.1330    24.0570     2.1740   -24.4400 
  100.7500    79.1920     9.2870     7.3580     7.6790    24.0110     2.1710   -24.4560 
  100.8750    79.2000     9.3650     7.4140     7.5290    24.0280     2.1650   -24.5560 
  101.0000    78.0800     9.4670     7.4890     7.7500    24.1010     2.1600   -24.8380 
  101.1250    76.4640     9.5940     7.5930     8.4770    24.2300     2.1660   -25.3440 
  101.2500    75.2290     9.7170     7.7090     8.9500    24.2960     2.1820   -25.9220 
  101.3750    74.7660     9.7990     7.8180     9.7050    24.3210     2.1990   -26.4810 
  101.5000    73.9460     9.8050     7.8890    10.7900    24.3440     2.2080   -26.9280 
  101.6250    70.7710     9.7140     7.8900    10.7170    24.3860     2.1990   -27.2890 
  101.7500    67.0260     9.5680     7.8350     9.9900    24.4190     2.1770   -27.6530 
  101.8750    65.5790     9.4170     7.7490     9.3710    24.4300     2.1540   -27.9580 
  102.0000    66.8460     9.3070     7.6690     9.1320    24.3820     2.1370   -28.0970 
  102.1250    69.9350     9.2890     7.6350     9.1790    24.4310     2.1360   -28.0400 
  102.2500    71.5830     9.3590     7.6570     9.3220    24.5170     2.1470   -27.9010 
  102.3750    70.5500     9.4960     7.7300     9.6190    24.5450     2.1660   -27.7130 
  102.5000    67.8900     9.6430     7.8280     9.9530    24.4900     2.1850   -27.5160 
  102.6250    66.0190     9.6890     7.8870    10.0010    24.5040     2.1960   -27.3330 
  102.7500    67.2620     9.5670     7.8430    10.0040    24.5930     2.1990   -27.0590 
  102.8750    70.1750     9.2980     7.6810    10.0750    24.6260     2.1920   -26.6570 
  103.0000    71.2460     9.0290     7.4760    10.2350    24.6250     2.1800   -26.1250 
  103.1250    67.6930     9.0810     7.4460     9.8630    24.5760     2.1650   -25.3170 
  103.2500    64.3010     9.6140     7.7530     9.5510    24.4620     2.1600   -24.2180 
  103.3750    65.4910    10.5840     8.4340     9.7440    24.3290     2.1780   -22.8450 
  103.5000    68.0830    11.6750     9.3410    11.8780    24.2860     2.2260   -21.1810 
  103.6250    68.1500    12.2460    10.0010    19.4610    24.4470     2.2920   -19.1530 
  103.7500    70.5390    11.9560     9.9750    26.6630    24.6680     2.3490   -16.9590 
  103.8750    78.9830    10.8600     9.2180    19.3540    24.8530     2.3750   -14.7300 
