~V
VERS. 2.00: Ver 2.00
~W
STRT.M 49.0000:
STOP.M 223.0000:
STEP.M 0.1250:
NULL. -999.2500:
UWI. F10156:
~C
DEPT.M :
SP.MV :
GR.API :
RML.OHMM :
RI. :
RXO.OHMM :
CALI.CM :
DEN.GM/CC :
~A
# ...
  105.2500   -17.3130    67.0150     9.0130     7.0730     9.8810    23.2210     2.1850 
  105.3750   -17.2940    65.3800     8.8970     6.9970     9.2990    23.2280     2.1620 
  105.5000   -17.2580    64.2960     8.7780     6.9160     8.9340    23.2050     2.1420 
  105.6250   -17.2120    64.1970     8.7010     6.8550     8.9590    23.1680     2.1330 
  105.7500   -17.1660    63.6780     8.6980     6.8400     9.4050    23.1410     2.1380 
  105.8750   -17.0900    65.4780     8.7410     6.8570    10.1060    23.1200     2.1490 
  106.0000   -17.0320    69.5070     8.7940     6.8890    10.9930    23.0730     2.1560 
  106.1250   -16.9620    71.9210     8.8250     6.9110    11.8860    22.9970     2.1570 
  106.2500   -16.8440    68.6800     8.8090     6.9040    10.3520    22.9570     2.1560 
  106.3750   -16.7600    66.0290     8.7600     6.8710     9.4770    22.9060     2.1560 
  106.5000   -16.6810    66.7830     8.6920     6.8200     9.1600    22.7990     2.1600 
  106.6250   -16.5590    66.6930     8.6210     6.7640     9.1950    22.6960     2.1660 
  106.7500   -16.4150    64.0780     8.5640     6.7200     9.3040    22.7160     2.1740 
  106.8750   -16.2900    62.1270     8.5330     6.6970     9.3480    22.8300     2.1840 
  107.0000   -16.1700    62.9730     8.5310     6.6970     9.4080    22.9210     2.1960 
  107.1250   -16.0090    64.8220     8.5580     6.7180     9.5350    22.9570     2.2060 
  107.2500   -15.8510    65.6290     8.6140     6.7590     9.8050    22.9980     2.2130 
  107.3750   -15.6920    66.4510     8.6840     6.8090    10.1920    23.0760     2.2150 
  107.5000   -15.5240    67.7080     8.7530     6.8640    10.4210    23.1540     2.2160 
  107.6250   -15.3810    69.4170     8.8050     6.9150    10.3390    23.2190     2.2170 
  107.7500   -15.2430    69.0050     8.8190     6.9520    10.2540    23.2420     2.2200 
  107.8750   -15.1030    67.2930     8.7870     6.9690    10.2460    23.2490     2.2220 
  108.0000   -14.9490    66.9470     8.7070     6.9620    10.2360    23.2490     2.2210 
  108.1250   -14.8010    68.5490     8.5890     6.9330    10.1370    23.2520     2.2180 
  108.2500   -14.6710    68.2240     8.4470     6.8840     9.9880    23.2590     2.2160 
  108.3750   -14.5320    65.7020     8.3030     6.8260     9.8580    23.2760     2.2160 
  108.5000   -14.3940    62.0910     8.1770     6.7650     9.7260    23.2980     2.2180 
  108.6250   -14.2640    57.5430     8.0870     6.7120     9.4670    23.2770     2.2220 
  108.7500   -14.0990    55.1500     8.0710     6.6900     9.1380    23.2280     2.2270 
  108.8750   -13.9430    56.8610     8.1260     6.7040     9.0580    23.2050     2.2320 
  109.0000   -13.7600    59.5410     8.2310     6.7470     9.1510    23.1920     2.2360 
  109.1250   -13.5860    60.9130     8.3300     6.7940     9.3850    23.1700     2.2390 
  109.2500   -13.4140    63.9130     8.3110     6.7880     9.7650    23.1310     2.2360 
  109.3750   -13.2050    68.1190     8.1200     6.6910     9.8820    23.1070     2.2260 
  109.5000   -13.0190    69.0570     7.7970     6.5150     9.5290    23.0810     2.2140 
  109.6250   -12.7810    66.4850     7.5020     6.3460     9.1830    23.0530     2.2120 
  109.7500   -12.5350    65.3150     7.5510     6.3560     9.2030    23.0610     2.2320 
  109.8750   -12.2650    65.4860     8.1180     6.6530     9.4610    23.0690     2.2670 
  110.0000   -11.9770    63.7950     9.2820     7.3120    10.2500    23.0580     2.3160 
  110.1250   -11.6880    60.8710    10.9520     8.3450    12.6460    23.0850     2.3800 
  110.2500   -11.3540    59.4980    12.6890     9.6050    16.8210    23.2310     2.4440 
  110.3750   -11.0350    59.7110    13.7420    10.5980    17.7070    23.3640     2.4760 
  110.5000   -10.7250    59.9650    13.6060    10.8710    15.0920    23.4600     2.4660 
  110.6250   -10.4680    62.0500    12.3950    10.3590    12.2590    23.5030     2.4380 
  110.7500   -10.2970    66.8510    10.9410     9.5170    10.4820    23.4490     2.4200 
  110.8750   -10.1320    71.3730    10.1060     8.9360     8.0650    23.3380     2.4120 
  111.0000   -10.0170    71.9650    10.0800     8.8030     6.8830    23.2560     2.4050 
  111.1250    -9.9060    69.4850    10.5740     9.0260     8.1740    23.2730     2.4040 
  111.2500    -9.8910    70.9720    10.8600     9.2090    15.8760    23.4010     2.4220 
  111.3750    -9.9210    77.6660    10.3170     8.8660    22.5620    23.4820     2.4520 
  111.5000    -9.9330    86.0090     8.8630     7.8680    15.2120    23.4860     2.4660 
  111.6250    -9.9910    90.0240     6.9880     6.5370     6.7850    23.4680     2.4370 
  111.7500   -10.0660    88.8440     5.4790     5.4040     4.7300    23.5050     2.3810 
  111.8750   -10.1870    85.4630     4.6650     4.6940     4.2890    23.5530     2.3430 
  112.0000   -10.3710    80.7200     4.5470     4.4240     4.3600    23.5440     2.3260 
  112.1250   -10.6020    78.2860     4.9620     4.5320     5.0840    23.4060     2.3090 
  112.2500   -10.8170    81.3080     5.6740     4.9300     6.1010    23.1890     2.2820 
  112.3750   -11.0530    85.3170     6.3860     5.4300     6.6920    23.0140     2.2580 
  112.5000   -11.3270    83.8550     6.9760     5.9260     6.6910    22.9510     2.2460 
  112.6250   -11.5910    76.8430     7.4190     6.3650     6.6270    22.9650     2.2440 
  112.7500   -11.8040    70.1630     7.7290     6.7190     6.7470    23.0320     2.2380 
  112.8750   -12.0090    67.2290     7.9420     6.9930     7.3210    23.0920     2.2190 
  113.0000   -12.1670    67.2720     8.0510     7.1720     8.2930    23.0540     2.1930 
  113.1250   -12.2990    68.3390     8.0920     7.2650     9.1300    23.0260     2.1810 
  113.2500   -12.4190    68.2550     8.2330     7.3600     9.1220    23.0770     2.1980 
  113.3750   -12.4880    68.3800     8.6540     7.5830     8.7750    23.1660     2.2320 
  113.5000   -12.5240    69.1080     9.4370     8.0130     9.0740    23.2600     2.2730 
  113.6250   -12.5300    68.0730    10.5040     8.6400    10.5410    23.3730     2.3260 
  113.7500   -12.5410    64.0660    11.5240     9.3030    13.0760    23.4690     2.3920 
  113.8750   -12.5520    62.4320    12.0640     9.7040    13.0730    23.4740     2.4380 
  114.0000   -12.5350    64.5380    11.8890     9.6430    11.1290    23.3860     2.4240 
  114.1250   -12.5300    65.8010    11.0800     9.1360     9.8550    23.2360     2.3560 
  114.2500   -12.5260    64.7840     9.9880     8.3900     9.7360    23.1240     2.2860 
  114.3750   -12.5090    61.6010     9.0700     7.7040     9.9120    23.1540     2.2420 
  114.5000   -12.4970    58.5810     8.5710     7.2350    10.0910    23.2170     2.2280 
  114.6250   -12.4570    59.9760     8.6080     7.0750    10.0950    23.2230     2.2390 
  114.7500   -12.4390    65.7920     9.2490     7.3140    10.1320    23.2140     2.2670 
  114.8750   -12.3840    69.4210    10.2200     7.8420    11.2830    23.3360     2.3000 
  115.0000   -12.3060    68.4670    11.1980     8.5080    15.2730    23.5620     2.3370 
  115.1250   -12.2380    66.1690    11.8290     9.0890    23.9150    23.7720     2.3790 
  115.2500   -12.1400    63.9920    11.9280     9.3910    30.6720    23.8100     2.4060 
  115.3750   -12.0880    59.6560    11.9520     9.5860    26.1890    23.6730     2.3950 
  115.5000   -12.0360    58.5330    12.4370     9.9570    18.3670    23.4830     2.3620 
  115.6250   -11.9750    63.6490    13.7130    10.7340    16.2250    23.4190     2.3450 
  115.7500   -11.8970    68.2400    15.6700    11.9860    24.0120    23.5740     2.3720 
  115.8750   -11.8220    64.7180    17.3530    13.2220    35.9770    23.6920     2.4160 
  116.0000   -11.7660    56.8280    17.7220    13.7200    33.9360    23.6150     2.4430 
  116.1250   -11.7190    53.8980    16.2220    12.9450    22.1150    23.4350     2.4270 
  116.2500   -11.6580    60.1640    13.3420    11.1060    14.4590    23.2920     2.3710 
  116.3750   -11.5570    67.6810    10.5810     9.2240    10.5270    23.2570     2.3130 
