~V
VERS. 2.00: Ver 2.00
~W
STRT.M 50.0000:
STOP.M 200.0000:
STEP.M 0.1250:
NULL. -999.2500:
UWI. F10131:
~C
DEPT.M :
GR.API :
RML.OHMM :
RI. :
RXO.OHMM :
CALI.CM :
SP.MV :
DEN.GM/CC :
~A
# ...
   61.2500    48.2700 1020280.6880     0.1770    -0.2100    25.7730   149.0430     1.9310 
   61.3750    47.4940 1031468.5630     0.1730    -0.1890    25.7710   141.9370     1.9190 
   61.5000    49.8110 1043274.8750     0.1680    -0.1780    25.7690   134.9350     1.9040 
   61.6250    53.3550 874061.2500     0.1640    -0.1950    25.7530   128.3790     1.8910 
   61.7500    55.8770 511162.2810     0.1640    -0.2050    25.7260   122.1580     1.8810 
   61.8750    55.7430 148207.9220     0.1650    -0.1990    25.7110   116.3810     1.8790 
   62.0000    53.1170  -999.2500     0.1610    -0.1840    25.7170   110.9120     1.9040 
   62.1250    49.8390  -999.2500     0.1490    -0.1780    25.7370   105.5700     1.9950 
   62.2500    48.6200  1838.4890     0.1320    -0.1710    25.7520   100.3220     2.1500 
   62.3750    50.1150     0.4600     0.1160    -0.1560    25.7660    95.0840     2.3290 
   62.5000    51.9760     0.1020     0.1090    -0.1020    25.7790    89.2690     2.4560 
   62.6250    54.5220     0.1200     0.1370     0.3270    25.8120    81.6070     2.4280 
   62.7500    59.4000     0.2600     0.2270     1.2170    26.1510    72.0300     2.2490 
   62.8750    68.0670     0.5580     0.4210     2.3530    27.3690    61.3390     1.9730 
   63.0000    77.4840     1.0560     0.7530     2.9420    29.6400    50.5600     1.6840 
   63.1250    81.5390     1.7280     1.2400     3.1450    32.2100    40.2650     1.4790 
   63.2500    81.8350     2.3660     1.7890     3.1750    33.5990    30.6020     1.3920 
   63.3750    82.5360     2.8080     2.3120     3.2920    33.4250    21.7990     1.4350 
   63.5000    85.9270     3.0270     2.7510     3.3150    31.6060    14.3730     1.5940 
   63.6250    91.7070     3.1210     3.0810     3.4570    28.1800     9.4440     1.8260 
   63.7500   100.1890     3.2210     3.3410     3.7810    26.2160     6.7530     2.0410 
   63.8750   108.5570     3.3670     3.5600     4.2110    25.4980     5.4200     2.1870 
   64.0000   109.5640     3.6000     3.8100     4.5360    25.3040     4.4240     2.2540 
   64.1250   103.4660     4.0570     4.2770     4.5440    25.2790     3.2660     2.2800 
   64.2500    96.0210     4.8650     5.1260     5.0010    25.1740     1.9890     2.3270 
   64.3750    87.1860     6.1710     6.4800     7.6980    25.0310     0.6430     2.4090 
   64.5000    77.8290     8.0020     8.2850    15.2840    24.8980    -0.7700     2.4980 
   64.6250    71.4550    10.0070    10.1140    29.9680    24.8300    -2.3630     2.5380 
   64.7500    68.1400    11.4210    11.3090    30.2510    24.7570    -4.1210     2.5070 
   64.8750    65.5610    11.7880    11.5110    18.9180    24.6050    -6.0020     2.4180 
   65.0000    63.8090    11.2000    10.8280    12.1010    24.5340    -7.9600     2.3090 
   65.1250    64.3940    10.0560     9.7400    10.4460    24.8360    -9.9070     2.2190 
   65.2500    65.1540     8.9250     8.7790    10.0690    25.2320   -11.7530     2.1580 
   65.3750    65.7930     8.0900     8.0810     9.8080    25.5400   -13.4440     2.1180 
   65.5000    66.4090     7.6270     7.5900     9.3630    25.7640   -14.9060     2.0900 
   65.6250    66.1610     7.3690     7.2020     8.9850    25.9890   -15.9970     2.0730 
   65.7500    67.1770     7.0870     6.8510     8.7320    26.2200   -16.7120     2.0700 
   65.8750    71.7460     6.8380     6.5800     8.4110    26.3960   -17.1030     2.0900 
   66.0000    78.1810     6.7550     6.4740     7.7250    26.4390   -17.3350     2.1440 
   66.1250    82.5500     6.9780     6.6570     7.4310    26.2420   -17.5390     2.2490 
   66.2500    83.1150     7.4590     7.0850     9.2120    25.7850   -17.8540     2.3780 
   66.3750    79.1960     8.0710     7.6530    14.0150    25.2140   -18.3420     2.4910 
   66.5000    72.7080     8.5890     8.1710    19.0100    24.8250   -19.0010     2.5370 
   66.6250    68.7960     8.7110     8.3700    18.9860    24.9580   -19.8660     2.4740 
   66.7500    67.9060     8.4340     8.2070    15.0260    25.5960   -20.8600     2.3480 
   66.8750    66.5350     7.9090     7.7730    11.5710    26.3810   -21.8900     2.2150 
   67.0000    63.3250     7.3750     7.2520     9.8360    26.7890   -22.8520     2.1320 
   67.1250    62.4780     7.0660     6.8470     9.5490    26.5220   -23.6570     2.1300 
   67.2500    66.4430     7.0060     6.6270     9.9650    26.0990   -24.2960     2.1740 
   67.3750    70.5590     7.1380     6.5840    11.0430    25.7460   -24.7890     2.2260 
   67.5000    71.0820     7.3640     6.6630    11.3510    25.5470   -25.1660     2.2550 
   67.6250    67.5310     7.5690     6.7990    10.5760    25.4870   -25.4710     2.2460 
   67.7500    64.8160     7.6900     6.9180     9.2720    25.5820   -25.7940     2.2170 
   67.8750    65.3590     7.7150     6.9820     9.3090    25.5920   -26.1730     2.1850 
   68.0000    67.0610     7.6570     6.9730    10.1130    25.4790   -26.6060     2.1620 
   68.1250    66.5300     7.5360     6.8780    10.7200    25.4660   -27.1080     2.1490 
   68.2500    62.8710     7.3920     6.7330    10.7030    25.6270   -27.6380     2.1380 
   68.3750    58.7500     7.2550     6.5700    10.3360    25.8890   -28.1350     2.1280 
   68.5000    57.4950     7.1450     6.4240    10.0620    26.1270   -28.5230     2.1220 
   68.6250    58.3910     7.0810     6.3330    10.2630    26.1430   -28.7730     2.1280 
   68.7500    60.1020     7.0490     6.2940    10.5060    26.0740   -28.9320     2.1380 
   68.8750    61.9860     7.0340     6.2960    10.7140    26.0140   -29.0220     2.1370 
   69.0000    61.8150     7.0210     6.3120    10.7710    25.9880   -29.0290     2.1210 
   69.1250    59.5720     7.0000     6.3160    10.7800    26.0370   -28.9060     2.1000 
   69.2500    58.8600     6.9650     6.2980    10.4460    26.1730   -28.6810     2.0930 
   69.3750    61.2160     6.9100     6.2580     9.8990    26.3340   -28.4020     2.1090 
   69.5000    64.0450     6.8330     6.1990     9.5750    26.1260   -28.1750     2.1390 
   69.6250    65.4540     6.7360     6.1260    10.3160    25.7620   -28.0400     2.1650 
   69.7500    67.3130     6.6460     6.0460    10.7360    25.5100   -27.9580     2.1750 
   69.8750    69.5980     6.5900     5.9670    10.7560    25.3850   -27.9030     2.1740 
   70.0000    69.1630     6.5920     5.9030    10.5670    25.2810   -27.9000     2.1720 
   70.1250    64.9940     6.6720     5.8750    10.3440    25.2170   -27.9820     2.1770 
   70.2500    61.8300     6.8070     5.8900    10.1720    25.2030   -28.1630     2.1880 
   70.3750    61.7470     6.9710     5.9500    10.2640    25.2790   -28.4430     2.2000 
   70.5000    63.4500     7.1330     6.0430    10.5640    25.4660   -28.7360     2.2080 
   70.6250    62.5650     7.2460     6.1420    11.0460    25.7490   -28.9770     2.2060 
   70.7500    60.9170     7.2840     6.2080    11.4660    26.0600   -29.1480     2.1930 
   70.8750    60.7660     7.2350     6.2180    11.5450    26.3240   -29.2180     2.1680 
   71.0000    61.1960     7.1100     6.1610    11.2060    26.4530   -29.1330     2.1370 
   71.1250    62.0050     6.9480     6.0440    10.4960    26.4280   -28.8140     2.1110 
   71.2500    64.5010     6.8110     5.9120    10.2780    26.3030   -28.2540     2.1000 
   71.3750    68.5550     6.7410     5.8000    10.3400    26.1270   -27.4470     2.1050 
   71.5000    70.7050     6.7590     5.7340    10.2920    25.9150   -26.5080     2.1210 
   71.6250    70.6400     6.8670     5.7310    10.0870    25.7380   -25.4910     2.1380 
   71.7500    71.2670     7.0100     5.7710    10.0620    25.6160   -24.4670     2.1480 
   71.8750    71.4260     7.1430     5.8290     9.9340    25.4960   -23.4840     2.1510 
   72.0000    70.3300     7.2280     5.8830     9.7050    25.3290   -22.6080     2.1510 
   72.1250    70.8060     7.2500     5.9130     9.7270    25.1280   -21.9000     2.1530 
   72.2500    73.9730     7.2540     5.9280     9.8980    24.9920   -21.3480     2.1570 
   72.3750    75.3470     7.2940     5.9520     9.9130    24.9390   -20.9280     2.1620 
