~V
VERS. 2.00: Ver 2.00
~W
STRT.M 62.0000:
STOP.M 275.0000:
STEP.M 0.1250:
NULL. -999.2500:
UWI. F10141:
~C
DEPT.M :
GR.API :
RML.OHMM :
RI. :
RXO.OHMM :
CALI.CM :
DEN.GM/CC :
SP.MV :
~A
# ...
  219.5000    74.9760    13.9900    11.3550    12.7130    24.7990     2.3530    -6.1850 
  219.6250    70.8200    17.2200    13.9920    18.0190    24.8230     2.3380    -6.3160 
  219.7500    66.0210    20.5440    16.9980    24.0050    24.8910     2.3310    -6.4370 
  219.8750    62.9190    23.3010    19.7910    27.3230    24.9450     2.3320    -6.5270 
  220.0000    63.3160    25.0140    21.7960    26.9010    24.9560     2.3370    -6.6130 
  220.1250    66.0170    25.5270    22.6610    25.7480    24.9770     2.3380    -6.7640 
  220.2500    67.8920    25.4490    22.8410    26.1030    25.0080     2.3320    -6.9570 
  220.3750    69.4700    25.2270    22.7310    27.7630    25.0120     2.3190    -7.1600 
  220.5000    70.7520    25.2450    22.6930    28.7750    25.0020     2.2990    -7.3920 
  220.6250    70.1190    26.0110    23.1720    28.6380    24.9950     2.2750    -7.6530 
  220.7500    68.6230    27.8170    24.4560    28.8060    24.9920     2.2520    -7.9570 
  220.8750    67.7200    30.9890    26.8620    29.7730    24.9850     2.2350    -8.3030 
  221.0000    67.9460    35.7380    30.6740    33.5610    24.9710     2.2260    -8.6620 
  221.1250    67.4370    45.3910    36.1870    45.9880    24.9850     2.2220    -8.9890 
  221.2500    65.5030    52.9040    42.6790    56.9550    24.9890     2.2160    -9.2830 
  221.3750    62.6090    60.0330    49.2610    62.0700    24.9810     2.2080    -9.5470 
  221.5000    60.5090    65.7420    54.9870    63.0470    24.9550     2.2000    -9.7500 
  221.6250    59.6990    69.4540    59.1620    64.5100    24.9440     2.1960    -9.8820 
  221.7500    57.6790    72.0410    62.2960    67.0560    24.9490     2.1960    -9.9750 
  221.8750    55.1360    74.0470    64.8120    70.8590    24.9720     2.1980   -10.0570 
  222.0000    57.0610    75.4190    66.7480    76.6180    24.9890     2.2000   -10.1570 
  222.1250    63.3670    75.0780    67.3040    84.7710    24.9940     2.2060   -10.3170 
  222.2500    66.1740    72.4610    65.9520    86.6780    24.9830     2.2160   -10.5290 
  222.3750    64.7720    67.7150    62.6330    78.8870    24.9590     2.2280   -10.7680 
  222.5000    63.3110    61.8840    58.0590    64.7740    24.9420     2.2390   -11.0210 
  222.6250    62.4330    56.5770    53.5290    54.6800    24.9550     2.2450   -11.2350 
  222.7500    61.3250    52.8000    50.1140    47.2170    24.9850     2.2440   -11.4350 
  222.8750    61.2840    50.9220    48.2920    44.6230    24.9880     2.2390   -11.6770 
  223.0000    63.6510    50.9040    48.1480    45.9980    24.9560     2.2310   -11.9750 
  223.1250    64.9460    52.6680    49.6950    51.5950    24.9220     2.2220   -12.2980 
  223.2500    63.6630    55.5880    52.3690    55.1760    24.9010     2.2170   -12.6070 
  223.3750    61.0670    59.4530    55.9530    57.2360    24.9160     2.2130   -12.9000 
  223.5000    58.1480    64.2480    60.3880    59.8230    24.9990     2.2080   -13.1830 
  223.6250    57.4210    70.4260    66.0210    63.3670    25.1220     2.1950   -13.4880 
  223.7500    59.0870    78.1520    72.9770    74.4450    25.1760     2.1760   -13.8280 
  223.8750    61.8820    87.4880    81.3010    89.4200    25.1900     2.1610   -14.1740 
  224.0000    63.3980    97.9510    90.5460   102.8690    25.1910     2.1570   -14.5160 
  224.1250    62.3500   108.1840    99.5170   104.8010    25.2010     2.1670   -14.8620 
  224.2500    60.4250   116.3700   106.7300   113.4830    25.2310     2.1820   -15.1720 
  224.3750    59.4830   120.9000   110.9120   121.4700    25.2280     2.1930   -15.4510 
  224.5000    60.2300   120.9300   111.3620   122.0960    25.1300     2.1970   -15.7300 
  224.6250    60.7260   116.5810   107.9900   117.2940    24.9540     2.1930   -15.9600 
  224.7500    59.4620   110.4870   102.8300   113.6340    24.9280     2.1880   -16.0460 
  224.8750    57.2650   104.4480    97.3800   107.0640    24.9400     2.1820   -16.0010 
  225.0000    56.3840    99.6020    92.7360    94.2420    24.9410     2.1780   -15.8220 
  225.1250    57.8640    96.3630    89.4820    89.9800    24.9250     2.1780   -15.5320 
  225.2500    60.0850    93.7960    86.9900    88.2760    24.8840     2.1810   -15.1940 
  225.3750    62.3140    91.0700    84.6130    85.4030    24.7860     2.1840   -14.8070 
  225.5000    63.1320    87.6920    81.9070    80.6080    24.6400     2.1860   -14.3760 
  225.6250    61.3170    83.6450    78.7410    73.7260    24.4340     2.1900   -13.9950 
  225.7500    59.9500    79.5730    75.5020    70.0030    24.3560     2.1980   -13.7270 
  225.8750    60.6430    76.1200    72.6800    68.4480    24.4910     2.2110   -13.4740 
  226.0000    61.9440    73.8480    70.7760    66.5280    24.7520     2.2300   -13.1830 
  226.1250    61.1800    73.4170    70.3980    63.8420    24.9190     2.2500   -12.8580 
  226.2500    60.5700    74.6510    71.4390    61.6120    24.9610     2.2660   -12.5440 
  226.3750    62.3430    76.9160    73.3750    61.7390    24.9620     2.2770   -12.2670 
  226.5000    64.8430    78.3840    74.6380    69.4880    24.9790     2.2870   -12.0170 
  226.6250    66.3060    75.6260    72.2300    80.0010    24.9700     2.3050   -11.7540 
  226.7500    65.0060    68.3520    65.7150    86.6210    24.9160     2.3330   -11.4450 
  226.8750    61.3610    58.8120    56.8220    80.5060    24.8460     2.3700   -11.1310 
  227.0000    59.2560    50.2370    48.3830    59.6030    24.8300     2.4110   -10.8520 
  227.1250    62.5280    45.5090    43.1570    41.3690    24.8250     2.4480   -10.6190 
  227.2500    67.0790    44.6270    41.4040    34.9730    24.8300     2.4740   -10.4070 
  227.3750    67.9160    47.1080    42.8180    41.4490    24.8570     2.4790   -10.1890 
  227.5000    64.4950    51.9720    46.6590    59.4510    24.8840     2.4580    -9.9050 
  227.6250    59.5340    57.7970    51.8980    64.6020    24.8820     2.4130    -9.5640 
  227.7500    56.9720    63.1540    57.1750    56.1760    24.8260     2.3740    -9.2270 
  227.8750    57.3480    68.2380    62.4150    47.3140    24.7560     2.3670    -8.8750 
  228.0000    58.1970    74.6100    68.7430    45.5990    24.6830     2.4060    -8.4870 
  228.1250    57.1830    84.4800    77.9650    54.0200    24.6990     2.4840    -8.0200 
  228.2500    57.1220    95.5280    88.0840    84.4140    24.7160     2.5600    -7.4870 
  228.3750    58.6870    99.8020    92.4180   128.2850    24.6340     2.6030    -6.9110 
  228.5000    59.8510    87.5680    82.3270   121.2800    24.4200     2.5980    -6.3600 
  228.6250    58.8210    61.2750    58.3730    82.7530    24.2490     2.5530    -5.7950 
  228.7500    57.6500    37.7020    35.8870    47.5880    24.2500     2.5030    -5.1810 
  228.8750    58.7420    20.7130    20.8280    21.2130    24.3180     2.4690    -4.5930 
  229.0000    61.0470    11.8700    12.5130     8.1700    24.3160     2.4590    -4.0860 
  229.1250    59.4340     8.2940     8.8600     6.0720    24.2970     2.4680    -3.7440 
  229.2500    54.0390     6.8850     7.2070     6.2030    24.2820     2.4810    -3.5630 
  229.3750    48.9820     6.7060     6.6820     6.9600    24.2520     2.4900    -3.5350 
  229.5000    47.4630     7.1540     6.8380     7.2710    24.1560     2.4920    -3.6160 
  229.6250    47.2180     7.7530     7.3540     7.2660    24.0100     2.4880    -3.7740 
  229.7500    46.2240     8.1460     7.8340     7.0300    23.9280     2.4840    -3.9880 
  229.8750    45.0570     8.2560     8.1030     6.8280    23.9550     2.4820    -4.2860 
  230.0000    43.0610     8.1840     8.1640     6.8540    24.0840     2.4840    -4.6610 
  230.1250    41.6610     8.0820     8.1110     7.1500    24.2580     2.4860    -5.0530 
  230.2500    43.0160     8.0300     8.0500     7.3180    24.3870     2.4850    -5.4130 
  230.3750    46.6610     8.0120     7.9940     7.2930    24.4330     2.4810    -5.7140 
  230.5000    49.9940     7.9830     7.9150     7.2380    24.4200     2.4730    -5.9530 
  230.6250    49.8410     7.8860     7.7590     7.2640    24.4480     2.4630    -6.1720 
