~V
VERS. 2.00: Ver 2.00
~W
STRT.M 57.0000:
STOP.M 247.0000:
STEP.M 0.1250:
NULL. -999.2500:
UWI. F10194:
~C
DEPT.M :
SP.MV :
DEN.GM/CC :
GR.API :
RML.OHMM :
RI. :
RXO.OHMM :
CALI.CM :
~A
# ...
   68.2500   -37.9470     1.9260    65.4320     7.6090     6.2940     8.7300    29.5190 
   68.3750   -38.0280     1.9140    66.2660     7.5700     6.2440     8.7140    29.4830 
   68.5000   -38.1150     1.9040    66.5250     7.5760     6.2420     8.6650    29.4310 
   68.6250   -38.2400     1.9060    65.4170     7.6300     6.2900     8.6160    29.3060 
   68.7500   -38.3810     1.9240    64.5830     7.7420     6.3780     8.5300    29.1380 
   68.8750   -38.4770     1.9430    66.0560     7.9120     6.4870     8.4180    29.0220 
   69.0000   -38.4960     1.9510    68.3970     8.1150     6.5920     8.3670    28.9870 
   69.1250   -38.4510     1.9490    68.4950     8.3100     6.6780     8.4410    29.0080 
   69.2500   -38.3670     1.9460    66.0240     8.4650     6.7480     8.6480    29.0170 
   69.3750   -38.2620     1.9490    64.0230     8.5670     6.8230     8.9820    28.9720 
   69.5000   -38.0860     1.9590    63.9310     8.6310     6.9280     9.3290    28.8720 
   69.6250   -37.7510     1.9690    64.5050     8.6700     7.0650     9.5590    28.7530 
   69.7500   -37.2240     1.9760    64.4600     8.6640     7.2040     9.6540    28.6860 
   69.8750   -36.4990     1.9770    64.8540     8.5610     7.2720     9.6190    28.6530 
   70.0000   -35.5590     1.9810    66.9850     8.3220     7.2020     9.4330    28.5550 
   70.1250   -34.3580     1.9940    70.6280     7.9430     6.9630     9.0130    28.3470 
   70.2500   -32.8860     2.0230    75.4140     7.4550     6.5750     8.3300    28.0510 
   70.3750   -31.1560     2.0660    81.1550     6.9300     6.1030     7.5880    27.6240 
   70.5000   -29.2450     2.1190    86.8370     6.4530     5.6450     7.0700    27.1210 
   70.6250   -27.3020     2.1700    91.9640     6.0840     5.2730     6.7660    26.7150 
   70.7500   -25.5030     2.2030    97.2240     5.8460     5.0190     6.2720    26.4720 
   70.8750   -23.9810     2.2130   102.5070     5.7300     4.8820     5.5030    26.3150 
   71.0000   -22.7710     2.2110   105.5570     5.6770     4.8180     4.9540    26.1550 
   71.1250   -21.8910     2.2120   105.0660     5.6220     4.7690     4.8270    25.9700 
   71.2500   -21.3390     2.2270   103.2020     5.5460     4.7060     4.9650    25.7620 
   71.3750   -21.0650     2.2550   102.9020     5.5070     4.6450     5.1360    25.5620 
   71.5000   -21.0290     2.2900   103.2770     5.6370     4.6650     5.2830    25.4120 
   71.6250   -21.2550     2.3230   101.6270     6.0770     4.8780     5.6310    25.2990 
   71.7500   -21.7650     2.3550    97.1680     6.9110     5.3800     6.6640    25.1990 
   71.8750   -22.6230     2.3860    90.8890     8.0930     6.2050     9.3920    25.1160 
   72.0000   -23.8580     2.4180    83.9160     9.3430     7.1960    13.4620    25.0840 
   72.1250   -25.4210     2.4510    77.5080    10.2700     8.0700    17.6560    25.1060 
   72.2500   -27.2180     2.4690    72.9350    10.5450     8.5370    20.7310    25.1750 
   72.3750   -29.2000     2.4280    70.5650     9.9970     8.3620    18.8210    25.3690 
   72.5000   -31.2860     2.3250    69.3520     8.9290     7.6800    13.5940    25.7470 
   72.6250   -33.3090     2.2100    68.7390     7.8440     6.8500    10.2240    26.2120 
   72.7500   -35.1340     2.1250    69.0730     7.0840     6.1630     9.3260    26.5830 
   72.8750   -36.6660     2.0760    69.7740     6.7970     5.7840     9.3490    26.8020 
   73.0000   -37.8930     2.0500    68.9620     6.8780     5.6910     9.5530    26.9410 
   73.1250   -38.8360     2.0360    65.9540     7.1450     5.7750     9.7780    27.0350 
   73.2500   -39.5510     2.0310    62.9740     7.4500     5.9350     9.9910    27.0730 
   73.3750   -40.1010     2.0350    62.8000     7.6650     6.0790    10.2270    27.0680 
   73.5000   -40.5690     2.0490    64.9200     7.7340     6.1590    10.5850    27.0670 
   73.6250   -41.0300     2.0700    67.4340     7.6700     6.1720    11.1080    27.1470 
   73.7500   -41.4990     2.0940    69.4840     7.5310     6.1380    11.7900    27.4050 
   73.8750   -41.9740     2.1060    70.0420     7.3990     6.0900    12.4200    27.7740 
   74.0000   -42.4320     2.1010    68.2560     7.3380     6.0510    12.6990    28.0120 
   74.1250   -42.8630     2.0850    65.1760     7.3590     6.0340    12.6120    28.0470 
   74.2500   -43.2600     2.0660    62.7260     7.4420     6.0350    12.4220    28.0830 
   74.3750   -43.5720     2.0490    61.6720     7.5490     6.0530    12.2530    28.3210 
   74.5000   -43.7500     2.0300    61.5000     7.6600     6.0840    12.0320    28.6310 
   74.6250   -43.7650     2.0110    62.2030     7.7770     6.1310    11.7830    28.7790 
   74.7500   -43.5860     1.9990    63.5820     7.9070     6.1960    11.5790    28.7090 
   74.8750   -43.2050     1.9990    63.9160     8.0280     6.2660    11.5930    28.5470 
   75.0000   -42.6840     2.0100    62.5570     8.0910     6.3100    12.0250    28.4130 
   75.1250   -42.0550     2.0290    61.3760     8.0440     6.2890    12.8220    28.3270 
   75.2500   -41.3280     2.0520    62.7500     7.8670     6.1760    13.8770    28.3030 
   75.3750   -40.5780     2.0690    66.7410     7.5890     5.9680    14.2700    28.3710 
   75.5000   -39.8890     2.0690    70.3360     7.2990     5.7140    13.3480    28.3900 
   75.6250   -39.3370     2.0500    71.1600     7.0910     5.4840    11.3990    28.2190 
   75.7500   -39.0210     2.0190    69.1850     7.0180     5.3330     9.8040    27.9510 
   75.8750   -39.0130     1.9920    65.9570     7.0960     5.3000     9.2900    27.7930 
   76.0000   -39.2470     1.9770    63.4110     7.2720     5.3690     9.3960    27.7660 
   76.1250   -39.6450     1.9740    62.4760     7.4610     5.4910     9.7100    27.8040 
   76.2500   -40.1790     1.9830    63.0760     7.5960     5.6160    10.0500    27.8940 
   76.3750   -40.7970     2.0020    64.5550     7.6310     5.6940    10.3200    27.9960 
   76.5000   -41.4440     2.0230    65.9520     7.5740     5.7070    10.5830    28.0640 
   76.6250   -42.0640     2.0360    66.3520     7.4690     5.6680    10.7870    28.1050 
   76.7500   -42.5870     2.0320    65.0760     7.3520     5.6030    10.8590    28.1500 
   76.8750   -42.9380     2.0120    62.3980     7.2430     5.5370    10.8770    28.2020 
   77.0000   -43.1250     1.9810    60.1410     7.1440     5.4800    10.8880    28.2460 
   77.1250   -43.2090     1.9460    59.8030     7.0530     5.4310    10.8400    28.2880 
   77.2500   -43.2050     1.9120    60.6120     6.9730     5.3830    10.6890    28.3810 
   77.3750   -43.0830     1.8820    60.4880     6.9110     5.3330    10.4710    28.5150 
   77.5000   -42.8260     1.8570    59.7900     6.8710     5.2880    10.2550    28.6030 
   77.6250   -42.4060     1.8380    60.5640     6.8540     5.2600    10.0450    28.6090 
   77.7500   -41.7910     1.8220    62.5990     6.8630     5.2650     9.8550    28.5640 
   77.8750   -40.9160     1.8080    63.9300     6.9110     5.3230     9.7440    28.5190 
   78.0000   -39.7770     1.7980    64.5870     7.0000     5.4290     9.7080    28.5640 
   78.1250   -38.3690     1.7870    65.8400     7.1100     5.5550     9.6930    28.7250 
   78.2500   -36.6430     1.7740    67.0730     7.1890     5.6570     9.6190    28.9180 
   78.3750   -34.5110     1.7600    66.9030     7.1510     5.6650     9.3470    29.0850 
   78.5000   -31.9660     1.7550    66.8160     6.9400     5.5310     8.7980    29.2160 
   78.6250   -29.0860     1.7740    69.8290     6.5570     5.2510     7.9550    29.1960 
   78.7500   -26.0040     1.8290    76.4020     6.0500     4.8570     6.8870    28.8600 
   78.8750   -22.9170     1.9190    84.7660     5.5060     4.4140     5.8150    28.2440 
   79.0000   -19.9910     2.0230    93.1660     5.0210     3.9980     5.0460    27.7280 
   79.1250   -17.3430     2.1140    99.9580     4.6740     3.6690     4.6710    27.4680 
   79.2500   -15.0610     2.1740   104.0150     4.5360     3.4710     4.5770    27.3200 
   79.3750   -13.2930     2.2030   105.9390     4.7230     3.4770     4.6680    27.1620 
