~V
VERS. 2.00: Ver 2.00
~W
STRT.M 52.0000:
STOP.M 224.0000:
STEP.M 0.1250:
NULL. -999.2500:
UWI. F10155:
~C
DEPT.M :
SP.MV :
GR.API :
RML.OHMM :
RI. :
RXO.OHMM :
CALI.CM :
DEN.GM/CC :
~A
# ...
   85.7500   -22.1650    82.8120    10.0760     7.4100     9.4550    23.9220     2.1750 
   85.8750   -22.1520    81.6010    10.0520     7.4140     9.6120    23.9210     2.1950 
   86.0000   -22.1880    76.6880    10.0010     7.4340     9.8700    23.9720     2.2040 
   86.1250   -22.2310    71.5830     9.8570     7.4040    10.0660    24.0370     2.2050 
   86.2500   -22.2590    69.2360     9.6220     7.3090     9.9150    24.0690     2.2020 
   86.3750   -22.3160    70.6590     9.3600     7.1780     9.3040    24.0460     2.2000 
   86.5000   -22.4170    74.1390     9.1930     7.0830     8.8250    24.0140     2.2020 
   86.6250   -22.4450    76.5840     9.1920     7.0820     8.7570    24.0120     2.2040 
   86.7500   -22.2900    78.6720     9.3590     7.1970     8.9130    24.0640     2.2050 
   86.8750   -21.8550    82.1310     9.6080     7.3910     9.1290    24.1170     2.2040 
   87.0000   -20.9630    85.1850     9.7430     7.5360     9.4080    24.0660     2.2080 
   87.1250   -19.6330    85.0370     9.6090     7.4990     9.4720    24.0770     2.2260 
   87.2500   -17.9620    82.5500     9.1480     7.2150     9.1860    24.2750     2.2600 
   87.3750   -16.0870    82.7250     8.4210     6.7140     7.7260    24.4560     2.3030 
   87.5000   -14.1180    89.3960     7.5980     6.1080     5.5740    24.5210     2.3330 
   87.6250   -12.1650    96.4120     6.9070     5.5740     4.7820    24.5550     2.3350 
   87.7500   -10.3110    98.5650     6.4970     5.2280     4.6630    24.5430     2.3080 
   87.8750    -8.7110    95.6330     6.4480     5.1440     4.5190    24.5030     2.2690 
   88.0000    -7.6640    90.2940     6.8230     5.3890     4.5420    24.4590     2.2440 
   88.1250    -7.2050    87.0530     7.4590     5.8680     5.2020    24.4010     2.2420 
   88.2500    -7.2290    86.2890     8.1740     6.4600     6.5030    24.1450     2.2550 
   88.3750    -7.4780    85.9960     8.7340     6.9730     7.2520    23.7410     2.2690 
   88.5000    -7.7550    83.8800     8.8510     7.1320     6.5570    23.6570     2.2710 
   88.6250    -8.0060    83.6560     8.5260     6.8980     6.1620    23.9090     2.2640 
   88.7500    -8.2020    87.8630     7.8920     6.3810     6.1690    24.4060     2.2560 
   88.8750    -8.3420    93.3840     7.2180     5.8000     6.1870    24.9340     2.2540 
   89.0000    -8.4770    97.0870     6.9420     5.4630     5.9180    25.0280     2.2650 
   89.1250    -8.6480    98.1660     7.4030     5.5700     5.4270    24.8450     2.2910 
   89.2500    -8.9090    94.1380     8.9330     6.3290     5.8710    24.7640     2.3350 
   89.3750    -9.3170    86.2140    11.7720     7.9940     7.7760    24.7910     2.3950 
   89.5000    -9.9420    80.0630    15.9030    10.9810    12.9820    24.7570     2.4610 
   89.6250   -10.7680    74.8000    20.0380    14.7410    23.0080    24.7290     2.5130 
   89.7500   -11.8260    67.9630    22.6060    17.8540    33.2630    24.6670     2.5340 
   89.8750   -13.0680    63.4530    22.4740    18.5340    37.1500    24.5280     2.5140 
   90.0000   -14.3450    66.4440    19.6170    16.3630    27.9710    24.3230     2.4490 
   90.1250   -15.4870    72.1210    16.0490    13.4940    17.8360    24.0540     2.3610 
   90.2500   -16.4270    74.6920    13.0470    11.0480    11.3590    23.7530     2.2720 
   90.3750   -17.1880    74.6990    11.1010     9.3430     9.1310    23.5080     2.2010 
   90.5000   -17.7270    74.9890    10.2000     8.3800     8.7360    23.3590     2.1700 
   90.6250   -18.0220    76.8560     9.8500     7.8630     8.3550    23.3440     2.1730 
   90.7500   -18.0450    79.5970     9.8200     7.6550     7.9360    23.3280     2.1980 
   90.8750   -17.8540    80.7550     9.9780     7.6560     7.5270    23.2100     2.2320 
   91.0000   -17.5640    80.8010    10.2830     7.8310     7.7370    23.1360     2.2560 
   91.1250   -17.3460    79.8830    10.6690     8.1160     8.5380    23.1420     2.2630 
   91.2500   -17.2870    77.2060    11.0690     8.4550     9.5110    23.2020     2.2550 
   91.3750   -17.4250    74.1820    11.3870     8.7680    10.1730    23.3380     2.2410 
   91.5000   -17.7980    76.4830    11.5130     8.9440    10.0460    23.4650     2.2320 
   91.6250   -18.3150    80.9910    11.4650     8.9700     9.9620    23.5540     2.2290 
   91.7500   -18.9410    80.9790    11.3010     8.8780     9.7280    23.6170     2.2280 
   91.8750   -19.6270    76.1000    11.1000     8.7300     9.2120    23.6440     2.2230 
   92.0000   -20.2880    72.6110    10.9330     8.5810     9.0140    23.6750     2.2090 
   92.1250   -20.8400    72.0380    10.8150     8.4520     9.5590    23.7640     2.1920 
   92.2500   -21.2340    72.1280    10.7350     8.3390    10.0370    23.9330     2.1740 
   92.3750   -21.4460    71.9410    10.6790     8.2420    10.1660    24.2240     2.1600 
   92.5000   -21.4610    70.4010    10.6370     8.1640     9.8980    24.4570     2.1550 
   92.6250   -21.3840    68.8560    10.5970     8.1030     9.5820    24.5830     2.1570 
   92.7500   -21.2270    70.1850    10.5520     8.0580     9.5510    24.5890     2.1660 
   92.8750   -20.9450    73.9810    10.4860     8.0180    10.0120    24.5270     2.1780 
   93.0000   -20.5200    75.6320    10.3740     7.9570    10.1040    24.4420     2.1890 
   93.1250   -20.0320    74.3320    10.2190     7.8640     9.6500    24.3690     2.1970 
   93.2500   -19.5200    71.7570    10.0370     7.7450     9.1670    24.2050     2.2050 
   93.3750   -18.9810    69.8040     9.8600     7.6200     8.7370    23.9180     2.2150 
   93.5000   -18.3730    71.6740     9.7310     7.5180     8.4540    23.6280     2.2260 
   93.6250   -17.6760    78.2110     9.6640     7.4530     8.3290    23.4280     2.2340 
   93.7500   -16.9140    84.1740     9.6440     7.4210     8.3220    23.3470     2.2350 
   93.8750   -16.1600    85.1550     9.6280     7.3970     8.1030    23.3710     2.2260 
   94.0000   -15.4210    85.0340     9.5330     7.3180     8.0050    23.3580     2.2150 
   94.1250   -14.6570    86.2000     9.3130     7.1430     7.8330    23.3030     2.2120 
   94.2500   -13.8920    85.4210     8.9660     6.8670     7.8870    23.2920     2.2240 
   94.3750   -13.1870    82.9380     8.5480     6.5340     7.1560    23.3710     2.2460 
   94.5000   -12.6970    83.4750     8.1760     6.2320     6.6650    23.3190     2.2640 
   94.6250   -12.4950    88.0600     7.9630     6.0430     5.8420    23.2270     2.2700 
   94.7500   -12.5840    91.1270     7.9870     6.0230     5.7810    23.1880     2.2640 
   94.8750   -12.8700    89.8960     8.2730     6.2050     6.3880    23.2260     2.2520 
   95.0000   -13.3000    86.8200     8.8110     6.6070     7.4590    23.3030     2.2420 
   95.1250   -13.8760    85.4680     9.4410     7.1340     8.0650    23.2630     2.2340 
   95.2500   -14.5300    85.9270    10.0060     7.6750     8.7870    23.1570     2.2220 
   95.3750   -15.1640    84.6470    10.3450     8.0850     9.4040    23.1220     2.2020 
   95.5000   -15.5420    81.3620    10.2960     8.1810     9.5350    23.2060     2.1790 
   95.6250   -15.5500    83.2740     9.9510     8.0020     8.9190    23.2870     2.1650 
   95.7500   -15.1820    90.1610     9.4480     7.6550     8.6250    23.2950     2.1710 
   95.8750   -14.5450    95.6180     8.9600     7.2790     8.3810    23.3540     2.2030 
   96.0000   -13.7160    96.5960     8.6480     7.0150     7.5840    23.6780     2.2550 
   96.1250   -12.7150    98.0500     8.4990     6.8830     6.9500    24.2370     2.3040 
   96.2500   -11.5820   100.2850     8.4280     6.8320     7.2020    24.6990     2.3310 
   96.3750   -10.3720    99.0550     8.3190     6.7700     7.5800    24.8820     2.3330 
   96.5000    -9.2020    97.3690     8.0810     6.6210     6.4400    24.8580     2.3160 
   96.6250    -8.1510   100.5490     7.7500     6.4070     5.7170    24.7560     2.2990 
   96.7500    -7.2570   105.4840     7.4040     6.1820     5.2930    24.6240     2.2910 
   96.8750    -6.4700   107.7030     7.1270     6.0130     5.1330    24.5400     2.2890 
