~V
VERS. 2.00: Ver 2.00
~W
STRT.M 63.0000:
STOP.M 207.0000:
STEP.M 0.1250:
NULL. -999.2500:
UWI. F10132:
~C
DEPT.M :
SP.MV :
DEN.GM/CC :
GR.API :
RML.OHMM :
RI. :
RXO.OHMM :
CALI.CM :
~A
# ...
  164.2500   -30.7060     2.1080    59.4430   287.1940   268.0150   128.0680    25.0260 
  164.3750   -30.7380     2.1380    56.2680   307.4070   290.6120   157.4340    24.7030 
  164.5000   -30.7860     2.1600    53.5600   326.1540   312.9980   183.4840    24.3080 
  164.6250   -30.8290     2.1500    54.5300   334.9660   325.7260   197.0290    24.0840 
  164.7500   -30.8390     2.1210    56.6250   333.0020   326.6250   191.6860    24.0430 
  164.8750   -30.8030     2.0950    58.4540   324.4990   319.4370   167.8050    24.0620 
  165.0000   -30.7080     2.0910    59.3040   315.8160   311.1090   133.8090    24.0310 
  165.1250   -30.5730     2.1140    58.6550   311.6240   307.5420   111.8820    23.9100 
  165.2500   -30.4120     2.1480    57.6740   309.8130   306.9020    98.7290    23.7290 
  165.3750   -30.2510     2.1800    58.2290   306.0870   304.2640    89.3570    23.5260 
  165.5000   -30.1130     2.2080    59.7730   296.8060   295.1870    83.7380    23.3090 
  165.6250   -30.0220     2.2300    60.6670   281.0690   278.1470    81.4760    23.1670 
  165.7500   -29.9580     2.2390    61.1170   263.8900   258.7080    81.5750    23.2720 
  165.8750   -29.8970     2.2330    62.1540   249.6790   242.0830    83.4140    23.6130 
  166.0000   -29.8240     2.2140    63.4420   240.8080   231.4180    86.8450    23.9240 
  166.1250   -29.7530     2.2030    62.8370   237.1680   226.8930    92.9160    23.9810 
  166.2500   -29.7020     2.2150    59.4370   235.4040   224.5950   102.2640    23.9690 
  166.3750   -29.6980     2.2530    56.6140   233.6170   222.3010   113.9190    24.0430 
  166.5000   -29.7530     2.3000    58.1280   230.8490   218.8640   125.5650    24.1780 
  166.6250   -29.8680     2.3260    60.9840   227.1340   214.1230   136.5660    24.2920 
  166.7500   -30.0170     2.3290    61.1410   223.6130   209.2620   143.9300    24.4040 
  166.8750   -30.1690     2.3250    59.2160   220.8320   204.9150   144.1340    24.5490 
  167.0000   -30.2770     2.3380    57.6710   218.4930   200.8270   137.9790    24.7210 
  167.1250   -30.3100     2.3830    57.6520   216.0890   196.4250   129.1280    24.8970 
  167.2500   -30.2920     2.4490    56.4210   213.9620   192.0980   118.9440    25.0350 
  167.3750   -30.2500     2.5180    52.9270   213.1650   188.9720   112.2900    25.0860 
  167.5000   -30.2060     2.5750    48.9050   215.3490   188.8800   116.8590    24.9710 
  167.6250   -30.1790     2.6220    47.9280   223.3310   195.3920   129.8770    24.6510 
  167.7500   -30.1590     2.6630    48.4900   235.7710   208.1690   139.8100    24.3280 
  167.8750   -30.1230     2.6980    48.3030   245.2520   221.3210   144.9470    24.2060 
  168.0000   -30.0610     2.7280    48.2540   234.9570   219.8620   149.1880    24.3300 
  168.1250   -29.9390     2.7550    49.6200   188.0100   183.7570   155.0750    24.5370 
  168.2500   -29.7550     2.7690    52.8690   128.8740   129.2160   157.8100    24.6520 
  168.3750   -29.5300     2.7530    57.2120    80.3890    79.6490   151.6970    24.6710 
  168.5000   -29.3020     2.7010    60.2840    49.0330    46.3660   129.8530    24.6600 
  168.6250   -29.1140     2.6230    61.7600    32.4610    29.5130    89.2080    24.6580 
  168.7500   -28.9800     2.5440    62.5810    22.9920    20.6690    51.2540    24.6620 
  168.8750   -28.8890     2.4810    62.3330    17.3800    15.8170    28.5930    24.6600 
  169.0000   -28.8140     2.4420    61.5570    13.7700    12.7800    18.5400    24.6010 
  169.1250   -28.7300     2.4290    62.1520    11.3570    10.7570    14.2740    24.4140 
  169.2500   -28.6310     2.4280    62.5450     9.5400     9.2450    10.9120    24.1590 
  169.3750   -28.5090     2.4350    60.7320     8.1640     8.1020     8.4950    23.9670 
  169.5000   -28.3720     2.4450    57.2570     7.1790     7.2640     6.9970    23.9620 
  169.6250   -28.2610     2.4540    53.9220     6.6060     6.7460     6.3660    24.1450 
  169.7500   -28.2180     2.4540    51.4590     6.3100     6.4570     6.0980    24.2800 
  169.8750   -28.2590     2.4420    49.9920     6.2090     6.3430     5.9660    24.1470 
  170.0000   -28.3780     2.4200    48.4300     6.2360     6.3500     5.8130    23.7220 
  170.1250   -28.5420     2.3990    46.4070     6.3330     6.4290     5.6160    23.3240 
  170.2500   -28.7070     2.3880    46.9230     6.4200     6.5040     5.4810    23.2610 
  170.3750   -28.8500     2.3900    49.3050     6.4500     6.5300     5.4230    23.5050 
  170.5000   -28.9640     2.4000    49.4760     6.4110     6.4890     5.4170    23.8300 
  170.6250   -29.0450     2.4130    47.7220     6.3230     6.3840     5.4370    24.0340 
  170.7500   -29.1090     2.4220    49.3230     6.2350     6.2560     5.4630    24.1280 
  170.8750   -29.1780     2.4280    53.8600     6.1750     6.1290     5.4870    24.1530 
  171.0000   -29.2550     2.4330    56.2330     6.1520     6.0180     5.5240    24.1530 
  171.1250   -29.3320     2.4410    53.2450     6.1630     5.9310     5.5910    24.1480 
  171.2500   -29.3950     2.4500    49.6530     6.1900     5.8610     5.6870    24.1440 
  171.3750   -29.4280     2.4560    47.6710     6.2250     5.8030     5.7370    24.1590 
  171.5000   -29.4280     2.4570    46.1980     6.2600     5.7530     5.7060    24.2390 
  171.6250   -29.3950     2.4510    45.0420     6.2830     5.7080     5.6230    24.3970 
  171.7500   -29.3570     2.4390    45.7640     6.2880     5.6630     5.5570    24.5390 
  171.8750   -29.3290     2.4280    47.6950     6.2770     5.6200     5.5050    24.6060 
  172.0000   -29.3300     2.4190    48.1770     6.2670     5.5860     5.4450    24.6090 
  172.1250   -29.3670     2.4210    46.6310     6.2830     5.5720     5.4120    24.6010 
  172.2500   -29.4230     2.4360    47.7740     6.3290     5.5790     5.4210    24.6030 
  172.3750   -29.4930     2.4570    51.1530     6.3830     5.5960     5.4730    24.6080 
  172.5000   -29.5760     2.4660    52.3180     6.4010     5.5990     5.5310    24.6180 
  172.6250   -29.6530     2.4430    49.8000     6.3350     5.5590     5.5580    24.6400 
  172.7500   -29.7140     2.3940    47.6720     6.2190     5.4860     5.5850    24.6730 
  172.8750   -29.7660     2.3410    48.2580     6.1190     5.4150     5.6300    24.6860 
  173.0000   -29.8200     2.3070    50.4770     6.1090     5.3910     5.6710    24.6500 
  173.1250   -29.8960     2.3180    52.2170     6.2520     5.4600     5.6760    24.6470 
  173.2500   -30.0080     2.3530    52.5730     6.4980     5.6010     5.6730    24.7860 
  173.3750   -30.1420     2.3830    51.2930     6.7650     5.7680     5.7260    25.0150 
  173.5000   -30.2840     2.3880    49.7020     6.9520     5.8940     5.8680    25.1800 
  173.6250   -30.4000     2.3750    48.0680     6.9620     5.9100     6.0040    25.1840 
  173.7500   -30.4800     2.3720    44.7850     6.8410     5.8320     6.0370    25.1290 
  173.8750   -30.5200     2.3850    42.8330     6.6800     5.7160     6.0030    25.0880 
  174.0000   -30.5290     2.3890    45.1390     6.5830     5.6300     5.9480    25.0690 
  174.1250   -30.5360     2.3520    48.5800     6.6540     5.6500     5.9160    25.0720 
  174.2500   -30.5720     2.2930    48.3020     6.8780     5.7800     5.9470    25.0830 
  174.3750   -30.6550     2.2400    45.6410     7.2090     5.9940     6.0450    25.0200 
  174.5000   -30.7870     2.2210    44.3160     7.5730     6.2430     6.1520    24.7480 
  174.6250   -30.9510     2.2530    46.9580     7.8770     6.4590     6.2260    24.2860 
  174.7500   -31.1210     2.3150    52.4560     8.0700     6.5990     6.2680    23.9190 
  174.8750   -31.2790     2.3780    59.7140     8.1340     6.6480     6.3060    23.7770 
  175.0000   -31.4340     2.4200    66.4790     8.0810     6.6130     6.3660    23.7770 
  175.1250   -31.6170     2.4420    72.3420     7.9390     6.5100     6.3650    23.7830 
  175.2500   -31.8390     2.4520    78.0090     7.7780     6.3810     6.2440    23.7670 
  175.3750   -32.1300     2.4510    81.0870     7.6460     6.2550     6.0740    23.7240 
