~V
VERS. 2.00: Ver 2.00
~W
STRT.M 50.0000:
STOP.M 233.0000:
STEP.M 0.1250:
NULL. -999.2500:
UWI. F10166:
~C
DEPT.M :
SP.MV :
DEN.GM/CC :
GR.API :
RML.OHMM :
RI. :
RXO.OHMM :
CALI.CM :
~A
# ...
  117.5000   -20.2420     2.0970    72.0820    12.2480     9.9300    11.4050    24.3790 
  117.6250   -19.3890     2.1720    74.7340    12.4600    10.1700    16.1590    24.4840 
  117.7500   -18.3540     2.2800    81.5330    12.0640     9.9850    19.1950    24.5880 
  117.8750   -17.2620     2.3740    87.2220    11.0360     9.3070    14.9160    24.6480 
  118.0000   -16.2250     2.4090    89.7010     9.7120     8.3460     8.7100    24.6560 
  118.1250   -15.4130     2.3780    93.2320     8.6740     7.5100     6.0160    24.6140 
  118.2500   -14.8750     2.3250    96.8300     8.2260     7.0580     5.6060    24.5460 
  118.3750   -14.6510     2.2730    96.6280     8.4150     7.0700     6.1710    24.4910 
  118.5000   -14.7120     2.2290    91.8110     9.0980     7.5070     7.0010    24.4860 
  118.6250   -15.0080     2.1970    86.3120     9.9620     8.2150     7.7130    24.5100 
  118.7500   -15.3920     2.1780    81.8320    10.5920     8.8580     8.1040    24.5040 
  118.8750   -15.7590     2.1710    79.8440    10.7810     9.2150     8.2510    24.4690 
  119.0000   -16.0380     2.1740    82.0820    10.5380     9.2170     8.1770    24.4410 
  119.1250   -16.1350     2.1780    86.1690    10.0670     8.9560     7.7290    24.4470 
  119.2500   -16.1070     2.1790    88.0280     9.7010     8.6970     7.2070    24.4810 
  119.3750   -15.9890     2.1760    88.2120     9.5920     8.5890     7.0830    24.5330 
  119.5000   -15.8160     2.1770    86.4270     9.7200     8.6580     7.6070    24.5890 
  119.6250   -15.5950     2.1890    81.7400     9.9500     8.8330     9.0840    24.6490 
  119.7500   -15.3040     2.2130    76.9170    10.1180     8.9830    10.7250    24.7320 
  119.8750   -14.9250     2.2470    75.5490    10.1950     9.0570    10.7290    24.8300 
  120.0000   -14.4470     2.2920    77.6270    10.2710     9.0960     9.0430    24.9010 
  120.1250   -13.9080     2.3510    80.3080    10.5150     9.2230     8.1460    24.9040 
  120.2500   -13.3370     2.4110    79.9420    10.9050     9.4650     9.1430    24.8690 
  120.3750   -12.7840     2.4460    75.2170    11.2640     9.7380    10.3840    24.8150 
  120.5000   -12.3020     2.4390    69.1740    11.3410     9.8670     9.7340    24.7410 
  120.6250   -11.9580     2.3940    68.2350    10.9580     9.6830     8.2810    24.6670 
  120.7500   -11.7190     2.3480    72.2600    10.4160     9.3460     8.4150    24.6210 
  120.8750   -11.5510     2.3260    76.3840    10.1390     9.1430     9.5830    24.6070 
  121.0000   -11.4030     2.3370    77.3510    10.5630     9.3870     9.8380    24.6150 
  121.1250   -11.2090     2.3810    74.3720    12.2970    10.5210     9.4540    24.6420 
  121.2500   -10.9820     2.4430    68.3520    15.4010    12.6810    11.6780    24.6810 
  121.3750   -10.7410     2.5130    60.3970    19.6030    15.8480    18.3060    24.7130 
  121.5000   -10.5260     2.5820    53.6900    23.7380    19.3270    27.6470    24.7300 
  121.6250   -10.3690     2.6230    51.3120    25.0740    20.9500    31.2610    24.7320 
  121.7500   -10.3040     2.6210    53.0200    22.7500    19.6410    26.4090    24.7330 
  121.8750   -10.3120     2.5750    58.5600    18.3370    16.4670    17.4000    24.7340 
  122.0000   -10.3840     2.5090    68.3690    14.4180    13.3910    10.2250    24.7500 
  122.1250   -10.4920     2.4540    75.6350    13.0260    11.8950     8.2580    24.7920 
  122.2500   -10.5990     2.4360    73.2850    14.1840    12.1220    11.3780    24.8320 
  122.3750   -10.6790     2.4600    62.8310    17.8410    14.2350    19.3090    24.8590 
  122.5000   -10.7210     2.5160    52.2520    23.7570    18.3740    27.8850    24.8830 
  122.6250   -10.7350     2.5740    48.9520    30.8930    24.2640    29.3710    24.9110 
  122.7500   -10.7220     2.6100    48.9010    36.5180    29.7290    28.6760    24.9250 
  122.8750   -10.7090     2.6220    48.6560    38.6780    32.7470    30.2980    24.9160 
  123.0000   -10.6820     2.6130    48.0090    37.5720    32.8920    31.6270    24.9040 
  123.1250   -10.6620     2.5840    48.1260    34.9850    31.2480    29.5780    24.9090 
  123.2500   -10.6270     2.5460    49.3030    32.5970    29.3710    26.7450    24.9220 
  123.3750   -10.5810     2.5060    49.9820    30.7530    27.7290    24.7350    24.9250 
  123.5000   -10.5330     2.4760    49.4640    29.4230    26.4290    23.1290    24.9160 
  123.6250   -10.4610     2.4650    50.3030    28.5370    25.4730    21.3300    24.9080 
  123.7500   -10.3820     2.4640    53.3760    27.8700    24.7030    19.5520    24.9120 
  123.8750   -10.2890     2.4630    56.2440    27.2900    24.0300    17.9210    24.9230 
  124.0000   -10.1770     2.4560    55.6100    26.7310    23.4290    16.7310    24.9260 
  124.1250   -10.0420     2.4430    51.2750    26.2480    22.9910    16.2880    24.9090 
  124.2500    -9.9010     2.4330    48.2960    25.9150    22.7610    16.6230    24.8820 
  124.3750    -9.7580     2.4340    47.6720    25.7360    22.7110    17.3160    24.8530 
  124.5000    -9.6050     2.4500    49.1240    25.6330    22.7370    17.9750    24.8260 
  124.6250    -9.4580     2.4770    50.2450    25.4840    22.7060    18.5830    24.8080 
  124.7500    -9.3290     2.5040    49.3620    25.2700    22.5930    18.4490    24.8020 
  124.8750    -9.2290     2.5220    47.9550    25.1270    22.5000    17.4110    24.8030 
  125.0000    -9.1630     2.5310    47.1040    25.2760    22.6020    16.5010    24.8030 
  125.1250    -9.1270     2.5360    46.5390    25.9290    23.0930    16.9580    24.8040 
  125.2500    -9.0930     2.5420    46.2560    26.8620    23.8440    19.0270    24.8010 
  125.3750    -9.0520     2.5480    46.9810    27.6630    24.5600    22.0580    24.7890 
  125.5000    -9.0250     2.5480    48.3500    27.8070    24.8080    24.1780    24.7690 
  125.6250    -8.9920     2.5410    47.7660    26.7970    24.1060    21.9970    24.7500 
  125.7500    -8.9680     2.5320    47.2690    25.0480    22.7150    17.9650    24.7270 
  125.8750    -8.9510     2.5250    47.4090    23.1460    21.1060    15.3110    24.6980 
  126.0000    -8.9350     2.5220    47.4340    21.6420    19.7610    14.6120    24.6660 
  126.1250    -8.9440     2.5230    47.0500    20.9370    19.0670    15.0040    24.6380 
  126.2500    -8.9600     2.5280    46.9340    20.8920    18.9470    15.4500    24.6200 
  126.3750    -8.9850     2.5310    48.1900    21.3340    19.2730    16.0830    24.6110 
  126.5000    -9.0010     2.5290    50.3040    22.0400    19.8630    17.0770    24.6010 
  126.6250    -8.9960     2.5180    51.3010    22.7530    20.5070    17.4520    24.5830 
  126.7500    -8.9780     2.5060    50.7670    23.2780    21.0180    17.0510    24.5650 
  126.8750    -8.9460     2.5000    50.0300    23.5630    21.3220    17.1130    24.5550 
  127.0000    -8.8940     2.5060    49.3730    23.6340    21.4100    17.9470    24.5420 
  127.1250    -8.8370     2.5210    47.6520    23.4890    21.2650    18.2470    24.5110 
  127.2500    -8.7720     2.5360    45.9320    23.1560    20.9460    17.6030    24.4670 
  127.3750    -8.7170     2.5430    45.5480    22.6370    20.4850    16.8210    24.4150 
  127.5000    -8.6900     2.5400    47.5740    22.0090    19.9430    16.1820    24.3530 
  127.6250    -8.6870     2.5250    51.9450    21.5030    19.4790    15.1130    24.2840 
  127.7500    -8.7260     2.5040    55.0420    21.3330    19.2600    13.9040    24.2300 
  127.8750    -8.7940     2.4840    54.4910    21.5800    19.3700    13.2300    24.2030 
  128.0000    -8.8970     2.4730    52.7390    22.1640    19.7850    13.4920    24.1810 
  128.1250    -9.0080     2.4760    53.1720    22.8700    20.3760    14.7080    24.1440 
  128.2500    -9.1320     2.4890    54.6020    23.4030    20.8830    15.6120    24.1040 
  128.3750    -9.2560     2.5050    55.3910    23.5930    21.1170    15.6810    24.0770 
  128.5000    -9.3770     2.5180    55.2060    23.4180    21.0090    15.4770    24.0700 
  128.6250    -9.4720     2.5220    53.5930    22.9780    20.6230    15.5750    24.0780 
