~V
VERS. 2.00: Ver 2.00
~W
STRT.M 49.0000:
STOP.M 243.0000:
STEP.M 0.1250:
NULL. -999.2500:
UWI. F10196:
~C
DEPT.M :
SP.MV :
DEN.GM/CC :
GR.API :
RML.OHMM :
RI. :
RXO.OHMM :
CALI.CM :
~A
# ...
  127.7500    -5.5790     2.4920    44.6530    18.1560    17.5560    18.6870    24.3550 
  127.8750    -5.5830     2.5010    48.6330    18.0360    17.3730    19.0940    24.3140 
  128.0000    -5.6560     2.5030    50.4610    17.7280    17.0740    18.7750    24.2950 
  128.1250    -5.7740     2.4940    50.9340    17.1450    16.5440    17.7690    24.3430 
  128.2500    -5.8530     2.4790    54.0630    16.3590    15.8130    17.2780    24.3920 
  128.3750    -5.9050     2.4680    58.0070    15.6050    15.0830    17.1070    24.3910 
  128.5000    -5.9560     2.4650    59.6790    15.0520    14.5050    16.3600    24.3510 
  128.6250    -6.0290     2.4650    58.6310    14.8110    14.1840    15.1350    24.2800 
  128.7500    -6.1230     2.4650    57.8000    14.9880    14.2250    15.3040    24.2560 
  128.8750    -6.2210     2.4630    57.3070    15.5150    14.5790    16.2050    24.2780 
  129.0000    -6.3220     2.4600    55.9050    16.3630    15.2250    17.6830    24.3460 
  129.1250    -6.4790     2.4610    54.3160    17.4780    16.1260    19.1250    24.3920 
  129.2500    -6.6940     2.4690    53.7120    18.7950    17.2350    20.6080    24.3750 
  129.3750    -6.8930     2.4780    53.2420    20.1760    18.4220    22.4240    24.3490 
  129.5000    -7.0330     2.4840    51.5610    21.5590    19.6200    24.1270    24.3320 
  129.6250    -7.1370     2.4820    49.9970    22.9120    20.7870    25.7750    24.3260 
  129.7500    -7.2980     2.4810    50.3010    24.2130    21.8870    26.4530    24.3040 
  129.8750    -7.4840     2.4940    51.0870    25.4230    22.9000    27.0170    24.2720 
  130.0000    -7.6240     2.5190    50.4270    26.4380    23.7570    28.4730    24.2380 
  130.1250    -7.6850     2.5440    48.0530    27.1260    24.3520    31.1560    24.2130 
  130.2500    -7.7350     2.5500    47.3790    27.3710    24.5680    32.6660    24.2190 
  130.3750    -7.8550     2.5410    49.1800    27.3910    24.5490    32.1980    24.1900 
  130.5000    -8.0480     2.5240    52.5150    27.4600    24.5080    30.4440    24.0870 
  130.6250    -8.2450     2.5040    56.9460    27.8750    24.7000    29.1610    23.9710 
  130.7500    -8.3370     2.4840    61.4970    28.9260    25.4110    31.3990    23.9760 
  130.8750    -8.4120     2.4610    64.8460    30.4670    26.5920    35.0910    24.0270 
  131.0000    -8.5360     2.4370    67.3040    32.1970    28.0600    36.6200    24.0480 
  131.1250    -8.7070     2.4180    72.4600    33.6230    29.4310    37.6850    24.0090 
  131.2500    -8.8220     2.4110    80.6130    33.9530    30.0220    38.2840    24.0460 
  131.3750    -8.8680     2.4080    84.8070    32.9890    29.5380    37.6690    24.2090 
  131.5000    -8.9040     2.4020    84.9560    30.9200    28.0280    35.1650    24.4420 
  131.6250    -8.9740     2.3870    82.9800    28.3170    25.8990    30.6120    24.6470 
  131.7500    -9.1030     2.3700    79.8170    25.9540    23.7570    26.0600    24.6930 
  131.8750    -9.2080     2.3630    77.0270    24.3060    22.0730    22.5550    24.6720 
  132.0000    -9.2720     2.3710    77.8780    23.5190    21.0380    21.4510    24.7160 
  132.1250    -9.3570     2.3860    82.4220    23.4970    20.6640    21.9450    24.7940 
  132.2500    -9.5000     2.3970    84.4010    23.9950    20.8640    23.1400    24.8540 
  132.3750    -9.6060     2.4000    81.8980    24.5180    21.2550    23.4240    24.8810 
  132.5000    -9.6390     2.4000    78.4370    24.7280    21.5310    23.3450    24.9830 
  132.6250    -9.6180     2.3930    77.7730    24.4410    21.4540    23.5750    25.1780 
  132.7500    -9.5910     2.3720    77.8570    23.6380    20.8950    23.7810    25.5220 
  132.8750    -9.5710     2.3340    75.1590    22.6320    20.0740    22.8160    25.9390 
  133.0000    -9.5050     2.2730    71.6250    21.6430    19.1880    21.7910    26.3410 
  133.1250    -9.3480     2.1990    70.7900    20.8100    18.3900    21.1580    26.4330 
  133.2500    -9.1630     2.1600    72.2030    20.2120    17.7920    20.9570    25.7260 
  133.3750    -9.0480     2.1840    72.8060    19.7940    17.3800    22.0800    24.5450 
  133.5000    -8.9790     2.2610    73.0410    19.5150    17.1290    22.4670    23.7250 
  133.6250    -8.9070     2.3580    73.6490    19.3390    17.0030    20.7900    23.4220 
  133.7500    -8.7890     2.4270    75.7520    19.2400    16.9640    20.0590    23.3240 
  133.8750    -8.6490     2.4610    78.2680    19.1770    16.9540    20.2740    23.3000 
  134.0000    -8.5240     2.4730    77.9100    19.0950    16.9300    21.1400    23.4390 
  134.1250    -8.4590     2.4710    74.8980    18.8610    16.8070    21.9240    23.6420 
  134.2500    -8.4130     2.4530    74.2490    18.1420    16.3320    21.2470    23.7910 
  134.3750    -8.3030     2.4240    76.1200    16.7750    15.3260    19.7130    23.9570 
  134.5000    -8.1240     2.3890    77.9100    14.7810    13.7520    18.5400    24.2350 
  134.6250    -7.9390     2.3500    79.2480    12.4420    11.8070    17.6010    24.6540 
  134.7500    -7.8210     2.3060    82.1910    10.2550     9.8770    14.3480    25.0110 
  134.8750    -7.7550     2.2640    84.6060     8.5560     8.2720     9.9510    25.0780 
  135.0000    -7.6940     2.2370    83.9000     7.4290     7.0990     7.3990    24.9500 
  135.1250    -7.5960     2.2270    81.4210     6.7990     6.3390     6.7450    24.8240 
  135.2500    -7.5130     2.2300    82.4750     6.5400     5.9400     6.8560    24.7810 
  135.3750    -7.5250     2.2350    85.8010     6.4040     5.7150     6.7440    24.7700 
  135.5000    -7.6050     2.2440    87.5510     6.2600     5.5510     6.3490    24.7560 
  135.6250    -7.6800     2.2550    86.3160     6.0690     5.3880     5.8160    24.7710 
  135.7500    -7.7130     2.2590    84.0990     5.9020     5.2450     5.3660    24.8290 
  135.8750    -7.7830     2.2540    81.7720     5.8630     5.1850     5.1610    24.8890 
  136.0000    -7.9300     2.2470    78.0770     6.0140     5.2590     5.3260    24.9270 
  136.1250    -8.0810     2.2410    74.3160     6.3620     5.4890     6.0190    24.9190 
  136.2500    -8.1750     2.2380    72.3170     6.8640     5.8660     7.2360    24.8620 
  136.3750    -8.2450     2.2340    72.3090     7.3670     6.2780     8.5560    24.8100 
  136.5000    -8.3330     2.2270    72.9310     7.7290     6.6070     9.7240    24.7650 
  136.6250    -8.4460     2.2190    74.3060     7.8510     6.7470     9.4960    24.6840 
  136.7500    -8.5320     2.2140    77.2230     7.6920     6.6260     8.8190    24.5320 
  136.8750    -8.5330     2.2160    77.9450     7.3910     6.3490     8.0620    24.4340 
  137.0000    -8.4750     2.2210    75.5570     7.0610     6.0190     7.3950    24.4000 
  137.1250    -8.4500     2.2260    71.6210     6.7860     5.7220     7.1590    24.3910 
  137.2500    -8.4970     2.2290    70.1280     6.6220     5.5220     7.1000    24.3860 
  137.3750    -8.5260     2.2320    70.5000     6.5760     5.4280     6.9180    24.3910 
  137.5000    -8.4950     2.2310    72.6760     6.6720     5.4520     6.9660    24.4030 
  137.6250    -8.4420     2.2300    77.0190     6.9440     5.6070     7.0380    24.4140 
  137.7500    -8.4570     2.2260    79.6360     7.4350     5.9340     7.1700    24.4380 
  137.8750    -8.5330     2.2170    80.1930     8.0530     6.3900     7.4650    24.4610 
  138.0000    -8.5950     2.2030    78.7300     8.6360     6.8810     8.1070    24.4600 
  138.1250    -8.6180     2.1910    75.4580     8.9480     7.2360     9.0310    24.4380 
  138.2500    -8.6300     2.1830    73.6370     8.6910     7.1950     9.8580    24.4160 
  138.3750    -8.6630     2.1730    75.3870     7.5370     6.7630     9.6660    24.4220 
  138.5000    -8.7100     2.1690    79.5410     6.2370     6.0850     8.1740    24.3420 
  138.6250    -8.7260     2.1850    83.0240     5.4900     5.3720     6.2030    24.1710 
  138.7500    -8.6980     2.2180    83.7550     5.0490     4.8370     5.1090    24.0700 
  138.8750    -8.6920     2.2440    80.9930     4.9150     4.5360     4.9590    24.1790 
