~V
VERS. 2.00: Ver 2.00
~W
STRT.M 55.0000:
STOP.M 248.0000:
STEP.M 0.1250:
NULL. -999.2500:
UWI. F10184:
~C
DEPT.M :
SP.MV :
GR.API :
RML.OHMM :
RI. :
RXO.OHMM :
CALI.CM :
DEN.GM/CC :
~A
# ...
  156.2500    -1.8760    58.6290    11.9310    10.9970     9.1930    24.5480     2.3480 
  156.3750    -2.0900    62.7370    12.2990    11.1840     9.2050    24.4570     2.3630 
  156.5000    -2.3580    63.5450    13.0370    11.6330     9.4110    24.3190     2.3810 
  156.6250    -2.5810    62.0030    14.3640    12.5340     9.5580    24.2110     2.3900 
  156.7500    -2.8680    61.5390    16.2290    13.9090     9.9820    24.1520     2.3850 
  156.8750    -3.1230    62.8190    18.5180    15.7540    10.5850    24.0770     2.3660 
  157.0000    -3.3540    64.2500    21.0050    17.9720    11.9140    23.9280     2.3400 
  157.1250    -3.6920    68.6310    23.4090    20.3750    14.7100    23.8120     2.3170 
  157.2500    -4.0220    75.1720    25.6960    22.7670    17.5170    23.7920     2.3000 
  157.3750    -4.2420    77.5320    28.2500    25.2630    19.0970    23.8620     2.2850 
  157.5000    -4.5070    74.8240    31.8770    28.3660    20.4290    23.9680     2.2730 
  157.6250    -4.7910    72.5420    38.2400    33.4160    22.9650    24.0000     2.2660 
  157.7500    -5.0440    73.2660    48.4140    41.6170    28.7640    24.0480     2.2620 
  157.8750    -5.3760    73.3450    63.7780    54.6390    42.2830    24.2050     2.2540 
  158.0000    -5.6490    70.2010    85.5750    74.0580    71.1750    24.4240     2.2380 
  158.1250    -5.8950    65.5890   115.0390   101.0090   143.7960    24.7160     2.2140 
  158.2500    -6.2130    62.0030   148.1970   131.1670   206.2860    24.8780     2.1900 
  158.3750    -6.5370    61.1010   179.7110   159.4630   206.4160    24.9230     2.1750 
  158.5000    -6.7780    60.8260   204.7540   181.8730   195.1100    24.9180     2.1710 
  158.6250    -7.0300    58.9090   222.0470   197.4330   193.4790    24.9020     2.1720 
  158.7500    -7.2390    57.9120   236.3870   210.2790   199.9100    24.9090     2.1720 
  158.8750    -7.4340    58.8700   249.6600   222.2480   220.4940    24.9030     2.1730 
  159.0000    -7.6450    59.8230   260.7710   232.7140   257.1710    24.8720     2.1760 
  159.1250    -7.7230    59.4490   266.3380   239.0090   286.6550    24.8760     2.1800 
  159.2500    -7.7520    60.1480   265.7210   240.5320   296.6380    24.9120     2.1810 
  159.3750    -7.8450    62.2520   258.1190   236.5830   276.2680    24.9320     2.1770 
  159.5000    -7.9080    62.9920   242.8270   226.2340   241.0580    24.8890     2.1730 
  159.6250    -7.8360    61.1130   219.7540   208.3760   231.3990    24.8790     2.1740 
  159.7500    -7.8040    59.5490   193.4430   186.1990   234.9010    24.9100     2.1770 
  159.8750    -7.6850    60.4530   167.7270   162.9720   202.0840    24.9320     2.1820 
  160.0000    -7.5170    63.0290   160.3420   141.9830   143.0980    24.8900     2.1930 
  160.1250    -7.4880    64.5400   143.5050   126.4950   106.0550    24.8350     2.2070 
  160.2500    -7.4350    64.1800   133.5840   116.7650    99.4260    24.7370     2.2190 
  160.3750    -7.2630    63.8400   130.3540   112.8750    98.4970    24.5720     2.2240 
  160.5000    -7.1510    65.0510   133.1570   114.5020    96.3420    24.3720     2.2250 
  160.6250    -7.1710    65.7080   141.4100   121.4580   104.1730    24.2010     2.2240 
  160.7500    -7.1450    62.2010   152.2020   131.3150   131.4180    24.0910     2.2170 
  160.8750    -7.1970    55.8180   163.0750   142.0880   157.1080    24.0380     2.2090 
  161.0000    -7.2370    51.6190   171.2790   151.4880   173.7990    23.9900     2.2020 
  161.1250    -7.2350    53.1230   173.0850   156.1860   174.0270    23.9390     2.2000 
  161.2500    -7.2950    57.0240   168.1980   155.1430   162.7870    23.9470     2.2020 
  161.3750    -7.3640    61.3500   157.2660   148.2390   156.1600    24.0610     2.2050 
  161.5000    -7.3410    64.8760   141.6430   136.2780   150.6520    24.2640     2.2100 
  161.6250    -7.3120    66.2140   122.5690   120.1070   119.1760    24.4450     2.2170 
  161.7500    -7.2890    65.6630   102.6510   102.2240    87.8160    24.5550     2.2260 
  161.8750    -7.1750    64.4050    84.1190    84.7560    70.1510    24.5950     2.2420 
  162.0000    -7.1460    64.9300    68.7110    69.6100    60.5600    24.5930     2.2610 
  162.1250    -7.0080    68.2600    57.5770    58.2410    52.9480    24.5690     2.2770 
  162.2500    -6.7950    72.8900    49.7070    50.0030    43.9800    24.5190     2.2840 
  162.3750    -6.7050    76.6980    44.6640    44.5400    31.1500    24.3970     2.2800 
  162.5000    -6.7190    77.9700    42.2650    41.6190    22.9330    24.3130     2.2720 
  162.6250    -6.6180    76.0440    43.2020    41.7310    26.3560    24.3890     2.2650 
  162.7500    -6.5260    74.0770    47.6590    44.9790    28.5790    24.6650     2.2620 
  162.8750    -6.5170    73.3460    56.2670    52.1130    32.6280    24.8730     2.2560 
  163.0000    -6.4380    73.2840    69.1980    63.5690    48.5890    24.9280     2.2380 
  163.1250    -6.4930    71.8680    85.8670    79.0430    74.8290    24.8780     2.2130 
  163.2500    -6.5970    69.2750   102.6910    95.0160    89.3020    24.7950     2.2010 
  163.3750    -6.5820    66.4880   115.8570   107.6630    88.3820    24.7010     2.2090 
  163.5000    -6.5480    64.3020   122.8530   114.2430    91.3820    24.6310     2.2260 
  163.6250    -6.6580    63.8100   124.2690   114.7580    94.1890    24.6160     2.2390 
  163.7500    -6.7280    64.3770   124.7390   113.6180    97.2270    24.6350     2.2450 
  163.8750    -6.7800    66.3420   126.6280   113.3600   103.2590    24.6530     2.2460 
  164.0000    -6.8960    68.7220   130.8150   115.1760   107.9610    24.6470     2.2460 
  164.1250    -6.8920    67.7810   137.5710   119.7650   117.3260    24.6180     2.2430 
  164.2500    -6.9020    65.2690   145.5630   126.1830   128.3410    24.6200     2.2370 
  164.3750    -7.0050    65.7720   153.4950   133.4760   134.4340    24.6540     2.2300 
  164.5000    -7.0310    70.7630   160.2010   140.6380   129.9020    24.6970     2.2240 
  164.6250    -7.0000    74.6010   165.0560   146.9370   116.8100    24.7190     2.2170 
  164.7500    -7.0430    74.3750   168.9920   152.6400   106.1430    24.7590     2.2050 
  164.8750    -7.0130    73.2540   172.2080   157.7920    98.0780    24.8190     2.1880 
  165.0000    -6.9820    73.0540   172.4220   160.6810    97.8680    24.9170     2.1730 
  165.1250    -7.0030    70.6990   161.6310   154.5280   100.5900    24.9020     2.1610 
  165.2500    -6.9030    65.7410   137.4890   135.9040   110.3900    24.7430     2.1590 
  165.3750    -6.7660    63.2310   105.4450   107.8480   122.9260    24.4860     2.1700 
  165.5000    -6.7440    67.3450    78.4520    79.0700    94.4630    24.2340     2.1980 
  165.6250    -6.6570    76.4280    57.7080    58.3750    48.1510    24.1110     2.2420 
  165.7500    -6.4940    83.1510    46.3160    46.2210    26.5610    24.0080     2.2900 
  165.8750    -6.4540    85.7910    42.5480    41.2700    22.1110    23.8960     2.3290 
  166.0000    -6.3720    84.0380    45.0050    42.1790    29.3760    23.8240     2.3450 
  166.1250    -6.2580    78.3140    53.8050    49.1940    47.5190    23.8310     2.3290 
  166.2500    -6.2900    73.5560    67.5550    61.3140    58.8660    23.9460     2.2980 
  166.3750    -6.3260    71.7150    85.1840    77.7010    66.1820    24.1920     2.2700 
  166.5000    -6.2690    71.2250   104.4050    95.9910    77.2790    24.4790     2.2540 
  166.6250    -6.3220    68.5290   116.4050   111.7620   122.8740    24.7330     2.2450 
  166.7500    -6.3820    64.6520   127.3630   122.3000   168.4350    24.8410     2.2360 
  166.8750    -6.3680    61.7150   132.8130   127.2670   157.2090    24.8320     2.2290 
  167.0000    -6.3910    59.8180   134.0680   127.9510   111.9870    24.7930     2.2260 
  167.1250    -6.3680    59.4320   133.3470   126.3680    95.4820    24.7850     2.2280 
  167.2500    -6.2720    59.8890   133.2320   125.0700   104.0110    24.7910     2.2300 
  167.3750    -6.2220    61.4940   134.3290   124.8410   121.3110    24.7970     2.2280 
