~V
VERS. 2.00: Ver 2.00
~W
STRT.M 50.0000:
STOP.M 207.0000:
STEP.M 0.1250:
NULL. -999.2500:
UWI. F10134:
~C
DEPT.M :
SP.MV :
DEN.GM/CC :
GR.API :
RML.OHMM :
RI. :
RXO.OHMM :
CALI.CM :
~A
# ...
   95.0000     7.6220     2.2570    80.0620     9.1480     6.4040     6.2060    25.3960 
   95.1250     7.0530     2.2300    76.4650     9.2100     6.5580     6.4590    25.3300 
   95.2500     6.4770     2.2050    76.0810     9.0520     6.5440     6.4950    25.2870 
   95.3750     5.9310     2.1830    77.2150     8.8030     6.4270     6.4910    25.2730 
   95.5000     5.4430     2.1670    78.0710     8.5890     6.2820     6.3890    25.2740 
   95.6250     5.0300     2.1550    76.2990     8.5250     6.1890     6.3270    25.2770 
   95.7500     4.6800     2.1460    75.5300     8.6420     6.1860     6.4020    25.2780 
   95.8750     4.3820     2.1390    77.4350     8.9500     6.2930     6.5120    25.2750 
   96.0000     4.1300     2.1380    77.7470     9.4280     6.5060     6.7090    25.2740 
   96.1250     3.9270     2.1470    73.3280    10.0090     6.8050     7.0250    25.2710 
   96.2500     3.7460     2.1650    68.1850    10.5410     7.1100     7.3190    25.2540 
   96.3750     3.5790     2.1880    66.7960    10.8950     7.3520     7.7020    25.2060 
   96.5000     3.4300     2.2090    68.5270    10.9990     7.4670     8.0030    25.1120 
   96.6250     3.2980     2.2160    70.3870    10.8400     7.4160     7.7960    24.9670 
   96.7500     3.1700     2.2100    69.9230    10.5590     7.2710     7.2220    24.8240 
   96.8750     3.0320     2.1950    67.8820    10.2560     7.0960     6.8860    24.7130 
   97.0000     2.8820     2.1780    67.5330    10.0070     6.9470     6.9480    24.6110 
   97.1250     2.7240     2.1700    70.8370     9.8560     6.8500     7.3360    24.4900 
   97.2500     2.5760     2.1700    73.5550     9.7600     6.7820     7.7090    24.3860 
   97.3750     2.4480     2.1760    73.9520     9.6740     6.7160     7.7760    24.3340 
   97.5000     2.3350     2.1820    73.1030     9.5690     6.6420     7.5400    24.3740 
   97.6250     2.2340     2.1860    72.8660     9.4560     6.5810     7.2470    24.5270 
   97.7500     2.1240     2.1880    72.8600     9.3850     6.5570     7.1370    24.6960 
   97.8750     1.9830     2.1890    74.4410     9.3770     6.5780     7.3310    24.7880 
   98.0000     1.7820     2.1900    78.4380     9.3960     6.6300     7.6900    24.7970 
   98.1250     1.4750     2.1900    80.5650     9.3590     6.6740     7.7760    24.7890 
   98.2500     1.0800     2.1880    77.8280     9.2450     6.6840     7.6530    24.7800 
   98.3750     0.6230     2.1840    71.5390     9.1090     6.6650     7.5610    24.7620 
   98.5000     0.1490     2.1790    67.1600     9.0400     6.6490     7.6130    24.7430 
   98.6250    -0.2780     2.1780    68.3240     9.1250     6.6760     7.9490    24.7360 
   98.7500    -0.6190     2.1840    71.4300     9.3140     6.7490     8.3270    24.7390 
   98.8750    -0.8560     2.1970    73.5530     9.5110     6.8430     8.6370    24.7450 
   99.0000    -0.9890     2.2120    73.3920     9.6230     6.9250     8.6910    24.7460 
   99.1250    -1.0090     2.2170    72.1710     9.5850     6.9490     8.1080    24.7420 
   99.2500    -0.9630     2.2070    70.0780     9.4420     6.9120     7.2440    24.7400 
   99.3750    -0.8760     2.1850    66.6900     9.2580     6.8250     7.0300    24.7410 
   99.5000    -0.7640     2.1580    63.1400     9.0850     6.7190     7.3380    24.7510 
   99.6250    -0.6280     2.1400    60.1870     8.9510     6.6270     7.9810    24.7800 
   99.7500    -0.4610     2.1350    57.9640     8.8460     6.5660     8.0450    24.8160 
   99.8750    -0.2660     2.1420    57.9740     8.7650     6.5350     7.8850    24.8400 
  100.0000    -0.0530     2.1570    61.1010     8.7040     6.5190     7.6700    24.8450 
  100.1250     0.1930     2.1750    64.9260     8.6590     6.4930     7.6470    24.8510 
  100.2500     0.4710     2.1900    66.2250     8.6080     6.4440     7.5840    24.8700 
  100.3750     0.7940     2.1980    65.6850     8.5540     6.3790     7.4110    24.8970 
  100.5000     1.1640     2.2000    66.4680     8.5650     6.3400     7.3230    24.9330 
  100.6250     1.5720     2.1940    68.9060     8.7860     6.4110     7.6550    24.9920 
  100.7500     2.0200     2.1880    70.0500     9.2340     6.6130     7.8780    25.0630 
  100.8750     2.5090     2.1820    70.8860     9.8140     6.9050     8.2140    25.1500 
  101.0000     3.0180     2.1770    74.1960    10.2970     7.1750     9.4670    25.2650 
  101.1250     3.4930     2.1740    77.6060    10.3130     7.2210    11.5570    25.3770 
  101.2500     3.8970     2.1700    78.9880     9.8130     6.9930    10.9450    25.4370 
  101.3750     4.2170     2.1600    81.7050     9.0080     6.5810     8.1040    25.4470 
  101.5000     4.4560     2.1430    86.6480     8.3050     6.1910     6.5760    25.4470 
  101.6250     4.5900     2.1270    89.3290     8.2870     6.1420     6.3730    25.4170 
  101.7500     4.6470     2.1350    86.4470     9.2340     6.6210     7.2430    25.3630 
  101.8750     4.6420     2.1910    82.0130    11.2760     7.7530     9.7090    25.3570 
  102.0000     4.6100     2.3140    79.3160    14.2140     9.5050    15.3210    25.4410 
  102.1250     4.5690     2.4730    77.8480    17.1160    11.4570    27.6060    25.5510 
  102.2500     4.5020     2.5730    75.8330    18.4590    12.6610    39.7980    25.5800 
  102.3750     4.3860     2.5670    73.5940    17.3830    12.4350    34.5080    25.5080 
  102.5000     4.2070     2.4820    73.8380    14.4510    10.9330    17.8770    25.3830 
  102.6250     3.9420     2.3780    78.2540    11.2940     9.0150     9.8890    25.2880 
  102.7500     3.6170     2.2940    82.3380     9.0400     7.4530     7.3040    25.2550 
  102.8750     3.2430     2.2410    82.8080     7.8410     6.4380     6.3310    25.2270 
  103.0000     2.8300     2.2150    79.6950     7.4990     5.9420     6.3330    25.1580 
  103.1250     2.4100     2.2040    74.0250     7.7730     5.8940     6.8310    25.0560 
  103.2500     2.0040     2.1950    69.2950     8.2560     6.0600     7.2090    24.9260 
  103.3750     1.6050     2.1880    67.6590     8.7230     6.3020     7.4790    24.7740 
  103.5000     1.2040     2.1860    69.6770     9.0420     6.5250     7.6010    24.6500 
  103.6250     0.8130     2.1880    71.1220     9.1670     6.6760     7.5950    24.6150 
  103.7500     0.4500     2.1870    69.3830     9.1870     6.7720     7.5200    24.6260 
  103.8750     0.1420     2.1780    67.3560     9.1530     6.8280     7.4500    24.6280 
  104.0000    -0.0930     2.1630    67.5810     9.0920     6.8490     7.5800    24.6200 
  104.1250    -0.2430     2.1460    68.6210     9.0130     6.8200     7.8030    24.6380 
  104.2500    -0.3290     2.1380    68.8570     8.9220     6.7460     7.9960    24.7090 
  104.3750    -0.3710     2.1410    69.4570     8.8320     6.6440     7.8000    24.8110 
  104.5000    -0.4070     2.1540    72.3220     8.7570     6.5430     7.4200    24.8860 
  104.6250    -0.4850     2.1670    74.2480     8.7170     6.4710     7.3670    24.9100 
  104.7500    -0.6260     2.1680    71.9540     8.7060     6.4310     7.5550    24.8960 
  104.8750    -0.8310     2.1590    67.5450     8.7020     6.4100     7.8450    24.8600 
  105.0000    -1.0810     2.1450    64.9820     8.6770     6.3940     7.8760    24.8410 
  105.1250    -1.3430     2.1320    65.1940     8.6300     6.3690     7.6190    24.8690 
  105.2500    -1.5900     2.1240    67.2980     8.6020     6.3410     7.3860    24.9060 
  105.3750    -1.8010     2.1200    69.9460     8.6290     6.3230     7.2580    24.9230 
  105.5000    -1.9760     2.1210    71.0140     8.7310     6.3270     7.2350    24.9160 
  105.6250    -2.1120     2.1250    69.9950     8.8970     6.3680     7.2070    24.8640 
  105.7500    -2.2340     2.1330    69.4460     9.0740     6.4390     7.3460    24.7680 
  105.8750    -2.3590     2.1430    69.6690     9.2380     6.5310     7.7460    24.6710 
  106.0000    -2.5040     2.1500    68.4550     9.3750     6.6330     8.1890    24.5970 
  106.1250    -2.6700     2.1550    66.1060     9.4590     6.7170     8.2870    24.5200 
