~V
VERS. 2.00: Ver 2.00
~W
STRT.M 60.0000:
STOP.M 245.0000:
STEP.M 0.1250:
NULL. -999.2500:
UWI. F10162:
~C
DEPT.M :
SP.MV :
DEN.GM/CC :
GR.API :
RML.OHMM :
RI. :
RXO.OHMM :
CALI.CM :
~A
# ...
  183.7500   -15.0040     2.2470    66.1010   110.3130    99.0600    31.9240    23.0230 
  183.8750   -14.9730     2.2460    65.1800   120.1800   107.3590    45.3400    23.4610 
  184.0000   -15.0170     2.2450    63.0380   137.5950   124.5400    67.4400    23.9450 
  184.1250   -14.9790     2.2430    61.7380   159.2700   148.0150   101.5590    24.3660 
  184.2500   -15.1700     2.2420    61.4440   178.5430   169.8660   138.5420    24.6160 
  184.3750   -15.4570     2.2440    62.3470   190.9320   183.6950   163.1010    24.6280 
  184.5000   -15.6560     2.2480    63.0830   195.6240   188.0030   160.2980    24.4810 
  184.6250   -15.9650     2.2500    62.5540   195.1930   187.2100   134.2970    24.3520 
  184.7500   -16.2780     2.2420    61.7410   193.1140   187.1570   115.9600    24.4590 
  184.8750   -16.4560     2.2240    60.5970   187.8010   186.9000   129.2950    24.6720 
  185.0000   -16.8270     2.2000    58.5610   175.4130   180.7470   179.2050    24.7920 
  185.1250   -17.2130     2.1850    56.4470   153.1670   161.6920   189.0300    24.6990 
  185.2500   -17.3930     2.1840    57.4880   127.0530   135.0400   141.6320    24.4440 
  185.3750   -17.5620     2.1960    62.9090   103.6570   109.0580    99.6350    24.1300 
  185.5000   -17.7720     2.2110    69.4820    87.8280    90.1610    76.6920    23.9920 
  185.6250   -18.0690     2.2200    71.9050    82.6470    82.5610    57.5120    24.2540 
  185.7500   -18.3470     2.2210    68.8210    85.5120    84.2690    67.0960    24.7000 
  185.8750   -18.5300     2.2200    62.8900    94.3880    93.4910   106.6200    25.0790 
  186.0000   -18.5170     2.2230    58.9230   106.5670   107.2770   140.9940    25.2030 
  186.1250   -18.5140     2.2310    59.4410   118.5610   121.2180   136.6820    25.1650 
  186.2500   -18.6030     2.2400    61.9460   127.9540   131.5550   127.2750    25.1470 
  186.3750   -18.6880     2.2460    63.2230   134.7110   137.8710   128.1830    25.1490 
  186.5000   -18.7230     2.2470    61.3900   140.4940   142.5700   114.0230    25.1350 
  186.6250   -18.7030     2.2440    59.1740   147.2340   148.9210   116.5150    25.1220 
  186.7500   -18.7030     2.2390    57.9600   154.2710   156.4950   132.6400    25.1370 
  186.8750   -18.7030     2.2350    57.2060   159.0280   161.9330   153.3950    25.1590 
  187.0000   -18.8100     2.2340    56.1270   158.8540   161.4340   160.3390    25.1690 
  187.1250   -19.0270     2.2380    56.3650   152.5040   152.8540   163.4790    25.1550 
  187.2500   -19.1620     2.2450    57.6140   143.8220   140.7780   134.6020    25.0620 
  187.3750   -19.3270     2.2530    58.1890   136.7880   130.0020    90.0440    24.7800 
  187.5000   -19.5950     2.2640    59.1580   134.7740   124.4110    62.6850    24.2390 
  187.6250   -19.8440     2.2750    61.6900   141.0430   127.4310    56.1670    23.7960 
  187.7500   -20.1170     2.2850    64.4630   154.8830   138.1970    68.4490    23.6280 
  187.8750   -20.2500     2.2880    64.6810   175.4060   155.7460    93.6610    23.7800 
  188.0000   -20.1600     2.2820    62.9220   200.1250   177.6650   124.4580    24.1540 
  188.1250   -19.8810     2.2640    60.9850   223.4100   198.9580   149.5320    24.5580 
  188.2500   -19.4950     2.2440    58.7420   238.4030   213.6360   184.4020    24.7780 
  188.3750   -19.0590     2.2330    56.6880   240.0090   217.4230   201.5520    24.8740 
  188.5000   -18.5500     2.2430    55.0310   226.6670   208.8770   181.8800    24.8430 
  188.6250   -17.9680     2.2850    56.0880   200.1440   188.7560   141.1230    24.7370 
  188.7500   -17.3330     2.3490    58.0790   169.2350   163.6210   112.4000    24.6470 
  188.8750   -16.6620     2.4180    59.8310   139.7860   138.1430    93.0200    24.5280 
  189.0000   -15.9620     2.4720    61.7770   115.5730   115.9440    79.4600    24.3610 
  189.1250   -15.1790     2.5000    64.0410    99.0320   100.0260    68.3280    24.1830 
  189.2500   -14.4120     2.5180    69.1820    88.2030    89.6330    54.6680    23.9900 
  189.3750   -13.6900     2.5450    76.0500    81.1620    83.3750    46.7900    23.8600 
  189.5000   -12.9550     2.5890    79.6840    75.5570    78.8870    46.8230    23.9070 
  189.6250   -12.1680     2.6290    74.0030    69.0010    73.1020    53.7280    24.1680 
  189.7500   -11.3920     2.6330    63.3150    60.8460    64.7100    64.9880    24.4350 
  189.8750   -10.7750     2.5830    55.5550    51.9940    54.6410    61.3280    24.7250 
  190.0000   -10.3270     2.4910    53.3320    44.1820    45.1760    37.6250    25.0000 
  190.1250   -10.0390     2.4000    51.3980    39.7810    38.9950    24.7670    25.2460 
  190.2500    -9.8850     2.3550    48.9270    39.4890    36.7700    19.2880    25.2880 
  190.3750    -9.7400     2.3780    48.6210    43.7660    39.1570    17.7540    25.2470 
  190.5000    -9.5890     2.4650    51.4440    52.4460    46.6360    21.4130    25.1330 
  190.6250    -9.5740     2.5880    52.4720    63.6610    58.7530    39.0970    24.9660 
  190.7500    -9.7250     2.6930    50.9820    71.8510    69.6610    89.8940    24.7930 
  190.8750    -9.9960     2.7490    50.2660    72.0270    71.7190   127.3890    24.4920 
  191.0000   -10.2740     2.7470    50.0600    62.7290    61.4570    87.9860    23.9160 
  191.1250   -10.5250     2.6990    49.4230    47.1890    44.7960    57.9700    23.2300 
  191.2500   -10.6670     2.6380    48.9210    32.5610    30.8480    65.5380    23.1300 
  191.3750   -10.7130     2.5810    48.8950    22.0940    21.5920    54.3620    23.7730 
  191.5000   -10.7860     2.5330    50.2190    16.0520    16.0900    26.9220    24.5340 
  191.6250   -10.8250     2.4940    52.5650    13.2350    13.1230    13.9680    24.8350 
  191.7500   -10.8030     2.4590    53.1300    11.5920    11.2930    10.2910    24.8770 
  191.8750   -10.7260     2.4290    50.7320    10.5830    10.1260     9.2270    24.8780 
  192.0000   -10.6200     2.4040    48.4480     9.9870     9.3810     8.6470    24.9140 
  192.1250   -10.5830     2.3860    49.0600     9.7090     8.9890     8.1660    24.9850 
  192.2500   -10.6270     2.3770    50.4380     9.6290     8.8230     8.1170    25.0150 
  192.3750   -10.7500     2.3790    51.4870     9.6920     8.8260     8.5240    24.9410 
  192.5000   -10.9130     2.3910    52.5710     9.8450     8.9440     9.1610    24.7770 
  192.6250   -11.0140     2.4080    53.2600    10.0360     9.1260     9.2670    24.6690 
  192.7500   -11.0860     2.4240    52.5510    10.2050     9.3010     9.4830    24.6560 
  192.8750   -11.1520     2.4380    50.7970    10.3050     9.4080     9.5870    24.6610 
  193.0000   -11.2190     2.4470    50.4060    10.2920     9.3960     9.7280    24.5850 
  193.1250   -11.2420     2.4480    52.6400    10.1100     9.2020    10.2930    24.4130 
  193.2500   -11.2620     2.4430    53.8410     9.7930     8.8600    10.2730    24.3460 
  193.3750   -11.2920     2.4350    51.4710     9.3980     8.4220     9.2300    24.4360 
  193.5000   -11.3580     2.4260    48.2600     9.0060     7.9670     8.1550    24.6130 
  193.6250   -11.5400     2.4190    48.1260     8.7150     7.5840     7.6980    24.7710 
  193.7500   -11.8010     2.4140    49.1340     8.5480     7.3030     7.6730    24.9020 
  193.8750   -12.1220     2.4100    49.2580     8.4890     7.1260     7.9120    24.9390 
  194.0000   -12.4690     2.4080    49.4620     8.4930     7.0240     7.9990    24.9160 
  194.1250   -12.8800     2.4100    51.0350     8.5130     6.9580     7.9230    24.9010 
  194.2500   -13.2640     2.4160    51.8490     8.5190     6.8990     7.9610    24.9090 
  194.3750   -13.5640     2.4230    51.9620     8.5140     6.8460     7.9370    24.9050 
  194.5000   -13.8730     2.4260    52.5060     8.5060     6.8080     7.6980    24.9030 
  194.6250   -14.1460     2.4250    52.7710     8.5010     6.7870     7.4870    24.8900 
  194.7500   -14.2760     2.4210    52.5490     8.4870     6.7710     7.3600    24.8140 
  194.8750   -14.3360     2.4200    53.6460     8.4570     6.7420     7.4120    24.7490 
