~V
VERS. 2.00: Ver 2.00
~W
STRT.M 57.0000:
STOP.M 247.0000:
STEP.M 0.1250:
NULL. -999.2500:
UWI. F10194:
~C
DEPT.M :
SP.MV :
DEN.GM/CC :
GR.API :
RML.OHMM :
RI. :
RXO.OHMM :
CALI.CM :
~A
# ...
  180.7500   -24.4120     2.2780    68.2680    53.2880    50.4570    52.6680    28.7600 
  180.8750   -24.6230     2.2820    69.1710    58.8510    55.2370    53.3090    28.7170 
  181.0000   -24.8660     2.2440    69.9330    64.3990    59.6130    57.0640    28.7230 
  181.1250   -25.1720     2.1890    69.6730    70.0330    63.8350    62.6340    28.7820 
  181.2500   -25.5250     2.1470    68.3690    75.4180    67.7220    68.2770    28.8870 
  181.3750   -25.9320     2.1340    65.8660    79.8300    70.7260    72.4000    29.0170 
  181.5000   -26.3600     2.1380    62.7180    82.8640    72.5700    74.0030    29.1400 
  181.6250   -26.7660     2.1490    60.0590    84.6560    73.4310    73.2510    29.2260 
  181.7500   -27.1700     2.1570    58.7500    85.6650    73.7440    71.7470    29.2640 
  181.8750   -27.5550     2.1590    59.4750    86.5180    74.0620    71.1150    29.2500 
  182.0000   -27.8890     2.1580    62.0700    87.7130    74.7870    72.2670    29.1830 
  182.1250   -28.1960     2.1600    65.1560    89.4660    76.0830    75.1800    29.1000 
  182.2500   -28.4770     2.1630    67.0430    91.7500    77.9400    78.5980    29.0440 
  182.3750   -28.7100     2.1630    66.7500    94.3180    80.1830    81.7160    29.0250 
  182.5000   -28.8520     2.1570    64.4970    96.7510    82.4660    83.7870    29.0150 
  182.6250   -28.9980     2.1470    61.3620    98.6840    84.4410    83.9920    28.9880 
  182.7500   -29.1130     2.1380    59.8220    99.9810    85.9240    83.8120    28.9370 
  182.8750   -29.1390     2.1310    61.3420   100.8570    86.9760    84.4750    28.8870 
  183.0000   -29.1260     2.1280    63.8010   101.9080    88.0290    84.6270    28.8430 
  183.1250   -29.0870     2.1260    64.9380   103.7990    89.6510    83.8700    28.7990 
  183.2500   -29.0030     2.1210    64.6940   106.9800    92.2910    84.3500    28.7700 
  183.3750   -28.8720     2.1140    63.5110   111.6810    96.2540    87.9860    28.7640 
  183.5000   -28.7340     2.1060    61.7310   117.5240   101.2940    93.8560    28.7600 
  183.6250   -28.6250     2.0990    60.6310   123.8080   106.8270    97.8430    28.7400 
  183.7500   -28.5930     2.0960    61.2330   129.8510   112.2400    98.1450    28.7150 
  183.8750   -28.6710     2.0990    62.4370   134.9760   116.9030    96.8200    28.6780 
  184.0000   -28.8270     2.1060    62.3560   138.9520   120.5590    94.9350    28.6280 
  184.1250   -29.0710     2.1140    60.6890   141.8940   123.2620    91.7930    28.5670 
  184.2500   -29.3620     2.1190    58.9080   143.9600   125.1310    86.0960    28.4900 
  184.3750   -29.6230     2.1180    58.5170   145.2110   126.2130    76.3970    28.3880 
  184.5000   -29.8570     2.1100    59.5970   145.8520   126.6840    63.8340    28.2000 
  184.6250   -30.1140     2.1010    60.8960   146.3660   126.9350    52.4590    27.8340 
  184.7500   -30.3710     2.0960    61.4030   147.5300   127.5940    46.3450    27.4130 
  184.8750   -30.6060     2.0980    61.7380   150.5850   129.7120    46.7130    27.1790 
  185.0000   -30.8160     2.1030    62.7500   156.2910   134.0170    52.3060    27.1660 
  185.1250   -30.9560     2.1060    63.6560   164.6390   140.6490    61.4610    27.2650 
  185.2500   -31.0630     2.1050    63.3120   174.9120   149.1430    72.8590    27.3860 
  185.3750   -31.2140     2.0960    62.1490   185.2680   158.1160    85.8350    27.4620 
  185.5000   -31.4220     2.0830    61.4000   193.1930   165.4990    97.3220    27.4870 
  185.6250   -31.6400     2.0740    61.4790   196.4610   169.3400   105.2210    27.4840 
  185.7500   -31.8460     2.0710    61.6550   193.8590   168.4120   109.8780    27.4740 
  185.8750   -32.0300     2.0720    61.1280   185.4300   162.3560   108.6410    27.4710 
  186.0000   -32.1920     2.0720    60.2080   173.6650   152.9240   101.6750    27.4690 
  186.1250   -32.2820     2.0730    59.6410   161.7740   142.7140    93.3820    27.4590 
  186.2500   -32.2570     2.0740    59.2720   152.0980   133.8280    86.0980    27.4300 
  186.3750   -32.1100     2.0730    58.2470   146.4020   128.0400    81.4130    27.3860 
  186.5000   -31.8510     2.0710    56.6920   144.8250   125.7640    80.8080    27.3340 
  186.6250   -31.5110     2.0720    55.7260   146.5620   126.4910    84.4110    27.2900 
  186.7500   -31.1180     2.0730    56.1260   150.6360   129.4340    89.9280    27.2700 
  186.8750   -30.6470     2.0750    57.8920   155.8470   133.5220    95.3260    27.2670 
  187.0000   -30.0940     2.0790    59.8850   160.9710   137.5780   100.3540    27.2680 
  187.1250   -29.5000     2.0830    61.4780   165.2640   140.8410   105.2740    27.2670 
  187.2500   -28.9260     2.0860    63.2100   168.6610   143.2110   109.4970    27.2620 
  187.3750   -28.4260     2.0840    64.8170   171.7680   145.2600   108.0630    27.2450 
  187.5000   -27.9870     2.0810    65.1190   175.5910   147.9710    99.5760    27.2100 
  187.6250   -27.5490     2.0780    64.4130   180.9420   152.1430    92.4890    27.1660 
  187.7500   -27.1140     2.0780    63.9950   188.0410   158.0400    95.2940    27.1220 
  187.8750   -26.7210     2.0790    64.5200   196.2010   165.1720   114.5460    27.0870 
  188.0000   -26.4040     2.0800    65.1120   203.6100   172.0450   137.9780    27.0560 
  188.1250   -26.2220     2.0820    65.3260   208.0500   176.7770   150.2050    27.0160 
  188.2500   -26.2020     2.0890    65.3790   207.6950   177.7680   148.1000    26.9620 
  188.3750   -26.2730     2.0990    65.4750   201.1990   173.7200   135.9210    26.9010 
  188.5000   -26.3470     2.1100    65.4360   189.3560   165.0560   122.4840    26.8480 
  188.6250   -26.4580     2.1210    64.6060   173.9360   153.0610   112.5260    26.8150 
  188.7500   -26.6130     2.1310    63.1240   156.5510   138.9660   104.9100    26.7990 
  188.8750   -26.7760     2.1370    61.9560   139.1180   124.2700    98.1290    26.7780 
  189.0000   -26.9110     2.1410    61.8160   123.5270   110.6390    90.2640    26.7360 
  189.1250   -26.9660     2.1460    63.2930   111.2000    99.5060    80.3780    26.6700 
  189.2500   -26.9000     2.1540    66.6400   102.9650    91.8530    70.5050    26.6070 
  189.3750   -26.7220     2.1620    70.2970    99.2660    88.3890    65.1470    26.5530 
  189.5000   -26.5060     2.1660    71.3050    99.0300    88.4160    63.9940    26.5070 
  189.6250   -26.2460     2.1660    68.9890   100.1750    90.2410    64.5790    26.4650 
  189.7500   -25.9420     2.1650    65.4900   100.2580    91.7170    67.1430    26.4170 
  189.8750   -25.6280     2.1650    63.3800    96.1730    89.8390    70.1190    26.3590 
  190.0000   -25.3070     2.1730    63.5210    86.6590    82.9330    70.8050    26.2960 
  190.1250   -24.9680     2.1870    65.1320    73.0350    71.5970    67.1190    26.2470 
  190.2500   -24.6020     2.2080    67.3670    58.2240    58.1770    57.0180    26.2200 
  190.3750   -24.1890     2.2360    70.2940    45.7530    46.0460    42.2160    26.1410 
  190.5000   -23.7870     2.2690    73.9450    37.2420    37.2420    29.4550    25.9360 
  190.6250   -23.4510     2.2990    77.1970    32.5150    32.0260    23.1800    25.6560 
  190.7500   -23.2020     2.3110    78.9140    30.8680    29.8870    21.9270    25.4840 
  190.8750   -23.0460     2.2990    79.3160    31.5530    30.2170    22.7960    25.5310 
  191.0000   -22.9480     2.2780    78.3920    33.5040    32.0750    23.9780    25.7220 
  191.1250   -22.8850     2.2650    75.5090    35.6220    34.4350    25.3010    25.8760 
  191.2500   -22.8860     2.2710    71.6830    37.0190    36.3730    26.6760    25.9140 
  191.3750   -23.0220     2.2930    69.9520    36.9250    36.9380    26.8610    25.8740 
  191.5000   -23.2420     2.3170    71.0520    35.3730    35.9140    25.3370    25.8140 
  191.6250   -23.4780     2.3340    72.7880    33.0560    33.8280    22.7680    25.7520 
  191.7500   -23.6800     2.3430    73.9260    30.8360    31.5000    20.2320    25.6820 
  191.8750   -23.8310     2.3410    74.3080    29.5970    29.8550    18.9570    25.6070 
