~V
VERS. 2.00: Ver 2.00
~W
STRT.M 63.0000:
STOP.M 800.0000:
STEP.M 0.1250:
NULL. -999.2500:
UWI. F10168:
~C
DEPT.M :
SP.MV :
GR.API :
RML.OHMM :
RI. :
RXO.OHMM :
CALI.CM :
DEN.GM/CC :
~A
# ...
  164.2500   -35.8700    60.6690    39.3060    41.5410    55.0150    22.7020     2.4480 
  164.3750   -36.3160    61.7060    34.3610    36.9120    41.5810    22.6350     2.3790 
  164.5000   -36.6700    64.2140    30.0140    32.3090    38.4710    22.6040     2.3350 
  164.6250   -36.9570    66.9340    27.3720    29.1420    37.6030    22.5510     2.3270 
  164.7500   -37.2070    67.1230    26.2930    27.5380    36.5760    22.4810     2.3450 
  164.8750   -37.4510    64.5080    26.5590    27.3180    35.4160    22.4430     2.3840 
  165.0000   -37.6710    60.9160    27.8120    28.1330    35.9230    22.4820     2.4330 
  165.1250   -37.8330    59.2950    29.5650    29.5780    40.6260    22.6350     2.4730 
  165.2500   -37.9300    61.6160    31.0840    30.9870    45.7200    22.8400     2.4880 
  165.3750   -37.9700    66.3150    31.8590    31.8540    44.4200    22.9950     2.4740 
  165.5000   -37.9880    70.5940    31.6410    31.8330    41.8700    23.0420     2.4440 
  165.6250   -38.0220    71.1530    30.4510    30.7840    40.1010    23.0410     2.4180 
  165.7500   -38.0510    68.6670    28.8890    29.2460    40.6940    23.0490     2.4060 
  165.8750   -38.0550    65.7910    27.3900    27.6980    39.8200    23.0730     2.4040 
  166.0000   -38.0080    63.9420    26.2880    26.5320    36.5270    23.0990     2.4070 
  166.1250   -37.9000    64.6450    25.8870    26.0420    33.7870    23.1280     2.4070 
  166.2500   -37.7180    66.8990    26.1120    26.0980    34.8580    23.1550     2.4070 
  166.3750   -37.4820    69.8550    26.8470    26.5650    37.0230    23.1730     2.4080 
  166.5000   -37.1700    72.4870    27.8910    27.2960    39.2670    23.1880     2.4090 
  166.6250   -36.7830    71.9170    28.9650    28.1630    41.0420    23.2030     2.4130 
  166.7500   -36.3310    68.4330    29.7980    28.9790    41.3690    23.2170     2.4220 
  166.8750   -35.8340    65.3290    30.2270    29.5660    41.7320    23.2310     2.4400 
  167.0000   -35.3610    65.2780    30.2010    29.7470    44.0450    23.2480     2.4630 
  167.1250   -34.9430    65.9930    29.7560    29.3750    45.9010    23.2730     2.4800 
  167.2500   -34.6070    65.2300    29.1650    28.6890    43.2690    23.2810     2.4830 
  167.3750   -34.3380    64.0330    28.6450    27.9810    38.2760    23.2370     2.4690 
  167.5000   -34.1260    63.9010    28.3450    27.5100    33.7180    23.1390     2.4450 
  167.6250   -33.9750    64.0760    28.3170    27.4050    34.3520    23.0390     2.4250 
  167.7500   -33.9020    63.4920    28.3890    27.4510    37.8290    23.0130     2.4200 
  167.8750   -33.8870    61.3790    28.3770    27.4140    41.9890    23.0610     2.4310 
  168.0000   -33.8930    59.4240    28.1340    27.1350    42.6690    23.1170     2.4520 
  168.1250   -33.9230    60.0470    27.6100    26.5920    39.7340    23.1080     2.4700 
  168.2500   -33.9220    62.7270    27.0210    26.0050    37.4220    23.0600     2.4730 
  168.3750   -33.8560    64.3090    26.6120    25.5690    36.9700    23.0340     2.4570 
  168.5000   -33.6990    63.7030    26.5880    25.4240    37.4840    23.0570     2.4280 
  168.6250   -33.4690    62.9700    27.0940    25.6890    36.8240    23.1010     2.4070 
  168.7500   -33.1740    63.4880    27.9000    26.2540    37.0590    23.1370     2.4080 
  168.8750   -32.8370    64.2060    28.7280    26.9750    39.9750    23.1830     2.4330 
  169.0000   -32.4550    63.8480    29.2800    27.6300    44.3290    23.2490     2.4700 
  169.1250   -32.0310    61.3500    29.2520    27.9010    44.8490    23.3510     2.4970 
  169.2500   -31.5840    59.9890    28.7170    27.7010    41.4980    23.4940     2.5050 
  169.3750   -31.1280    62.4220    27.8400    27.0930    38.1090    23.6530     2.4960 
  169.5000   -30.7280    67.9560    26.8640    26.2680    36.9260    23.7140     2.4800 
  169.6250   -30.3950    69.2160    26.0420    25.4770    36.9620    23.6000     2.4660 
  169.7500   -30.1130    65.8080    25.4540    24.8450    35.4280    23.4060     2.4580 
  169.8750   -29.8580    61.8880    25.0510    24.3460    31.9140    23.2710     2.4500 
  170.0000   -29.5820    59.4340    24.7000    23.8720    28.9590    23.2620     2.4380 
  170.1250   -29.2510    58.9010    24.1940    23.2850    27.5590    23.3780     2.4190 
  170.2500   -28.8740    61.3810    23.4380    22.5380    27.3720    23.5220     2.4020 
  170.3750   -28.4790    65.8450    22.4310    21.6370    26.0790    23.6260     2.3930 
  170.5000   -28.0590    68.8840    21.2810    20.6320    23.4260    23.6480     2.3960 
  170.6250   -27.5910    69.4490    20.2520    19.6740    21.6550    23.5630     2.4090 
  170.7500   -27.0770    69.3110    19.6250    18.9960    21.4050    23.4400     2.4250 
  170.8750   -26.5750    68.5080    19.6150    18.8370    22.4240    23.3050     2.4380 
  171.0000   -26.1640    67.4310    20.3150    19.3480    23.3390    23.1510     2.4510 
  171.1250   -25.8640    67.2560    21.6790    20.5420    25.1020    22.9850     2.4620 
  171.2500   -25.6870    66.2160    23.1770    21.9340    27.7680    22.8710     2.4700 
  171.3750   -25.6160    63.1610    24.2780    23.0370    32.2910    22.8460     2.4730 
  171.5000   -25.6580    61.1380    24.5840    23.4680    33.8440    22.8830     2.4710 
  171.6250   -25.8120    63.7880    23.9940    23.0750    28.8580    22.9080     2.4670 
  171.7500   -26.0800    67.5780    23.0770    22.3030    23.8250    22.9020     2.4680 
  171.8750   -26.4280    69.1610    22.2820    21.5140    22.2470    22.8890     2.4750 
  172.0000   -26.8130    68.2280    21.8820    20.9620    23.3120    22.9140     2.4820 
  172.1250   -27.2060    67.4960    21.9700    20.7970    25.5660    23.0170     2.4790 
  172.2500   -27.5860    67.9970    22.2860    20.9000    26.6420    23.1410     2.4580 
  172.3750   -27.9540    67.4740    22.6020    21.1310    24.9570    23.2260     2.4220 
  172.5000   -28.3290    64.3740    22.7530    21.3400    23.4410    23.2790     2.3800 
  172.6250   -28.7080    59.9750    22.6930    21.4170    23.2580    23.3420     2.3480 
  172.7500   -29.0680    57.4620    22.5950    21.4140    23.3870    23.4080     2.3320 
  172.8750   -29.3940    55.5950    22.6070    21.4380    24.0520    23.4610     2.3310 
  173.0000   -29.6980    53.7480    22.7980    21.5930    24.9320    23.5580     2.3400 
  173.1250   -29.9900    55.5090    23.1360    21.9300    24.8860    23.7610     2.3550 
  173.2500   -30.2630    60.9240    23.4640    22.3250    25.4630    23.9970     2.3710 
  173.3750   -30.5050    64.8490    23.6750    22.6310    27.3310    24.1110     2.3860 
  173.5000   -30.6460    64.3220    23.7180    22.7260    28.2660    24.0460     2.3950 
  173.6250   -30.6760    61.1340    23.5950    22.5490    26.7730    23.8520     2.3970 
  173.7500   -30.6430    58.9460    23.3880    22.2360    26.0050    23.6070     2.3980 
  173.8750   -30.5910    58.7930    23.1470    21.9020    26.7830    23.3150     2.4000 
  174.0000   -30.5250    60.3250    22.9380    21.6410    27.1590    23.0130     2.4040 
  174.1250   -30.4350    62.2630    22.8870    21.5360    26.7950    22.7860     2.4040 
  174.2500   -30.3500    63.2600    23.0550    21.6020    26.4440    22.6700     2.3970 
  174.3750   -30.2860    64.2370    23.4330    21.8440    27.1170    22.6580     2.3850 
  174.5000   -30.2550    64.8400    23.9150    22.2320    28.9300    22.7400     2.3730 
  174.6250   -30.2700    63.4630    24.2630    22.6510    32.8490    22.9030     2.3670 
  174.7500   -30.3080    62.4540    24.2920    22.9130    35.2640    23.0860     2.3660 
  174.8750   -30.3220    63.6670    23.9560    22.8860    34.9270    23.2350     2.3710 
  175.0000   -30.3130    65.9230    23.3770    22.5520    32.7360    23.3090     2.3810 
  175.1250   -30.2920    66.2490    22.7710    22.0050    31.1020    23.2590     2.3960 
  175.2500   -30.2150    64.7190    22.2650    21.4280    31.6440    23.1590     2.4110 
  175.3750   -30.0350    63.3560    21.8060    20.8760    32.3780    23.0830     2.4190 
