~V
VERS. 2.00: Ver 2.00
~W
STRT.M 49.0000:
STOP.M 245.0000:
STEP.M 0.1250:
NULL. -999.2500:
UWI. F10179:
~C
DEPT.M :
DEN.GM/CC :
GR.API :
RML.OHMM :
RI. :
RXO.OHMM :
CALI.CM :
SP.MV :
~A
# ...
  172.7500     2.2330    53.4760   243.7550   220.0680   196.1390    24.6810   -33.4770 
  172.8750     2.2320    55.4890   259.8990   232.0830   194.4950    24.7170   -34.0860 
  173.0000     2.2300    57.3090   271.9840   241.3330   208.8970    24.7310   -34.6890 
  173.1250     2.2260    57.6080   279.0260   247.2080   225.2210    24.7260   -35.2420 
  173.2500     2.2220    56.7080   279.6800   248.6000   232.8180    24.6930   -35.7010 
  173.3750     2.2220    55.5180   271.0000   242.9040   221.1230    24.6100   -36.0280 
  173.5000     2.2240    55.9710   254.1570   230.4760   204.1300    24.5260   -36.2670 
  173.6250     2.2210    55.8100   230.8060   212.1500   187.7180    24.5290   -36.4050 
  173.7500     2.2150    54.9920   203.9420   189.9110   180.1800    24.5900   -36.4540 
  173.8750     2.2110    56.6490   177.9620   166.9560   165.6810    24.5860   -36.3490 
  174.0000     2.2140    59.8540   156.5140   146.8770   134.9850    24.5360   -36.0950 
  174.1250     2.2200    62.7120   141.5460   131.9830   111.5080    24.5190   -35.7170 
  174.2500     2.2220    63.5170   133.7650   123.4410   100.8570    24.5540   -35.2720 
  174.3750     2.2150    61.4890   134.1870   122.4840   100.2230    24.5770   -34.7530 
  174.5000     2.2040    57.6030   140.9760   127.4620   111.0390    24.6290   -34.1540 
  174.6250     2.1910    53.7080   153.1870   137.4360   127.3160    24.7530   -33.4680 
  174.7500     2.1800    52.0950   169.4950   151.0830   145.9040    24.8960   -32.6870 
  174.8750     2.1750    51.4600   188.2140   166.7000   164.2640    24.9510   -31.8520 
  175.0000     2.1760    50.8130   206.6630   181.8060   169.6860    24.9420   -31.0010 
  175.1250     2.1840    50.2970   222.7620   194.5940   181.1100    24.8840   -30.1220 
  175.2500     2.1930    49.1530   234.4810   203.5230   208.0840    24.7920   -29.2350 
  175.3750     2.2030    49.6210   238.1750   206.0160   235.9400    24.6870   -28.3640 
  175.5000     2.2160    52.3510   232.4370   201.3200   236.6170    24.5880   -27.5150 
  175.6250     2.2270    55.6720   216.4190   188.7130   222.6120    24.5030   -26.7300 
  175.7500     2.2350    57.3740   192.4270   169.3830   203.8500    24.4970   -26.0270 
  175.8750     2.2420    57.0280   166.5980   147.2560   185.1980    24.5620   -25.3990 
  176.0000     2.2570    54.8460   145.5920   128.0420   161.2010    24.4880   -24.8230 
  176.1250     2.2830    52.0960   132.5410   115.0420   132.7950    24.2350   -24.2920 
  176.2500     2.3250    52.7840   128.7630   110.0380   110.1610    23.8680   -23.7830 
  176.3750     2.3870    56.1960   136.2540   115.4720   102.1840    23.4820   -23.2940 
  176.5000     2.4680    55.2450   151.4720   128.5760   119.0600    23.1850   -22.8050 
  176.6250     2.5520    49.7770   165.3410   142.2200   172.2930    23.0750   -22.2930 
  176.7500     2.6110    45.2820   159.4020   141.8050   267.9960    23.1590   -21.7660 
  176.8750     2.6200    44.6550   121.8530   113.8160   337.9680    23.3620   -21.2520 
  177.0000     2.6100    45.5920    79.8170    76.8050   279.2100    23.4690   -20.7350 
  177.1250     2.6050    48.6270    49.2380    47.0880   139.9440    23.4780   -20.2280 
  177.2500     2.6080    55.0880    31.1220    28.8830    48.7680    23.4170   -19.7240 
  177.3750     2.6010    60.5900    22.1740    20.1500    22.0140    23.3680   -19.2300 
  177.5000     2.5800    60.8850    17.2610    15.5000    14.9760    23.3950   -18.8120 
  177.6250     2.5650    57.3200    14.4050    12.7820    13.2930    23.4300   -18.4680 
  177.7500     2.5700    52.0200    12.4840    10.9440    12.8790    23.4070   -18.1940 
  177.8750     2.5920    47.3000    10.8750     9.4820    10.8380    23.3930   -17.9860 
  178.0000     2.6070    44.8790     9.2960     8.1120     9.0360    23.4790   -17.8320 
  178.1250     2.6060    44.3680     7.8260     6.8520     6.6400    23.6670   -17.7380 
  178.2500     2.5980    44.2900     6.6230     5.7960     5.0700    23.8570   -17.6900 
  178.3750     2.5860    44.3030     5.8190     5.0470     4.8620    23.9530   -17.7170 
  178.5000     2.5630    46.4850     5.3220     4.5540     4.7760    23.9330   -17.7830 
  178.6250     2.5200    48.8710     5.0840     4.2940     4.1050    23.8750   -17.8950 
  178.7500     2.4670    48.7400     5.0660     4.2440     3.3960    23.8220   -18.0220 
  178.8750     2.4260    47.6060     5.2440     4.3880     3.5910    23.7470   -18.1420 
  179.0000     2.4060    48.0140     5.5300     4.6370     4.2220    23.7520   -18.2490 
  179.1250     2.4000    48.5010     5.8590     4.9250     4.6860    23.7950   -18.3200 
  179.2500     2.4000    47.3610     6.1570     5.1780     4.9280    23.8590   -18.3660 
  179.3750     2.4010    45.8270     6.3460     5.3160     5.0560    23.9390   -18.3730 
  179.5000     2.4100    46.0450     6.4460     5.3520     5.2190    24.0040   -18.3430 
  179.6250     2.4260    47.9420     6.5120     5.3340     5.3650    24.0410   -18.2810 
  179.7500     2.4370    51.8990     6.6020     5.3180     5.3870    24.0560   -18.1980 
  179.8750     2.4350    57.7220     6.7530     5.3510     5.3760    24.0050   -18.0840 
  180.0000     2.4270    62.9210     6.9480     5.4340     5.7000    23.8990   -17.9520 
  180.1250     2.4210    65.1870     7.1550     5.5440     6.2630    23.8360   -17.8290 
  180.2500     2.4230    65.9460     7.3400     5.6470     6.4860    23.8250   -17.7310 
  180.3750     2.4330    66.1230     7.4760     5.7130     6.2430    23.8150   -17.6810 
  180.5000     2.4440    64.1260     7.5770     5.7480     6.1070    23.7980   -17.6620 
  180.6250     2.4540    58.6180     7.6610     5.7650     6.0870    23.7990   -17.6650 
  180.7500     2.4570    50.3730     7.7370     5.7720     6.3940    23.8380   -17.6960 
  180.8750     2.4510    44.9560     7.7900     5.7560     6.7230    23.8600   -17.7670 
  181.0000     2.4420    44.4310     7.7910     5.7000     6.8250    23.8860   -17.8530 
  181.1250     2.4330    46.1680     7.7230     5.6010     6.5240    23.9160   -17.9260 
  181.2500     2.4270    45.6360     7.6040     5.4750     6.1690    23.9030   -17.9920 
  181.3750     2.4180    43.2510     7.4770     5.3530     6.2110    23.9360   -18.0700 
  181.5000     2.4110    44.2850     7.3860     5.2580     6.1190    24.0260   -18.1820 
  181.6250     2.4080    48.5820     7.3540     5.2100     5.8280    24.1010   -18.3260 
  181.7500     2.4110    53.8460     7.4010     5.2300     5.7000    24.1260   -18.4890 
  181.8750     2.4180    57.7920     7.5630     5.3420     5.9530    24.1330   -18.6880 
  182.0000     2.4270    58.3440     7.8280     5.5260     6.2780    24.1240   -18.9170 
  182.1250     2.4370    56.2210     8.1670     5.7570     6.7160    24.0950   -19.2250 
  182.2500     2.4480    53.5400     8.5240     5.9960     7.2270    24.0050   -19.6080 
  182.3750     2.4550    53.8810     8.8070     6.1930     7.4530    23.8860   -20.0280 
  182.5000     2.4580    56.4050     8.9850     6.3270     7.5270    23.8400   -20.4700 
  182.6250     2.4580    60.7090     9.0790     6.4000     7.5390    23.8520   -20.9480 
  182.7500     2.4560    69.3270     9.1460     6.4410     7.4180    23.9170   -21.4780 
  182.8750     2.4490    83.6710     9.2660     6.5020     7.3270    24.0260   -22.0670 
  183.0000     2.4410    96.4930     9.4570     6.6120     7.4660    24.1260   -22.7160 
  183.1250     2.4340   102.2140     9.6860     6.7650     7.7340    24.1980   -23.4010 
  183.2500     2.4300   100.4850     9.8910     6.9240     7.7500    24.2510   -24.0930 
  183.3750     2.4290    94.5200     9.9940     7.0330     7.6800    24.2750   -24.7850 
  183.5000     2.4270    89.3380     9.9810     7.0670     7.6920    24.2820   -25.4740 
  183.6250     2.4250    87.1020     9.8570     7.0180     7.7900    24.2740   -26.1350 
  183.7500     2.4220    88.3940     9.6590     6.8970     7.6770    24.2460   -26.7320 
  183.8750     2.4190    90.7810     9.4430     6.7320     7.6000    24.2450   -27.2520 
