~V
VERS. 2.00: Ver 2.00
~W
STRT.M 64.0000:
STOP.M 235.0000:
STEP.M 0.1250:
NULL. -999.2500:
UWI. F10178:
~C
DEPT.M :
GR.API :
RML.OHMM :
RI. :
RXO.OHMM :
CALI.CM :
DEN.GM/CC :
SP.MV :
~A
# ...
  109.0000   107.8910     5.5680     4.8420     4.8080    24.2430     2.2780   -13.3100 
  109.1250   113.3940     5.4170     4.6960     4.4920    24.3850     2.2960   -12.5890 
  109.2500   118.4350     5.3190     4.5870     4.1540    24.5920     2.3200   -11.9480 
  109.3750   119.9990     5.2750     4.5220     4.1300    24.7890     2.3470   -11.3600 
  109.5000   117.3330     5.2820     4.5030     4.3940    24.7330     2.3750   -10.8690 
  109.6250   110.1630     5.3270     4.5220     4.7060    24.5900     2.3940   -10.5340 
  109.7500   103.0430     5.3780     4.5460     4.5950    24.5010     2.4000   -10.2890 
  109.8750    99.1390     5.4160     4.5540     4.5370    24.4710     2.3950   -10.1160 
  110.0000    97.2790     5.4310     4.5410     4.6940    24.3180     2.3840   -10.0610 
  110.1250    94.8980     5.4380     4.5230     4.9520    24.2090     2.3720   -10.2090 
  110.2500    89.2790     5.4820     4.5340     4.8610    24.1540     2.3600   -10.5710 
  110.3750    82.2890     5.6140     4.6160     4.8820    24.1040     2.3450   -11.1440 
  110.5000    76.0330     5.8800     4.8030     5.3020    23.9560     2.3290   -11.9130 
  110.6250    72.1770     6.3150     5.1330     6.1450    23.6650     2.3100   -12.8220 
  110.7500    70.7690     6.8450     5.5700     6.5860    23.3620     2.2870   -13.8130 
  110.8750    72.2620     7.3760     6.0610     6.7360    23.4020     2.2610   -14.8920 
  111.0000    75.2210     7.8010     6.5240     7.2660    23.7330     2.2330   -15.9380 
  111.1250    75.1320     8.0150     6.8410     7.3270    24.2010     2.2060   -16.8250 
  111.2500    72.9470     8.0670     7.0040     7.2060    23.7640     2.1840   -17.5620 
  111.3750    71.8990     8.0440     7.0610     7.0370    23.4740     2.1670   -18.1410 
  111.5000    73.0850     8.0480     7.0880     6.9210    23.3850     2.1570   -18.5010 
  111.6250    73.6320     8.1450     7.1520     7.0630    23.3260     2.1530   -18.6120 
  111.7500    73.8030     8.2670     7.2310     7.0290    23.3630     2.1530   -18.5590 
  111.8750    74.4450     8.2850     7.2330     6.9530    23.5390     2.1600   -18.2990 
  112.0000    74.9590     8.0620     7.0360     6.8740    23.8690     2.1800   -17.8280 
  112.1250    75.0920     7.4840     6.5190     6.4860    23.4320     2.2170   -17.1400 
  112.2500    78.8860     6.6880     5.7970     5.6710    23.7460     2.2640   -16.3480 
  112.3750    86.3560     5.8510     5.0270     4.6990    24.7250     2.3080   -15.5900 
  112.5000    91.6110     5.1600     4.3750     4.1040    24.3040     2.3390   -14.9450 
  112.6250    91.0720     4.8170     4.0020     3.8990    23.9620     2.3450   -14.4610 
  112.7500    89.7300     4.8350     3.9210     4.0170    23.6190     2.3350   -14.1660 
  112.8750    88.8620     5.2030     4.1360     4.4360    23.4780     2.3130   -14.1160 
  113.0000    86.3000     5.8550     4.6160     5.2130    23.3110     2.2850   -14.3230 
  113.1250    81.4160     6.6580     5.2950     6.1770    23.0100     2.2550   -14.7490 
  113.2500    77.1850     7.3870     5.9840     7.1200    22.8760     2.2290   -15.2520 
  113.3750    72.5860     7.8780     6.5140     7.5470    22.8390     2.2120   -15.7260 
  113.5000    68.7740     8.0500     6.7640     7.1510    22.8900     2.2060   -16.0790 
  113.6250    67.6190     7.8990     6.6830     6.5600    23.0400     2.2090   -16.3100 
  113.7500    67.7770     7.6060     6.4300     6.3050    23.2020     2.2170   -16.4150 
  113.8750    68.7650     7.2940     6.1250     6.0160    23.2590     2.2250   -16.4060 
  114.0000    72.4470     7.0410     5.8480     5.6740    23.3350     2.2330   -16.4120 
  114.1250    77.4660     6.9050     5.6610     5.3860    23.4690     2.2360   -16.5000 
  114.2500    78.5240     6.8890     5.5740     5.3380    23.6150     2.2360   -16.6240 
  114.3750    75.1040     6.9990     5.5950     5.2780    23.8120     2.2340   -16.7760 
  114.5000    73.6540     7.2360     5.7260     5.3140    24.0630     2.2320   -17.0150 
  114.6250    77.9760     7.6010     5.9760     5.3810    24.1710     2.2330   -17.2840 
  114.7500    81.9690     8.0450     6.3080     5.9570    24.1260     2.2390   -17.5530 
  114.8750    79.9210     8.5350     6.7010     6.7380    24.0930     2.2460   -17.8270 
  115.0000    73.5400     9.0450     7.1350     7.4490    24.1700     2.2530   -18.0210 
  115.1250    70.4190     9.5360     7.5830     7.6660    24.2880     2.2530   -18.0940 
  115.2500    71.9390     9.9680     7.9970     7.7840    24.3370     2.2470   -18.0820 
  115.3750    74.6690    10.2940     8.3300     7.9020    24.2320     2.2350   -17.9870 
  115.5000    75.2590    10.4640     8.5370     8.1390    24.0630     2.2210   -17.8220 
  115.6250    73.9730    10.4130     8.5590     8.1010    23.9470     2.2100   -17.6300 
  115.7500    72.3320    10.1850     8.4280     7.9020    23.7910     2.2020   -17.4280 
  115.8750    69.9700     9.8340     8.1850     7.8160    23.5980     2.1990   -17.2160 
  116.0000    67.3520     9.4350     7.8870     7.8610    23.4660     2.1980   -17.0400 
  116.1250    66.1010     9.0740     7.6010     8.0280    23.4800     2.1980   -16.9460 
  116.2500    66.3220     8.7930     7.3690     7.8730    23.5510     2.1980   -16.8930 
  116.3750    66.8260     8.6000     7.2040     7.7640    23.6100     2.1990   -16.8500 
  116.5000    67.8390     8.4830     7.0980     7.6490    23.6260     2.2020   -16.8290 
  116.6250    68.2970     8.4160     7.0370     7.5480    23.6180     2.2050   -16.8130 
  116.7500    67.1560     8.3570     6.9890     7.5000    23.6230     2.2040   -16.8090 
  116.8750    65.8120     8.2780     6.9310     7.4450    23.6330     2.1990   -16.8250 
  117.0000    65.2340     8.1650     6.8510     7.2930    23.6380     2.1910   -16.8090 
  117.1250    65.7700     8.0260     6.7520     7.1970    23.6350     2.1850   -16.7470 
  117.2500    66.8350     7.9000     6.6650     7.0500    23.6290     2.1830   -16.7070 
  117.3750    69.1020     7.8170     6.6130     7.0000    23.6270     2.1820   -16.6910 
  117.5000    72.0070     7.7960     6.6120     7.0300    23.6310     2.1810   -16.6680 
  117.6250    71.9090     7.8420     6.6640     7.1680    23.6520     2.1800   -16.6930 
  117.7500    70.7340     7.9200     6.7420     7.2260    23.6620     2.1800   -16.7450 
  117.8750    71.6440     7.9980     6.8230     7.1750    23.6530     2.1820   -16.7740 
  118.0000    74.7310     8.0500     6.8860     7.2060    23.6590     2.1860   -16.7840 
  118.1250    76.6420     8.0470     6.9090     7.4180    23.6970     2.1900   -16.8010 
  118.2500    75.4410     7.9880     6.8840     7.5640    23.7320     2.1950   -16.8320 
  118.3750    72.7100     7.8820     6.8120     7.5490    23.7540     2.2030   -16.8820 
  118.5000    70.0370     7.7610     6.7130     7.3840    23.7530     2.2160   -16.9310 
  118.6250    68.3770     7.6890     6.6440     7.1760    23.7260     2.2280   -16.9520 
  118.7500    69.1100     7.7190     6.6500     6.8770    23.7110     2.2320   -16.9540 
  118.8750    71.5750     7.8680     6.7490     6.6630    23.7030     2.2260   -16.9410 
  119.0000    74.2800     8.1100     6.9290     6.7850    23.6930     2.2130   -16.9310 
  119.1250    75.7470     8.3640     7.1310     7.5090    23.6910     2.2020   -16.9280 
  119.2500    75.3340     8.5370     7.2720     7.4770    23.7300     2.2010   -16.9120 
  119.3750    73.4760     8.5850     7.3100     7.1530    23.7790     2.2070   -16.9010 
  119.5000    71.1140     8.5170     7.2460     7.0370    23.7840     2.2140   -16.8740 
  119.6250    69.6780     8.3890     7.1230     7.1950    23.6960     2.2150   -16.8220 
  119.7500    69.9170     8.2760     7.0130     7.7760    23.5760     2.2090   -16.8090 
  119.8750    69.6720     8.2050     6.9420     8.6050    23.4690     2.1990   -16.8350 
  120.0000    68.1340     8.1740     6.9080     8.0450    23.3840     2.1890   -16.8610 
  120.1250    67.8550     8.1830     6.9040     7.5370    23.3600     2.1830   -16.8740 
