~V
VERS. 2.00: Ver 2.00
~W
STRT.M 47.0000:
STOP.M 242.0000:
STEP.M 0.1250:
NULL. -999.2500:
UWI. F10188:
~C
DEPT.M :
SP.MV :
DEN.GM/CC :
GR.API :
RML.OHMM :
RI. :
RXO.OHMM :
CALI.CM :
~A
# ...
  182.0000   -27.6020     2.3080    73.2260    32.9010    29.3850    44.1260    26.4070 
  182.1250   -28.1290     2.3110    70.1770    33.7050    28.8890    44.0870    26.3810 
  182.2500   -28.6550     2.3080    72.0940    36.6490    30.1030    48.4720    26.3300 
  182.3750   -29.1780     2.3000    74.7260    42.0610    33.3560    55.5200    26.3020 
  182.5000   -29.6850     2.2870    72.9580    50.4500    39.1730    63.5170    26.2740 
  182.6250   -30.0970     2.2710    69.1030    60.9460    46.8780    73.3690    26.2300 
  182.7500   -30.4680     2.2580    64.4420    72.5190    55.6300    81.4350    26.1490 
  182.8750   -30.7230     2.2520    61.0130    83.7240    64.2670    86.4820    26.0600 
  183.0000   -30.8710     2.2500    61.2690    92.6760    71.3200    91.4030    25.9940 
  183.1250   -30.9180     2.2470    64.0130    98.9920    76.3780    99.8560    25.9790 
  183.2500   -30.8550     2.2430    66.0510   103.1660    79.6840   109.4030    25.9900 
  183.3750   -30.7230     2.2410    66.9310   106.1910    81.9020   114.2750    26.0360 
  183.5000   -30.5140     2.2400    68.0640   108.6470    83.4560   116.7840    26.1330 
  183.6250   -30.2650     2.2400    67.3130   110.7800    84.6040   118.7360    26.2150 
  183.7500   -29.9610     2.2400    65.6100   112.7300    85.4990   125.7870    26.2460 
  183.8750   -29.6540     2.2400    66.3100   114.7510    86.4180   135.4500    26.2480 
  184.0000   -29.3520     2.2420    69.5270   117.2990    87.8130   136.2140    26.2460 
  184.1250   -29.0810     2.2430    69.1430   120.6360    89.8960   128.3540    26.2400 
  184.2500   -28.8730     2.2430    64.5060   124.8230    92.6830   120.5980    26.2140 
  184.3750   -28.6900     2.2440    60.8850   129.5930    95.9360   122.7060    26.1680 
  184.5000   -28.4950     2.2460    63.0180   134.3160    99.1800   130.7220    26.1590 
  184.6250   -28.3570     2.2460    67.0610   138.2430   101.9110   137.0240    26.2180 
  184.7500   -28.2200     2.2420    68.9770   140.7410   103.7520   137.0880    26.2720 
  184.8750   -28.1040     2.2360    67.8630   141.3760   104.4670   130.3980    26.2850 
  185.0000   -27.9940     2.2330    64.9920   139.7600   103.8780   123.8290    26.2630 
  185.1250   -27.8750     2.2370    60.7290   136.7100   102.4970   122.1970    26.2090 
  185.2500   -27.7150     2.2440    56.8530   133.1230   100.8890   127.0660    26.1260 
  185.3750   -27.5490     2.2490    56.9170   130.0300    99.7180   134.1460    26.0450 
  185.5000   -27.3700     2.2480    62.0700   128.4870    99.7260   139.1430    25.8750 
  185.6250   -27.1250     2.2450    68.3670   128.3450   100.8510   142.7700    25.3830 
  185.7500   -26.9060     2.2440    72.5740   128.6640   102.5850   144.9310    24.6730 
  185.8750   -26.6390     2.2450    72.9140   127.0960   103.5300   146.7220    24.4290 
  186.0000   -26.3460     2.2500    69.2580   117.7990    99.5930   145.5880    25.0980 
  186.1250   -26.0470     2.2590    65.2300    98.2720    87.4170   131.3780    25.9850 
  186.2500   -25.7160     2.2710    62.8620    71.6170    67.1350   102.2580    26.4310 
  186.3750   -25.3880     2.2850    62.7050    45.8350    44.6430    68.2430    26.4700 
  186.5000   -25.1000     2.3040    66.7990    28.1350    27.7880    43.1950    26.2950 
  186.6250   -24.9390     2.3270    75.4070    17.4500    17.3150    25.6240    25.9500 
  186.7500   -24.8750     2.3520    86.0100    11.6890    11.5640    14.0790    25.5990 
  186.8750   -24.9910     2.3760    94.2030     8.9660     8.7250     8.5590    25.4720 
  187.0000   -25.2890     2.3920    93.5080     8.2250     7.7610     7.4130    25.4760 
  187.1250   -25.7480     2.4020    88.7840     8.4690     7.7690     7.7230    25.4150 
  187.2500   -26.3950     2.4080    86.5260     9.3400     8.4700     8.5010    25.2000 
  187.3750   -27.1640     2.4130    87.2380    10.5420     9.6250     9.4450    24.8140 
  187.5000   -28.0080     2.4140    85.7940    11.7290    10.9310    10.3330    24.7090 
  187.6250   -28.8670     2.4090    82.7680    12.6250    12.0210    10.7450    25.0560 
  187.7500   -29.6850     2.4040    84.3550    13.1450    12.7150    10.4900    25.6360 
  187.8750   -30.4300     2.4060    89.4210    13.3620    13.0120    10.3380    25.9980 
  188.0000   -31.1220     2.4140    89.0020    13.4730    13.0410    10.8180    26.0230 
  188.1250   -31.7270     2.4220    85.5440    13.7470    13.0590    11.8430    25.8340 
  188.2500   -32.2620     2.4240    84.2130    14.3880    13.2320    12.8940    25.6760 
  188.3750   -32.7310     2.4200    85.3740    15.5620    13.6970    13.6510    25.5870 
  188.5000   -33.2220     2.4070    84.3470    17.4900    14.6380    14.2910    25.5240 
  188.6250   -33.6860     2.3870    82.2830    20.0620    16.0290    15.5170    25.4460 
  188.7500   -34.1770     2.3650    81.8890    23.1740    17.8460    17.5520    25.3620 
  188.8750   -34.6960     2.3430    81.6830    26.6590    20.0290    20.6920    25.2790 
  189.0000   -35.1920     2.3230    80.4000    30.3840    22.5430    25.7190    25.2450 
  189.1250   -35.7090     2.3100    78.6910    34.3100    25.3160    31.8440    25.2710 
  189.2500   -36.2220     2.3050    78.2570    38.6620    28.4610    38.5620    25.4080 
  189.3750   -36.7770     2.2990    78.3730    43.8100    32.2280    45.7480    25.6820 
  189.5000   -37.2590     2.2860    77.7660    50.2540    37.0770    54.2090    25.9920 
  189.6250   -37.7080     2.2710    76.0660    57.6540    42.8510    62.4590    26.2460 
  189.7500   -38.0740     2.2630    73.6790    65.2480    49.0520    68.2720    26.3740 
  189.8750   -38.3640     2.2640    72.8120    71.8010    54.7380    69.6940    26.4090 
  190.0000   -38.5900     2.2720    74.4190    75.6320    58.5520    67.8130    26.4570 
  190.1250   -38.7210     2.2810    76.7070    76.6780    60.2730    66.1650    26.5390 
  190.2500   -38.7700     2.2860    77.6370    75.2420    60.0350    65.5180    26.6110 
  190.3750   -38.7300     2.2810    75.9250    71.8460    58.1710    64.1860    26.6610 
  190.5000   -38.6420     2.2730    73.0470    67.1020    55.0050    61.5370    26.6990 
  190.6250   -38.5290     2.2690    69.9230    62.3300    51.4800    57.2740    26.7160 
  190.7500   -38.4210     2.2720    67.8680    58.5570    48.3750    51.3060    26.7190 
  190.8750   -38.3030     2.2740    67.7020    56.5090    46.3520    47.7180    26.7270 
  191.0000   -38.1470     2.2730    67.4930    56.9190    46.1710    52.1620    26.7710 
  191.1250   -38.0190     2.2690    66.9980    59.5270    47.8370    61.1290    26.7780 
  191.2500   -37.9050     2.2640    66.3520    64.2830    51.4050    72.1640    26.7420 
  191.3750   -37.7900     2.2600    66.6290    71.0120    56.7580    83.6630    26.7000 
  191.5000   -37.6780     2.2590    68.6380    79.5750    63.7740    91.1380    26.6400 
  191.6250   -37.5520     2.2560    68.7640    89.1110    71.6660    97.7140    26.5790 
  191.7500   -37.4320     2.2530    65.5530    98.9350    79.8440   105.5110    26.5790 
  191.8750   -37.2840     2.2510    59.9930   108.1190    87.6120   113.1140    26.6750 
  192.0000   -37.1940     2.2480    56.7100   114.8050    93.6490   120.3500    26.8420 
  192.1250   -37.0730     2.2410    56.9110   117.8410    97.0600   124.9760    26.9730 
  192.2500   -36.9760     2.2330    59.7410   116.9060    97.4280   122.9210    26.9680 
  192.3750   -36.8750     2.2270    63.5050   112.9380    95.2190   113.4090    26.8040 
  192.5000   -36.7740     2.2280    64.6440   107.3340    91.3520   105.9080    26.5850 
  192.6250   -36.6860     2.2320    63.3220   101.4370    87.0620   101.3630    26.4640 
  192.7500   -36.5970     2.2390    62.9180    95.6960    82.8660    99.4850    26.4410 
  192.8750   -36.5150     2.2480    65.2990    90.4610    79.1100    95.9900    26.4650 
  193.0000   -36.3850     2.2660    67.3450    86.2030    76.2040    87.1290    26.4820 
  193.1250   -36.2740     2.2910    65.2270    82.4700    73.8750    77.1370    26.4330 
