~V
VERS. 2.00: Ver 2.00
~W
STRT.M 56.0000:
STOP.M 275.0000:
STEP.M 0.1250:
NULL. -999.2500:
UWI. F10253:
~C
DEPT.M :
GR.API :
RML.OHMM :
RI. :
RXO.OHMM :
CALI.CM :
DEN.GM/CC :
SP.MV :
~A
# ...
  168.5000    64.2930   150.2690   140.4360    98.5580    23.0330     2.2360   -22.8790 
  168.6250    60.5080   153.5880   143.5380   122.9850    23.4530     2.2270   -22.9290 
  168.7500    57.4200   155.0230   145.0740   143.1660    23.9290     2.2220   -22.9600 
  168.8750    55.0610   154.7230   144.9940   139.6440    24.2470     2.2230   -22.9850 
  169.0000    54.6770   154.8020   145.0960   125.8680    24.3420     2.2280   -23.0070 
  169.1250    55.5430   157.1630   147.1540   124.4870    24.3170     2.2320   -23.0290 
  169.2500    55.2940   162.8650   152.3180   140.0850    24.2420     2.2310   -23.0480 
  169.3750    53.8400   171.7940   160.7820   164.2920    24.1240     2.2250   -23.0810 
  169.5000    54.0620   181.2910   170.1730   190.5600    23.9700     2.2160   -23.1410 
  169.6250    55.0340   188.9180   178.1840   202.8190    23.7810     2.2080   -23.2020 
  169.7500    53.2540   192.9670   183.0790   195.9550    23.6570     2.2040   -23.2530 
  169.8750    52.4220   192.8310   184.0890   176.2260    23.6860     2.2050   -23.3310 
  170.0000    55.9110   190.6200   183.0700   157.1030    23.6570     2.2090   -23.4340 
  170.1250    59.5550   187.5740   181.2940   145.9730    23.5560     2.2130   -23.5420 
  170.2500    58.2680   183.7860   179.0820   150.1670    23.4690     2.2150   -23.6280 
  170.3750    53.4950   177.6550   175.1060   162.8750    23.4460     2.2160   -23.6670 
  170.5000    50.8020   168.2340   168.1740   170.5280    23.4670     2.2170   -23.6480 
  170.6250    50.2850   155.4870   158.0300   165.7330    23.4900     2.2220   -23.6060 
  170.7500    51.0670   141.2340   145.7720   148.2330    23.4790     2.2320   -23.5640 
  170.8750    54.0240   127.9750   133.6060   126.1470    23.4610     2.2430   -23.4880 
  171.0000    58.1320   117.3770   123.3950   107.2700    23.4980     2.2510   -23.4000 
  171.1250    60.6930   110.5890   115.7650    99.8810    23.5740     2.2550   -23.3130 
  171.2500    60.3880   106.7850   110.4150   103.3940    23.6460     2.2540   -23.2430 
  171.3750    58.9030   103.8660   106.7430   105.7870    23.7210     2.2510   -23.2000 
  171.5000    57.4890   101.5790   103.9860   103.9450    23.8450     2.2490   -23.2050 
  171.6250    55.7170   100.3200   102.3440    98.7810    24.0230     2.2500   -23.2700 
  171.7500    53.6010   100.6270   102.6010    92.9800    24.1860     2.2530   -23.3620 
  171.8750    52.7460   104.3590   106.6660    91.6140    24.2790     2.2550   -23.4730 
  172.0000    53.5550   114.2660   115.3380    95.5410    24.3350     2.2560   -23.5560 
  172.1250    55.1580   129.4830   129.2300   108.5340    24.3740     2.2520   -23.6440 
  172.2500    56.0280   149.6590   148.0080   131.7690    24.4070     2.2440   -23.7310 
  172.3750    55.1490   173.4220   170.2410   159.1390    24.4510     2.2340   -23.8370 
  172.5000    53.0660   196.9750   192.1460   185.0380    24.5040     2.2230   -23.9490 
  172.6250    50.9760   216.9670   210.4600   201.2280    24.5530     2.2130   -24.0200 
  172.7500    49.8340   230.9020   222.8520   208.4310    24.5950     2.2080   -24.0580 
  172.8750    49.6870   237.4710   228.1140   209.2230    24.5990     2.2070   -24.1130 
  173.0000    49.5030   239.9230   229.3250   209.5560    24.5700     2.2090   -24.2180 
  173.1250    49.3590   240.8660   228.9910   209.8290    24.5220     2.2130   -24.3180 
  173.2500    50.1990   242.2390   229.1190   215.6610    24.4880     2.2170   -24.4450 
  173.3750    51.4650   245.0210   230.9720   229.5470    24.4910     2.2210   -24.6020 
  173.5000    51.2130   248.4800   234.0380   227.7030    24.5080     2.2220   -24.7520 
  173.6250    50.1240   251.3160   237.2230   221.1430    24.5160     2.2210   -24.9160 
  173.7500    48.8190   251.7590   238.9210   214.7750    24.5170     2.2180   -25.1010 
  173.8750    46.5940   246.9470   236.4860   215.3260    24.5140     2.2130   -25.2650 
  174.0000    45.1980   236.2570   228.9310   208.4820    24.5070     2.2090   -25.3990 
  174.1250    46.5460   219.9410   216.0420   188.3660    24.4890     2.2080   -25.5280 
  174.2500    49.3040   199.8250   199.0140   162.2640    24.4520     2.2110   -25.6290 
  174.3750    49.6370   179.1330   180.3520   143.4290    24.3830     2.2160   -25.6630 
  174.5000    50.7030   160.9440   163.2010   130.8380    24.2230     2.2210   -25.6580 
  174.6250    53.3930   146.5440   149.1600   118.6140    23.9640     2.2240   -25.6300 
  174.7500    54.7790   135.9940   138.6400   110.6200    23.6860     2.2260   -25.5770 
  174.8750    53.9190   129.0520   131.6050   112.3700    23.4790     2.2280   -25.4910 
  175.0000    53.8280   124.3370   126.7340   114.0550    23.2900     2.2310   -25.4140 
  175.1250    54.9600   121.3260   123.4730   103.1190    23.0840     2.2340   -25.3370 
  175.2500    54.8480   119.7860   121.5440    87.4940    22.9170     2.2370   -25.2570 
  175.3750    54.6430   120.0680   121.2130    81.0670    22.8380     2.2390   -25.1930 
  175.5000    55.7970   122.2210   122.5410    81.4580    22.8060     2.2410   -25.1420 
  175.6250    56.4510   126.5650   125.8460    83.1180    22.7850     2.2440   -25.0960 
  175.7500    55.8260   133.3510   131.3920    82.5610    22.7740     2.2470   -25.0520 
  175.8750    54.6370   143.0660   139.6590    78.9810    22.7600     2.2480   -25.0500 
  176.0000    54.1560   154.9360   149.9480    75.3820    22.7370     2.2460   -25.0470 
  176.1250    54.1210   168.0930   161.4620    71.7540    22.7480     2.2410   -25.0450 
  176.2500    54.0870   181.0860   172.8600    70.3320    22.8480     2.2320   -25.0430 
  176.3750    52.8790   191.3980   181.8100    71.8810    22.8850     2.2240   -25.0450 
  176.5000    50.9030   197.5320   186.8980    80.9300    22.8760     2.2200   -25.0350 
  176.6250    49.4430   198.8770   187.4950    98.6350    22.8720     2.2200   -25.0300 
  176.7500    47.8060   196.1700   184.1610   122.8620    22.9100     2.2230   -25.0340 
  176.8750    45.5310   191.4130   178.5770   147.3920    23.0100     2.2270   -25.0010 
  177.0000    45.3310   187.6410   173.6230   162.5180    23.1840     2.2300   -24.9370 
  177.1250    48.4130   186.1710   171.1280   159.2440    23.4420     2.2290   -24.8420 
  177.2500    52.8440   187.7270   172.0660   159.2330    23.7940     2.2250   -24.7250 
  177.3750    53.8950   191.9920   176.9530   165.6450    24.1660     2.2200   -24.5610 
  177.5000    51.2390   197.3170   184.1480   176.6780    24.4260     2.2140   -24.3480 
  177.6250    46.5010   203.3940   192.0630   192.3640    24.4960     2.2110   -24.0810 
  177.7500    44.8730   209.7230   198.9560   195.2020    24.4710     2.2120   -23.7640 
  177.8750    48.6410   213.8490   202.7870   177.8240    24.4240     2.2160   -23.4300 
  178.0000    52.4270   214.1140   203.1140   168.8630    24.3830     2.2200   -23.0910 
  178.1250    53.7210   210.4220   199.8110   170.6350    24.3620     2.2240   -22.7560 
  178.2500    53.8070   203.0540   193.1310   174.5040    24.3680     2.2250   -22.4060 
  178.3750    53.1510   191.9400   183.0170   170.3110    24.4130     2.2250   -22.0630 
  178.5000    51.0340   178.2600   170.5060   141.9910    24.4620     2.2260   -21.7570 
  178.6250    49.5360   163.0520   156.4520   108.4930    24.4940     2.2270   -21.4830 
  178.7500    49.2470   147.7630   142.1080    83.9020    24.4990     2.2300   -21.2490 
  178.8750    49.4280   134.3020   129.2280    71.2760    24.4750     2.2390   -21.0510 
  179.0000    50.0720   123.4970   118.7380    66.9160    24.4270     2.2580   -20.8720 
  179.1250    51.5490   115.5840   110.9900    64.3480    24.3450     2.2880   -20.7020 
  179.2500    52.4700   110.2140   105.7650    59.4000    24.2120     2.3280   -20.5680 
  179.3750    49.5880   106.7490   102.5530    57.3690    24.0980     2.3600   -20.4420 
  179.5000    46.3150   103.8450   100.0520    59.7670    24.0510     2.3690   -20.3140 
  179.6250    45.8780   100.7740    97.5120    62.2100    24.0940     2.3530   -20.1940 
