~V
VERS. 2.00: Ver 2.00
~W
STRT.M 60.0000:
STOP.M 276.0000:
STEP.M 0.1250:
NULL. -999.2500:
UWI. F10216:
~C
DEPT.M :
DEN.GM/CC :
GR.API :
RML.OHMM :
RI. :
RXO.OHMM :
CALI.CM :
SP.MV :
~A
# ...
  195.0000     2.1800    60.3190   180.5780   172.9590   114.8160    24.6210   -19.1830 
  195.1250     2.1690    65.3380   187.4260   176.2410   149.6340    24.5910   -18.9930 
  195.2500     2.1610    66.5700   205.5660   191.0110   206.9540    24.5750   -18.8210 
  195.3750     2.1600    61.4350   230.5680   213.0540   236.0990    24.5510   -18.6310 
  195.5000     2.1660    54.8080   255.6500   236.1520   231.0420    24.4530   -18.4470 
  195.6250     2.1710    52.8490   271.0110   251.5550   224.9530    24.4410   -18.2630 
  195.7500     2.1750    54.9180   274.5940   256.5610   213.8730    24.4230   -18.0670 
  195.8750     2.1770    56.5690   269.6010   253.1150   206.4400    24.4420   -17.8660 
  196.0000     2.1780    56.4100   260.8170   245.2480   206.5720    24.4770   -17.6500 
  196.1250     2.1780    57.1440   250.3820   235.4390   218.2260    24.5700   -17.4530 
  196.2500     2.1780    57.4290   237.3440   223.5090   228.9640    24.6450   -17.2400 
  196.3750     2.1780    55.3820   220.0660   207.8710   249.5470    24.6320   -17.0540 
  196.5000     2.1760    52.1960   199.1310   188.4510   288.8330    24.5090   -16.8840 
  196.6250     2.1710    51.0990   178.3250   168.0890   315.7200    24.4590   -16.6910 
  196.7500     2.1620    51.0900   162.0310   151.1630   203.1900    24.4740   -16.5320 
  196.8750     2.1530    51.0060   152.7590   140.4640   124.6620    24.5090   -16.3450 
  197.0000     2.1470    51.1160   151.3540   137.1610   107.2860    24.4250   -16.1850 
  197.1250     2.1470    50.0100   158.0380   141.6390   146.9150    24.3460   -16.0170 
  197.2500     2.1490    49.1640   168.9620   150.2860   192.1620    24.3190   -15.8450 
  197.3750     2.1550    49.8840   180.3620   159.7610   218.0280    24.3370   -15.6460 
  197.5000     2.1630    50.1830   188.3350   166.6340   206.1790    24.3860   -15.4190 
  197.6250     2.1750    50.5290   190.4170   168.3970   180.6520    24.3780   -15.2050 
  197.7500     2.1850    53.3830   189.6840   167.2690   154.7400    24.3500   -14.9530 
  197.8750     2.1880    57.0480   188.7010   165.6510   145.8980    24.3050   -14.7250 
  198.0000     2.1810    56.9850   186.7920   163.7770   175.5720    24.2300   -14.4760 
  198.1250     2.1790    54.1860   176.8090   156.5580   221.3850    24.1410   -14.2200 
  198.2500     2.2010    53.0710   154.7660   139.7290   262.8210    24.0200   -13.9550 
  198.3750     2.2590    52.8310   123.9960   114.3510   267.6850    23.9360   -13.6770 
  198.5000     2.3450    51.8990    92.9970    86.7770   215.6890    23.8790   -13.4100 
  198.6250     2.4250    53.4230    69.6410    64.6470   103.4060    23.8660   -13.1060 
  198.7500     2.4640    56.8830    54.0950    49.5480    47.7040    23.8080   -12.8410 
  198.8750     2.4590    58.8890    45.0030    40.5820    30.1640    23.7220   -12.5630 
  199.0000     2.4340    58.0510    40.6380    36.0660    32.4180    23.6960   -12.2660 
  199.1250     2.4240    56.8890    39.7780    34.8070    31.8480    23.8620   -11.9980 
  199.2500     2.4520    55.9600    40.1910    34.9370    29.7280    24.0890   -11.7390 
  199.3750     2.5160    53.4690    40.0560    34.9290    33.2020    24.2990   -11.5310 
  199.5000     2.5900    49.7410    37.6510    33.0930    47.9910    24.3420   -11.3470 
  199.6250     2.6180    47.5820    32.0620    28.3860    57.9010    24.3050   -11.2270 
  199.7500     2.6020    47.6440    25.2160    22.5520    46.8880    24.2720   -11.1070 
  199.8750     2.5610    48.4430    18.8840    17.1820    27.8370    24.3000   -11.0380 
  200.0000     2.5130    49.5340    14.1180    13.1070    15.1640    24.3260   -11.0200 
  200.1250     2.4580    51.5380    11.3550    10.6180    10.1600    24.3370   -11.0270 
  200.2500     2.3990    52.8190     9.9130     9.1880     8.5280    24.3430   -11.0830 
  200.3750     2.3470    52.7760     9.3630     8.5120     8.1230    24.3090   -11.1520 
  200.5000     2.3220    52.2140     9.3420     8.3290     8.0260    24.2610   -11.2610 
  200.6250     2.3320    53.0790     9.5980     8.4360     7.8600    24.2700   -11.3760 
  200.7500     2.3530    52.3330     9.8920     8.6090     7.5530    24.3180   -11.5280 
  200.8750     2.3600    49.1330    10.1090     8.7400     7.9600    24.3020   -11.6840 
  201.0000     2.3350    46.1530    10.1800     8.7670     9.0190    24.2400   -11.8190 
  201.1250     2.2840    45.8690    10.0870     8.6670     9.2220    24.2310   -11.9640 
  201.2500     2.2350    47.1980     9.9670     8.5380     8.8110    24.4160   -12.0890 
  201.3750     2.2140    48.2340    10.0020     8.5120     8.5700    24.7560   -12.2060 
  201.5000     2.2460    49.7160    10.3940     8.7410     8.5320    25.1520   -12.2920 
  201.6250     2.3440    52.9070    11.3900     9.4220     8.8030    25.2380   -12.3620 
  201.7500     2.4680    55.2580    12.8810    10.5180    11.6130    24.8550   -12.4490 
  201.8750     2.5640    54.6890    14.6220    11.8950    19.1590    24.4660   -12.5280 
  202.0000     2.6010    52.6820    16.1640    13.2330    25.6280    24.3030   -12.6490 
  202.1250     2.5810    51.8700    16.8160    13.9510    25.0350    24.3180   -12.7820 
  202.2500     2.5340    50.8900    16.4720    13.8540    19.0630    24.3290   -12.9340 
  202.3750     2.4810    48.5070    15.3930    13.0890    14.1620    24.3340   -13.1040 
  202.5000     2.4440    46.2520    14.0200    11.9960    11.6030    24.3380   -13.2990 
  202.6250     2.4400    45.9060    12.6700    10.8390    11.2930    24.3740   -13.5220 
  202.7500     2.4500    47.3480    11.3980     9.7120    10.3300    24.3640   -13.7150 
  202.8750     2.4480    49.1390    10.1780     8.6240    10.2390    24.3590   -13.9220 
  203.0000     2.4210    49.4760     9.0370     7.6090    10.2310    24.3480   -14.1190 
  203.1250     2.3740    50.5220     8.1370     6.7840     9.0990    24.3580   -14.3600 
  203.2500     2.3430    55.8180     7.5990     6.2290     6.9700    24.3950   -14.6430 
  203.3750     2.3520    63.3580     7.4890     5.9990     6.5140    24.3490   -14.9530 
  203.5000     2.3980    71.4950     7.7820     6.0910     7.4900    24.2390   -15.3000 
  203.6250     2.4540    81.8670     8.4000     6.4860     8.3750    24.1880   -15.6750 
  203.7500     2.4850    93.2030     9.0980     7.0150     9.1220    24.2250   -16.0920 
  203.8750     2.4850   100.5500     9.6770     7.5260     9.4490    24.3070   -16.5370 
  204.0000     2.4620    99.3360     9.9960     7.8850     9.6540    24.4250   -16.9820 
  204.1250     2.4300    92.6490    10.0110     8.0040    10.1640    24.5390   -17.3900 
  204.2500     2.4020    87.7140     9.8690     7.9610    10.5170    24.6930   -17.7400 
  204.3750     2.3790    86.0170     9.6560     7.8170    10.3480    24.8010   -18.0720 
  204.5000     2.3580    84.0990     9.4230     7.6190     9.7600    24.8780   -18.3330 
  204.6250     2.3330    76.9150     9.2070     7.4070     8.7920    24.9270   -18.5480 
  204.7500     2.3020    70.9580     9.0400     7.2190     8.1020    24.9720   -18.6920 
  204.8750     2.2700    70.1810     8.9800     7.0920     7.4090    25.0210   -18.7630 
  205.0000     2.2480    72.3990     9.1230     7.0910     7.1050    25.0370   -18.7630 
  205.1250     2.2500    71.8680     9.7020     7.3620     7.5370    24.9330   -18.6770 
  205.2500     2.2760    68.7710    10.8740     8.0040     9.1310    24.8280   -18.5360 
  205.3750     2.3300    65.8500    12.7330     9.1140    10.6710    24.7460   -18.2940 
  205.5000     2.4030    63.8970    15.1100    10.6640    12.8170    24.6730   -18.0150 
  205.6250     2.4760    63.9500    17.2920    12.3100    16.2420    24.6050   -17.6760 
  205.7500     2.5250    65.3240    18.2970    13.3350    22.7040    24.4950   -17.3180 
  205.8750     2.5400    66.3930    17.5770    13.2110    27.2000    24.3660   -16.9600 
  206.0000     2.5260    67.2580    15.4230    11.9840    22.4340    24.2780   -16.6210 
  206.1250     2.5010    69.8970    12.8430    10.2530    12.5420    24.2690   -16.3540 
