~V
VERS. 2.00: Ver 2.00
~W
STRT.M 53.0000:
STOP.M 269.0000:
STEP.M 0.1250:
NULL. -999.2500:
UWI. F10224:
~C
DEPT.M :
DEN.GM/CC :
GR.API :
RML.OHMM :
RI. :
RXO.OHMM :
CALI.CM :
SP.MV :
~A
# ...
  176.6250     2.2560    66.3860   102.2810    87.2790    74.9320    23.0720   -34.9420 
  176.7500     2.2510    67.8980   114.2250    96.3150    82.1510    23.0380   -34.8430 
  176.8750     2.2440    67.3390   128.1540   107.5470    85.6340    22.8670   -34.7440 
  177.0000     2.2360    64.7420   140.2850   118.1880    90.3570    22.5290   -34.6230 
  177.1250     2.2290    61.8060   143.2270   122.5080    93.4420    22.2690   -34.4690 
  177.2500     2.2220    61.2170   134.8380   118.0530    89.9590    22.1740   -34.2970 
  177.3750     2.2200    63.8350   117.5400   105.7120    80.3540    22.1730   -34.1120 
  177.5000     2.2260    68.1390    97.0370    89.3350    66.3790    22.2170   -33.9080 
  177.6250     2.2420    70.5620    79.5320    74.0430    52.6420    22.2570   -33.7220 
  177.7500     2.2590    71.3380    67.0420    62.5050    41.6900    22.2500   -33.5910 
  177.8750     2.2700    71.7050    59.4670    55.1410    32.8680    22.2020   -33.5020 
  178.0000     2.2720    73.1420    56.0590    51.5600    26.9770    22.1290   -33.4210 
  178.1250     2.2740    74.8000    56.3090    51.5760    26.4250    22.0450   -33.3130 
  178.2500     2.2780    75.4830    58.3630    53.6920    30.7270    21.9470   -33.1730 
  178.3750     2.2800    74.5000    60.7170    56.6250    38.0280    21.8710   -32.9990 
  178.5000     2.2780    72.1460    61.7370    58.7750    44.0260    21.8480   -32.7970 
  178.6250     2.2750    72.1980    59.6630    58.1630    45.4700    21.8090   -32.5930 
  178.7500     2.2740    74.2210    54.8610    54.6520    41.0830    21.7190   -32.3990 
  178.8750     2.2780    73.9040    48.3990    49.0070    33.1040    21.6490   -32.2110 
  179.0000     2.2860    69.8690    41.7710    42.6760    27.8500    21.6220   -32.0550 
  179.1250     2.2920    69.3140    36.4600    37.2490    28.3690    21.6250   -31.9490 
  179.2500     2.2920    74.6640    32.8150    33.2950    28.7930    21.6670   -31.8980 
  179.3750     2.2920    78.7040    30.7700    30.8510    24.2540    21.6670   -31.8890 
  179.5000     2.3000    76.5650    29.9570    29.6590    19.7370    21.6200   -31.8890 
  179.6250     2.3130    72.5070    29.8740    29.3390    21.2630    21.6280   -31.8590 
  179.7500     2.3230    69.4350    29.9150    29.2730    27.5670    21.7000   -31.7970 
  179.8750     2.3270    65.6450    29.9690    29.2590    32.7760    21.7270   -31.7340 
  180.0000     2.3250    61.1960    30.2990    29.4070    29.7950    21.7110   -31.6950 
  180.1250     2.3190    58.1900    31.6900    30.2460    24.5520    21.7530   -31.6900 
  180.2500     2.3110    57.0840    34.7630    32.3130    23.3930    21.8630   -31.7310 
  180.3750     2.2980    57.2010    40.0800    36.1970    26.6080    22.0760   -31.8340 
  180.5000     2.2800    58.1920    47.8500    42.3020    35.1280    22.6260   -32.0050 
  180.6250     2.2580    59.7710    57.4390    50.7810    50.3310    23.4810   -32.2160 
  180.7500     2.2390    60.8400    66.6010    60.1910    66.2640    24.1890   -32.4440 
  180.8750     2.2290    60.9180    76.0450    68.9840    77.4040    24.4630   -32.6730 
  181.0000     2.2270    59.6040    83.2430    75.7850    84.3430    24.5350   -32.8830 
  181.1250     2.2230    58.4050    87.0840    79.4690    86.7910    24.6850   -33.0470 
  181.2500     2.2120    59.2160    88.2120    80.5950    86.5220    24.6960   -33.1660 
  181.3750     2.2000    59.3250    87.2350    79.6990    89.0670    24.3620   -33.2370 
  181.5000     2.2000    58.0500    85.1130    77.6240    98.6690    23.7550   -33.2940 
  181.6250     2.2150    60.1210    83.2340    75.5560   100.2890    23.3440   -33.3670 
  181.7500     2.2300    64.3650    82.7330    74.5760    85.8330    23.1940   -33.4760 
  181.8750     2.2390    66.3670    84.0860    75.2490    75.4140    23.1010   -33.6130 
  182.0000     2.2450    65.7200    87.0520    77.5540    82.8160    22.9150   -33.7500 
  182.1250     2.2530    66.8800    90.7250    80.8690   108.3970    22.6020   -33.8990 
  182.2500     2.2610    68.7390    93.8470    83.9720   126.4790    22.2350   -34.0470 
  182.3750     2.2670    67.8390    95.9140    86.2120   122.4700    22.0060   -34.1890 
  182.5000     2.2670    65.2290    97.2330    87.6010   111.3050    21.9240   -34.3170 
  182.6250     2.2630    64.3500    98.9600    88.9670   103.7130    21.8810   -34.4650 
  182.7500     2.2580    65.0190   101.9870    91.2910   104.7840    21.8780   -34.6140 
  182.8750     2.2550    66.0730   106.3330    94.8420   114.0530    22.0160   -34.7830 
  183.0000     2.2530    66.6080   111.2970    99.1810   125.7870    22.2900   -34.9750 
  183.1250     2.2500    66.6030   115.8140   103.4150   132.9600    22.4440   -35.1800 
  183.2500     2.2460    66.6520   119.4270   106.9540   135.2960    22.5040   -35.3860 
  183.3750     2.2410    66.7510   122.2600   109.7740   136.0520    22.4680   -35.5990 
  183.5000     2.2340    65.9760   124.7050   112.2060   135.3440    22.3280   -35.7880 
  183.6250     2.2260    64.6050   127.0800   114.6520   134.1850    22.1380   -35.9070 
  183.7500     2.2220    64.4300   129.3480   117.1780   135.4240    21.9570   -35.9800 
  183.8750     2.2250    65.5200   131.1920   119.5030   138.6060    21.7720   -36.0120 
  184.0000     2.2300    65.6830   132.1590   121.1520   138.9590    21.5850   -36.0620 
  184.1250     2.2280    63.7240   131.2210   121.1350   127.4480    21.2740   -36.1330 
  184.2500     2.2200    61.3680   127.7230   118.8360   108.9010    21.0670   -36.2260 
  184.3750     2.2120    60.5630   121.1750   113.7760    94.1570    21.0020   -36.3470 
  184.5000     2.2060    61.5610   111.9230   106.1540    87.0480    21.0560   -36.4540 
  184.6250     2.2040    63.6180   101.3800    97.0040    81.8140    21.3220   -36.5200 
  184.7500     2.2060    65.3090    91.8730    88.3870    73.5950    21.8450   -36.5770 
  184.8750     2.2130    67.0430    84.9330    81.7650    64.9700    22.5420   -36.6210 
  185.0000     2.2220    67.4230    81.3640    78.0360    59.1670    23.2950   -36.6450 
  185.1250     2.2330    64.9130    81.7430    77.9790    59.6480    23.8380   -36.6790 
  185.2500     2.2420    64.1480    84.8220    80.6820    67.0990    24.1510   -36.6950 
  185.3750     2.2470    67.2620    89.5030    85.2840    78.6370    24.3040   -36.6630 
  185.5000     2.2470    71.3570    94.3880    90.5280    88.0450    24.3640   -36.6630 
  185.6250     2.2450    72.2200    97.7110    94.6790    92.5710    24.3690   -36.7310 
  185.7500     2.2440    71.6630    98.7360    96.7010    96.3060    24.3430   -36.7860 
  185.8750     2.2420    69.9320    97.4110    96.2460    98.1980    24.2660   -36.7990 
  186.0000     2.2400    67.1130    94.3750    93.7020    97.1760    24.0700   -36.7620 
  186.1250     2.2380    66.9490    90.8090    90.0380    96.4190    23.6740   -36.6500 
  186.2500     2.2400    69.5660    88.0740    86.7050    95.9050    23.0310   -36.4960 
  186.3750     2.2470    71.4780    87.1010    84.6490    94.3160    22.4040   -36.3420 
  186.5000     2.2570    68.7020    88.7320    84.7110    93.8540    22.1010   -36.2120 
  186.6250     2.2640    62.2890    94.5280    88.4060    97.9410    22.2800   -36.1240 
  186.7500     2.2670    57.9300   104.7600    96.1480   104.4080    22.8160   -36.0740 
  186.8750     2.2630    57.9350   119.9780   108.5300   108.4590    23.4970   -36.0920 
  187.0000     2.2540    58.5960   140.4010   125.8310   112.8020    24.1010   -36.1650 
  187.1250     2.2390    54.8520   155.6900   148.2760   130.3460    24.3460   -36.2740 
  187.2500     2.2180    52.6170   181.9560   173.2920   165.2260    24.4100   -36.4200 
  187.3750     2.1980    54.0770   208.0570   198.1500   205.5520    24.4170   -36.5600 
  187.5000     2.1840    54.4680   231.0000   220.0000   232.4310    24.3720   -36.6120 
  187.6250     2.1820    51.6820   248.1180   236.3030   213.5770    24.1300   -36.6000 
  187.7500     2.1830    52.1970   260.8300   248.4090   151.0950    23.7050   -36.5840 
