~V
VERS. 2.00: Ver 2.00
~W
STRT.M 53.0000:
STOP.M 286.0000:
STEP.M 0.1250:
NULL. -999.2500:
UWI. F10262:
~C
DEPT.M :
DEN.GM/CC :
GR.API :
RML.OHMM :
RI. :
RXO.OHMM :
CALI.CM :
SP.MV :
~A
   53.0000  -999.2500    47.5610    20.0140     1.2050     0.3290    25.4840  -999.2500 
   53.1250  -999.2500    46.3070    20.5170     1.2390     0.2640    25.5170  -999.2500 
   53.2500  -999.2500    46.6910    21.2360     1.2710     0.2150    25.5380  -999.2500 
   53.3750  -999.2500    47.2060    21.4610     1.2660     0.2590    25.5300  -999.2500 
   53.5000  -999.2500    49.6930    19.6840     1.1790     0.3700    25.4460  -999.2500 
   53.6250  -999.2500    51.2570    19.2920     1.1490     0.4290    25.3670  -999.2500 
   53.7500  -999.2500    50.4460    18.9240     1.1220     0.5510    25.2150  -999.2500 
   53.8750  -999.2500    48.2340    18.5610     1.1020     0.6760    24.9900  -999.2500 
   54.0000  -999.2500    46.4490    18.1550     1.0900     0.8000    24.7690  -999.2500 
   54.1250  -999.2500    45.2910    17.6290     1.0880     0.9080    24.6100  -999.2500 
   54.2500     2.0970    45.6220    16.9440     1.0950     0.9950    24.4970    82.2940 
   54.3750     2.0970    48.4400    16.0610     1.0950     1.1240    24.4040    82.2940 
   54.5000     2.1000    53.6970    14.9240     1.0730     1.2500    24.3170    82.2940 
   54.6250     2.1040    60.6550    13.4620     1.0230     1.3350    24.2690    82.2940 
   54.7500     2.1000    66.3130    11.6950     0.9490     1.3700    24.2350    82.0800 
   54.8750     2.0860    66.5490     9.7810     0.8540     1.4300    24.2700    82.0250 
   55.0000     2.0680    61.5400     8.0700     0.7530     1.4560    24.4220    81.8610 
   55.1250     2.0510    54.5910     6.8770     0.6620     1.3560    24.6650    81.6320 
   55.2500     2.0380    49.3480     6.3960     0.5940     1.2590    24.8630    81.1710 
   55.3750     2.0270    47.3930     6.7000     0.5710     1.2650    24.8940    80.6890 
   55.5000     2.0190    48.6420     7.3660     0.5950     1.2860    24.8920    80.2370 
   55.6250     2.0140    51.5560     7.9940     0.6620     1.2590    24.8930    79.7720 
   55.7500     2.0120    53.0220     8.3040     0.7470     1.2040    24.9220    79.2420 
   55.8750     2.0140    51.5440     8.3630     0.8250     1.1380    25.0690    78.7840 
   56.0000     2.0150    50.2180     8.5460     0.8790     0.9490    25.2590    78.5860 
   56.1250     2.0150    51.9230     8.9000     0.9030     0.7930    25.4270    78.7040 
   56.2500     2.0130    54.4090     9.1590     0.9080     0.7260    25.5170    79.0590 
   56.3750     2.0100    54.0580     8.8780     0.9070     0.7530    25.5330    79.4890 
   56.5000     2.0050    51.6330     8.0860     0.9120     0.7880    25.5270    79.8650 
   56.6250     1.9950    48.8870     7.1990     0.9150     0.8350    25.5230    80.0940 
   56.7500     1.9850    47.2790     6.7510     0.9120     0.9100    25.5240    80.1760 
   56.8750     1.9930    47.1040     6.9370     0.9010     1.0000    25.5210    80.1210 
   57.0000     2.0370    47.9400     7.1530     0.8840     1.0530    25.5180    79.9380 
   57.1250     2.1240    48.1290     6.9560     0.8630     1.0600    25.5180    79.7140 
   57.2500     2.2370    47.4650     6.3030     0.8370     1.0730    25.5170    79.5600 
   57.3750     2.3390    47.7640     5.4360     0.8080     1.1250    25.4560    79.5860 
   57.5000     2.4030    48.3360     4.6300     0.7850     1.1630    25.2020    79.8590 
   57.6250     2.4350    47.6180     3.9470     0.7760     1.1850    24.6760    80.5210 
   57.7500     2.4610    45.8960     3.3330     0.7820     1.2420    24.0220    81.6040 
   57.8750     2.5120    47.1850     2.7750     0.7940     1.2200    23.6000    82.9300 
   58.0000     2.5820    49.6040     2.4410     0.7940     1.1500    23.3660    84.2260 
   58.1250     2.6490    49.6190     2.5490     0.7740     1.0810    23.2650    85.4390 
   58.2500     2.6920    48.7140     3.0820     0.7390     1.0360    23.2010    86.5180 
   58.3750     2.7020    49.9230     3.7000     0.7060     1.0250    23.1500    87.4120 
   58.5000     2.6970    50.6760     4.0490     0.6900     1.0590    23.0950    88.1380 
   58.6250     2.6900    47.9670     4.0370     0.6990     1.1040    23.0510    88.5990 
   58.7500     2.6830    45.5280     3.7470     0.7330     1.1130    23.0610    88.7580 
   58.8750     2.6760    49.3870     3.3910     0.7790     1.0990    23.1280    88.6200 
   59.0000     2.6640    54.8290     3.1760     0.8140     1.0830    23.1800    88.3330 
   59.1250     2.6430    55.3010     3.1200     0.8160     1.0390    23.2320    87.8450 
   59.2500     2.6040    50.7700     3.1120     0.7780     0.9600    23.2640    87.1650 
   59.3750     2.5300    47.2130     3.0100     0.7080     0.9300    23.2390    86.3680 
   59.5000     2.4220    47.1190     2.7840     0.6370     1.0350    23.2020    85.4860 
   59.6250     2.2940    48.0570     2.4490     0.5870     1.2610    23.1650    84.6130 
   59.7500     2.1690    48.1130     2.0570     0.5670     1.4970    23.2750    83.8380 
   59.8750     2.0780    48.7650     1.7260     0.5690     1.6430    23.5680    83.2670 
   60.0000     2.0270    51.3040     1.5260     0.5790     1.7300    23.8910    82.8590 
   60.1250     2.0100    54.8360     1.4480     0.5960     1.7830    24.0410    82.5140 
   60.2500     2.0120    57.3340     1.4520     0.6210     1.7850    24.2330    82.2390 
   60.3750     2.0180    55.8850     1.4810     0.6460     1.7770    24.4200    82.0270 
   60.5000     2.0190    52.6410     1.4790     0.6570     1.7590    24.4870    81.8150 
   60.6250     2.0150    50.5210     1.4070     0.6520     1.7180    24.5090    81.5800 
   60.7500     2.0070    50.2900     1.2300     0.6370     1.6450    24.5630    81.3110 
   60.8750     1.9990    50.3880     0.9770     0.6290     1.5630    24.6900    80.8810 
   61.0000     1.9950    51.9580     0.8020     0.6400     1.5130    24.8100    80.3840 
   61.1250     1.9960    56.6060     0.7920     0.6700     1.5370    24.8340    80.0650 
   61.2500     2.0050    61.7630     0.9070     0.7070     1.6250    24.7790    79.9260 
   61.3750     2.0190    62.7280     1.0860     0.7360     1.6880    24.6630    79.8620 
   61.5000     2.0340    63.2690     1.3740     0.7510     1.6720    24.4880    79.8830 
   61.6250     2.0460    67.8040     1.8480     0.7530     1.5760    24.3370    79.9460 
   61.7500     2.0550    74.3310     2.5140     0.7540     1.3180    24.2610    79.9620 
   61.8750     2.0600    74.4480     3.2370     0.7650     1.0470    24.2660    79.9300 
   62.0000     2.0660    69.0810     3.7750     0.7860     0.8800    24.2910    79.7490 
   62.1250     2.0750    62.6280     3.9760     0.8070     0.8420    24.3640    79.2470 
   62.2500     2.0860    56.5020     3.8340     0.8170     0.9280    24.6110    78.3630 
   62.3750     2.0930    50.3060     3.3190     0.7810     1.1340    24.9760    77.0600 
   62.5000     2.0970    46.4440     2.4690     0.6660     1.0930    25.3760    75.3540 
   62.6250     2.1190    45.9040     1.4770     0.4780     0.8830    25.5800    73.2460 
   62.7500     2.1830    46.5020     0.7040     0.2800     0.8430    25.6070    70.5570 
   62.8750     2.3060    47.0070     0.3230     0.1490     0.9930    25.5480    66.8980 
   63.0000     2.4350    47.9890     0.1650     0.0800     1.1050    25.4500    62.1370 
   63.1250     2.5030    49.9650     0.1410     0.0590     1.1640    25.3940    56.0630 
   63.2500     2.4560    52.5270     0.2310     0.0910     1.5740    25.7610    48.8770 
   63.3750     2.2730    54.3570     0.5280     0.2570     2.8190    27.7840    40.9310 
   63.5000     2.0370    54.6850     1.1760     0.6820     5.0370    31.4740    32.8130 
   63.6250     1.8220    55.1420     2.4010     1.5580     6.9070    34.9500    24.7870 
   63.7500     1.6770    56.4380     4.2380     3.0090     7.5180    36.5960    17.1820 
   63.8750     1.6280    57.4640     5.9540     4.7970     6.8120    36.1750    10.6040 
   64.0000     1.6410    59.8440     6.8310     6.2930     6.2460    34.2080     5.2860 
   64.1250     1.6970    65.4720     7.0960     7.2660     6.8820    31.3510     1.5660 
