~V
VERS. 2.00: Ver 2.00
~W
STRT.M 55.0000:
STOP.M 276.0000:
STEP.M 0.1250:
NULL. -999.2500:
UWI. F10239:
~C
DEPT.M :
SP.MV :
DEN.GM/CC :
GR.API :
RML.OHMM :
RI. :
RXO.OHMM :
CALI.CM :
~A
# ...
  223.7500   -19.0660     2.4410    63.4700    92.3960    83.2640    92.5060    24.2330 
  223.8750   -19.0670     2.4510    64.2470    91.1000    83.1400    98.8850    23.9800 
  224.0000   -19.0440     2.4530    62.7280    81.0850    75.3820    87.4680    23.8810 
  224.1250   -19.0020     2.4470    59.8430    62.7300    59.4400    66.7590    23.8860 
  224.2500   -18.9330     2.4160    58.2000    42.5070    40.7990    51.3530    23.9260 
  224.3750   -18.8470     2.3710    59.6520    26.6190    26.0040    33.7500    23.9690 
  224.5000   -18.7430     2.3390    62.2610    15.7230    16.3230    16.6500    24.0100 
  224.6250   -18.6390     2.3360    60.7400    10.0000    10.7320     7.7230    24.0180 
  224.7500   -18.5610     2.3480    53.4700     7.4100     7.8960     6.0110    23.9740 
  224.8750   -18.5480     2.3520    45.9780     6.1870     6.4000     5.5580    23.8800 
  225.0000   -18.6020     2.3450    42.5480     5.7950     5.7520     5.3880    23.8470 
  225.1250   -18.7120     2.3400    42.4930     5.9210     5.6820     5.3790    23.8590 
  225.2500   -18.8570     2.3430    41.8920     6.3520     6.0060     5.6270    23.8970 
  225.3750   -19.0320     2.3490    40.0110     6.8550     6.4800     6.0650    23.9180 
  225.5000   -19.2400     2.3460    39.4770     7.2900     6.9500     6.5120    23.9530 
  225.6250   -19.4720     2.3260    41.9330     7.5450     7.2850     6.5890    24.0190 
  225.7500   -19.6950     2.2880    44.4390     7.5550     7.3880     6.4150    24.1020 
  225.8750   -19.8600     2.2530    44.0800     7.3950     7.3020     6.3460    24.2800 
  226.0000   -19.9710     2.2410    42.9870     7.1610     7.1000     6.1660    24.4390 
  226.1250   -20.0330     2.2620    43.7740     6.9280     6.8540     5.8940    24.3280 
  226.2500   -20.0630     2.3020    45.1550     6.7130     6.5910     5.9920    23.8940 
  226.3750   -20.0710     2.3300    44.9520     6.4830     6.3050     6.2620    23.5920 
  226.5000   -20.0540     2.3390    44.4670     6.2190     5.9970     6.3910    23.5530 
  226.6250   -19.9960     2.3380    45.2850     5.9580     5.7050     6.2100    23.5330 
  226.7500   -19.8890     2.3420    47.0770     5.7990     5.5080     5.7430    23.4000 
  226.8750   -19.7640     2.3540    48.8580     5.8340     5.4760     5.4080    23.3360 
  227.0000   -19.6240     2.3640    51.3220     6.1060     5.6480     5.5380    23.3820 
  227.1250   -19.4880     2.3590    53.9120     6.5720     6.0060     6.1440    23.5630 
  227.2500   -19.3630     2.3330    55.5870     7.0870     6.4530     7.0290    23.8810 
  227.3750   -19.2190     2.2980    55.6990     7.4280     6.7990     7.5630    24.1210 
  227.5000   -19.0280     2.2670    54.5640     7.4480     6.8910     7.7230    24.1810 
  227.6250   -18.7960     2.2430    53.2630     7.1030     6.6540     7.3280    24.1710 
  227.7500   -18.5640     2.2140    52.7200     6.4800     6.1340     6.3310    24.1750 
  227.8750   -18.3830     2.1790    53.5470     5.8030     5.5250     5.3530    24.1880 
  228.0000   -18.2840     2.1530    55.3630     5.2240     4.9680     4.7400    24.1570 
  228.1250   -18.2720     2.1520    58.7720     4.8560     4.5720     4.5210    23.9490 
  228.2500   -18.3370     2.1850    64.1820     4.7790     4.4150     4.5780    23.4130 
  228.3750   -18.4590     2.2380    70.5620     4.9550     4.4790     4.8380    22.8740 
  228.5000   -18.6490     2.2880    77.3090     5.3430     4.7430     5.4500    22.8400 
  228.6250   -18.9250     2.3160    82.2530     5.8600     5.1550     6.3760    23.1190 
  228.7500   -19.2800     2.3100    84.6420     6.3830     5.6310     6.9960    23.3040 
  228.8750   -19.6460     2.2910    85.8200     6.7890     6.0560     6.9120    23.4110 
  229.0000   -19.9570     2.2760    86.3290     7.0170     6.3590     6.6460    23.5440 
  229.1250   -20.1870     2.2750    87.0410     7.0790     6.5190     6.4310    23.6590 
  229.2500   -20.3580     2.2870    88.4020     7.0400     6.5740     6.3920    23.6750 
  229.3750   -20.5110     2.3020    92.1000     6.9940     6.6030     6.4350    23.6550 
  229.5000   -20.6620     2.3160    98.0330     6.9770     6.6400     6.4390    23.6760 
  229.6250   -20.7680     2.3300   104.7180     6.9880     6.6910     6.4650    23.7290 
  229.7500   -20.7640     2.3440   109.8890     7.0160     6.7450     6.4750    23.7550 
  229.8750   -20.6640     2.3550   112.5900     7.0480     6.7880     6.4620    23.7750 
  230.0000   -20.5200     2.3590   115.8500     7.0740     6.8120     6.4730    23.8060 
  230.1250   -20.3800     2.3620   118.0040     7.0870     6.8100     6.4520    23.8420 
  230.2500   -20.2450     2.3660   114.9030     7.0770     6.7790     6.4220    23.8650 
  230.3750   -20.1180     2.3680   109.6300     7.0480     6.7250     6.3330    23.8710 
  230.5000   -19.9970     2.3670   108.2220     7.0090     6.6540     6.1400    23.8630 
  230.6250   -19.8920     2.3630   111.1230     6.9630     6.5660     5.9600    23.8510 
  230.7500   -19.8510     2.3610   112.4310     6.9040     6.4540     5.9190    23.8390 
  230.8750   -19.8860     2.3630   110.7040     6.8260     6.3240     6.0140    23.8150 
  231.0000   -19.9890     2.3660   108.5940     6.7490     6.1950     6.1260    23.7800 
  231.1250   -20.1690     2.3690   107.7940     6.7630     6.1330     6.1990    23.7430 
  231.2500   -20.4330     2.3720   107.1250     7.0590     6.2770     6.3320    23.7070 
  231.3750   -20.7800     2.3790   103.5500     7.8340     6.7640     6.7110    23.6810 
  231.5000   -21.2280     2.3850    97.7190     9.3150     7.7620     7.7080    23.6400 
  231.6250   -21.7740     2.3780    91.8440    11.8340     9.5030    10.4080    23.5820 
  231.7500   -22.3780     2.3490    88.0620    16.1170    12.3230    16.3560    23.5550 
  231.8750   -23.0020     2.3140    85.5750    22.1330    16.2820    23.9360    23.5520 
  232.0000   -23.6280     2.2850    81.8660    28.2920    21.3590    29.5640    23.5630 
  232.1250   -24.2440     2.2680    76.2840    34.9150    27.2030    33.0160    23.5590 
  232.2500   -24.8440     2.2560    70.9910    41.2180    33.0710    36.7410    23.4990 
  232.3750   -25.3740     2.2440    67.7290    46.4790    38.1330    42.0110    23.4170 
  232.5000   -25.7810     2.2330    65.6160    50.2430    41.8950    45.9140    23.3880 
  232.6250   -26.0570     2.2240    64.2820    52.2750    44.0980    44.6160    23.4520 
  232.7500   -26.2130     2.2150    65.3710    52.5950    44.6930    42.3580    23.5250 
  232.8750   -26.3110     2.2030    66.9650    51.9570    44.3130    42.9760    23.5680 
  233.0000   -26.3790     2.1930    67.2450    50.9550    43.4920    43.9680    23.5710 
  233.1250   -26.3920     2.1880    68.1810    50.0170    42.6570    42.4530    23.5730 
  233.2500   -26.3190     2.1920    71.8830    49.3650    42.0650    40.1910    23.5620 
  233.3750   -26.1740     2.2020    74.0910    48.9670    41.7260    39.8850    23.4490 
  233.5000   -25.9700     2.2100    72.3560    48.7870    41.6050    41.6800    23.1960 
  233.6250   -25.7330     2.2110    68.3960    48.8620    41.7140    42.9880    22.9560 
  233.7500   -25.4690     2.2070    66.1700    49.3240    42.1480    41.6190    23.0520 
  233.8750   -25.1690     2.2050    65.9190    50.2580    42.9800    39.8240    23.2970 
  234.0000   -24.8250     2.2070    64.8780    51.7910    44.3290    39.7890    23.4010 
  234.1250   -24.4410     2.2090    62.7260    53.9970    46.3010    41.2510    23.2840 
  234.2500   -24.0290     2.2070    61.6210    56.7310    48.8510    43.7800    23.0940 
  234.3750   -23.6070     2.2090    61.7900    59.3360    51.4760    46.9610    22.9720 
  234.5000   -23.1970     2.2180    62.2680    61.0470    53.5240    49.8090    22.9550 
  234.6250   -22.8010     2.2330    63.3160    61.0760    54.2580    51.7510    22.9360 
  234.7500   -22.4060     2.2490    65.6920    58.8310    53.0440    52.6730    22.9040 
  234.8750   -21.9780     2.2560    66.2440    54.7850    50.1390    50.0600    22.9580 
