~V
VERS. 2.00: Ver 2.00
~W
STRT.M 56.0000:
STOP.M 270.0000:
STEP.M 0.1250:
NULL. -999.2500:
UWI. F10225:
~C
DEPT.M :
SP.MV :
DEN.GM/CC :
GR.API :
RML.OHMM :
RI. :
RXO.OHMM :
CALI.CM :
~A
   56.0000    45.7790  -999.2500  -999.2500  -999.2500  -999.2500  -999.2500  -999.2500 
   56.1250    45.4590     1.9930    36.3500     5.1970     0.7160     0.7740    25.3780 
   56.2500    45.1290     1.9930    36.3500     5.1970     0.7160     0.7740    25.3780 
   56.3750    44.7820     1.9940    37.7900     5.0180     0.7210     0.8150    25.3780 
   56.5000    44.3760     1.9950    41.2980     4.6060     0.7380     0.8800    25.3780 
   56.6250    43.8970     1.9930    46.0400     4.1880     0.7640     0.8950    25.3770 
   56.7500    43.3880     1.9880    48.8560     4.0050     0.7770     0.8070    25.3750 
   56.8750    42.9340     1.9790    47.4670     4.2440     0.7620     0.7290    25.3610 
   57.0000    42.5460     1.9690    44.1470     5.0520     0.7240     0.7870    25.3390 
   57.1250    42.1960     1.9620    43.0880     6.5960     0.6830     0.8660    25.3270 
   57.2500    41.8640     1.9630    44.4990     8.4730     0.6630     0.8550    25.3240 
   57.3750    41.5520     1.9700    46.2050     9.4470     0.6670     0.8100    25.3190 
   57.5000    41.2380     1.9800    46.7380     8.4770     0.6850     0.8300    25.3040 
   57.6250    40.8530     1.9940    45.8560     6.4760     0.7010     0.8840    25.2830 
   57.7500    40.3480     2.0090    43.5440     4.8700     0.7100     0.9150    25.2770 
   57.8750    39.7180     2.0210    40.7070     3.9650     0.7130     0.8940    25.2760 
   58.0000    39.0470     2.0220    38.6760     3.5340     0.7210     0.9030    25.2680 
   58.1250    38.4480     2.0130    38.6120     3.3500     0.7390     0.9320    25.2520 
   58.2500    37.9540     2.0020    40.4270     3.2370     0.7630     0.9500    25.2430 
   58.3750    37.5690     1.9980    42.4630     3.1310     0.7860     0.9200    25.2500 
   58.5000    37.3480     1.9990    43.5420     3.0350     0.8040     0.8070    25.2760 
   58.6250    37.3230     2.0010    43.7870     2.9680     0.8120     0.7510    25.2940 
   58.7500    37.4920     2.0030    43.9250     2.9270     0.8110     0.7930    25.3020 
   58.8750    37.7780     2.0040    43.5850     2.8960     0.8080     0.8410    25.3050 
   59.0000    38.0480     2.0060    41.8660     2.8580     0.8050     0.8250    25.3050 
   59.1250    38.2330     2.0100    40.3280     2.8090     0.7990     0.8010    25.3030 
   59.2500    38.3070     2.0090    40.6650     2.7640     0.7860     0.8770    25.2970 
   59.3750    38.2760     2.0020    42.0230     2.7270     0.7650     1.0160    25.2900 
   59.5000    38.1190     1.9910    43.1190     2.6940     0.7380     1.1530    25.2840 
   59.6250    37.8780     1.9860    44.2460     2.6560     0.7170     1.3160    25.2800 
   59.7500    37.6090     1.9900    45.4940     2.6110     0.7090     1.3780    25.2850 
   59.8750    37.3980     1.9980    45.6890     2.5650     0.7170     1.3350    25.2900 
   60.0000    37.3020     2.0030    43.9960     2.5210     0.7360     1.3320    25.2860 
   60.1250    37.3030     2.0040    40.6200     2.4810     0.7550     1.3440    25.2770 
   60.2500    37.3960     2.0020    38.0180     2.4360     0.7640     1.2840    25.2770 
   60.3750    37.5870     2.0010    38.3160     2.3820     0.7610     1.2730    25.2750 
   60.5000    37.8670     2.0000    40.3750     2.3280     0.7490     1.3560    25.2610 
   60.6250    38.1280     1.9980    41.8100     2.2870     0.7340     1.4160    25.2520 
   60.7500    38.3120     2.0000    42.2700     2.2620     0.7250     1.3980    25.2420 
   60.8750    38.3430     2.0030    42.2070     2.2510     0.7310     1.3670    25.2370 
   61.0000    38.1840     2.0090    40.5610     2.2470     0.7510     1.3820    25.2400 
   61.1250    37.8830     2.0170    37.5820     2.2600     0.7960     1.3790    25.2460 
   61.2500    37.4430     2.0260    35.6970     2.3250     0.8700     1.5600    25.2420 
   61.3750    36.7770     2.0400    35.1640     2.4460     0.9570     2.0080    25.2190 
   61.5000    35.7910     2.0690    35.0930     2.4890     0.9900     2.7020    25.1830 
   61.6250    34.3100     2.1200    36.2620     2.1400     0.8660     3.2020    25.1630 
   61.7500    32.2110     2.1860    38.7150     1.4880     0.6250     3.5550    25.1620 
   61.8750    29.3780     2.2540    40.4460     0.8750     0.3840     3.9310    25.1720 
   62.0000    25.6680     2.3130    39.3850     0.4960     0.2210     4.5930    25.1680 
   62.1250    20.7990     2.3120    36.7620     0.3960     0.1720     4.8640    25.1730 
   62.2500    14.9810     2.2210    37.0060     0.5460     0.2490     7.1030    25.4840 
   62.3750     8.6360     2.0850    40.8550     0.9840     0.5010    12.4010    26.8210 
   62.5000     2.2070     1.9790    45.1870     1.8350     1.0140    12.6210    29.6120 
   62.6250    -3.9110     1.9630    48.3460     3.3110     1.9320    10.9700    32.0390 
   62.7500    -9.5070     2.0190    51.7880     5.1810     3.1870     8.9880    31.6970 
   62.8750   -14.3650     2.1010    54.7820     6.7490     4.5020     8.5620    29.1350 
   63.0000   -18.2910     2.1610    54.6560     7.4090     5.5530     9.4410    26.7230 
   63.1250   -21.0200     2.1810    53.4650     7.2870     6.1920     9.9210    25.7000 
   63.2500   -22.7020     2.1880    55.2900     6.9990     6.5800     9.9730    25.4730 
   63.3750   -23.6850     2.1960    59.5100     6.8370     6.8330     9.9070    25.4860 
   63.5000   -24.3430     2.2060    62.9240     6.8070     6.9610     9.4360    25.5680 
   63.6250   -24.8170     2.2120    63.3030     6.8020     6.9430     9.7920    25.7370 
   63.7500   -25.1760     2.2130    62.5780     6.7550     6.8340    10.1750    25.9970 
   63.8750   -25.5250     2.2160    63.4830     6.6820     6.6970    10.0640    26.3380 
   64.0000   -25.8650     2.2190    65.5200     6.6320     6.5790     8.6090    26.6090 
   64.1250   -26.1860     2.2090    66.0040     6.6530     6.5230     7.9990    26.5560 
   64.2500   -26.5580     2.1790    65.1730     6.7620     6.5440     8.3380    26.2240 
   64.3750   -26.9990     2.1370    64.7520     6.9840     6.6750     8.9380    25.9310 
   64.5000   -27.4680     2.0950    63.6600     7.3690     6.9620     9.4510    25.8920 
   64.6250   -28.0040     2.0550    59.6940     7.9960     7.4620     9.2090    26.1560 
   64.7500   -28.5910     2.0060    55.5620     8.8320     8.1300     9.2460    26.6180 
   64.8750   -29.1620     1.9540    53.6460     9.7540     8.8520     9.7010    27.2300 
   65.0000   -29.7330     1.9240    52.8260    10.5490     9.4560     9.9650    27.9790 
   65.1250   -30.3330     1.9450    51.2950    10.9110     9.7200     9.5740    28.3470 
   65.2500   -30.8980     2.0020    49.7930    10.8010     9.6170     9.3330    27.9430 
   65.3750   -31.4140     2.0580    49.3490    10.3890     9.2610    10.1480    27.1690 
   65.5000   -31.9030     2.0880    49.5000     9.9200     8.8290    11.4110    26.5260 
   65.6250   -32.3300     2.0950    49.5660     9.6100     8.4950    12.3030    26.1980 
   65.7500   -32.6780     2.0990    49.2880     9.4990     8.3200    12.5330    26.0630 
   65.8750   -33.0010     2.1090    48.9730     9.5270     8.2750    12.3020    26.0470 
   66.0000   -33.2660     2.1210    49.2640     9.6020     8.3020    11.9660    26.0610 
   66.1250   -33.4310     2.1220    50.0800     9.6650     8.3580    11.9390    26.0480 
   66.2500   -33.5560     2.1100    50.0020     9.7220     8.4270    12.2440    26.0280 
   66.3750   -33.6140     2.0930    48.2290     9.8050     8.5150    12.4300    26.0600 
   66.5000   -33.6010     2.0780    46.0790     9.9330     8.6170    12.6060    26.1970 
   66.6250   -33.4820     2.0720    45.4660    10.0710     8.6920    13.1950    26.4580 
   66.7500   -33.2750     2.0780    45.9020    10.1140     8.6660    13.7240    26.7050 
   66.8750   -32.9640     2.0970    47.9110     9.9350     8.4560    13.6730    26.8540 
   67.0000   -32.6060     2.1270    52.2600     9.4630     8.0190    13.0530    26.9110 
   67.1250   -32.2340     2.1640    58.6690     8.7600     7.4050    11.9510    26.8940 
