~V
VERS. 2.00: Ver 2.00
~W
STRT.M 20.0000:
STOP.M 256.0000:
STEP.M 0.1250:
NULL. -999.2500:
UWI. F10201:
~C
DEPT.M :
DEN.GM/CC :
GR.API :
RML.OHMM :
RI. :
RXO.OHMM :
CALI.CM :
SP.MV :
~A
# ...
   53.7500     2.1080    38.7530  6419.3690     0.2100     0.4900    25.2620   121.0230 
   53.8750     2.1140    38.8070  6419.3690     0.2170     0.5120    25.2600   120.7410 
   54.0000     2.1180    38.3530  6419.3690     0.2230     0.4660    25.2590   120.4400 
   54.1250     2.1190    38.7740  6419.3690     0.2220     0.5020    25.2580   120.1510 
   54.2500     2.1200    39.8590  3885.3650     0.2140     0.5120    25.2570   119.8920 
   54.3750     2.1190    40.3910   542.5170     0.2030     0.5020    25.2560   119.6320 
   54.5000     2.1150    38.7380    81.0330     0.1900     0.5640    25.2550   119.3610 
   54.6250     2.1070    35.0050    25.8040     0.1770     0.7670    25.2520   119.0380 
   54.7500     2.0980    33.6490     9.9780     0.1640     0.8700    25.2440   118.6050 
   54.8750     2.0890    36.5250     4.4680     0.1530     0.9960    25.2300   118.1210 
   55.0000     2.0840    41.5550     2.2420     0.1470     1.0610    25.2200   117.6290 
   55.1250     2.0840    44.6250     1.3230     0.1500     0.8230    25.2160   117.1190 
   55.2500     2.0900    43.2940     0.8390     0.1600     0.6370    25.2150   116.6250 
   55.3750     2.1010    38.1510     0.5850     0.1730     0.6080    25.2150   116.1810 
   55.5000     2.1180    33.0390     0.4680     0.1850     0.6720    25.2150   115.7680 
   55.6250     2.1350    32.0280     0.4420     0.1920     1.0490    25.2130   115.4400 
   55.7500     2.1450    33.1330     0.4540     0.1950     1.7280    25.2100   115.2130 
   55.8750     2.1460    33.9080     0.4790     0.1960     2.4270    25.2070   115.0270 
   56.0000     2.1370    35.0950     0.5030     0.1960     2.4090    25.2080   114.8660 
   56.1250     2.1230    37.9770     0.5140     0.1980     1.4390    25.2100   114.7030 
   56.2500     2.1110    40.4000     0.5060     0.1990     1.6790    25.2080   114.5490 
   56.3750     2.1030    41.8960     0.4790     0.1990     2.4060    25.2040   114.3820 
   56.5000     2.1010    43.3560     0.4410     0.1990     2.7570    25.2030   114.2020 
   56.6250     2.1010    44.9280     0.3990     0.1970     1.4370    25.2030   113.9870 
   56.7500     2.1030    44.5080     0.3550     0.1960     0.7940    25.2030   113.7600 
   56.8750     2.1070    41.8920     0.3160     0.1980     0.6790    25.2050   113.5190 
   57.0000     2.1100    39.8080     0.2870     0.2010     1.2820    25.2120   113.2570 
   57.1250     2.1140    40.1890     0.2780     0.2060     2.6160    25.2130   112.9720 
   57.2500     2.1170    39.5210     0.2880     0.2110     5.1690    25.2100   112.6500 
   57.3750     2.1170    35.9390     0.3090     0.2130     6.0950    25.2070   112.2830 
   57.5000     2.1170    31.5450     0.3300     0.2130     3.1190    25.2090   111.8970 
   57.6250     2.1160    30.7410     0.3440     0.2100     4.3680    25.2050   111.4610 
   57.7500     2.1160    32.5670     0.3560     0.2070     4.5500    25.1940   110.9790 
   57.8750     2.1180    34.6180     0.3650     0.2040     3.9290    25.1830   110.4690 
   58.0000     2.1250    36.6210     0.3590     0.2030     3.4940    25.1770   109.9330 
   58.1250     2.1380    38.7190     0.3260     0.2050     3.5750    25.1770   109.3800 
   58.2500     2.1500    40.8530     0.2840     0.2080     3.7330    25.1770   108.8070 
   58.3750     2.1550    43.0660     0.2500     0.2090     3.8850    25.1770   108.1880 
   58.5000     2.1510    45.3400     0.2290     0.2090     4.0810    25.1770   107.4740 
   58.6250     2.1390    45.7280     0.2200     0.2080     4.4360    25.1750   106.6270 
   58.7500     2.1280    45.3180     0.2110     0.2060     4.9160    25.1740   105.6160 
   58.8750     2.1240    46.7730     0.1990     0.2040     5.3620    25.1740   104.3850 
   59.0000     2.1320    48.6200     0.1840     0.2040     5.7530    25.1770   102.8610 
   59.1250     2.1550    46.7550     0.1630     0.2030     5.9890    25.1810   100.8500 
   59.2500     2.1980    42.9370     0.1270     0.1990     6.2660    25.1820    98.2500 
   59.3750     2.2700    40.6500     0.0770     0.1870     6.5780    25.1820    94.8810 
   59.5000     2.3820    40.3970     0.0310     0.1640     6.6700    25.1810    90.4840 
   59.6250     2.5370    39.1460     0.0100     0.1300     6.5630    25.1790    84.5300 
   59.7500     2.7000    40.1630     0.0040     0.0950     6.6750    25.1760    77.0780 
   59.8750     2.8130    45.6970     0.0060     0.0690     6.4740    25.1710    68.1290 
   60.0000     2.8190    53.5010     0.0160     0.0610     5.0710    25.1660    57.7760 
   60.1250     2.7080    59.0090     0.0460     0.0960     3.3610    25.2090    46.2440 
   60.2500     2.5550    62.3540     0.1220     0.2090     3.0010    25.4210    34.3670 
   60.3750     2.4110    67.4920     0.3040     0.4600     3.6720    25.8110    22.7740 
   60.5000     2.3060    75.5990     0.7110     0.9270     4.5290    25.9760    11.9520 
   60.6250     2.2650    84.0090     1.6080     1.7160     5.5400    25.6860     2.5410 
   60.7500     2.2700    90.5350     2.8050     2.6750     6.3340    25.3240    -5.3450 
   60.8750     2.2980    94.6020     3.6450     3.5400     6.6870    25.1870   -11.5550 
   61.0000     2.3260    96.8580     3.8700     4.1200     6.9000    25.1980   -16.0680 
   61.1250     2.3420    99.0550     3.8690     4.4180     6.5590    25.2610   -18.9300 
   61.2500     2.3470   103.7320     3.9120     4.6050     6.0230    25.3300   -20.8430 
   61.3750     2.3430   108.5430     4.0050     4.7420     5.5470    25.3780   -22.2300 
   61.5000     2.3320   107.2700     4.1250     4.8540     5.6860    25.3970   -23.3540 
   61.6250     2.3180    99.5940     4.2450     4.9500     6.2150    25.4000   -24.2650 
   61.7500     2.3060    94.5350     4.3460     5.0300     6.5130    25.4050   -25.0660 
   61.8750     2.2950    93.8920     4.4420     5.1060     6.0880    25.4060   -25.8710 
   62.0000     2.2870    95.0410     4.5800     5.2240     5.8890    25.3890   -26.7220 
   62.1250     2.2830    96.2250     4.8550     5.4800     6.2290    25.3720   -27.5950 
   62.2500     2.2860    96.5170     5.3100     5.9060     6.6810    25.3540   -28.4610 
   62.3750     2.2930    93.9730     5.9530     6.4950     7.0520    25.3120   -29.2910 
   62.5000     2.3030    89.1870     6.6840     7.1550     7.9460    25.2430   -29.9810 
   62.6250     2.3100    85.2750     7.1930     7.6430     8.7500    25.1840   -30.5210 
   62.7500     2.3090    83.7680     7.2370     7.7570     8.5410    25.1610   -30.9080 
   62.8750     2.3040    83.8660     6.8300     7.4500     7.7880    25.1580   -31.1350 
   63.0000     2.2950    85.1450     6.2050     6.8630     7.5480    25.1800   -31.2310 
   63.1250     2.2880    89.3210     5.6520     6.2410     6.8990    25.2610   -31.1920 
   63.2500     2.2840    95.1550     5.3150     5.7860     5.8720    25.3810   -31.1480 
   63.3750     2.2840   100.0110     5.2250     5.5710     5.3430    25.4600   -31.1720 
   63.5000     2.2880   101.2760     5.3540     5.5860     5.4270    25.4670   -31.2540 
   63.6250     2.2940    98.5910     5.6430     5.7800     6.0960    25.4190   -31.3730 
   63.7500     2.2960    95.8140     5.9570     6.0230     6.7050    25.3940   -31.5830 
   63.8750     2.2900    94.3730     6.1970     6.2190     6.9250    25.3950   -31.8580 
   64.0000     2.2770    93.0730     6.2990     6.2910     6.5770    25.4060   -32.1200 
   64.1250     2.2630    90.6570     6.2230     6.1830     6.2290    25.4140   -32.4020 
   64.2500     2.2550    88.7090     5.9960     5.9340     5.8390    25.4080   -32.6200 
   64.3750     2.2530    88.6820     5.6300     5.5740     5.9020    25.3710   -32.7420 
   64.5000     2.2540    89.4800     5.2070     5.1590     6.0730    25.3200   -32.8270 
   64.6250     2.2570    92.6520     4.9580     4.8470     5.5210    25.2880   -32.9330 
   64.7500     2.2750    98.2960     5.0890     4.8360     5.2220    25.2650   -33.1220 
   64.8750     2.3250   100.9360     5.7680     5.3280     5.3690    25.2420   -33.4810 
