~V
VERS. 2.00: Ver 2.00
~W
STRT.M 50.0000:
STOP.M 274.0000:
STEP.M 0.1250:
NULL. -999.2500:
UWI. F10208:
~C
DEPT.M :
SP.MV :
DEN.GM/CC :
GR.API :
RML.OHMM :
RI. :
RXO.OHMM :
CALI.CM :
~A
# ...
   83.7500   -24.4490     2.1050    55.8510     9.8840     8.0380     9.8770    24.1240 
   83.8750   -23.6680     2.0750    57.0190     8.7870     7.1650     7.9470    24.5500 
   84.0000   -22.8630     2.0650    60.7800     7.6500     6.2150     5.8180    24.9830 
   84.1250   -22.1060     2.0790    63.3640     6.7090     5.3710     4.9790    25.8140 
   84.2500   -21.4800     2.1040    63.6180     6.0670     4.7240     4.8310    26.7160 
   84.3750   -21.0150     2.1330    63.4150     5.8190     4.3430     4.9350    27.7730 
   84.5000   -20.7200     2.1710    64.2770     6.0540     4.2950     5.0600    27.9350 
   84.6250   -20.6450     2.2310    65.0040     6.9110     4.6940     5.4170    26.4270 
   84.7500   -20.8180     2.3120    64.3950     8.2550     5.4740     6.8550    25.4880 
   84.8750   -21.2330     2.3990    62.3970     9.8760     6.5410    10.9250    24.7230 
   85.0000   -21.8070     2.4580    58.3350    11.3460     7.6590    20.1220    24.0750 
   85.1250   -22.4980     2.4470    53.0630    11.9380     8.3550    22.6500    23.8660 
   85.2500   -23.2070     2.3730    51.2550    11.5900     8.4400    16.3640    23.9790 
   85.3750   -23.9030     2.2660    53.5630    10.7300     8.0750    11.0350    24.1320 
   85.5000   -24.5290     2.1600    56.4650     9.9460     7.6040     9.3230    24.1540 
   85.6250   -25.0380     2.0910    55.3660     9.6830     7.3490     9.4420    24.0310 
   85.7500   -25.3440     2.0650    52.4820     9.8440     7.3530     9.9140    23.8250 
   85.8750   -25.4200     2.0740    50.0070    10.1750     7.5090    10.6260    23.4960 
   86.0000   -25.2430     2.1010    47.6330    10.3570     7.6250    11.2830    23.1390 
   86.1250   -24.7940     2.1240    45.5300    10.0940     7.4840    11.3510    22.8970 
   86.2500   -24.1470     2.1330    45.8850     9.4720     7.0920    10.5720    22.9040 
   86.3750   -23.3630     2.1300    50.3600     8.7010     6.5570     8.9500    22.9550 
   86.5000   -22.4720     2.1250    57.3450     8.0290     6.0330     7.3120    23.0520 
   86.6250   -21.5460     2.1280    65.0050     7.6880     5.6790     6.6580    23.0980 
   86.7500   -20.6650     2.1390    69.5440     7.6650     5.5230     6.5440    23.1200 
   86.8750   -19.8950     2.1540    69.9760     7.8900     5.5490     6.8970    23.0350 
   87.0000   -19.3290     2.1700    68.9790     8.2290     5.7000     7.7680    22.6990 
   87.1250   -18.9980     2.1830    68.5840     8.5080     5.8870     8.1010    22.7780 
   87.2500   -18.8310     2.1930    67.7790     8.6320     6.0240     7.6320    23.0200 
   87.3750   -18.8070     2.1980    65.3640     8.6200     6.0890     7.3530    23.0540 
   87.5000   -18.9260     2.1990    62.6740     8.5550     6.1110     7.2120    22.9990 
   87.6250   -19.1040     2.1910    61.7150     8.5360     6.1360     7.0610    22.8190 
   87.7500   -19.3040     2.1780    61.2350     8.5920     6.1920     7.0060    22.4720 
   87.8750   -19.4810     2.1630    61.9940     8.7040     6.2720     7.1870    22.1980 
   88.0000   -19.5850     2.1490    65.9120     8.8220     6.3570     7.5700    22.0980 
   88.1250   -19.5880     2.1440    71.0350     8.8730     6.4050     7.7300    22.0710 
   88.2500   -19.5150     2.1500    73.0800     8.8180     6.3960     7.3860    22.1290 
   88.3750   -19.3590     2.1680    72.3050     8.6500     6.3220     6.9730    22.1910 
   88.5000   -19.1390     2.1990    70.5110     8.3870     6.1840     6.9830    22.2520 
   88.6250   -18.8310     2.2360    68.6950     8.0660     5.9910     6.9350    22.3940 
   88.7500   -18.4620     2.2690    67.9440     7.7540     5.7880     6.5850    22.5900 
   88.8750   -18.0790     2.2860    69.4350     7.5000     5.6080     6.2810    22.9230 
   89.0000   -17.7360     2.2840    70.0590     7.3410     5.4830     6.2270    23.2630 
   89.1250   -17.4760     2.2660    70.8130     7.3260     5.4440     6.3910    23.5050 
   89.2500   -17.3450     2.2450    74.9420     7.4260     5.4830     6.6900    23.6020 
   89.3750   -17.3240     2.2310    78.8900     7.5960     5.5800     7.0050    23.5580 
   89.5000   -17.3570     2.2280    77.4410     7.7750     5.6990     7.3540    23.4230 
   89.6250   -17.4490     2.2390    73.7620     7.8900     5.7930     7.3760    23.3360 
   89.7500   -17.5680     2.2540    75.1010     7.9070     5.8260     7.3780    23.3930 
   89.8750   -17.6910     2.2670    79.9450     7.8050     5.7770     7.1610    23.7010 
   90.0000   -17.7970     2.2720    83.6650     7.5750     5.6310     7.0080    24.2100 
   90.1250   -17.8740     2.2650    81.9300     7.2490     5.3960     6.9020    24.5540 
   90.2500   -17.9220     2.2530    78.8450     6.9850     5.1690     6.8290    24.5750 
   90.3750   -17.9780     2.2460    79.8750     6.9660     5.0710     6.7450    24.5420 
   90.5000   -18.0840     2.2510    86.5770     7.3480     5.2170     6.7240    24.5810 
   90.6250   -18.3400     2.2760    89.2720     8.2680     5.7260     7.4790    24.6260 
   90.7500   -18.8100     2.3080    83.0400     9.5270     6.5130    10.2120    24.5150 
   90.8750   -19.4630     2.3290    73.2290    10.7970     7.4130    16.5190    24.2790 
   91.0000   -20.2380     2.3270    65.0020    11.5900     8.1300    19.6560    23.9740 
   91.1250   -21.0930     2.2950    61.2780    11.3880     8.2670    14.9880    23.6290 
   91.2500   -21.9320     2.2490    60.3780    10.5160     7.9010    11.1240    23.2960 
   91.3750   -22.7070     2.1990    61.4090     9.4720     7.2870     9.9500    22.9840 
   91.5000   -23.3810     2.1460    62.5790     8.6680     6.6970     9.7840    22.6220 
   91.6250   -23.9050     2.0900    62.1000     8.3010     6.3260     9.6910    22.7890 
   91.7500   -24.2240     2.0390    61.2170     8.1960     6.1520     9.5470    23.4170 
   91.8750   -24.3640     2.0040    59.4440     8.1970     6.1030     9.3220    23.7750 
   92.0000   -24.3700     1.9990    58.4480     8.2070     6.1130     9.0850    23.9530 
   92.1250   -24.2710     2.0320    58.5340     8.2000     6.1430     8.9710    24.0550 
   92.2500   -24.1380     2.0840    56.8510     8.1990     6.1850     8.8630    24.1010 
   92.3750   -23.9960     2.1320    54.7490     8.2220     6.2420     8.7580    24.0780 
   92.5000   -23.8390     2.1610    55.6070     8.2750     6.3170     8.8600    24.0050 
   92.6250   -23.6220     2.1640    58.7170     8.3500     6.4090     9.1930    23.8720 
   92.7500   -23.3480     2.1610    58.8000     8.4010     6.4840     9.4260    23.7280 
   92.8750   -23.0180     2.1630    56.5280     8.3730     6.5020     9.4720    23.4230 
   93.0000   -22.6060     2.1750    56.1940     8.2060     6.4180     9.4970    23.0830 
   93.1250   -22.0840     2.1930    56.1930     7.8640     6.1920     9.1220    22.9830 
   93.2500   -21.4530     2.2090    55.8490     7.4430     5.8730     8.4530    23.0670 
   93.3750   -20.7430     2.2200    58.7330     7.0630     5.5370     7.4830    23.2680 
   93.5000   -20.0490     2.2270    66.3910     6.8540     5.2740     6.6620    23.4200 
   93.6250   -19.4690     2.2320    73.0310     6.9250     5.1800     6.4900    23.4390 
   93.7500   -18.9840     2.2300    73.8060     7.1910     5.2400     6.5380    23.5860 
   93.8750   -18.5900     2.2210    70.4850     7.5170     5.4030     6.8640    23.7570 
   94.0000   -18.2790     2.2080    66.5220     7.7160     5.5670     7.8460    23.7450 
   94.1250   -18.0640     2.2020    64.3270     7.5880     5.5830     8.6150    23.7050 
   94.2500   -17.9580     2.2070    63.6960     7.2520     5.4440     8.2550    23.9560 
   94.3750   -18.0040     2.2230    65.0630     7.0040     5.2790     7.3260    24.1820 
   94.5000   -18.1450     2.2480    69.1050     7.1790     5.2930     6.8560    24.2910 
   94.6250   -18.3640     2.2810    71.3320     8.0990     5.7310     7.2140    23.9790 
   94.7500   -18.6790     2.3190    68.0300     9.6310     6.6060     9.5810    23.7650 
   94.8750   -19.0980     2.3580    61.1560    11.4730     7.8250    16.1080    23.6580 
