~V
VERS. 2.00: Ver 2.00
~W
STRT.M 57.0000:
STOP.M 259.0000:
STEP.M 0.1250:
NULL. -999.2500:
UWI. F10209:
~C
DEPT.M :
SP.MV :
DEN.GM/CC :
GR.API :
RML.OHMM :
RI. :
RXO.OHMM :
CALI.CM :
~A
# ...
  169.5000   -21.0120     2.2150    60.7530   146.6440   128.5720   147.0960    24.6640 
  169.6250   -21.6590     2.2150    59.5290   151.2600   132.4740   144.8700    24.7010 
  169.7500   -22.2480     2.2140    58.7270   162.3550   141.5030   146.3520    24.7290 
  169.8750   -22.7810     2.2070    59.2890   181.3120   157.2980   138.4880    24.7530 
  170.0000   -23.3160     2.1990    59.5380   205.2720   177.5700   136.4320    24.7690 
  170.1250   -23.8700     2.1910    58.0980   231.0720   199.7630   135.7320    24.7830 
  170.2500   -24.4210     2.1850    56.1250   254.8520   220.7730   140.8110    24.7900 
  170.3750   -24.8940     2.1800    58.7680   272.0300   236.7820   156.2060    24.7920 
  170.5000   -25.3000     2.1760    64.8460   281.4050   246.4110   164.8600    24.7980 
  170.6250   -25.6740     2.1740    68.7840   282.8640   249.1860   172.3500    24.8030 
  170.7500   -26.0140     2.1750    67.7510   278.1990   246.3000   169.8400    24.7840 
  170.8750   -26.3770     2.1790    65.3490   269.6100   239.5500   151.2820    24.7880 
  171.0000   -26.7130     2.1850    64.6090   259.7240   231.4490   129.9360    24.7900 
  171.1250   -27.0160     2.1900    64.5850   250.1710   223.4730   134.8920    24.7900 
  171.2500   -27.2590     2.1920    63.4470   242.7280   217.2120   146.0500    24.7880 
  171.3750   -27.3930     2.1920    60.9930   239.3830   214.5780   129.5510    24.7910 
  171.5000   -27.4540     2.1880    59.2070   239.4870   215.2440   122.1560    24.7910 
  171.6250   -27.4510     2.1840    59.0700   241.2660   217.8800   127.0350    24.7910 
  171.7500   -27.4670     2.1780    60.4780   241.4650   219.7870   145.9490    24.7930 
  171.8750   -27.5120     2.1750    60.9940   235.3930   216.7770   162.5690    24.7900 
  172.0000   -27.5280     2.1750    60.6140   223.0910   208.1580   163.9700    24.7950 
  172.1250   -27.4050     2.1800    60.2470   207.1360   195.5580   150.2010    24.8110 
  172.2500   -27.1250     2.1890    60.4030   191.2720   182.0470   130.3770    24.7840 
  172.3750   -26.7750     2.2020    60.5840   179.2920   171.2190   118.1520    24.6990 
  172.5000   -26.5020     2.2150    62.2150   171.8390   164.3310   112.4410    24.6490 
  172.6250   -26.3570     2.2220    65.9410   168.1590   161.0560   119.2230    24.6830 
  172.7500   -26.3010     2.2190    69.2070   166.4190   159.8090   128.2080    24.7080 
  172.8750   -26.1940     2.2060    67.8380   164.4670   158.4820   124.9130    24.6440 
  173.0000   -26.0410     2.1930    66.2350   161.3920   155.9660   119.0060    24.4910 
  173.1250   -25.8660     2.1910    69.8570   157.6950   152.5310   111.6030    24.3470 
  173.2500   -25.7940     2.2020    75.7750   154.5900   149.2400   100.7750    24.2920 
  173.3750   -25.8990     2.2200    74.9440   153.6500   147.6620    93.9720    24.2940 
  173.5000   -26.0260     2.2300    69.8180   155.0130   148.2220    95.3440    24.3540 
  173.6250   -26.1210     2.2240    67.3840   158.5440   150.9650   103.2560    24.5060 
  173.7500   -26.1420     2.2030    69.6700   164.3470   156.0730   112.7120    24.6560 
  173.8750   -26.1650     2.1780    71.6750   174.0180   165.1320   122.0700    24.6510 
  174.0000   -26.1850     2.1590    70.5760   189.0560   179.5800   137.2300    24.4450 
  174.1250   -26.2280     2.1480    67.8730   211.8640   201.9010   191.9620    24.1450 
  174.2500   -26.3190     2.1430    64.6610   268.5350   234.0650   219.8850    23.9760 
  174.3750   -26.4260     2.1410    60.9710   311.8380   274.9150   337.1030    24.0800 
  174.5000   -26.5140     2.1420    58.2980   346.7350   311.6820   415.2070    24.2860 
  174.6250   -26.5160     2.1420    57.3690   354.1500   328.1370   425.8610    24.5650 
  174.7500   -26.3860     2.1420    57.7560   327.4190   314.5650   387.1450    24.8820 
  174.8750   -26.1560     2.1390    59.0640   279.3730   275.8020   292.8770    24.9760 
  175.0000   -26.0080     2.1410    60.7220   231.2480   231.9070   187.6880    24.9180 
  175.1250   -26.0110     2.1510    60.6200   189.5070   191.6500   136.4710    24.7880 
  175.2500   -26.0200     2.1680    58.7110   155.0040   157.5900   122.1050    24.6990 
  175.3750   -25.8520     2.1850    57.7500   128.4710   130.8840   114.6080    24.6560 
  175.5000   -25.5650     2.1950    58.5440   108.7900   110.6540    96.8700    24.6000 
  175.6250   -25.2370     2.1970    59.9230    96.0520    97.1440    73.2930    24.4900 
  175.7500   -24.9890     2.1950    61.6320    90.1560    90.3410    57.5750    24.3440 
  175.8750   -24.8710     2.1910    64.4470    91.8270    91.0150    54.9380    24.2580 
  176.0000   -24.8080     2.1870    65.4360    99.2490    97.4550    59.3370    24.1940 
  176.1250   -24.7410     2.1820    63.1710   111.1030   108.4600    70.1350    24.1250 
  176.2500   -24.6530     2.1750    60.8120   125.2460   121.9710    76.5690    24.0500 
  176.3750   -24.6270     2.1700    62.9880   138.8910   135.2390    78.2850    24.1670 
  176.5000   -24.6770     2.1750    66.6330   150.6480   146.6870    77.3780    24.3160 
  176.6250   -24.8240     2.1920    67.2310   161.2120   156.7500    67.4440    24.3990 
  176.7500   -25.0370     2.2190    66.0670   172.1670   166.8920    77.9110    24.4240 
  176.8750   -25.3040     2.2440    65.2550   184.0220   177.7880   112.3650    24.4730 
  177.0000   -25.5590     2.2540    63.6860   194.1930   187.2600   155.9020    24.4450 
  177.1250   -25.8090     2.2470    61.0430   199.0470   191.9860   164.5210    24.3660 
  177.2500   -26.0630     2.2260    60.5520   196.0920   189.5290   156.1760    24.2880 
  177.3750   -26.2580     2.2050    63.0900   185.2610   179.3980   144.2920    24.2290 
  177.5000   -26.4470     2.1910    65.2780   172.3220   166.6750   124.1930    24.1610 
  177.6250   -26.6320     2.1900    65.6900   162.0520   155.8790   107.1570    24.1100 
  177.7500   -26.8010     2.1980    64.2190   157.5360   150.2150    98.8440    24.1400 
  177.8750   -26.9030     2.2110    63.4530   160.3160   151.4860    94.9200    24.1820 
  178.0000   -26.8810     2.2220    64.0530   166.7790   156.5800    99.1560    24.2070 
  178.1250   -26.7070     2.2250    63.9920   171.8800   161.0900   127.0310    24.2810 
  178.2500   -26.4530     2.2180    63.5090   169.4290   159.4910   185.0080    24.4230 
  178.3750   -26.2730     2.2050    66.1810   154.6840   147.0500   179.9140    24.4890 
  178.5000   -26.1390     2.1960    70.2870   134.0290   128.5930   127.0440    24.4550 
  178.6250   -26.0090     2.2000    70.0790   114.5380   110.2040    87.3690    24.3330 
  178.7500   -25.8430     2.2180    66.0540   101.1870    96.6790    67.4880    24.2840 
  178.8750   -25.5680     2.2430    62.9380    97.5640    91.6930    57.7290    24.2900 
  179.0000   -25.3300     2.2630    61.4150   102.7790    94.7930    64.2660    24.3560 
  179.1250   -25.2250     2.2710    61.0050   116.8250   106.1390    89.7940    24.4820 
  179.2500   -25.3000     2.2660    61.2000   139.3150   125.4170   130.8720    24.6160 
  179.3750   -25.4970     2.2510    60.8720   169.4360   151.7420   166.8760    24.7120 
  179.5000   -25.6660     2.2330    59.4270   201.7440   179.9490   186.0840    24.7730 
  179.6250   -25.7760     2.2140    58.7060   230.7740   205.1070   200.9290    24.8050 
  179.7500   -25.8370     2.1960    60.6980   251.8800   223.1740   220.0890    24.8930 
  179.8750   -25.9030     2.1820    63.5690   261.6770   231.1970   243.5850    24.9040 
  180.0000   -25.9930     2.1730    64.0100   262.6390   231.4290   236.7670    24.8580 
  180.1250   -26.0920     2.1680    61.3440   255.9200   225.0080   203.0920    24.7570 
  180.2500   -26.1180     2.1680    58.9920   242.8540   213.1780   165.4590    24.7040 
  180.3750   -26.0120     2.1710    59.7810   225.2270   197.4830   158.0240    24.7570 
  180.5000   -25.8920     2.1790    62.1840   206.7990   181.1270   155.5390    24.8610 
  180.6250   -25.7990     2.1910    64.4640   190.0040   166.2340   147.6170    24.9530 
