~V
VERS. 2.00: Ver 2.00
~W
STRT.M 56.0000:
STOP.M 281.0000:
STEP.M 0.1250:
NULL. -999.2500:
UWI. F10232:
~C
DEPT.M :
SP.MV :
GR.API :
RML.OHMM :
RI. :
RXO.OHMM :
CALI.CM :
DEN.GM/CC :
~A
# ...
  168.5000   -15.5690    53.5590   120.9990   121.7210   115.0160    24.4530     2.2350 
  168.6250   -15.8180    51.9030   117.3120   119.1840   118.3410    24.4760     2.2350 
  168.7500   -16.0760    51.3500   108.4170   111.2790   114.7580    24.4700     2.2340 
  168.8750   -16.3330    52.6990    96.2780    99.4320   106.9360    24.3810     2.2370 
  169.0000   -16.5530    54.8840    84.9870    87.6520    94.3600    24.2020     2.2450 
  169.1250   -16.7460    56.0910    77.3080    78.8550    77.0070    23.9770     2.2570 
  169.2500   -16.9190    56.4140    74.9960    75.0430    57.1940    23.7970     2.2680 
  169.3750   -17.0700    55.7800    80.0190    78.3660    42.0360    23.7350     2.2700 
  169.5000   -17.1660    54.9720    91.4370    88.0440    36.5870    23.7650     2.2620 
  169.6250   -17.1960    53.4760   108.5480   103.4380    37.8590    23.8390     2.2440 
  169.7500   -17.1810    51.8880   129.6790   122.8780    40.0050    23.9100     2.2190 
  169.8750   -17.1440    51.7210   151.8840   143.3530    41.5760    23.9580     2.1890 
  170.0000   -17.1070    50.7340   171.5930   161.2260    43.3030    24.0250     2.1600 
  170.1250   -17.0820    47.9140   186.9850   174.6670    50.6650    24.1460     2.1370 
  170.2500   -17.0660    45.1210   198.4900   184.0410    68.4170    24.3120     2.1250 
  170.3750   -17.0340    44.1540   208.1980   191.2240    91.4800    24.4880     2.1280 
  170.5000   -17.0210    43.8320   217.8370   198.0390   114.9310    24.6300     2.1380 
  170.6250   -17.0450    43.2120   226.8540   204.2610   137.9430    24.7190     2.1500 
  170.7500   -17.0990    42.4940   233.6360   208.7530   151.5840    24.7470     2.1600 
  170.8750   -17.1750    43.3130   235.7470   209.7210   153.3080    24.6870     2.1680 
  171.0000   -17.2610    46.3930   233.4140   207.3650   152.4290    24.5460     2.1770 
  171.1250   -17.3410    50.8320   227.6970   202.4930   148.1310    24.3230     2.1880 
  171.2500   -17.4040    54.7810   220.2510   196.3950   138.2090    24.0300     2.2000 
  171.3750   -17.4700    55.3580   212.8110   190.5130   126.7330    23.7380     2.2100 
  171.5000   -17.5390    52.1920   206.7590   186.0240   121.9330    23.4570     2.2200 
  171.6250   -17.6000    48.2650   202.8360   183.6780   121.6580    23.2190     2.2260 
  171.7500   -17.6390    47.8200   201.0910   183.6250   118.4380    23.0480     2.2280 
  171.8750   -17.6220    51.2730   200.7280   185.3440   115.7400    22.8400     2.2230 
  172.0000   -17.5510    52.3280   199.3950   186.7650   114.8750    22.5930     2.2170 
  172.1250   -17.4330    49.3960   194.3810   185.4210   119.4380    22.3450     2.2120 
  172.2500   -17.2630    44.1680   183.1300   178.6660   127.2410    22.1860     2.2120 
  172.3750   -17.0140    41.9540   163.7620   163.8530   125.5820    22.1790     2.2170 
  172.5000   -16.6900    44.7800   140.1610   143.6530   118.4260    22.2390     2.2280 
  172.6250   -16.3080    49.6670   116.6290   121.7040   112.5140    22.3000     2.2400 
  172.7500   -15.8870    53.3460    96.8030   101.9000   102.6770    22.3510     2.2540 
  172.8750   -15.4420    55.0820    83.2690    87.6140    83.1300    22.3950     2.2650 
  173.0000   -15.0180    54.2270    74.8350    78.3950    62.8120    22.4100     2.2730 
  173.1250   -14.6170    51.1410    70.5550    73.4330    49.9690    22.3690     2.2790 
  173.2500   -14.2440    49.7850    69.4910    71.7600    43.0670    22.2870     2.2820 
  173.3750   -13.9310    53.2670    71.2510    72.9170    37.9640    22.1910     2.2830 
  173.5000   -13.6990    54.6590    74.9740    75.9590    35.0600    22.1090     2.2820 
  173.6250   -13.5370    51.5930    80.5590    80.6920    35.0270    22.0590     2.2800 
  173.7500   -13.4210    49.3550    88.0980    87.1140    36.7390    22.0750     2.2740 
  173.8750   -13.3390    51.8050    97.9660    95.4780    38.6570    22.2440     2.2670 
  174.0000   -13.2630    54.1830   109.5090   105.1810    41.0410    22.5720     2.2580 
  174.1250   -13.2020    53.1630   122.0270   115.5940    45.2190    23.0100     2.2500 
  174.2500   -13.1640    50.5850   134.5910   125.9240    51.8040    23.5020     2.2430 
  174.3750   -13.1390    50.4300   146.2650   135.4250    62.5700    23.9100     2.2410 
  174.5000   -13.0720    51.7270   157.3610   144.5270    75.6240    24.1680     2.2410 
  174.6250   -12.9800    51.3130   169.2750   154.6110    88.5770    24.2570     2.2420 
  174.7500   -12.8950    48.6490   184.0700   167.6610    96.2960    24.2620     2.2410 
  174.8750   -12.8290    47.0220   203.8780   185.9820   100.7400    24.2690     2.2380 
  175.0000   -12.7750    47.7320   225.7650   207.4410   106.8500    24.2730     2.2330 
  175.1250   -12.7210    49.2380   243.0460   226.4980   113.2750    24.2340     2.2270 
  175.2500   -12.6580    51.3400   246.4410   234.4710   117.7920    24.1580     2.2190 
  175.3750   -12.6040    52.6160   223.4520   218.8370   120.9870    24.0820     2.2090 
  175.5000   -12.5890    50.9210   178.3730   180.8860   115.9310    24.0260     2.1980 
  175.6250   -12.5930    48.6290   124.6710   130.2230    99.7920    23.9980     2.1940 
  175.7500   -12.5960    51.7330    79.2150    83.4230    76.8940    23.9690     2.2050 
  175.8750   -12.6040    60.3500    52.1000    54.1780    58.2730    23.8650     2.2370 
  176.0000   -12.6200    66.7290    38.2350    39.0010    38.2540    23.7170     2.2790 
  176.1250   -12.6460    68.0330    33.9620    33.6780    21.9950    23.6410     2.3160 
  176.2500   -12.7000    67.4280    36.8000    35.3030    12.5930    23.6920     2.3340 
  176.3750   -12.7650    65.8880    45.7700    43.2290    14.9710    23.8580     2.3240 
  176.5000   -12.8130    62.9260    57.8730    55.1770    22.9330    23.9510     2.3050 
  176.6250   -12.8640    60.2580    70.3770    68.8420    35.1680    23.8600     2.2890 
  176.7500   -12.9200    60.2560    80.0240    80.7580    50.3180    23.5900     2.2850 
  176.8750   -12.9790    60.8000    82.8940    85.8560    60.5540    23.2660     2.2910 
  177.0000   -13.0440    60.2900    79.7460    83.7410    64.2400    22.9830     2.3010 
  177.1250   -13.1080    58.8450    73.1800    76.9910    63.3390    22.6860     2.3070 
  177.2500   -13.1610    57.1890    66.3310    69.3030    57.7800    22.3470     2.3050 
  177.3750   -13.2150    55.3600    61.4920    63.3950    53.7280    22.0720     2.2960 
  177.5000   -13.2920    53.2670    58.9240    59.7140    47.5850    21.9360     2.2860 
  177.6250   -13.3760    52.6570    58.5870    58.2370    44.5530    21.8870     2.2790 
  177.7500   -13.4620    52.9680    60.2540    58.7860    44.9720    21.8620     2.2790 
  177.8750   -13.5540    53.2020    63.6870    61.2710    44.3860    21.8330     2.2820 
  178.0000   -13.6460    54.0820    67.9250    64.8480    44.8890    21.8300     2.2870 
  178.1250   -13.7350    55.1030    72.1960    68.8230    47.9130    21.9000     2.2920 
  178.2500   -13.8170    54.9840    75.6300    72.3320    53.3570    22.0880     2.2950 
  178.3750   -13.8800    54.2340    76.9200    74.0340    60.1570    22.3830     2.2950 
  178.5000   -13.9250    55.8700    75.6570    73.3140    65.3030    22.7020     2.2930 
  178.6250   -13.9730    58.2000    71.8510    70.0070    65.4960    23.0650     2.2890 
  178.7500   -14.0270    57.6690    66.4070    64.8470    61.6610    23.4900     2.2850 
  178.8750   -14.0830    57.8300    61.3680    59.6770    56.3560    23.8980     2.2820 
  179.0000   -14.1540    60.7820    58.8160    56.5210    51.6590    24.1940     2.2790 
  179.1250   -14.2390    62.9570    60.1000    56.6740    48.5370    24.2900     2.2750 
  179.2500   -14.3320    61.7740    65.8790    60.8620    50.2470    24.2260     2.2680 
  179.3750   -14.4280    58.9800    76.5350    69.7350    56.0590    24.0260     2.2610 
  179.5000   -14.5230    58.2320    89.8290    81.4710    70.5800    23.7660     2.2570 
  179.6250   -14.6030    59.1510   103.4900    94.0580    87.0290    23.5190     2.2570 
