~V
VERS. 2.00: Ver 2.00
~W
STRT.M 53.0000:
STOP.M 276.0000:
STEP.M 0.1250:
NULL. -999.2500:
UWI. F10245:
~C
DEPT.M :
GR.API :
RML.OHMM :
RI. :
RXO.OHMM :
CALI.CM :
DEN.GM/CC :
SP.MV :
~A
# ...
  165.5000    52.4130   176.3510   166.8830    99.5070    24.8180     2.2060   -20.0800 
  165.6250    55.4890   181.1470   171.9880    97.6820    24.6720     2.2100   -19.9510 
  165.7500    55.8400   185.3500   176.8040   100.6610    24.6760     2.2130   -19.8310 
  165.8750    54.4680   186.8120   179.3310   106.3540    24.8210     2.2130   -19.7250 
  166.0000    53.2180   184.0910   178.0500   114.0500    25.0120     2.2110   -19.6490 
  166.1250    52.8660   176.8620   172.2320   111.1470    25.0730     2.2130   -19.6040 
  166.2500    52.2400   167.9420   164.2030   100.9530    25.0110     2.2170   -19.5710 
  166.3750    52.4810   159.7560   156.1980    89.6100    24.8700     2.2240   -19.5520 
  166.5000    54.0390   154.0870   150.1470    81.8110    24.6910     2.2310   -19.5290 
  166.6250    56.0630   152.1750   147.5930    77.6720    24.6190     2.2330   -19.5210 
  166.7500    57.7570   153.1370   147.9350    79.2130    24.6880     2.2330   -19.5150 
  166.8750    56.2540   156.1870   150.4810    82.2280    24.8420     2.2320   -19.5230 
  167.0000    51.9310   160.3770   154.3300    86.8040    24.9920     2.2350   -19.5130 
  167.1250    50.3050   164.5900   158.4380    92.8650    25.0530     2.2390   -19.4590 
  167.2500    53.3440   167.8430   161.8220    97.6500    25.0660     2.2400   -19.3950 
  167.3750    57.4480   169.5350   163.8950    95.8710    25.1490     2.2340   -19.3000 
  167.5000    59.4430   169.3460   164.3300    89.3060    25.3410     2.2210   -19.1920 
  167.6250    60.2300   166.9930   162.8300    80.7900    25.5670     2.2060   -19.0680 
  167.7500    59.5030   163.0450   159.8840    72.9710    25.6080     2.1960   -18.9280 
  167.8750    57.8560   157.6540   155.6170    65.4040    25.5530     2.1890   -18.7610 
  168.0000    57.4060   150.8240   149.9690    58.7850    25.3620     2.1820   -18.5480 
  168.1250    59.9870   142.5360   142.7330    64.4050    24.8080     2.1740   -18.3330 
  168.2500    62.1480   133.6930   134.6080    66.4700    24.0290     2.1700   -18.1180 
  168.3750    62.8210   125.3100   126.4660    60.3890    23.4880     2.1730   -17.9180 
  168.5000    64.5030   118.4860   119.3780    55.1120    23.1970     2.1830   -17.6890 
  168.6250    65.5800   114.5380   114.6980    52.2790    23.0830     2.1970   -17.4820 
  168.7500    61.6960   113.3530   112.5330    54.4230    23.1440     2.2060   -17.2810 
  168.8750    56.6850   114.6890   112.7590    58.3460    23.4980     2.2080   -17.0850 
  169.0000    57.0230   118.0050   114.9390    64.4610    24.1470     2.2030   -16.8980 
  169.1250    60.9880   122.6810   118.5750    76.1970    24.8900     2.1970   -16.7250 
  169.2500    60.6600   127.7230   122.7340    87.6530    25.3640     2.1930   -16.5450 
  169.3750    57.4040   132.5950   126.9140    93.9290    25.5160     2.1910   -16.3840 
  169.5000    55.7620   136.8790   130.7140    99.3420    25.5040     2.1880   -16.2350 
  169.6250    55.6710   139.9440   133.5640    96.6210    25.5050     2.1800   -16.0800 
  169.7500    56.0160   141.5320   135.1860    96.0520    25.5700     2.1690   -15.9160 
  169.8750    57.4540   141.4440   135.3720    97.1040    25.5930     2.1620   -15.7430 
  170.0000    58.4300   139.7850   134.1850    94.4780    25.4540     2.1640   -15.5910 
  170.1250    57.3640   136.7630   131.7810    83.2060    25.1550     2.1750   -15.4460 
  170.2500    56.6880   132.9040   128.6160    81.2250    24.8970     2.1900   -15.2710 
  170.3750    58.5470   128.1790   124.6590    89.4810    24.7700     2.1990   -15.0870 
  170.5000    61.9740   122.3840   119.7120    99.7000    24.7200     2.2030   -14.9340 
  170.6250    62.2760   115.3340   113.5660   101.9680    24.6120     2.2030   -14.8210 
  170.7500    59.9070   107.7190   106.8120    95.9890    24.5240     2.2040   -14.7270 
  170.8750    58.6970   100.4070   100.2190    82.8520    24.4790     2.2050   -14.6560 
  171.0000    61.8340    94.3100    94.6410    71.1400    24.4830     2.2040   -14.6060 
  171.1250    67.0450    90.3050    90.9700    68.6380    24.6160     2.1960   -14.5640 
  171.2500    67.9950    87.9870    88.9250    69.5280    24.7460     2.1850   -14.5890 
  171.3750    64.4540    86.7690    88.0080    72.6320    24.8090     2.1730   -14.6560 
  171.5000    59.6990    85.8860    87.4930    75.6340    24.9030     2.1660   -14.7490 
  171.6250    58.1160    84.5040    86.5260    75.4230    24.9840     2.1660   -14.8340 
  171.7500    59.2020    82.2740    84.6820    74.0410    24.8590     2.1750   -14.9240 
  171.8750    60.8720    79.3480    81.8810    71.8810    24.4470     2.1900   -15.0010 
  172.0000    63.1140    75.9880    78.3060    68.8450    24.0580     2.2090   -15.0570 
  172.1250    66.3580    72.5490    74.3170    65.2570    23.9120     2.2280   -15.1180 
  172.2500    66.8740    69.7080    70.5140    61.8920    23.9180     2.2410   -15.1710 
  172.3750    63.9990    67.3580    67.4120    59.5900    23.9580     2.2500   -15.1870 
  172.5000    61.7700    65.1650    65.4880    58.2040    24.0120     2.2550   -15.2060 
  172.6250    63.9310    65.2750    65.4040    57.0670    24.0040     2.2550   -15.2310 
  172.7500    66.7940    66.9780    67.0800    56.4980    23.9220     2.2500   -15.2800 
  172.8750    67.4000    70.4520    70.4650    58.3060    23.8800     2.2390   -15.3800 
  173.0000    65.9160    75.9100    75.3030    61.4600    24.0160     2.2220   -15.5370 
  173.1250    63.2030    82.4570    81.1930    63.6880    24.2960     2.2040   -15.7120 
  173.2500    61.0250    89.0110    87.1990    67.0490    24.4900     2.1900   -15.8960 
  173.3750    60.6550    94.7520    92.5280    72.1880    24.4630     2.1830   -16.1210 
  173.5000    60.2480    98.9910    96.4950    75.8860    24.2500     2.1800   -16.3760 
  173.6250    59.4050   101.1290    98.4840    77.6470    24.1040     2.1810   -16.6300 
  173.7500    60.2730   101.8100    99.0600    79.7780    24.1510     2.1860   -16.8530 
  173.8750    62.2940   101.8670    98.9670    79.7950    24.4320     2.1950   -17.0350 
  174.0000    63.4460   102.4060    99.2370    78.4330    24.7650     2.2070   -17.1600 
  174.1250    63.8210   104.8290   101.2400    76.9100    24.8690     2.2130   -17.2490 
  174.2500    63.1250   109.4070   105.3460    82.6250    24.8700     2.2100   -17.3220 
  174.3750    60.8950   115.8650   111.4020    89.1460    24.8600     2.1960   -17.3640 
  174.5000    57.5670   123.1410   118.5180    93.2700    24.8220     2.1800   -17.3570 
  174.6250    55.8780   128.8220   124.5720    95.9120    24.7380     2.1700   -17.3390 
  174.7500    56.5320   130.5310   127.2220    97.6800    24.6860     2.1710   -17.3160 
  174.8750    58.3270   126.6550   124.7250    98.5960    24.7330     2.1800   -17.2960 
  175.0000    59.5330   117.2440   116.7530   101.6240    24.7980     2.1960   -17.2620 
  175.1250    59.4390   104.4550   104.7730   100.7720    24.7780     2.2150   -17.2330 
  175.2500    58.8650    92.8480    93.0650    93.4880    24.6500     2.2340   -17.1810 
  175.3750    59.1710    85.6110    84.9120    74.9590    24.4080     2.2480   -17.1190 
  175.5000    60.3360    84.8540    82.7330    55.4040    24.2120     2.2550   -17.0570 
  175.6250    61.1930    93.2640    89.5070    48.7360    24.1690     2.2500   -17.0020 
  175.7500    60.8740   110.3020   104.9280    54.2610    24.1780     2.2390   -16.9510 
  175.8750    57.8890   135.6800   128.7880    66.8540    24.0950     2.2290   -16.9040 
  176.0000    54.9190   167.1520   158.8600    89.1620    23.9240     2.2260   -16.8760 
  176.1250    55.8530   198.8520   189.3300   118.4980    23.7030     2.2290   -16.8860 
  176.2500    57.1200   222.6580   212.2310   147.4860    23.4830     2.2340   -16.9140 
  176.3750    54.4540   232.5720   221.9380   159.5150    23.3550     2.2380   -16.9460 
  176.5000    49.0660   227.3960   217.2820   147.2410    23.2730     2.2380   -16.9580 
  176.6250    48.0380   212.0810   202.1510   124.0920    23.2110     2.2320   -16.9550 
