~V
VERS. 2.00: Ver 2.00
~W
STRT.M 49.0000:
STOP.M 279.0000:
STEP.M 0.1250:
NULL. -999.2500:
UWI. F10243:
~C
DEPT.M :
GR.API :
RML.OHMM :
RI. :
RXO.OHMM :
CALI.CM :
DEN.GM/CC :
SP.MV :
~A
# ...
  172.7500    63.4230   128.9140   121.2070   130.6700    26.0480     2.2440   -18.2140 
  172.8750    63.2630   128.7840   121.0930   122.1160    26.0380     2.2520   -18.4260 
  173.0000    64.6710   128.4260   121.0100   120.9230    26.0620     2.2580   -18.6050 
  173.1250    65.1130   127.0320   120.1370   131.0300    26.1450     2.2590   -18.6900 
  173.2500    65.3300   124.0180   117.8570   149.8780    26.2680     2.2530   -18.7280 
  173.3750    66.5370   119.4570   114.2040   162.6860    26.3830     2.2420   -18.7970 
  173.5000    66.5250   114.1070   109.9970   141.5140    26.4940     2.2270   -18.9590 
  173.6250    63.9660   109.0010   106.2940   121.8660    26.5280     2.2170   -19.1240 
  173.7500    62.1490   104.3360   103.2470   121.2520    26.4710     2.2130   -19.2420 
  173.8750    64.4390    99.6720   100.2610   149.2840    26.3230     2.2170   -19.3120 
  174.0000    67.2000    94.0830    96.2060   152.1550    26.1330     2.2280   -19.3410 
  174.1250    70.0450    87.2330    90.6300   128.5440    25.9250     2.2390   -19.3380 
  174.2500    73.9230    79.2800    83.5820    90.5320    25.6890     2.2490   -19.2540 
  174.3750    76.2760    70.8410    75.5640    60.6020    25.4600     2.2610   -19.0420 
  174.5000    75.8370    62.9050    67.4420    53.3660    25.2540     2.2790   -18.7400 
  174.6250    75.6420    56.1440    60.1270    55.7590    25.1170     2.3030   -18.4230 
  174.7500    75.3400    50.8940    54.1910    53.6860    25.0780     2.3270   -18.1240 
  174.8750    72.5790    47.2650    49.9380    41.2640    25.0930     2.3430   -17.9040 
  175.0000    71.4040    45.5130    47.7820    37.6860    25.1300     2.3420   -17.7280 
  175.1250    75.3710    45.2860    47.3790    40.6330    25.1790     2.3310   -17.5490 
  175.2500    78.8910    46.3970    48.4880    45.6770    25.2090     2.3160   -17.4220 
  175.3750    76.7370    48.4960    50.6550    44.5350    25.1690     2.3060   -17.3760 
  175.5000    71.9610    51.1100    53.3200    44.6570    25.1380     2.3020   -17.4330 
  175.6250    70.5620    53.7320    55.9280    48.9320    25.1440     2.2980   -17.5740 
  175.7500    72.1450    56.3620    58.4610    52.1880    25.1630     2.2920   -17.6970 
  175.8750    73.3960    59.4400    61.4290    46.8500    25.1740     2.2840   -17.6970 
  176.0000    72.2160    64.0080    66.0170    47.1210    25.1740     2.2820   -17.6210 
  176.1250    69.6660    70.6050    72.6980    54.3710    25.1460     2.2860   -17.5740 
  176.2500    66.2290    79.4270    81.4430    66.5400    25.0840     2.2950   -17.5460 
  176.3750    63.8160    89.7340    91.3960    83.0560    25.0260     2.3010   -17.4700 
  176.5000    62.4660    98.7000   100.0300   107.5160    25.0040     2.2920   -17.3340 
  176.6250    61.8070   102.9580   104.2210   121.5190    25.0690     2.2720   -17.2100 
  176.7500    62.9870   100.8460   102.0920   107.7410    25.2220     2.2500   -17.1800 
  176.8750    64.7860    93.5160    94.4710    93.1010    25.3590     2.2350   -17.2130 
  177.0000    65.2310    84.4330    84.6200    87.8310    25.3580     2.2360   -17.2250 
  177.1250    65.5790    77.2670    76.5140    90.0470    25.2400     2.2450   -17.2160 
  177.2500    66.8140    73.5320    72.0880    89.3590    25.1190     2.2550   -17.1780 
  177.3750    67.7700    73.7390    72.1320    78.1410    25.1410     2.2590   -17.1120 
  177.5000    67.2460    78.5990    77.2150    69.7590    25.2390     2.2550   -16.9630 
  177.6250    67.4360    87.0790    85.6670    79.9470    25.2990     2.2480   -16.7790 
  177.7500    69.1110    98.1800    95.9850   101.0990    25.3290     2.2420   -16.5720 
  177.8750    69.9070   110.2080   106.2260   115.6420    25.3300     2.2380   -16.3260 
  178.0000    68.8220   121.1410   114.5880   113.3820    25.3120     2.2360   -16.1350 
  178.1250    66.1830   130.7740   121.7930   115.3280    25.3080     2.2350   -16.0500 
  178.2500    63.8540   140.4890   129.6590   130.8680    25.3250     2.2320   -16.0030 
  178.3750    63.6730   152.2210   139.9360   142.8170    25.3480     2.2280   -15.9680 
  178.5000    63.6130   167.4640   153.6670   146.2650    25.4240     2.2220   -16.0290 
  178.6250    60.6920   184.3130   168.7960   164.4110    25.5050     2.2160   -16.1690 
  178.7500    56.3510   199.7630   182.4030   184.4040    25.5670     2.2120   -16.3840 
  178.8750    53.9660   210.7680   191.7230   197.0460    25.6140     2.2130   -16.6660 
  179.0000    55.5430   214.8950   195.0450   217.1510    25.6400     2.2160   -16.9110 
  179.1250    58.8550   213.4390   194.6360   216.3550    25.6230     2.2200   -17.0740 
  179.2500    61.7240   205.6870   191.2640   206.2780    25.5570     2.2220   -17.1860 
  179.3750    62.6330   188.9300   183.1480   203.8810    25.4730     2.2200   -17.3200 
  179.5000    61.2390   160.0790   164.6340   202.0880    25.4410     2.2170   -17.4550 
  179.6250    60.7040   125.7880   136.7270   186.3950    25.4370     2.2200   -17.4960 
  179.7500    62.5890    93.9280   105.5460   139.3510    25.4140     2.2350   -17.4610 
  179.8750    65.9460    70.0630    78.5680    80.0680    25.3750     2.2590   -17.4580 
  180.0000    70.0640    56.2230    61.0590    41.7570    25.3580     2.2830   -17.5430 
  180.1250    73.4260    48.6140    51.1330    30.4590    25.3450     2.2970   -17.5990 
  180.2500    73.2300    45.2590    46.8660    33.8550    25.3460     2.2970   -17.6040 
  180.3750    69.7270    44.8130    46.4030    55.2830    25.3540     2.2890   -17.5460 
  180.5000    67.2280    46.4510    48.3880    60.5470    25.3580     2.2810   -17.4560 
  180.6250    68.3530    48.9510    51.1190    44.1580    25.3590     2.2770   -17.3700 
  180.7500    70.5040    51.8260    53.9330    34.1270    25.3600     2.2750   -17.2030 
  180.8750    71.1620    55.0920    56.9460    33.6840    25.3690     2.2710   -16.9550 
  181.0000    70.7500    59.4910    61.1260    40.6120    25.3980     2.2610   -16.6640 
  181.1250    69.7660    65.3870    66.7630    44.2780    25.4460     2.2500   -16.3860 
  181.2500    68.9750    72.4750    73.2660    43.3780    25.4800     2.2410   -16.1460 
  181.3750    69.3760    79.5100    79.1440    58.0740    25.4830     2.2370   -15.9740 
  181.5000    69.9410    84.4220    82.3130    77.0410    25.4320     2.2400   -15.8720 
  181.6250    69.9290    86.8140    82.8960    68.9210    25.3460     2.2480   -15.7760 
  181.7500    69.4350    87.5370    82.2190    47.0520    25.2860     2.2560   -15.7130 
  181.8750    70.1310    88.3710    82.1040    40.3910    25.2520     2.2610   -15.7100 
  182.0000    71.5110    90.7860    84.2770    45.5440    25.2310     2.2580   -15.8090 
  182.1250    71.3700    93.9230    88.6490    55.3130    25.2260     2.2510   -15.9770 
  182.2500    69.1980    97.0530    94.2990    61.8340    25.2260     2.2420   -16.1830 
  182.3750    68.3310    99.8950    99.3960    61.8670    25.2280     2.2330   -16.3330 
  182.5000    70.8750   101.2820   101.2480    60.0430    25.2350     2.2270   -16.3180 
  182.6250    74.3450    99.8660    99.3460    58.5490    25.2630     2.2270   -16.2670 
  182.7500    76.2050    95.4680    94.4270    60.3060    25.3250     2.2320   -16.2950 
  182.8750    76.1660    89.6220    88.0450    60.4750    25.3860     2.2420   -16.3640 
  183.0000    74.6090    84.1140    81.9820    55.4080    25.4200     2.2530   -16.3700 
  183.1250    72.9250    79.9160    77.3230    50.4960    25.4840     2.2610   -16.3230 
  183.2500    71.4100    77.3480    74.4220    49.1880    25.5860     2.2630   -16.2670 
  183.3750    69.0720    76.3860    73.1910    51.8770    25.6850     2.2580   -16.3010 
  183.5000    67.4570    76.9320    73.4110    57.1160    25.7280     2.2490   -16.4460 
  183.6250    68.8340    78.3320    74.3990    61.2300    25.7700     2.2430   -16.5650 
  183.7500    71.5240    80.2640    75.9010    65.0010    25.7890     2.2420   -16.5670 
  183.8750    73.3750    82.5990    77.8580    71.3780    25.7730     2.2430   -16.5150 
