~V
VERS. 2.00: Ver 2.00
~W
STRT.M 50.0000:
STOP.M 273.0000:
STEP.M 0.1250:
NULL. -999.2500:
UWI. F10249:
~C
DEPT.M :
DEN.GM/CC :
GR.API :
RML.OHMM :
RI. :
RXO.OHMM :
CALI.CM :
SP.MV :
~A
# ...
  140.0000     2.3570    77.2200     7.6320     5.7770     8.6710    24.3360   -18.5560 
  140.1250     2.3560    73.3570    10.0020     7.6070    11.8920    24.2900   -18.5400 
  140.2500     2.4040    70.8140    12.9340    10.1960    18.1650    24.2960   -18.5210 
  140.3750     2.4960    70.0920    16.0100    13.4090    24.9710    24.3180   -18.4880 
  140.5000     2.6000    71.0380    18.4850    16.6110    28.5100    24.3740   -18.4230 
  140.6250     2.6550    70.0730    19.2190    18.3440    30.1090    24.4310   -18.3230 
  140.7500     2.6350    67.6900    18.1340    17.9710    32.1780    24.4860   -18.2550 
  140.8750     2.5420    66.8280    15.6950    15.8410    31.8530    24.5910   -18.2050 
  141.0000     2.4080    69.1140    12.7400    12.9450    25.7740    24.8450   -18.1310 
  141.1250     2.2860    73.2620    10.0950    10.2410    16.4810    25.0890   -18.0800 
  141.2500     2.2090    76.1110     8.0480     8.0860    10.3870    25.2000   -18.0510 
  141.3750     2.1840    79.0440     6.6140     6.5140     7.3720    25.2330   -18.0040 
  141.5000     2.1970    83.1290     5.7160     5.4640     5.5730    25.2400   -17.9020 
  141.6250     2.2270    86.6560     5.2830     4.8960     5.0860    25.2330   -17.8060 
  141.7500     2.2530    88.2260     5.1070     4.6190     5.0560    25.2350   -17.7310 
  141.8750     2.2730    89.3110     5.0880     4.5450     5.0770    25.2190   -17.6520 
  142.0000     2.2910    91.4200     5.1370     4.5970     5.0700    25.2060   -17.5910 
  142.1250     2.3070    91.2230     5.1530     4.6860     5.0570    25.1990   -17.5280 
  142.2500     2.3190    89.8170     5.0740     4.7160     5.0160    25.1800   -17.4260 
  142.3750     2.3270    90.9640     4.8930     4.6430     4.9770    25.1770   -17.3580 
  142.5000     2.3310    93.6500     4.6580     4.4870     4.8890    25.1800   -17.3750 
  142.6250     2.3360    94.1320     4.4720     4.3200     4.6640    25.1720   -17.3910 
  142.7500     2.3430    93.5870     4.4090     4.2310     4.4340    25.1490   -17.3660 
  142.8750     2.3500    92.7870     4.4880     4.2610     4.4260    25.1340   -17.3310 
  143.0000     2.3540    90.0630     4.6720     4.4040     4.6980    25.1260   -17.3180 
  143.1250     2.3530    87.3010     4.8640     4.6010     5.2940    25.1080   -17.3250 
  143.2500     2.3480    88.4110     4.9540     4.7400     5.8460    25.0990   -17.3220 
  143.3750     2.3380    92.0370     4.8870     4.7400     5.7290    25.1140   -17.3090 
  143.5000     2.3250    94.7930     4.6660     4.5780     4.8990    25.1220   -17.2740 
  143.6250     2.3100    97.7960     4.3540     4.2910     4.5340    25.1030   -17.2340 
  143.7500     2.2970   103.2820     4.0670     3.9940     4.3720    25.0810   -17.1980 
  143.8750     2.2860   107.6290     3.8870     3.7580     4.2060    25.0700   -17.1760 
  144.0000     2.2760   108.7540     3.8780     3.6390     4.1270    25.0270   -17.1340 
  144.1250     2.2680   106.9880     4.1350     3.7070     4.2510    24.8880   -17.0580 
  144.2500     2.2760   102.4080     4.6570     3.9780     4.6200    24.6940   -17.0490 
  144.3750     2.3130    95.0660     5.4290     4.4870     5.3400    24.5800   -17.0390 
  144.5000     2.3810    87.7890     6.3480     5.2230     6.5410    24.5440   -16.9880 
  144.6250     2.4660    82.7850     7.1520     6.0580     8.4440    24.5420   -17.0010 
  144.7500     2.5290    79.0040     7.5700     6.6800    10.7950    24.5540   -17.0770 
  144.8750     2.5470    76.8540     7.4830     6.8390    11.9930    24.5810   -17.1580 
  145.0000     2.5150    78.6110     7.0080     6.5200    10.4660    24.6120   -17.2230 
  145.1250     2.4550    81.4140     6.5160     6.0090     7.3180    24.6700   -17.2870 
  145.2500     2.4060    82.9400     6.4050     5.6930     6.1980    24.7820   -17.3090 
  145.3750     2.3950    83.5590     6.8780     5.7700     6.4030    24.8910   -17.3450 
  145.5000     2.4240    81.0600     7.9710     6.3360     8.6090    24.9280   -17.4200 
  145.6250     2.4830    73.0320     9.6030     7.4840    12.4540    24.9010   -17.4610 
  145.7500     2.5430    65.1510    11.3690     8.9830    15.2800    24.8480   -17.4710 
  145.8750     2.5890    62.0680    12.9300    10.5300    15.0270    24.7690   -17.4800 
  146.0000     2.6130    60.9980    14.0450    11.7870    13.4970    24.6660   -17.5020 
  146.1250     2.6170    56.4020    14.6270    12.5380    13.0520    24.6350   -17.5180 
  146.2500     2.6130    52.1530    14.9380    12.9870    13.5950    24.6580   -17.5370 
  146.3750     2.6070    50.5500    15.1460    13.3030    15.0760    24.6970   -17.5520 
  146.5000     2.6060    50.8990    15.3130    13.5580    15.0610    24.7300   -17.5340 
  146.6250     2.6120    51.0560    15.3860    13.6970    15.9080    24.7430   -17.5140 
  146.7500     2.6180    51.2450    15.3320    13.6780    15.7490    24.7510   -17.5060 
  146.8750     2.6240    51.8160    15.1730    13.5190    14.8130    24.7750   -17.4740 
  147.0000     2.6290    52.7430    14.9820    13.3020    14.3240    24.8150   -17.4070 
  147.1250     2.6330    55.4100    14.8550    13.1290    14.0700    24.8160   -17.3790 
  147.2500     2.6370    55.9780    14.8350    13.0460    13.8280    24.7190   -17.3950 
  147.3750     2.6370    53.1920    14.9310    13.0800    13.9080    24.5890   -17.3820 
  147.5000     2.6340    50.8050    15.1280    13.2340    13.9710    24.4790   -17.3820 
  147.6250     2.6280    51.6850    15.3980    13.4950    13.9000    24.3910   -17.4410 
  147.7500     2.6230    52.6630    15.6780    13.7880    13.9270    24.3260   -17.4640 
  147.8750     2.6200    52.1840    15.9160    14.0570    14.7460    24.2940   -17.4690 
  148.0000     2.6180    51.8170    16.0690    14.2460    15.7410    24.2660   -17.5210 
  148.1250     2.6130    53.0040    16.0870    14.2910    15.3530    24.1900   -17.6120 
  148.2500     2.6060    53.5390    16.0000    14.2110    13.8670    24.1820   -17.6670 
  148.3750     2.5970    53.4570    15.8460    14.0460    12.8060    24.2410   -17.6990 
  148.5000     2.5880    54.3610    15.6720    13.8570    12.4220    24.3020   -17.7250 
  148.6250     2.5790    58.2920    15.5230    13.7180    12.7890    24.3480   -17.7390 
  148.7500     2.5710    60.4970    15.4050    13.6540    13.0890    24.3730   -17.7910 
  148.8750     2.5630    58.2130    15.3090    13.6530    13.4360    24.4160   -17.8530 
  149.0000     2.5560    54.6480    15.2180    13.6820    14.0140    24.4950   -17.8640 
  149.1250     2.5540    54.2090    15.0990    13.7030    13.8680    24.4950   -17.8530 
  149.2500     2.5550    55.4290    14.9090    13.6720    13.4310    24.4270   -17.8740 
  149.3750     2.5560    55.6690    14.5950    13.5250    12.9630    24.4000   -17.9180 
  149.5000     2.5550    56.1450    14.1330    13.2090    13.0570    24.4430   -17.9400 
  149.6250     2.5490    58.2470    13.5490    12.7190    14.5400    24.5030   -17.9400 
  149.7500     2.5420    60.3380    12.9860    12.1930    14.2000    24.5030   -17.9310 
  149.8750     2.5370    62.7320    12.5650    11.7630    12.3180    24.4630   -17.8980 
  150.0000     2.5340    64.5740    12.3610    11.5310    10.6320    24.3890   -17.8710 
  150.1250     2.5320    65.9710    12.3850    11.5540    10.8120    24.3390   -17.8530 
  150.2500     2.5300    68.4260    12.4820    11.7080    12.0570    24.3020   -17.8130 
  150.3750     2.5280    70.3500    12.5160    11.8520    13.1870    24.2910   -17.7400 
  150.5000     2.5290    69.4110    12.3860    11.8620    13.0120    24.2920   -17.6990 
  150.6250     2.5320    66.5610    12.0300    11.6410    11.7120    24.3050   -17.6720 
  150.7500     2.5380    64.7420    11.5270    11.2450    10.8670    24.3450   -17.5910 
  150.8750     2.5430    64.0510    10.9420    10.7280    10.3060    24.4220   -17.5250 
  151.0000     2.5460    63.5030    10.3400    10.1500    10.5730    24.5300   -17.5090 
  151.1250     2.5420    63.5570     9.7980     9.5720    10.7380    24.6490   -17.4790 
