~V
VERS. 2.00: Ver 2.00
~W
STRT.M 55.0000:
STOP.M 270.0000:
STEP.M 0.1250:
NULL. -999.2500:
UWI. F10235:
~C
DEPT.M :
GR.API :
RML.OHMM :
RI. :
RXO.OHMM :
CALI.CM :
DEN.GM/CC :
SP.MV :
~A
# ...
  235.0000    73.3840    45.7890    39.5940    47.5540    24.8670     2.2790   -17.1340 
  235.1250    74.7890    44.2340    38.3480    46.3540    24.9130     2.2880   -17.1170 
  235.2500    76.3660    42.5650    37.0000    43.2200    24.9210     2.2960   -17.0320 
  235.3750    75.9700    40.9510    35.6810    39.5840    24.8800     2.2990   -16.9560 
  235.5000    73.3010    39.5550    34.5230    36.8680    24.7920     2.2940   -16.8880 
  235.6250    71.4930    38.5840    33.7060    35.3800    24.6150     2.2850   -16.7800 
  235.7500    73.6280    38.0610    33.2740    34.8820    24.4310     2.2760   -16.6790 
  235.8750    77.7040    37.9950    33.2530    34.6360    24.2940     2.2690   -16.6260 
  236.0000    82.1370    38.3430    33.6180    34.7870    24.2580     2.2660   -16.5830 
  236.1250    83.0480    39.0410    34.3260    35.6150    24.3280     2.2670   -16.5600 
  236.2500    78.6730    39.9000    35.1870    37.5690    24.4240     2.2700   -16.5590 
  236.3750    73.1490    40.8230    36.0960    39.6220    24.4650     2.2740   -16.5170 
  236.5000    73.2120    41.7840    37.0150    41.5110    24.4400     2.2770   -16.4270 
  236.6250    77.9060    42.8660    38.0020    41.9420    24.4200     2.2740   -16.3070 
  236.7500    79.8830    44.1260    39.1350    41.7510    24.5070     2.2650   -16.1220 
  236.8750    78.9140    45.4920    40.4100    43.7420    24.6610     2.2520   -15.8820 
  237.0000    77.5660    46.6880    41.6170    48.3660    24.7580     2.2420   -15.7270 
  237.1250    74.4300    47.1720    42.2450    51.2740    24.7170     2.2410   -15.6350 
  237.2500    69.2580    46.7990    42.1000    50.4690    24.5830     2.2470   -15.5500 
  237.3750    68.0530    45.7480    41.3020    47.8300    24.4890     2.2550   -15.5100 
  237.5000    73.0220    44.5240    40.2740    42.8800    24.4830     2.2620   -15.4990 
  237.6250    77.5900    43.8720    39.6890    39.1520    24.5160     2.2660   -15.4540 
  237.7500    76.9200    44.0520    39.8880    41.0250    24.5340     2.2670   -15.4210 
  237.8750    73.3080    44.8760    40.8010    45.0320    24.5370     2.2680   -15.3840 
  238.0000    71.5470    45.8060    41.9750    48.6430    24.5370     2.2700   -15.2960 
  238.1250    71.8580    46.1250    42.6880    50.6420    24.5370     2.2730   -15.1980 
  238.2500    72.3270    45.7040    42.6650    51.6730    24.5380     2.2760   -15.0950 
  238.3750    73.3890    44.8070    42.0940    48.6920    24.5450     2.2790   -14.9870 
  238.5000    76.6140    43.8620    41.4080    43.4790    24.5670     2.2800   -14.9360 
  238.6250    80.9440    43.1830    40.9550    42.1940    24.5990     2.2820   -15.0260 
  238.7500    82.4460    42.6580    40.6280    47.9510    24.6130     2.2810   -15.1850 
  238.8750    80.3760    42.0990    40.2180    52.4440    24.6110     2.2800   -15.3880 
  239.0000    78.0060    41.4360    39.6360    49.9050    24.6130     2.2760   -15.6430 
  239.1250    80.2400    40.8730    39.0420    41.0820    24.6730     2.2710   -15.9000 
  239.2500    83.8600    40.7390    38.7720    37.1070    24.8470     2.2670   -16.1910 
  239.3750    82.2810    41.2430    39.1000    42.6430    25.0920     2.2650   -16.5300 
  239.5000    74.7790    42.4840    40.1500    50.5890    25.4080     2.2650   -16.8340 
  239.6250    70.0450    44.8730    41.9890    54.4390    25.2390     2.2690   -17.0240 
  239.7500    73.1640    48.2010    44.3650    54.6690    25.1460     2.2840   -17.2060 
  239.8750    77.8490    51.9790    47.1700    56.0700    25.0890     2.3130   -17.3640 
  240.0000    78.4310    55.6880    50.3270    57.8710    25.0670     2.3520   -17.4270 
  240.1250    76.0290    58.9980    53.6400    62.0680    25.0130     2.3820   -17.4180 
  240.2500    74.9020    61.5760    56.4870    70.9000    24.9030     2.3880   -17.3280 
  240.3750    73.8780    62.6990    58.0450    80.5150    24.8630     2.3690   -17.0900 
  240.5000    70.9050    61.9260    57.7230    80.7770    25.0940     2.3380   -16.7560 
  240.6250    68.9700    59.3830    55.4840    67.9970    24.5330     2.3130   -16.4020 
  240.7500    71.4970    56.3330    52.6060    55.5860    24.5330     2.3010   -15.9810 
  240.8750    75.3900    53.6880    50.0290    51.2630    24.5330     2.2990   -15.5160 
  241.0000    77.6270    51.9930    48.3360    50.1230    24.5330     2.3000   -15.0140 
  241.1250    78.5920    51.4830    47.8150    53.3770    25.3330     2.2970   -14.4600 
  241.2500    78.5280    51.6610    48.0280    57.0810    25.3330     2.2890   -13.9300 
  241.3750    76.4860    52.0860    48.5710    57.4460    25.3330     2.2780   -13.4680 
  241.5000    72.8840    52.3160    49.0250    52.5340    25.3330     2.2690   -13.0260 
  241.6250    70.2350    51.8690    48.8980    57.2180    25.8670     2.2660   -12.5920 
  241.7500    67.2870    50.6880    48.0580    58.9130    25.8670     2.2710   -12.1940 
  241.8750    64.3400    48.8680    46.5690    57.9430    25.7670     2.2810   -11.8000 
  242.0000    64.8490    46.6310    44.6690    54.6980    25.7330     2.2870   -11.4640 
  242.1250    68.5230    44.1800    42.5480    50.1220    25.6000     2.2790   -11.2110 
  242.2500    69.5340    41.7110    40.3200    45.7970    25.6000     2.2620   -10.9130 
  242.3750    66.6410    39.3730    38.1140    46.2130    25.6000     2.2520   -10.5920 
  242.5000    64.2260    37.3490    36.1730    47.1020    25.6000     2.2730   -10.3020 
  242.6250    66.1860    35.8710    34.7860    44.2540    25.6000     2.3370    -9.9820 
  242.7500    70.8700    34.8310    33.8490    40.4850    25.6000     2.4160    -9.6580 
  242.8750    74.8360    34.0040    33.1500    43.8930    25.6000     2.4720    -9.4070 
  243.0000    75.0660    33.0560    32.3520    64.2010    25.6000     2.4800    -9.1700 
  243.1250    70.9330    31.5890    30.9980    70.7600    25.6000     2.4350    -8.9230 
  243.2500    68.6810    29.6240    29.0810    50.6500    25.6000     2.3750    -8.7180 
  243.3750    70.6500    27.4110    26.8760    34.8490    25.6000     2.3250    -8.5180 
  243.5000    73.1060    25.3600    24.7990    29.4790    25.4670     2.2960    -8.2780 
  243.6250    71.6910    24.0030    23.3480    26.9760    25.4330     2.2820    -8.0600 
  243.7500    70.1710    23.4340    22.6450    25.1020    25.3330     2.2750    -7.8530 
  243.8750    71.6400    23.5570    22.6410    25.3750    25.3330     2.2720    -7.6110 
  244.0000    75.7480    24.1130    23.1040    27.6500    25.3330     2.2700    -7.3620 
  244.1250    78.2350    24.8040    23.7350    28.9220    25.3330     2.2690    -7.1120 
  244.2500    76.5220    25.4190    24.2990    28.2280    25.2670     2.2680    -6.8980 
  244.3750    73.5970    25.9200    24.7420    27.4710    25.2000     2.2660    -6.7240 
  244.5000    73.2300    26.3420    25.0840    27.9980    25.2000     2.2650    -6.6020 
  244.6250    74.7510    26.7370    25.3860    28.9050    25.1960     2.2640    -6.5790 
  244.7500    74.5600    27.1480    25.7010    30.0130    25.1750     2.2620    -6.5930 
  244.8750    73.2170    27.5880    26.0370    31.2790    25.1540     2.2600    -6.6600 
  245.0000    72.7950    28.0790    26.4010    31.5060    25.1330     2.2580    -6.8050 
  245.1250    72.9490    28.6610    26.8470    30.1870    25.1130     2.2630    -6.9910 
  245.2500    71.6100    29.3210    27.3880    29.1090    25.0830     2.2730    -7.2180 
  245.3750    68.9560    29.9970    27.9910    30.8650    25.0670     2.2840    -7.4860 
  245.5000    66.3810    30.5790    28.5590    36.1570    25.0670     2.2910    -7.7870 
  245.6250    66.5090    30.8860    28.8930    42.6890    25.0670     2.2900    -8.0900 
  245.7500    68.3070    30.8750    28.9040    36.9390    25.0670     2.2860    -8.3290 
  245.8750    69.9090    30.5680    28.5960    33.0810    25.0670     2.2810    -8.5280 
  246.0000    70.6150    30.0640    28.0640    32.1650    25.0670     2.2770    -8.6790 
  246.1250    72.4880    29.5080    27.4460    31.5680    24.9330     2.2760    -8.7540 
