~V
VERS. 2.00: Ver 2.00
~W
STRT.M 60.0000:
STOP.M 276.0000:
STEP.M 0.1250:
NULL. -999.2500:
UWI. F10216:
~C
DEPT.M :
DEN.GM/CC :
GR.API :
RML.OHMM :
RI. :
RXO.OHMM :
CALI.CM :
SP.MV :
~A
# ...
  127.5000     2.1400    61.5460    10.2540     7.4770     9.2650    23.0460   -14.6390 
  127.6250     2.1580    62.7400    10.1150     7.3470     8.8390    23.0090   -14.5380 
  127.7500     2.1710    63.9750    10.0970     7.2990     8.7660    22.9860   -14.4600 
  127.8750     2.1750    63.1330    10.1720     7.3250     9.2400    22.9540   -14.4200 
  128.0000     2.1670    60.4340    10.3110     7.4110     9.8830    22.8180   -14.4160 
  128.1250     2.1480    56.6540    10.4950     7.5450     9.9480    22.5960   -14.4640 
  128.2500     2.1320    54.9550    10.7040     7.7070     9.3740    22.4520   -14.5180 
  128.3750     2.1270    55.1330    10.9360     7.8890     9.3710    22.4960   -14.5860 
  128.5000     2.1400    56.3320    11.1780     8.0780     9.8860    22.6250   -14.6390 
  128.6250     2.1690    61.0880    11.4030     8.2560    10.3620    22.8240   -14.7030 
  128.7500     2.1970    66.9410    11.5840     8.4040    10.4040    22.9270   -14.7650 
  128.8750     2.2100    68.0310    11.7040     8.5110    10.3680    22.9460   -14.8090 
  129.0000     2.2060    64.0520    11.7640     8.5780    10.4490    22.9370   -14.8370 
  129.1250     2.1880    62.1980    11.7830     8.6160    10.5680    22.9710   -14.8280 
  129.2500     2.1730    64.3180    11.8090     8.6560    10.7320    22.9890   -14.7980 
  129.3750     2.1730    64.7600    11.8800     8.7180    10.8610    22.9950   -14.7460 
  129.5000     2.1970    60.5780    12.0400     8.8260    11.0060    22.9810   -14.6870 
  129.6250     2.2420    55.7900    12.3520     9.0210    11.2570    22.9410   -14.5930 
  129.7500     2.2870    54.3550    12.7950     9.3040    11.5950    22.8670   -14.4840 
  129.8750     2.3170    56.0740    13.3070     9.6510    12.2460    22.7750   -14.3610 
  130.0000     2.3240    58.2000    13.7930    10.0140    12.6710    22.6620   -14.2080 
  130.1250     2.3150    57.6060    14.1480    10.3300    13.2980    22.5580   -14.0300 
  130.2500     2.3100    55.8940    14.3800    10.5780    13.3660    22.4790   -13.8340 
  130.3750     2.3230    55.6380    14.5570    10.7790    13.0700    22.4260   -13.6330 
  130.5000     2.3540    56.9090    14.7550    10.9730    13.0300    22.4540   -13.4230 
  130.6250     2.3900    56.1710    14.9760    11.1650    13.7520    22.6170   -13.2180 
  130.7500     2.4050    53.2720    15.0870    11.2970    14.1720    22.7810   -13.0030 
  130.8750     2.3870    51.4810    14.9740    11.3160    13.6650    22.8380   -12.8030 
  131.0000     2.3430    52.2160    14.6340    11.2240    13.3490    22.6980   -12.6200 
  131.1250     2.2990    53.3890    14.2050    11.0980    13.0400    22.4650   -12.4470 
  131.2500     2.2860    52.9830    13.9230    11.0420    12.4290    22.3660   -12.2650 
  131.3750     2.3140    52.3010    13.9660    11.1380    12.7400    22.3540   -12.0730 
  131.5000     2.3780    52.4480    14.4230    11.4430    15.2180    22.4140   -11.8600 
  131.6250     2.4540    52.6040    15.2750    11.9880    18.5220    22.6000   -11.6110 
  131.7500     2.5190    50.8990    16.2090    12.6300    17.1410    22.9360   -11.3920 
  131.8750     2.5610    49.2440    16.8420    13.1350    15.1790    23.3330   -11.1680 
  132.0000     2.5670    50.2140    16.7210    13.1550    18.9720    23.6980   -10.9660 
  132.1250     2.5310    53.5290    15.4820    12.3510    21.8250    23.8420   -10.8000 
  132.2500     2.4740    57.4860    13.7240    11.1050    19.8200    23.9360   -10.6800 
  132.3750     2.4250    62.0700    12.1770     9.9200    15.1540    24.1440   -10.6020 
  132.5000     2.4090    65.9870    11.4850     9.2180    10.0740    24.3860   -10.5600 
  132.6250     2.4440    65.6900    12.2940     9.4110    10.9110    24.5200   -10.5710 
  132.7500     2.5040    61.1870    14.4860    10.5250    17.0450    24.4670   -10.5850 
  132.8750     2.5610    55.6590    17.7700    12.5620    26.1640    24.3760   -10.5910 
  133.0000     2.5970    52.5010    21.3830    15.2330    31.3240    24.3300   -10.6050 
  133.1250     2.6150    52.5880    23.8810    17.6690    28.3460    24.3030   -10.6140 
  133.2500     2.6230    52.5150    24.6190    19.0360    25.4480    24.2980   -10.6190 
  133.3750     2.6270    50.4930    23.9330    19.2400    25.2400    24.2840   -10.6150 
  133.5000     2.6280    47.9720    22.6240    18.7060    25.5670    24.2600   -10.6200 
  133.6250     2.6240    48.5290    21.2730    17.8390    24.6450    24.2750   -10.6420 
  133.7500     2.6130    50.1030    20.0740    16.9180    22.8530    24.3020   -10.6520 
  133.8750     2.5990    51.9320    19.0770    16.0620    21.0440    24.3200   -10.6760 
  134.0000     2.5870    54.2700    18.2640    15.3300    18.9850    24.3170   -10.7150 
  134.1250     2.5710    55.9430    17.4790    14.6550    16.8540    24.3130   -10.7690 
  134.2500     2.5370    55.6390    16.4640    13.8540    16.0600    24.3230   -10.8470 
  134.3750     2.4780    54.1200    15.0280    12.7720    20.3160    24.2730   -10.9400 
  134.5000     2.4010    54.2460    13.1760    11.3850    20.6660    24.0960   -11.0410 
  134.6250     2.3250    58.8220    11.2230     9.8850    13.5380    23.9270   -11.1230 
  134.7500     2.2700    65.6930     9.5860     8.5670     8.7590    23.9490   -11.2220 
  134.8750     2.2450    72.5980     8.4560     7.5820     7.3020    24.1350   -11.3360 
  135.0000     2.2430    75.9510     7.8700     6.9790     7.2900    24.1920   -11.4220 
  135.1250     2.2490    73.9280     7.8120     6.7910     7.8080    23.9380   -11.4920 
  135.2500     2.2500    71.0510     8.0080     6.8530     8.2670    23.7320   -11.5430 
  135.3750     2.2440    70.9770     8.2620     7.0230     8.2410    23.7960   -11.5660 
  135.5000     2.2350    74.0560     8.4390     7.1710     8.0220    23.9580   -11.5960 
  135.6250     2.2310    75.6580     8.4810     7.2140     8.3110    24.0390   -11.6480 
  135.7500     2.2310    74.5860     8.4300     7.1660     8.5100    24.0600   -11.6800 
  135.8750     2.2300    72.7880     8.3210     7.0520     8.3680    24.0670   -11.6930 
  136.0000     2.2270    71.2390     8.1880     6.9030     8.1100    24.0700   -11.7210 
  136.1250     2.2210    71.4760     8.1170     6.7790     8.1920    24.0660   -11.7250 
  136.2500     2.2190    72.9340     8.2490     6.7720     8.5620    24.0840   -11.7190 
  136.3750     2.2280    72.0300     8.7490     7.0000     8.8860    24.1170   -11.7460 
  136.5000     2.2540    67.2170     9.7630     7.5700     9.0410    24.1300   -11.7540 
  136.6250     2.2930    63.7700    11.4330     8.6320    10.1460    24.0410   -11.7530 
  136.7500     2.3320    65.0110    13.4870    10.0830    13.4400    24.0050   -11.7740 
  136.8750     2.3560    65.2280    15.5040    11.7160    18.8140    23.9520   -11.7990 
  137.0000     2.3620    60.6660    16.9380    13.1510    21.6340    23.8400   -11.8120 
  137.1250     2.3540    56.0310    17.3590    13.9420    19.9760    23.6130   -11.8170 
  137.2500     2.3520    54.8690    17.3040    14.2590    16.7270    23.3730   -11.8160 
  137.3750     2.3720    55.0370    17.4230    14.4990    14.8150    23.2020   -11.7650 
  137.5000     2.4210    54.4920    18.0890    15.0030    15.0780    23.1730   -11.6990 
  137.6250     2.4850    51.5960    19.0890    15.7940    17.7210    23.3160   -11.5640 
  137.7500     2.5210    47.2390    19.5250    16.2940    22.1520    23.6070   -11.4010 
  137.8750     2.5020    46.8320    18.6000    15.8130    27.3060    23.9700   -11.2200 
  138.0000     2.4400    52.8880    16.1380    14.0600    27.1280    24.2590   -11.0240 
  138.1250     2.3620    62.9440    12.8590    11.4860    16.8170    24.3540   -10.8310 
  138.2500     2.3030    71.2220     9.9350     9.0510    10.0340    24.3700   -10.6350 
  138.3750     2.2730    76.7640     7.7920     7.1380     7.5130    24.3780   -10.4750 
  138.5000     2.2650    80.0000     6.4420     5.8220     6.9430    24.3800   -10.3190 
  138.6250     2.2660    80.1680     5.8740     5.1430     6.7350    24.4330   -10.2340 
