~V
VERS. 2.00: Ver 2.00
~W
STRT.M 55.0000:
STOP.M 274.0000:
STEP.M 0.1250:
NULL. -999.2500:
UWI. F10255:
~C
DEPT.M :
GR.API :
RML.OHMM :
RI. :
RXO.OHMM :
CALI.CM :
DEN.GM/CC :
SP.MV :
~A
   55.0000  -999.2500  -999.2500  -999.2500  -999.2500  -999.2500  -999.2500   107.8010 
   55.1250  -999.2500  -999.2500  -999.2500  -999.2500  -999.2500  -999.2500   106.5750 
   55.2500  -999.2500  -999.2500  -999.2500  -999.2500  -999.2500  -999.2500   105.6250 
   55.3750  -999.2500  -999.2500  -999.2500  -999.2500  -999.2500  -999.2500   104.9580 
   55.5000  -999.2500  -999.2500  -999.2500  -999.2500  -999.2500  -999.2500   104.5660 
   55.6250  -999.2500  -999.2500  -999.2500  -999.2500  -999.2500  -999.2500   104.2730 
   55.7500  -999.2500  -999.2500  -999.2500  -999.2500  -999.2500  -999.2500   103.9980 
   55.8750  -999.2500  -999.2500  -999.2500  -999.2500  -999.2500  -999.2500   103.7050 
   56.0000  -999.2500  -999.2500  -999.2500  -999.2500  -999.2500  -999.2500   103.3820 
   56.1250  -999.2500  -999.2500  -999.2500  -999.2500  -999.2500  -999.2500   103.0470 
   56.2500  -999.2500  -999.2500  -999.2500  -999.2500  -999.2500  -999.2500   102.7220 
   56.3750  -999.2500  -999.2500  -999.2500  -999.2500  -999.2500  -999.2500   102.3840 
   56.5000  -999.2500  -999.2500  -999.2500  -999.2500  -999.2500  -999.2500   102.0140 
   56.6250  -999.2500  -999.2500  -999.2500  -999.2500  -999.2500  -999.2500   101.6150 
   56.7500  -999.2500  -999.2500  -999.2500  -999.2500  -999.2500  -999.2500   101.1570 
   56.8750  -999.2500  -999.2500  -999.2500  -999.2500  -999.2500  -999.2500   100.6850 
   57.0000  -999.2500  -999.2500  -999.2500  -999.2500  -999.2500  -999.2500   100.2690 
   57.1250  -999.2500  -999.2500  -999.2500  -999.2500  -999.2500  -999.2500    99.8890 
   57.2500  -999.2500  -999.2500  -999.2500  -999.2500  -999.2500  -999.2500    99.4690 
   57.3750  -999.2500  -999.2500  -999.2500  -999.2500  -999.2500  -999.2500    99.0220 
   57.5000  -999.2500  -999.2500  -999.2500  -999.2500  -999.2500  -999.2500    98.5840 
   57.6250  -999.2500  -999.2500  -999.2500  -999.2500  -999.2500  -999.2500    98.1860 
   57.7500  -999.2500  -999.2500  -999.2500  -999.2500  -999.2500  -999.2500    97.8150 
   57.8750  -999.2500  -999.2500  -999.2500  -999.2500  -999.2500  -999.2500    97.4630 
   58.0000  -999.2500  -999.2500  -999.2500  -999.2500  -999.2500  -999.2500    97.1190 
   58.1250  -999.2500  -999.2500  -999.2500  -999.2500  -999.2500  -999.2500    96.7320 
   58.2500  -999.2500  -999.2500  -999.2500  -999.2500  -999.2500  -999.2500    96.3200 
   58.3750  -999.2500  -999.2500  -999.2500  -999.2500  -999.2500  -999.2500    95.9120 
   58.5000  -999.2500  -999.2500  -999.2500  -999.2500  -999.2500  -999.2500    95.4900 
   58.6250  -999.2500  -999.2500  -999.2500  -999.2500  -999.2500  -999.2500    95.0670 
   58.7500  -999.2500  -999.2500  -999.2500  -999.2500  -999.2500  -999.2500    94.7360 
   58.8750  -999.2500  -999.2500  -999.2500  -999.2500  -999.2500  -999.2500    94.4830 
   59.0000  -999.2500  -999.2500  -999.2500  -999.2500  -999.2500  -999.2500    94.1900 
   59.1250  -999.2500  -999.2500  -999.2500  -999.2500  -999.2500  -999.2500    93.8530 
   59.2500  -999.2500  -999.2500  -999.2500  -999.2500  -999.2500  -999.2500    93.5490 
   59.3750  -999.2500  -999.2500  -999.2500  -999.2500  -999.2500  -999.2500    93.2410 
   59.5000  -999.2500  -999.2500  -999.2500  -999.2500  -999.2500  -999.2500    92.9080 
   59.6250  -999.2500  -999.2500  -999.2500  -999.2500  -999.2500  -999.2500    92.5330 
   59.7500    33.7160     5.7650     2.6730     1.0900    25.8090  -999.2500    92.0440 
   59.8750    33.7160     5.7650     2.6730     1.0900    25.8090  -999.2500    91.4550 
   60.0000    30.6920     5.8140     2.6770     1.1500    25.8100  -999.2500    90.8940 
   60.1250    34.8790     5.9010     2.6850     1.5890    25.6550  -999.2500    90.4350 
   60.2500    32.5540     5.8910     2.6930     1.9250    25.7190    -0.0080    89.9450 
   60.3750    33.1260     5.8250     2.6780     1.3020    25.7950    -0.0080    89.4180 
   60.5000    36.2010     5.9730     2.6750     1.2380    25.8040    -0.0080    88.9350 
   60.6250    38.4140     6.7520     2.6760     2.9750    25.8040     0.4900    88.5000 
   60.7500    40.7610     7.9610     2.6680    21.1820    25.8040     1.9840    88.0500 
   60.8750    44.1810     8.8360     2.6480    16.0600    25.8020     1.9880    87.5400 
   61.0000    47.5650     8.5300     2.6240     3.7490    25.8000     2.0010    86.9510 
   61.1250    48.2570     6.8960     2.6070     1.7870    25.7940     2.0340    86.2920 
   61.2500    46.3770     5.1540     2.6010     1.4320    25.8000     2.0840    85.6110 
   61.3750    42.1230     4.0710     2.6020     1.4130    25.8060     2.1390    84.9030 
   61.5000    37.8660     3.7490     2.6060     1.4310    25.8080     2.1790    84.1620 
   61.6250    37.3840     3.9610     2.6130     1.4540    25.8070     2.1840    83.3270 
   61.7500    39.9300     4.3690     2.6250     1.9750    25.8020     2.1600    82.3830 
   61.8750    43.6690     4.8400     2.6420     4.3730    25.8000     2.1250    81.3460 
   62.0000    46.7040     5.2560     2.6570     8.7320    25.8020     2.0990    80.2740 
   62.1250    49.2550     5.3880     2.6590     6.7590    25.7990     2.0910    79.1550 
   62.2500    51.0570     5.1590     2.6500     4.6630    25.7970     2.0910    77.9300 
   62.3750    50.2160     4.6930     2.6330     1.9190    25.7960     2.0850    76.6680 
   62.5000    48.0130     4.2640     2.6160     1.2660    25.7930     2.0690    75.4280 
   62.6250    46.4280     4.1340     2.6020     1.2500    25.7920     2.0450    74.2280 
   62.7500    44.8840     4.2310     2.5890     1.5530    25.7890     2.0210    73.0560 
   62.8750    43.6990     4.3800     2.5720     1.7980    25.7920     2.0010    71.8520 
   63.0000    44.3400     4.4040     2.5480     1.3700    25.7940     1.9880    70.5080 
   63.1250    46.7170     4.2100     2.5140     1.3140    25.7930     1.9830    69.0070 
   63.2500    46.8300     3.8980     2.4670     1.3710    25.7980     1.9870    67.4720 
   63.3750    44.7030     3.4780     2.3870     1.7300    25.8150     1.9990    65.8310 
   63.5000    44.1250     2.8600     2.2230     2.7510    25.8400     2.0210    63.9290 
   63.6250    47.1280     2.0260     1.8800     1.9400    25.8400     2.0700    61.7080 
   63.7500    50.3360     1.2260     1.3980     1.3180    25.8210     2.1670    59.2690 
   63.8750    50.8350     0.6510     0.8980     1.1560    25.8000     2.3230    56.6410 
   64.0000    49.2360     0.3240     0.5020     1.2220    25.7830     2.5150    53.7910 
   64.1250    48.9120     0.1710     0.2720     1.9130    25.7610     2.6750    50.4570 
   64.2500    52.0950     0.0940     0.1560     2.7900    25.7930     2.7410    46.6190 
   64.3750    58.5630     0.0720     0.1260     3.8070    26.1270     2.6950    42.3240 
   64.5000    65.0530     0.1030     0.1720     4.6930    27.0000     2.5640    37.7020 
   64.6250    67.3670     0.2300     0.3320     5.2480    28.6550     2.4150    32.9140 
   64.7500    68.6920     0.5270     0.6470     5.3440    30.7930     2.3060    28.1740 
   64.8750    72.1060     1.0980     1.1770     5.1920    32.1900     2.2530    23.5950 
   65.0000    76.5640     1.9660     1.9460     5.0470    30.9210     2.2470    19.3060 
   65.1250    79.6460     2.9620     2.8780     5.3340    27.9190     2.2660    15.5100 
   65.2500    82.3940     3.7970     3.7620     5.9960    25.6000     2.2820    12.2720 
   65.3750    86.0690     4.3660     4.4820     6.4850    24.4260     2.2900     9.6560 
   65.5000    89.0980     4.7260     5.0320     6.5740    24.0210     2.2890     7.5630 
   65.6250    90.0180     4.9800     5.4480     7.1210    23.9090     2.2860     5.8540 
   65.7500    88.9830     5.1990     5.7720     7.7120    23.8580     2.2850     4.3770 
   65.8750    86.5850     5.3820     5.9870     7.5460    23.8270     2.2880     3.0870 
   66.0000    87.4050     5.5120     6.0760     7.3730    23.8160     2.2890     1.9170 
   66.1250    93.7670     5.5750     6.0530     7.4530    23.8230     2.2860     0.9440 
