~V
VERS. 2.00: Ver 2.00
~W
STRT.M 50.0000:
STOP.M 270.0000:
STEP.M 0.1250:
NULL. -999.2500:
UWI. F10223:
~C
DEPT.M :
GR.API :
RML.OHMM :
RI. :
RXO.OHMM :
CALI.CM :
DEN.GM/CC :
SP.MV :
~A
# ...
  252.5000    63.9700     7.0180     5.9350     6.0380    23.6050     2.4320   -14.5010 
  252.6250    62.3000     7.0960     6.0010     6.3730    23.5460     2.4300   -14.5320 
  252.7500    59.8470     7.1770     6.0810     6.8830    23.5840     2.4230   -14.5730 
  252.8750    59.9770     7.2610     6.1750     7.2950    23.7400     2.4140   -14.5950 
  253.0000    61.1900     7.3460     6.2720     7.3800    23.9400     2.4100   -14.6140 
  253.1250    62.3480     7.4300     6.3540     7.4070    23.9350     2.4120   -14.6290 
  253.2500    63.7020     7.5150     6.4200     7.5160    23.8780     2.4190   -14.6680 
  253.3750    64.9870     7.6070     6.4800     7.5700    23.8910     2.4260   -14.7160 
  253.5000    66.0700     7.7110     6.5510     7.0970    23.8770     2.4310   -14.7520 
  253.6250    67.7130     7.8420     6.6590     6.5660    23.7780     2.4300   -14.8020 
  253.7500    67.5030     8.0070     6.8080     6.3190    23.8140     2.4310   -14.8510 
  253.8750    63.0210     8.2090     6.9920     6.3440    23.8850     2.4400   -14.9150 
  254.0000    57.8790     8.4400     7.1940     6.3900    23.9070     2.4540   -14.9940 
  254.1250    58.3620     8.6810     7.3940     6.4140    23.9030     2.4660   -15.0370 
  254.2500    61.1790     8.9060     7.5810     6.5960    23.9040     2.4730   -15.0840 
  254.3750    61.5440     9.1050     7.7510     7.0610    23.9010     2.4760   -15.1080 
  254.5000    59.0120     9.2830     7.9090     8.0030    23.8920     2.4730   -15.1250 
  254.6250    59.8500     9.4580     8.0700     9.9530    23.8840     2.4650   -15.1440 
  254.7500    64.3250     9.6510     8.2430    11.7630    23.8820     2.4530   -15.1420 
  254.8750    67.3350     9.8740     8.4330    13.3340    23.8850     2.4430   -15.1580 
  255.0000    67.1760    10.1300     8.6400    14.2720    23.8960     2.4380   -15.1290 
  255.1250    66.4520    10.4080     8.8650    13.6110    23.9100     2.4440   -15.1340 
  255.2500    66.0830    10.6830     9.0970    11.9650    23.9160     2.4550   -15.1240 
  255.3750    64.2660    10.9220     9.3200    10.8050    23.9110     2.4690   -15.1150 
  255.5000    61.7300    11.0950     9.5120    10.2320    23.8510     2.4820   -15.1440 
  255.6250    60.5900    11.1530     9.6310    10.2770    23.7050     2.4920   -15.1250 
  255.7500    60.3160    11.1020     9.6630    10.6900    23.5290     2.4970   -15.1370 
  255.8750    61.3760    10.9620     9.6070    11.0130    23.4940     2.5010   -15.1390 
  256.0000    62.9640    10.7810     9.4960    11.4720    23.5230     2.5030   -15.1850 
  256.1250    62.7390    10.6500     9.4010    11.2340    23.5540     2.5030   -15.2160 
  256.2500    61.7000    10.6510     9.3990    11.0270    23.5540     2.5020   -15.2380 
  256.3750    61.6700    10.8410     9.5400    11.0380    23.5960     2.5060   -15.2510 
  256.5000    61.5400    11.2380     9.8460    11.9460    23.6420     2.5170   -15.2550 
  256.6250    59.0490    11.8340    10.3240    13.5180    23.6690     2.5290   -15.2910 
  256.7500    57.1500    12.5060    10.8900    15.9860    23.6550     2.5350   -15.3030 
  256.8750    58.6880    13.1320    11.4590    18.2870    23.6760     2.5350   -15.3230 
  257.0000    60.5980    13.5860    11.9320    21.3530    23.8400     2.5350   -15.3260 
  257.1250    60.1060    13.7310    12.1780    22.1010    24.0450     2.5360   -15.3450 
  257.2500    59.1020    13.6210    12.1960    23.6700    24.1840     2.5370   -15.3700 
  257.3750    59.1460    13.3640    12.0460    23.4870    24.1940     2.5410   -15.4140 
  257.5000    58.2610    13.1150    11.8460    20.3880    24.1550     2.5460   -15.4510 
  257.6250    55.1010    13.0410    11.7340    16.3320    24.1320     2.5500   -15.4750 
  257.7500    55.1960    13.1690    11.7690    15.3460    24.1240     2.5520   -15.5170 
  257.8750    58.9950    13.4630    11.9510    16.0310    24.0910     2.5520   -15.5550 
  258.0000    61.6210    13.8490    12.2440    17.4370    24.0700     2.5500   -15.5890 
  258.1250    60.3550    14.2580    12.6090    18.3010    24.0940     2.5460   -15.6100 
  258.2500    59.0140    14.6740    13.0140    17.6740    24.1410     2.5390   -15.6340 
  258.3750    60.8240    15.1200    13.4610    16.7170    24.1720     2.5280   -15.6390 
  258.5000    65.3080    15.5930    13.9320    15.8500    24.1990     2.5170   -15.6660 
  258.6250    67.3240    15.9810    14.3370    15.7510    24.1700     2.5130   -15.7230 
  258.7500    64.6120    16.1280    14.5530    16.7250    24.0610     2.5140   -15.7410 
  258.8750    59.4020    15.9070    14.4680    18.0610    23.8500     2.5160   -15.7400 
  259.0000    56.3380    15.2990    14.0480    18.2530    23.6370     2.5200   -15.7370 
  259.1250    57.1010    14.4150    13.3480    17.8350    23.6060     2.5230   -15.7420 
  259.2500    59.5080    13.5180    12.5840    17.1550    23.7970     2.5240   -15.7570 
  259.3750    60.6600    12.7460    11.8810    16.0810    23.9760     2.5230   -15.7800 
  259.5000    60.6600    12.1360    11.2960    15.2910    24.0560     2.5190   -15.7890 
  259.6250    60.6600    11.6370    10.8250    14.8560    24.0990     2.5090   -15.8070 
  259.7500    60.6600    11.1290    10.3830    14.2340    24.1380     2.4950   -15.8520 
  259.8750    60.6600    10.5650     9.9220    13.2030    24.1310     2.4820   -15.9060 
  260.0000    60.6600     9.9740     9.4380    11.6320    24.0970     2.4740   -15.9510 
  260.1250    60.6600     9.4630     8.9870    10.0580    24.0550     2.4730   -15.9630 
  260.2500    60.6600     9.1090     8.6290     8.8280    24.0440     2.4720   -15.9740 
  260.3750    60.6600     8.9400     8.4020     8.2000    24.0430     2.4690   -15.9810 
  260.5000    60.6600     8.9290     8.3070     7.5160    24.0340     2.4680   -15.9910 
  260.6250    60.6600     9.0090     8.3100     6.7970    24.0250     2.4690   -15.9720 
  260.7500    60.6600     9.0640     8.3150     6.9020    24.0270     2.4700   -15.9260 
  260.8750    60.6600     9.0200     8.2520     7.7590    24.0390     2.4710   -15.9020 
  261.0000    60.6600     8.8440     8.0900     8.4490    24.0420     2.4730   -15.8970 
  261.1250    60.6600     8.5740     7.8530     8.1560    24.0380     2.4750   -15.9090 
  261.2500    60.6600     8.3570     7.6540     7.6090    24.0360     2.4790   -15.9230 
  261.3750    60.6600     8.3390     7.6000     7.1910    24.0270     2.4850   -15.9330 
  261.5000    60.6600     8.6200     7.7670     7.8330    24.0150     2.4890   -15.9310 
  261.6250    60.6600     9.2610     8.2240    11.3880    24.0160     2.4930   -15.9410 
  261.7500    60.6600    10.0740     8.8610    17.4770    24.0270     2.4990   -15.9510 
  261.8750    60.6600    10.8280     9.5190    19.6000    24.0550     2.5070   -15.9660 
  262.0000    60.6600    11.2670     9.9790    16.6920    24.0730     2.5120   -15.9710 
  262.1250    60.6600    11.1570     9.9960    13.6210    24.1040     2.5120   -15.9510 
  262.2500    60.6600    10.6450     9.6400    11.2120    24.1170     2.5110   -15.9210 
  262.3750    60.6600     9.9470     9.0770     8.9850    24.1230     2.5090   -15.9050 
  262.5000    60.6600     9.2950     8.5040     7.6420    24.0940     2.5090   -15.8950 
  262.6250    60.6600     8.8820     8.0910     7.3090    24.0610     2.5100   -15.8230 
  262.7500    60.6600     8.6990     7.8560     7.5440    24.0510     2.5110   -15.7750 
  262.8750    60.6600     8.6900     7.7680     8.0290    24.0460     2.5100   -15.7040 
  263.0000    60.6600     8.7760     7.7750     8.6020    24.0280     2.5060   -15.6300 
  263.1250    60.6600     8.8750     7.8220     8.5280    23.9010     2.5000   -15.5520 
  263.2500    60.6600     8.9380     7.8620     8.1350    23.6410     2.4910   -15.4760 
  263.3750    60.6600     8.9630     7.8880     7.7570    23.4690     2.4790   -15.3920 
  263.5000    60.6600     8.9620     7.9020     7.4670    23.7140     2.4650   -15.3170 
  263.6250    60.6600     8.9500     7.9050     7.3510    23.7950     2.4540   -15.2700 
