~V
VERS. 2.00: Ver 2.00
~W
STRT.M 60.0000:
STOP.M 271.0000:
STEP.M 0.1250:
NULL. -999.2500:
UWI. F10205:
~C
DEPT.M :
DEN.GM/CC :
GR.API :
RML.OHMM :
RI. :
RXO.OHMM :
CALI.CM :
SP.MV :
~A
# ...
  138.7500     2.4670    72.8590    12.4870    11.5410    10.1300    23.3950    -6.3420 
  138.8750     2.4730    72.2110    12.3030    11.1380     9.9910    23.7340    -6.3390 
  139.0000     2.4780    72.3240    12.3940    10.9970     9.9860    24.3380    -6.3000 
  139.1250     2.4720    72.4260    12.7070    11.1070    10.4440    25.0030    -6.2260 
  139.2500     2.4550    69.8620    13.1050    11.3590    10.6950    25.6870    -6.1440 
  139.3750     2.4350    64.6390    13.5070    11.6800    10.8460    26.0860    -6.0710 
  139.5000     2.4240    60.0330    13.8530    12.0050    10.9990    26.0200    -6.0130 
  139.6250     2.4240    58.1720    14.0950    12.2720    11.4430    25.5140    -5.9700 
  139.7500     2.4220    57.1050    14.2540    12.4740    11.8100    24.9580    -5.9580 
  139.8750     2.4080    57.3880    14.3660    12.6300    11.9420    24.6370    -5.9180 
  140.0000     2.3770    60.1150    14.4940    12.7810    11.8050    24.8010    -5.8600 
  140.1250     2.3390    63.5320    14.7160    12.9970    12.0570    25.6600    -5.8190 
  140.2500     2.3080    64.1420    15.0110    13.2860    12.8520    26.7770    -5.8020 
  140.3750     2.2910    62.5690    15.2460    13.5660    13.4890    27.4940    -5.8080 
  140.5000     2.2880    61.9230    15.1810    13.6350    13.7520    27.6960    -5.8360 
  140.6250     2.3000    64.4710    14.4560    13.1270    13.9840    27.3870    -5.9010 
  140.7500     2.3180    70.6310    13.1240    12.0040    13.7700    26.5780    -6.0000 
  140.8750     2.3370    78.6850    11.2860    10.4160    12.0930    25.5720    -6.2000 
  141.0000     2.3510    86.6890     9.1800     8.6790     8.7390    24.9760    -6.4770 
  141.1250     2.3570    94.4070     7.3320     7.1740     6.1690    24.9250    -6.8180 
  141.2500     2.3580   102.1120     6.1350     6.0560     5.2460    24.9520    -7.1940 
  141.3750     2.3580   107.0450     5.6070     5.3560     5.1300    24.7680    -7.5690 
  141.5000     2.3530   105.5940     5.5220     5.0460     5.1480    24.5190    -7.9410 
  141.6250     2.3370   100.1690     5.7470     5.1180     4.7070    24.3740    -8.2790 
  141.7500     2.3090    98.5490     6.1800     5.4390     4.4780    24.3070    -8.5850 
  141.8750     2.2760   100.2890     6.7260     5.9160     4.6360    24.2560    -8.8000 
  142.0000     2.2480    99.6850     7.2710     6.4340     5.5960    24.1810    -8.9180 
  142.1250     2.2380    94.9280     7.6730     6.8440     7.2760    24.2080    -8.8740 
  142.2500     2.2400    92.7490     7.8920     7.0800     7.9390    24.5240    -8.7170 
  142.3750     2.2470    94.4290     7.9610     7.1490     7.5830    25.2080    -8.5090 
  142.5000     2.2500    96.3380     7.9700     7.1230     7.3140    26.0220    -8.2530 
  142.6250     2.2460    94.6840     8.0370     7.1140     7.4450    26.6050    -7.9860 
  142.7500     2.2420    92.4250     8.2080     7.1900     7.9200    26.7340    -7.7000 
  142.8750     2.2420    91.5620     8.4640     7.3560     8.7790    26.6120    -7.4470 
  143.0000     2.2440    90.9690     8.7560     7.5800     9.6670    26.6330    -7.2460 
  143.1250     2.2430    87.7450     9.0310     7.8130     9.5290    26.6860    -7.1560 
  143.2500     2.2330    83.8490     9.2750     8.0300     9.0700    26.6310    -7.1480 
  143.3750     2.2150    83.8850     9.4860     8.2280     8.8500    26.5050    -7.1680 
  143.5000     2.1930    87.4980     9.6350     8.3910     8.9170    26.4190    -7.2150 
  143.6250     2.1870    90.4840     9.6040     8.4320     8.8960    26.3870    -7.2320 
  143.7500     2.2070    90.6260     9.3000     8.2530     8.9520    26.2020    -7.1850 
  143.8750     2.2540    90.3420     8.6780     7.7810     8.9120    25.8460    -7.0590 
  144.0000     2.3150    93.6900     7.8020     7.0350     8.6480    25.3610    -6.8790 
  144.1250     2.3670   100.6360     6.8490     6.1380     7.5360    24.9340    -6.6350 
  144.2500     2.3960   107.9870     6.0310     5.2980     5.7660    24.6460    -6.3420 
  144.3750     2.4030   112.1310     5.4530     4.6370     4.3120    24.4570    -5.9990 
  144.5000     2.3970   111.0430     5.1320     4.2030     3.9040    24.5290    -5.5850 
  144.6250     2.3900   108.1320     5.0460     4.0110     4.1740    24.9850    -5.1760 
  144.7500     2.3830   108.1300     5.0710     3.9630     4.2730    25.5110    -4.8160 
  144.8750     2.3740   110.0290     5.1330     3.9930     4.1970    25.7880    -4.5480 
  145.0000     2.3620   111.5030     5.1790     4.0440     4.0310    25.9840    -4.3530 
  145.1250     2.3520   113.7500     5.1840     4.0810     3.9440    26.0220    -4.1890 
  145.2500     2.3520   118.3060     5.1680     4.0990     3.8780    26.2750    -4.0230 
  145.3750     2.3630   122.4380     5.1540     4.1090     3.7960    26.9510    -3.9070 
  145.5000     2.3800   121.3420     5.1560     4.1180     3.7870    27.7510    -3.8830 
  145.6250     2.3940   114.2850     5.1750     4.1300     3.8430    27.8680    -3.9020 
  145.7500     2.3960   107.6220     5.1910     4.1350     3.9820    27.2960    -3.9650 
  145.8750     2.3880   105.0230     5.1910     4.1260     4.1480    26.4510    -4.0050 
  146.0000     2.3760   105.6110     5.1730     4.0970     4.1680    25.8490    -4.0230 
  146.1250     2.3650   105.4450     5.1410     4.0490     4.1050    25.5760    -4.1100 
  146.2500     2.3590   103.2940     5.1110     3.9950     4.0840    25.3930    -4.3040 
  146.3750     2.3530   101.9840     5.0900     3.9450     4.0760    25.3330    -4.5620 
  146.5000     2.3440   105.1070     5.0800     3.9050     4.0170    25.3510    -4.8470 
  146.6250     2.3290   111.9320     5.0790     3.8780     3.9720    25.2810    -5.1830 
  146.7500     2.3140   116.2480     5.0840     3.8610     3.9760    25.0240    -5.5400 
  146.8750     2.3020   116.0830     5.0910     3.8500     3.9950    24.6870    -5.9330 
  147.0000     2.2970   114.0440     5.1010     3.8450     3.9370    24.4900    -6.3420 
  147.1250     2.3010   111.1560     5.1200     3.8450     3.9070    24.4820    -6.6600 
  147.2500     2.3110   108.3220     5.1490     3.8500     3.9890    24.5820    -6.8550 
  147.3750     2.3240   108.5280     5.1820     3.8610     4.1250    24.7300    -6.9130 
  147.5000     2.3390   110.7270     5.2130     3.8760     4.1730    24.8980    -6.8610 
  147.6250     2.3520   110.6440     5.2280     3.8920     4.1720    25.0020    -6.6960 
  147.7500     2.3630   108.4450     5.2270     3.9130     4.2440    25.0520    -6.4980 
  147.8750     2.3720   107.2570     5.2190     3.9390     4.1650    25.0340    -6.3040 
  148.0000     2.3790   110.3180     5.2110     3.9700     4.0640    25.0180    -6.1470 
  148.1250     2.3810   112.4260     5.2120     3.9980     4.0880    25.0230    -6.0290 
  148.2500     2.3750   111.2800     5.2160     4.0110     4.1730    25.0090    -5.8910 
  148.3750     2.3640   108.8620     5.2110     4.0010     4.2160    24.9600    -5.7380 
  148.5000     2.3490   106.7170     5.1850     3.9650     4.0840    24.9200    -5.5670 
  148.6250     2.3390   107.8450     5.1270     3.9040     3.9900    24.9300    -5.3670 
  148.7500     2.3330   109.5640     5.0500     3.8320     3.9630    24.9760    -5.1220 
  148.8750     2.3340   110.3340     4.9720     3.7600     3.9380    25.0280    -4.8160 
  149.0000     2.3380   110.5300     4.9110     3.6970     3.9230    25.0790    -4.4500 
  149.1250     2.3490   110.3010     4.8850     3.6530     3.8610    25.1750    -4.0840 
  149.2500     2.3670   109.2290     4.8920     3.6280     3.7980    25.2200    -3.8150 
  149.3750     2.3890   106.7360     4.9270     3.6230     3.7520    25.2180    -3.6570 
  149.5000     2.4100   105.5340     4.9830     3.6370     3.8170    25.1610    -3.5770 
  149.6250     2.4210   106.7530     5.0420     3.6640     3.9250    25.0690    -3.5560 
  149.7500     2.4200   106.3410     5.0840     3.6900     4.0000    25.0280    -3.5320 
  149.8750     2.4100   105.9470     5.0900     3.7000     4.0460    25.0820    -3.5030 
