~V
VERS. 2.00: Ver 2.00
~W
STRT.M 55.0000:
STOP.M 270.0000:
STEP.M 0.1250:
NULL. -999.2500:
UWI. F10235:
~C
DEPT.M :
GR.API :
RML.OHMM :
RI. :
RXO.OHMM :
CALI.CM :
DEN.GM/CC :
SP.MV :
~A
# ...
   77.5000    70.1470    10.9500     9.0760    12.7270    24.5290     2.2090   -26.1210 
   77.6250    71.2960    10.8950     9.0490    12.8140    24.5560     2.2200   -26.1390 
   77.7500    72.2380    10.8340     9.0250    12.8860    24.5680     2.2230   -26.1300 
   77.8750    72.1870    10.7380     8.9810    12.9060    24.5690     2.2200   -26.0760 
   78.0000    70.8110    10.5910     8.8930    12.7860    24.5580     2.2160   -25.9350 
   78.1250    70.2460    10.4080     8.7580    12.4420    24.5350     2.2120   -25.6900 
   78.2500    70.6640    10.2490     8.6200    11.9270    24.5090     2.2090   -25.4380 
   78.3750    72.0810    10.1590     8.5150    11.4940    24.4600     2.2060   -25.2590 
   78.5000    73.7830    10.1570     8.4710    11.1020    24.3560     2.2010   -25.1510 
   78.6250    74.9910    10.2270     8.5040    11.9040    24.2480     2.1960   -25.0790 
   78.7500    75.8770    10.3080     8.5850    12.2590    24.1780     2.1910   -24.9620 
   78.8750    76.5790    10.3620     8.6770    12.4180    24.1680     2.1850   -24.7510 
   79.0000    77.5440    10.3970     8.7620    12.5420    24.2020     2.1770   -24.4500 
   79.1250    78.1250    10.5330     8.8870    12.7260    24.2350     2.1730   -24.0720 
   79.2500    77.0640    10.9140     9.1570    12.8500    24.2420     2.1810   -23.6210 
   79.3750    76.7490    11.6400     9.6640    12.9080    24.2310     2.2070   -23.0900 
   79.5000    78.1980    12.6590    10.4230    13.2050    24.2010     2.2480   -22.4450 
   79.6250    78.4510    13.6280    11.2650    15.2740    24.1870     2.2900   -21.6330 
   79.7500    75.8200    14.0170    11.7450    19.7250    24.1820     2.3180   -20.6660 
   79.8750    74.9030    13.4480    11.4200    21.7120    24.1760     2.3300   -19.5470 
   80.0000    80.1860    11.9030    10.1800    15.7560    24.1680     2.3320   -18.2650 
   80.1250    91.8360     9.8030     8.4400    12.0370    24.1760     2.3380   -16.8060 
   80.2500   105.2140     7.9270     6.8940     9.7830    24.2800     2.3490   -15.2810 
   80.3750   117.2990     6.7370     5.8420     7.5570    24.4940     2.3590   -13.7960 
   80.5000   122.0890     6.4340     5.3780     6.3280    24.7080     2.3570   -12.5230 
   80.6250   115.7660     7.1270     5.5930     7.4390    24.6290     2.3350   -11.7520 
   80.7500   102.2810     8.4450     6.3370    11.0530    24.3420     2.2980   -11.5200 
   80.8750    86.1450    10.0350     7.4780    13.4880    24.0720     2.2580   -11.8050 
   81.0000    71.8910    11.4690     8.7500    13.5850    23.9630     2.2230   -12.5590 
   81.1250    64.5820    12.2640     9.7020    12.9270    23.9630     2.2030   -13.7430 
   81.2500    64.5000    12.4230    10.1420    12.9280    23.9420     2.1930   -15.1190 
   81.3750    66.9330    12.1480    10.1560    12.6610    23.8970     2.1870   -16.5390 
   81.5000    66.7730    11.7380     9.9620    12.1930    23.8670     2.1840   -17.8580 
   81.6250    64.0180    11.4500     9.7520    12.4220    23.8570     2.1840   -18.8420 
   81.7500    64.1600    11.3340     9.6000    12.7980    23.8390     2.1900   -19.4480 
   81.8750    66.8700    11.3440     9.5060    12.9070    23.8120     2.2010   -19.7530 
   82.0000    66.6590    11.4060     9.4470    12.6790    23.7980     2.2120   -19.8700 
   82.1250    63.6850    11.4430     9.3950    12.6770    23.7960     2.2190   -19.8540 
   82.2500    62.2230    11.4130     9.3240    13.0100    23.8000     2.2170   -19.7830 
   82.3750    62.6660    11.3040     9.2300    13.1290    23.8250     2.2100   -19.6500 
   82.5000    63.9820    11.1400     9.1240    12.9620    23.9040     2.2000   -19.4390 
   82.6250    67.0440    10.9950     9.0490    12.5120    24.0340     2.1910   -19.1990 
   82.7500    68.8790    10.9740     9.0620    11.9390    24.1240     2.1860   -19.0200 
   82.8750    66.9620    11.1700     9.2270    11.7940    24.1220     2.1860   -18.9120 
   83.0000    64.2940    11.6380     9.5790    12.2330    24.0300     2.1910   -18.8340 
   83.1250    65.2040    12.3760    10.1350    12.6520    23.9190     2.1990   -18.7650 
   83.2500    67.3970    13.1580    10.7570    13.6180    23.8440     2.2060   -18.6780 
   83.3750    67.2510    13.6850    11.2220    14.8460    23.8590     2.2130   -18.5200 
   83.5000    64.4880    13.6270    11.2240    14.5420    23.9160     2.2220   -18.1990 
   83.6250    63.0400    12.6550    10.4290    13.1780    23.9860     2.2410   -17.5860 
   83.7500    70.7260    11.0350     9.0740    11.4530    24.1330     2.2660   -16.6400 
   83.8750    85.4350     9.1560     7.5160     9.0500    24.3880     2.2890   -15.3390 
   84.0000    98.6790     7.4910     6.1360     6.6210    24.7050     2.3040   -13.7810 
   84.1250   102.7180     6.5780     5.2850     5.7590    24.9160     2.3190   -12.1390 
   84.2500   101.8690     6.5310     4.9880     5.6570    25.0050     2.3480   -10.5620 
   84.3750    98.5070     7.3670     5.2680     6.3810    24.9180     2.3900    -9.2330 
   84.5000    91.6590     8.9350     6.1380     9.0860    24.8420     2.4290    -8.3920 
   84.6250    82.8140    10.8310     7.5650    16.5960    24.6360     2.4340    -8.2860 
   84.7500    75.3720    12.3560     9.0590    22.1660    24.3500     2.4000    -8.7810 
   84.8750    72.2040    13.0480    10.0760    18.2690    24.0890     2.3420    -9.7930 
   85.0000    72.5350    12.8340    10.3290    13.4430    23.9660     2.2820   -11.1700 
   85.1250    72.0100    12.0480     9.9640    12.5050    23.9140     2.2410   -12.7660 
   85.2500    70.1640    11.3210     9.5070    12.3690    23.8730     2.2150   -14.4300 
   85.3750    68.2380    10.9350     9.2030    12.1060    23.8560     2.1980   -16.0320 
   85.5000    67.2900    10.8990     9.1120    11.7290    23.8470     2.1870   -17.3970 
   85.6250    65.3790    11.0360     9.1520    11.2730    23.8250     2.1790   -18.3610 
   85.7500    61.7980    11.0840     9.1590    10.7270    23.8020     2.1750   -19.0200 
   85.8750    57.9840    10.9270     9.0480    10.9520    23.8030     2.1720   -19.4180 
   86.0000    57.6380    10.5930     8.8100    11.1800    23.8530     2.1680   -19.5770 
   86.1250    62.5270    10.3330     8.5650    11.1520    23.9820     2.1610   -19.4850 
   86.2500    67.7710    10.5130     8.5490    10.9220    24.0910     2.1620   -19.2200 
   86.3750    69.7250    11.4070     8.9740    10.9290    24.0920     2.1920   -18.8030 
   86.5000    68.5740    13.0440     9.9500    11.3710    23.9790     2.2640   -18.1820 
   86.6250    68.4720    14.9720    11.3880    12.9710    23.9260     2.3680   -17.2320 
   86.7500    71.9850    16.2140    12.6020    18.5140    23.9870     2.4590   -15.9870 
   86.8750    76.5830    16.0200    12.7650    26.2210    24.2420     2.5020   -14.5080 
   87.0000    78.3490    14.2620    11.5160    23.3130    24.5720     2.4850   -12.9240 
   87.1250    79.7640    11.5630     9.4470    11.4900    24.8060     2.4300   -11.3320 
   87.2500    86.7960     9.1010     7.5840     7.5700    24.8700     2.3810    -9.7420 
   87.3750    98.1800     7.4270     6.2650     6.3360    24.8500     2.3550    -8.1700 
   87.5000   107.3850     6.6350     5.5240     6.4190    24.8000     2.3510    -6.7330 
   87.6250   111.3900     6.6220     5.3510     6.4640    24.7750     2.3550    -5.6300 
   87.7500   111.4640     6.9800     5.5300     6.3840    24.7640     2.3560    -4.8650 
   87.8750   108.9410     7.4830     5.9130     6.2560    24.7500     2.3550    -4.4150 
   88.0000   105.3530     7.9560     6.3540     6.5280    24.7270     2.3570    -4.2130 
   88.1250   102.0000     8.2340     6.7030     7.6960    24.7410     2.3670    -4.1800 
   88.2500   100.1520     8.2720     6.8760     9.1050    24.7770     2.3790    -4.2100 
   88.3750    98.2760     8.0790     6.8440     9.0040    24.7970     2.3860    -4.2980 
   88.5000    96.2230     7.7400     6.6560     7.4170    24.8160     2.3800    -4.4760 
   88.6250    94.3410     7.4160     6.4250     6.4680    24.8090     2.3600    -4.7570 
