~V
VERS. 2.00: Ver 2.00
~W
STRT.M 54.0000:
STOP.M 277.0000:
STEP.M 0.1250:
NULL. -999.2500:
UWI. F10247:
~C
DEPT.M :
GR.API :
RML.OHMM :
RI. :
RXO.OHMM :
CALI.CM :
DEN.GM/CC :
SP.MV :
~A
   54.0000  -999.2500  -999.2500  -999.2500  -999.2500  -999.2500  -999.2500    47.4610 
   54.1250  -999.2500  -999.2500  -999.2500  -999.2500  -999.2500  -999.2500    47.7580 
   54.2500  -999.2500  -999.2500  -999.2500  -999.2500  -999.2500  -999.2500    48.0850 
   54.3750  -999.2500  -999.2500  -999.2500  -999.2500  -999.2500  -999.2500    48.4920 
   54.5000  -999.2500  -999.2500  -999.2500  -999.2500  -999.2500  -999.2500    49.0000 
   54.6250  -999.2500  -999.2500  -999.2500  -999.2500  -999.2500  -999.2500    49.5740 
   54.7500  -999.2500  -999.2500  -999.2500  -999.2500  -999.2500  -999.2500    50.0580 
   54.8750  -999.2500  -999.2500  -999.2500  -999.2500  -999.2500  -999.2500    50.3270 
   55.0000  -999.2500  -999.2500  -999.2500  -999.2500  -999.2500  -999.2500    50.2950 
   55.1250  -999.2500  -999.2500  -999.2500  -999.2500  -999.2500     2.3230    49.9080 
   55.2500  -999.2500  -999.2500  -999.2500  -999.2500  -999.2500     2.3230    49.0900 
   55.3750  -999.2500  -999.2500  -999.2500  -999.2500  -999.2500     2.2450    47.9660 
   55.5000  -999.2500  -999.2500  -999.2500  -999.2500  -999.2500     2.1720    46.5680 
   55.6250  -999.2500  -999.2500  -999.2500  -999.2500  -999.2500     2.1100    45.0050 
   55.7500  -999.2500  -999.2500  -999.2500  -999.2500  -999.2500     2.0720    43.5180 
   55.8750  -999.2500  -999.2500  -999.2500  -999.2500  -999.2500     2.0580    42.2690 
   56.0000  -999.2500  -999.2500  -999.2500  -999.2500  -999.2500     2.0620    41.3460 
   56.1250  -999.2500  -999.2500  -999.2500  -999.2500  -999.2500     2.0810    40.8090 
   56.2500  -999.2500  -999.2500  -999.2500  -999.2500  -999.2500     2.1080    40.7190 
   56.3750  -999.2500  -999.2500  -999.2500  -999.2500  -999.2500     2.1350    40.9270 
   56.5000    44.2980     2.6370     0.2480     0.2600    25.5320     2.1560    41.4110 
   56.6250    44.2980     2.6370     0.2480     0.2600    25.5320     2.1700    42.0770 
   56.7500    44.1830     2.5440     0.2500     0.2560    25.5460     2.1790    42.7460 
   56.8750    41.9600     2.4510     0.2530     0.2560    25.5360     2.1880    43.2570 
   57.0000    39.0630     2.3830     0.2570     0.2430    25.5300     2.1970    43.5290 
   57.1250    38.3150     2.3340     0.2630     0.2190    25.5270     2.2020    43.5580 
   57.2500    40.6060     2.2760     0.2730     0.2040    25.4380     2.1960    43.3470 
   57.3750    43.2260     2.1840     0.2830     0.1940    25.2490     2.1740    42.9370 
   57.5000    44.3090     2.0460     0.2900     0.1740    25.1050     2.1330    42.3130 
   57.6250    43.1360     1.8800     0.2890     0.1520    25.1420     2.0780    41.4620 
   57.7500    41.9240     1.7250     0.2800     0.1470    25.3370     2.0210    40.3800 
   57.8750    43.4480     1.6190     0.2680     0.1520    25.4890     1.9800    39.2210 
   58.0000    46.1180     1.5750     0.2570     0.1580    25.5400     1.9670    38.0760 
   58.1250    46.7260     1.5910     0.2520     0.1840    25.5340     1.9760    36.9500 
   58.2500    43.8090     1.6630     0.2530     0.2270    25.5100     1.9890    35.7660 
   58.3750    41.9230     1.7560     0.2570     0.2750    25.5130     1.9810    34.5130 
   58.5000    43.6730     1.8570     0.2610     0.3050    25.5340     1.9540    33.1960 
   58.6250    47.9770     1.9640     0.2620     0.3010    25.5540     1.9200    31.8200 
   58.7500    50.9090     2.0580     0.2550     0.2930    25.5590     1.8940    30.3250 
   58.8750    51.5470     2.0680     0.2360     0.2940    25.5520     1.8810    28.5910 
   59.0000    52.3890     1.8580     0.1990     0.2920    25.5490     1.8810    26.5270 
   59.1250    54.5500     1.3790     0.1480     0.2680    25.5380     1.9080    24.0610 
   59.2500    56.8050     0.8510     0.0970     0.2570    25.5360     2.0040    21.0890 
   59.3750    57.7240     0.4940     0.0590     0.3120    25.5420     2.1580    17.6630 
   59.5000    58.5010     0.3320     0.0420     0.7560    25.5340     2.3190    13.7930 
   59.6250    61.5810     0.3600     0.0560     1.4500    25.4520     2.4270     9.4590 
   59.7500    67.0970     0.7090     0.1630     2.7830    25.1920     2.4450     4.6310 
   59.8750    74.1580     1.5470     0.4490     4.5910    24.8710     2.4070    -0.4140 
   60.0000    80.3390     3.1580     1.0660     6.9040    24.6430     2.3470    -5.4180 
   60.1250    83.4420     5.6180     2.1560     8.1660    24.5300     2.2900   -10.1720 
   60.2500    85.0900     7.7580     3.6430     7.6260    24.5000     2.2440   -14.4200 
   60.3750    85.8830     8.2330     4.9600     7.6730    24.4280     2.2000   -18.1290 
   60.5000    84.6120     7.6920     5.8370     8.3370    24.3160     2.1630   -21.2740 
   60.6250    81.2640     7.2640     6.3670     8.9140    24.2560     2.1420   -23.8150 
   60.7500    79.6860     7.3400     6.6920     9.0790    24.3030     2.1500   -25.5800 
   60.8750    80.3320     7.5510     6.8540     8.9230    24.4390     2.1750   -26.7490 
   61.0000    80.2750     7.6190     6.8250     8.1350    24.5740     2.2050   -27.5250 
   61.1250    79.9600     7.4690     6.6460     7.4240    24.6450     2.2290   -28.0720 
   61.2500    80.5450     7.2260     6.4340     7.4080    24.6570     2.2420   -28.4410 
   61.3750    82.4590     7.0970     6.3010     7.4370    24.6400     2.2540   -28.6890 
   61.5000    85.9780     7.1480     6.2840     7.1040    24.6230     2.2780   -28.8730 
   61.6250    89.4900     7.3320     6.3650     7.0260    24.6730     2.3200   -29.0320 
   61.7500    90.0920     7.5310     6.4770     7.7220    24.7600     2.3670   -29.2000 
   61.8750    89.0890     7.6490     6.5430     9.4250    24.8320     2.3920   -29.4540 
   62.0000    89.9450     7.6830     6.5480    10.9790    24.7910     2.3780   -29.7770 
   62.1250    93.1270     7.7110     6.5390     8.6470    24.7600     2.3340   -30.0960 
   62.2500    94.5840     7.8690     6.6150     7.5690    24.6670     2.2840   -30.4460 
   62.3750    91.4340     8.1790     6.8120     7.2120    24.5640     2.2510   -30.8480 
   62.5000    83.9360     8.5660     7.0950     7.8620    24.4520     2.2380   -31.2310 
   62.6250    76.9850     8.8700     7.3640     8.4480    24.4020     2.2390   -31.5330 
   62.7500    75.5180     8.8780     7.4560     8.3000    24.3870     2.2470   -31.7710 
   62.8750    80.2170     8.6080     7.3320     7.8210    24.3860     2.2520   -31.9460 
   63.0000    87.8690     8.1820     7.0500     7.0110    24.4150     2.2510   -32.0470 
   63.1250    93.4150     7.7740     6.7220     6.5420    24.4210     2.2450   -32.0900 
   63.2500    94.2540     7.5340     6.4650     6.8580    24.3710     2.2370   -32.0800 
   63.3750    93.3190     7.4550     6.3120     7.3000    24.3410     2.2330   -32.0450 
   63.5000    92.5440     7.4890     6.2500     7.2280    24.3940     2.2350   -32.0340 
   63.6250    91.4830     7.5900     6.2370     6.8080    24.5020     2.2420   -32.0740 
   63.7500    88.8550     7.7190     6.2290     6.8220    24.6090     2.2470   -32.1710 
   63.8750    87.2350     7.8340     6.2020     6.9700    24.6290     2.2490   -32.3280 
   64.0000    87.7110     7.8920     6.1480     7.1380    24.5810     2.2510   -32.5500 
   64.1250    89.1750     7.8590     6.0670     7.0450    24.5540     2.2570   -32.8210 
   64.2500    87.9960     7.7370     5.9740     7.4830    24.6610     2.2640   -33.1550 
   64.3750    84.5440     7.6420     5.9210     7.7720    24.7890     2.2660   -33.4900 
   64.5000    80.7350     7.7330     5.9780     8.0060    24.6660     2.2590   -33.8020 
   64.6250    78.3910     8.2400     6.2590     8.3230    24.3070     2.2450   -34.1350 
   64.7500    77.5700     9.6580     7.0510    11.0490    24.1670     2.2370   -34.4710 
   64.8750    76.3950    12.2240     8.5500    16.8810    24.2660     2.2580   -34.7440 
   65.0000    72.3390    16.0260    10.9590    26.3500    24.4810     2.3210   -34.9880 
   65.1250    64.1630    20.6190    14.2320    36.6690    24.6770     2.4080   -35.2600 
