~V
VERS. 2.00: Ver 2.00
~W
STRT.M 55.0000:
STOP.M 276.0000:
STEP.M 0.1250:
NULL. -999.2500:
UWI. F10239:
~C
DEPT.M :
SP.MV :
DEN.GM/CC :
GR.API :
RML.OHMM :
RI. :
RXO.OHMM :
CALI.CM :
~A
# ...
   66.2500   -27.5080     2.1610    70.6710    17.1460    11.7850    27.8130    26.3080 
   66.3750   -28.2050     2.1380    68.6950    15.5940    11.3600    29.4840    26.3470 
   66.5000   -28.8740     2.1300    65.8780    13.2570    10.4360    18.4090    26.4990 
   66.6250   -29.5180     2.1280    65.7550    11.3880     9.4410    11.8160    26.7120 
   66.7500   -30.0900     2.1270    69.1470    10.3990     8.7120    10.2360    26.9250 
   66.8750   -30.5560     2.1300    70.4250    10.0130     8.3160     9.9920    27.1210 
   67.0000   -30.9060     2.1350    68.4250    10.0600     8.2140     9.7800    27.2890 
   67.1250   -31.1320     2.1380    65.7240    10.4330     8.3290     9.7680    27.3760 
   67.2500   -31.2530     2.1400    64.9450    11.0710     8.5860    10.1590    27.3840 
   67.3750   -31.3140     2.1400    65.3940    11.8690     8.8740    10.3770    27.3390 
   67.5000   -31.3180     2.1360    65.0670    12.7130     9.1010    10.3720    27.2690 
   67.6250   -31.2560     2.1230    64.7390    13.3650     9.1820    10.3200    27.2400 
   67.7500   -31.1410     2.0900    65.7580    13.5140     9.0630    10.7830    27.4150 
   67.8750   -30.9990     2.0450    68.6180    13.1970     8.8010    12.9180    27.7790 
   68.0000   -30.8290     2.0210    71.9480    12.6500     8.4670    15.2610    27.9610 
   68.1250   -30.6470     2.0420    73.0330    12.1410     8.1470    12.7270    27.5870 
   68.2500   -30.4690     2.0980    70.2440    11.8550     7.9390    10.2680    27.0550 
   68.3750   -30.3100     2.1460    66.0970    11.8280     7.8950     9.9960    26.8130 
   68.5000   -30.1730     2.1660    64.7540    12.0590     8.0310     9.9300    26.7850 
   68.6250   -30.0750     2.1660    66.8160    12.5010     8.3210     9.8690    26.8380 
   68.7500   -30.0140     2.1530    68.1170    13.0210     8.6760    10.2190    26.8960 
   68.8750   -29.9510     2.1320    66.8350    13.4280     8.9690    11.3460    26.9160 
   69.0000   -29.8760     2.1110    63.9770    13.6150     9.1180    12.3680    26.8760 
   69.1250   -29.7550     2.0970    61.5780    13.5680     9.1050    12.1090    26.8380 
   69.2500   -29.5590     2.0920    60.6040    13.2980     8.9720    11.5010    26.8240 
   69.3750   -29.2840     2.0890    60.9320    12.8220     8.8260    10.9590    26.8210 
   69.5000   -28.9180     2.0850    60.7090    12.2120     8.7430    10.4370    26.8170 
   69.6250   -28.4410     2.0810    59.2030    11.6370     8.7660    10.1320    26.8100 
   69.7500   -27.8560     2.0820    59.4540    11.1660     8.8840    10.4720    26.7760 
   69.8750   -27.2000     2.0890    62.8550    10.7050     9.0050    11.0580    26.6820 
   70.0000   -26.4860     2.0970    66.6630    10.1920     9.0200    11.5290    26.5090 
   70.1250   -25.7440     2.1050    68.6240     9.6190     8.8230    11.8100    26.3030 
   70.2500   -24.9830     2.1180    71.2780     8.9950     8.3440    11.2750    26.2000 
   70.3750   -24.2150     2.1370    77.7190     8.3270     7.6710     9.7850    26.1850 
   70.5000   -23.4810     2.1670    86.5390     7.6390     6.9250     7.8900    26.1410 
   70.6250   -22.8250     2.2090    94.6260     7.0490     6.2720     6.6790    25.9960 
   70.7500   -22.2870     2.2560   100.6650     6.8220     5.9170     6.3130    25.8520 
   70.8750   -21.9080     2.3010   103.3980     7.2410     6.0140     6.2550    25.7620 
   71.0000   -21.7440     2.3520   100.4430     8.6500     6.7650     6.2350    25.7220 
   71.1250   -21.8460     2.4220    91.9900    11.4070     8.4660     7.0390    25.7120 
   71.2500   -22.2500     2.5080    82.1150    15.6690    11.4660    10.7350    25.7120 
   71.3750   -22.8930     2.5790    74.5640    20.5020    15.4240    19.1550    25.7030 
   71.5000   -23.7270     2.6060    69.7900    24.2240    19.2250    30.9660    25.7010 
   71.6250   -24.7010     2.5840    66.9470    24.7930    20.8840    42.6750    25.7020 
   71.7500   -25.7360     2.5200    65.1840    21.5820    19.1610    43.0540    25.7000 
   71.8750   -26.7430     2.4240    63.6680    17.1240    15.8820    29.8470    25.7000 
   72.0000   -27.6540     2.3120    62.0720    13.2820    12.6960    16.4080    25.7020 
   72.1250   -28.3960     2.2160    61.7020    10.7410    10.3310    11.2960    25.7030 
   72.2500   -28.9340     2.1650    63.4990     9.4360     8.8870    10.3940    25.7040 
   72.3750   -29.2810     2.1470    65.4820     8.8500     8.0620    10.3250    25.7020 
   72.5000   -29.4550     2.1440    66.7040     8.6980     7.6770    10.0580    25.6990 
   72.6250   -29.4850     2.1410    68.3960     8.7580     7.5690     9.8070    25.7000 
   72.7500   -29.4040     2.1350    71.8890     8.8870     7.6100     9.7250    25.7020 
   72.8750   -29.2610     2.1310    75.9510     9.0120     7.6990     9.7510    25.7030 
   73.0000   -29.0960     2.1290    77.5600     9.1020     7.7910     9.8720    25.7010 
   73.1250   -28.9530     2.1330    75.1670     9.1250     7.8450    10.0870    25.7070 
   73.2500   -28.8520     2.1420    69.5560     9.0690     7.8340    10.3610    25.7350 
   73.3750   -28.8160     2.1550    65.3390     8.9860     7.7800    10.4960    25.8040 
   73.5000   -28.8480     2.1670    65.0210     8.9350     7.7240    10.3660    25.9090 
   73.6250   -28.9530     2.1750    66.4390     8.9780     7.7100    10.1300    26.0030 
   73.7500   -29.1440     2.1840    66.1070     9.1450     7.7760    10.0920    26.0530 
   73.8750   -29.3820     2.2040    64.9870     9.3790     7.9010    10.2060    26.0760 
   74.0000   -29.6210     2.2370    64.5820     9.6040     8.0390    10.3490    26.1050 
   74.1250   -29.8500     2.2640    64.3560     9.7340     8.1290    10.5070    26.1440 
   74.2500   -30.0710     2.2550    61.5690     9.7100     8.1140    10.6340    26.1570 
   74.3750   -30.2760     2.2110    57.8280     9.5670     8.0030    10.6890    26.1240 
   74.5000   -30.4710     2.1590    56.2180     9.3680     7.8350    10.5660    26.0630 
   74.6250   -30.6490     2.1220    56.4260     9.1850     7.6610    10.3560    25.9730 
   74.7500   -30.7890     2.1060    56.7630     9.0750     7.5310    10.2590    25.8570 
   74.8750   -30.8860     2.0990    57.9820     9.0460     7.4560    10.2480    25.7610 
   75.0000   -30.9540     2.0970    61.4080     9.0760     7.4280    10.2630    25.7150 
   75.1250   -30.9830     2.0980    65.6560     9.1340     7.4270    10.2010    25.7040 
   75.2500   -30.9510     2.0980    67.7580     9.1910     7.4330    10.0970    25.7040 
   75.3750   -30.8810     2.0920    67.0540     9.2330     7.4330     9.8990    25.7050 
   75.5000   -30.7690     2.0760    64.1610     9.2630     7.4240     9.6570    25.7080 
   75.6250   -30.5980     2.0560    60.2860     9.2930     7.4110     9.4610    25.7100 
   75.7500   -30.3650     2.0370    58.7230     9.3360     7.4050     9.3880    25.7080 
   75.8750   -30.1070     2.0210    61.0010     9.3920     7.4160     9.4020    25.7040 
   76.0000   -29.8230     2.0100    64.5990     9.4610     7.4460     9.5610    25.6950 
   76.1250   -29.5070     2.0060    67.2240     9.5350     7.4930    10.3920    25.6710 
   76.2500   -29.1520     2.0210    68.1800     9.6090     7.5480    12.7780    25.5810 
   76.3750   -28.7620     2.0510    67.9530     9.6760     7.6020    15.1880    25.4230 
   76.5000   -28.3390     2.0830    67.3150     9.7330     7.6470    14.5940    25.2380 
   76.6250   -27.8980     2.1020    66.0680     9.7670     7.6750    12.4930    25.1240 
   76.7500   -27.4580     2.1050    63.5650     9.7570     7.6720    11.5860    25.0940 
   76.8750   -27.0570     2.1070    61.8820     9.6850     7.6290    11.4860    25.0880 
   77.0000   -26.6960     2.1090    63.9040     9.5460     7.5440    11.4830    25.0860 
   77.1250   -26.3760     2.1100    68.5710     9.3540     7.4260    11.2830    25.0960 
   77.2500   -26.0930     2.1100    70.7370     9.1500     7.2920    10.8590    25.1040 
   77.3750   -25.8010     2.1100    69.4230     8.9900     7.1750    10.5360    25.1140 
