~V
VERS. 2.00: Ver 2.00
~W
STRT.M 56.0000:
STOP.M 270.0000:
STEP.M 0.1250:
NULL. -999.2500:
UWI. F10225:
~C
DEPT.M :
SP.MV :
DEN.GM/CC :
GR.API :
RML.OHMM :
RI. :
RXO.OHMM :
CALI.CM :
~A
# ...
  236.0000   -18.1570     2.2840    56.0800    27.7340    23.1220    30.0150    24.1420 
  236.1250   -18.1660     2.2880    52.9740    27.9790    23.6500    35.7610    24.2290 
  236.2500   -18.2110     2.2940    53.1840    27.1210    23.2740    35.5800    24.3110 
  236.3750   -18.2620     2.3070    57.5220    25.7680    22.3680    29.6940    24.2840 
  236.5000   -18.2830     2.3250    61.4570    24.5240    21.3770    24.3460    24.0940 
  236.6250   -18.3190     2.3410    62.2080    23.8230    20.6900    23.6150    23.9320 
  236.7500   -18.4080     2.3530    61.4680    23.6150    20.3920    24.4720    23.8460 
  236.8750   -18.4940     2.3620    61.2810    23.5800    20.3380    25.7170    23.7520 
  237.0000   -18.5300     2.3670    61.5510    23.2780    20.2270    25.4600    23.6990 
  237.1250   -18.5570     2.3660    60.6870    22.3000    19.6740    24.5680    23.6440 
  237.2500   -18.5430     2.3630    58.9730    20.7740    18.6440    22.9710    23.6660 
  237.3750   -18.5120     2.3540    57.6600    19.0650    17.3500    20.5070    23.7690 
  237.5000   -18.5010     2.3360    57.3610    17.5350    16.0850    18.7150    23.9580 
  237.6250   -18.5200     2.3140    56.0330    16.5010    15.1290    17.7060    24.0840 
  237.7500   -18.5340     2.3010    53.4760    16.0180    14.5680    17.3450    24.1220 
  237.8750   -18.4960     2.2970    51.4310    16.0310    14.3890    17.0610    24.0770 
  238.0000   -18.4400     2.3010    51.3010    16.4090    14.5150    17.2690    23.9490 
  238.1250   -18.3870     2.3030    53.1220    16.9450    14.8130    18.0100    23.8480 
  238.2500   -18.3380     2.3010    54.9680    17.4270    15.1340    19.1480    23.7910 
  238.3750   -18.2750     2.3000    56.3450    17.7820    15.4230    20.2610    23.7690 
  238.5000   -18.1870     2.3040    57.5450    18.0760    15.7040    20.8340    23.7630 
  238.6250   -18.1150     2.3110    57.6210    18.4820    16.0660    20.8020    23.7630 
  238.7500   -18.0790     2.3180    55.9730    19.1450    16.5890    22.1530    23.7710 
  238.8750   -18.0830     2.3220    53.2470    20.0960    17.3120    27.4560    23.7880 
  239.0000   -18.0990     2.3200    51.3790    21.2360    18.2040    28.7900    23.7980 
  239.1250   -18.1050     2.3110    51.2690    22.3400    19.1360    26.0610    23.7860 
  239.2500   -18.1290     2.2970    52.0900    23.1880    19.9230    24.5940    23.7730 
  239.3750   -18.1990     2.2780    53.4070    23.6480    20.4270    26.2330    23.7700 
  239.5000   -18.2610     2.2590    54.8670    23.7060    20.6010    27.3800    23.7670 
  239.6250   -18.2340     2.2490    55.4560    23.4350    20.4810    25.7810    23.7680 
  239.7500   -18.1340     2.2440    54.1130    23.0150    20.2080    23.8460    23.7760 
  239.8750   -18.0220     2.2430    51.9150    22.6010    19.9040    23.0630    23.7870 
  240.0000   -17.9330     2.2420    51.6820    22.3200    19.6650    23.3250    23.7990 
  240.1250   -17.8900     2.2420    54.8570    22.3180    19.6050    22.8360    23.7960 
  240.2500   -17.8720     2.2420    57.9070    22.6080    19.7530    22.4780    23.7940 
  240.3750   -17.8280     2.2440    58.1020    23.0850    20.0560    23.2680    23.7960 
  240.5000   -17.7980     2.2490    55.7580    23.4920    20.3480    24.6160    23.7910 
  240.6250   -17.8190     2.2570    53.7970    23.3590    20.3220    25.3500    23.7930 
  240.7500   -17.8650     2.2680    53.6890    22.4980    19.8120    25.5040    23.7920 
  240.8750   -17.9010     2.2790    54.9160    21.0490    18.8500    24.3480    23.8010 
  241.0000   -17.9080     2.2900    57.3400    19.3890    17.6360    22.2490    23.7900 
  241.1250   -17.8560     2.2950    59.6200    18.0550    16.5160    19.3580    23.7800 
  241.2500   -17.7750     2.2940    60.9310    17.3580    15.7660    18.1430    23.7730 
  241.3750   -17.7330     2.2890    60.7340    17.3810    15.5280    19.4860    23.7670 
  241.5000   -17.6970     2.2820    58.4880    18.0590    15.8240    20.4390    23.7680 
  241.6250   -17.6170     2.2740    54.8230    19.2250    16.5850    20.3130    23.7630 
  241.7500   -17.5290     2.2650    52.2780    20.4690    17.5090    21.1590    23.7330 
  241.8750   -17.4660     2.2610    52.0950    21.3480    18.2640    23.4370    23.7070 
  242.0000   -17.4130     2.2660    52.7110    21.5600    18.6070    25.2880    23.7330 
  242.1250   -17.3550     2.2760    52.9630    21.0680    18.4430    24.4340    23.7540 
  242.2500   -17.2980     2.2870    53.8770    20.2870    18.0050    23.0130    23.7610 
  242.3750   -17.2430     2.2960    55.2770    19.6660    17.5870    21.9450    23.7610 
  242.5000   -17.1880     2.3020    55.4740    19.5390    17.4570    21.2400    23.7610 
  242.6250   -17.1770     2.3020    53.6840    20.1400    17.8770    22.0390    23.7630 
  242.7500   -17.2110     2.2970    51.9010    21.3450    18.8470    23.7140    23.7680 
  242.8750   -17.2430     2.2890    51.1040    22.9160    20.2280    25.7770    23.7750 
  243.0000   -17.2900     2.2790    50.8020    24.5420    21.7540    28.2540    23.7900 
  243.1250   -17.3990     2.2700    50.0180    25.7340    22.9590    31.6740    23.7920 
  243.2500   -17.5190     2.2650    49.2290    26.1320    23.4790    33.6570    23.7990 
  243.3750   -17.6030     2.2660    49.2340    25.6130    23.1830    32.5600    23.8070 
  243.5000   -17.6580     2.2710    50.2300    24.3250    22.2030    30.7200    23.8130 
  243.6250   -17.7100     2.2780    52.2020    22.6340    20.8460    28.5090    23.8220 
  243.7500   -17.7490     2.2830    53.7650    21.0150    19.4940    26.1300    23.8660 
  243.8750   -17.7860     2.2880    53.4560    19.7840    18.4010    24.0990    23.9560 
  244.0000   -17.8480     2.2940    52.3670    19.0950    17.7070    23.4760    24.0150 
  244.1250   -17.8820     2.3020    54.1150    19.0420    17.5460    21.9180    23.9840 
  244.2500   -17.8840     2.3080    58.4310    19.4630    17.8410    21.1350    23.8940 
  244.3750   -17.8830     2.3120    61.2650    20.0860    18.3890    21.5490    23.8480 
  244.5000   -17.9020     2.3200    60.0550    20.5550    18.8750    22.8570    23.8870 
  244.6250   -17.9480     2.3430    57.7270    20.4150    18.8740    24.2880    23.9320 
  244.7500   -18.0040     2.3740    58.4590    19.5570    18.2570    23.9170    23.8950 
  244.8750   -18.0760     2.3900    61.9320    18.1760    17.1490    20.5810    23.8050 
  245.0000   -18.1190     2.3710    65.8340    16.6500    15.8300    17.6260    23.7700 
  245.1250   -18.1250     2.3380    67.8800    15.4020    14.6390    17.4360    23.7680 
  245.2500   -18.1150     2.3140    67.2800    14.6370    13.7880    17.6550    23.7860 
  245.3750   -18.1380     2.3040    64.8140    14.4620    13.4030    16.7860    23.8230 
  245.5000   -18.2110     2.3050    62.5920    14.9530    13.5780    15.8000    23.8690 
  245.6250   -18.2520     2.3120    62.1710    16.2730    14.5000    16.3070    23.8850 
  245.7500   -18.2490     2.3220    61.4830    18.4440    16.2260    18.6220    23.8600 
  245.8750   -18.2540     2.3310    57.5950    21.4830    18.7940    22.2220    23.8210 
  246.0000   -18.2970     2.3390    52.2360    25.1920    22.0460    26.6710    23.7900 
  246.1250   -18.4180     2.3500    50.2550    28.6770    25.2440    30.2860    23.7760 
  246.2500   -18.5990     2.3620    51.6780    30.7360    27.2920    36.2190    23.7560 
  246.3750   -18.7760     2.3630    53.7170    30.7670    27.5450    43.9630    23.7610 
  246.5000   -18.9330     2.3410    55.2050    29.1720    26.2560    43.4740    23.7760 
  246.6250   -19.1450     2.3010    56.6640    27.0080    24.3180    33.0390    23.8030 
  246.7500   -19.3890     2.2710    56.4680    25.2180    22.6200    26.0040    23.8560 
  246.8750   -19.5890     2.2660    53.7170    24.2090    21.5770    25.0400    23.9240 
  247.0000   -19.7360     2.2840    51.9970    24.1080    21.3160    26.8250    23.9840 
  247.1250   -19.8620     2.3270    55.8600    25.0730    21.9580    28.9670    24.0320 
