~V
VERS. 2.00: Ver 2.00
~W
STRT.M 50.0000:
STOP.M 273.0000:
STEP.M 0.1250:
NULL. -999.2500:
UWI. F10249:
~C
DEPT.M :
DEN.GM/CC :
GR.API :
RML.OHMM :
RI. :
RXO.OHMM :
CALI.CM :
SP.MV :
~A
# ...
  106.2500     2.2050    75.4080     7.4930     6.5360     7.1200    24.3350   -15.8330 
  106.3750     2.1980    76.7850     7.6080     6.5150     7.6080    24.2390   -15.9060 
  106.5000     2.1940    75.6160     7.8680     6.6280     8.2960    24.2390   -15.9600 
  106.6250     2.2020    72.9180     8.2030     6.8520     8.6680    24.2860   -15.9540 
  106.7500     2.2150    72.2520     8.5200     7.1110     8.8720    24.2980   -15.9600 
  106.8750     2.2250    71.8850     8.7700     7.3480     8.9490    24.2840   -15.9760 
  107.0000     2.2230    69.1840     8.9390     7.5300     9.2400    24.3160   -15.9920 
  107.1250     2.2110    66.4730     9.0390     7.6460     9.6180    24.3120   -15.9960 
  107.2500     2.2010    67.0770     9.1090     7.7190     9.6610    24.2750   -15.9890 
  107.3750     2.2010    68.3960     9.1720     7.7650     9.5670    24.2530   -15.9570 
  107.5000     2.2110    70.1820     9.2360     7.7980     9.6000    24.2630   -15.8770 
  107.6250     2.2210    74.7510     9.3010     7.8300     9.6510    24.2340   -15.8120 
  107.7500     2.2200    80.0300     9.3580     7.8610     9.6300    24.1340   -15.7280 
  107.8750     2.2070    83.0590     9.3970     7.8840     9.4690    23.9920   -15.6200 
  108.0000     2.1870    81.2020     9.4190     7.8930     9.5950    23.8580   -15.5220 
  108.1250     2.1730    76.3170     9.4490     7.8970     9.6370    23.7960   -15.4440 
  108.2500     2.1740    73.5930     9.5220     7.9280     9.5810    23.7330   -15.3220 
  108.3750     2.1910    74.4070     9.6580     8.0090     9.1230    23.5810   -15.1900 
  108.5000     2.2190    76.0700     9.8420     8.1390     8.6660    23.3540   -15.1350 
  108.6250     2.2430    74.0840    10.0130     8.2850     8.7880    23.1450   -15.0840 
  108.7500     2.2550    71.2550    10.0960     8.3870     9.5090    22.9940   -14.9950 
  108.8750     2.2520    69.4240    10.0500     8.3990    10.1350    22.9590   -14.9630 
  109.0000     2.2360    68.4150     9.8820     8.3090     9.7080    22.9870   -15.0080 
  109.1250     2.2130    67.3570     9.6500     8.1410     9.3030    23.0070   -15.0650 
  109.2500     2.1910    66.4080     9.4390     7.9630     9.6230    23.1000   -15.1350 
  109.3750     2.1760    65.5120     9.2890     7.8130     9.9130    23.3770   -15.2050 
  109.5000     2.1710    65.7140     9.2020     7.7080     9.7970    23.7160   -15.2300 
  109.6250     2.1770    68.1840     9.1610     7.6470     9.3860    23.8680   -15.2240 
  109.7500     2.1870    69.1430     9.1320     7.6030     9.2370    23.7760   -15.2110 
  109.8750     2.1970    67.5950     9.1070     7.5690     9.4740    23.6580   -15.1510 
  110.0000     2.2040    67.0580     9.0850     7.5440     9.4960    23.7040   -15.0400 
  110.1250     2.2060    70.2320     9.0620     7.5230     9.4900    23.9090   -14.9090 
  110.2500     2.2060    72.1490     9.0280     7.4960     9.4390    24.0600   -14.8080 
  110.3750     2.2030    71.0800     8.9780     7.4580     9.3540    24.0930   -14.7210 
  110.5000     2.2000    70.4320     8.9140     7.4090     9.2330    24.0500   -14.6400 
  110.6250     2.1980    71.4570     8.8390     7.3500     9.1480    23.9690   -14.5890 
  110.7500     2.1990    71.3270     8.7570     7.2850     9.2340    23.9550   -14.5600 
  110.8750     2.2020    70.1770     8.6730     7.2180     9.3010    24.0580   -14.5220 
  111.0000     2.2050    69.6210     8.5990     7.1560     9.2140    24.3330   -14.4680 
  111.1250     2.2060    69.2220     8.5630     7.1160     8.9300    24.5340   -14.4240 
  111.2500     2.2060    68.0280     8.5810     7.1140     8.7220    24.5150   -14.3380 
  111.3750     2.2060    68.5110     8.6480     7.1560     8.9020    24.3340   -14.2240 
  111.5000     2.2080    72.5360     8.7350     7.2320     9.2220    24.2040   -14.1380 
  111.6250     2.2080    74.2290     8.7740     7.3020     9.4400    24.1790   -14.0180 
  111.7500     2.2080    70.8970     8.7100     7.3120     9.6710    24.1650   -13.8560 
  111.8750     2.2070    67.7660     8.5250     7.2270     9.6490    24.1180   -13.7080 
  112.0000     2.2070    69.0680     8.2460     7.0550     9.3990    24.0740   -13.5860 
  112.1250     2.2060    73.3460     7.9520     6.8520     8.8260    24.0320   -13.4070 
  112.2500     2.2060    76.3820     7.7430     6.7040     7.9050    23.8800   -13.2340 
  112.3750     2.2050    78.1300     7.6900     6.6670     7.2180    23.6520   -13.1270 
  112.5000     2.2030    76.4800     7.8200     6.7690     7.9060    23.5440   -13.0460 
  112.6250     2.1990    70.0860     8.1300     7.0260     8.3510    23.5940   -12.9640 
  112.7500     2.1950    65.2670     8.5020     7.3740     8.6630    23.6720   -12.8590 
  112.8750     2.1970    65.4760     8.8040     7.7260     8.8910    23.7250   -12.7210 
  113.0000     2.2100    68.9530     8.8870     7.9530     9.1320    23.7230   -12.5580 
  113.1250     2.2400    72.8720     8.5710     7.8580     9.2430    23.5540   -12.4200 
  113.2500     2.2830    76.1960     7.8970     7.4170     8.7110    23.3310   -12.2310 
  113.3750     2.3270    80.7190     6.9650     6.6890     7.4090    23.2080   -11.9230 
  113.5000     2.3610    87.4710     5.9580     5.8270     6.1030    23.3100   -11.5360 
  113.6250     2.3700    94.9650     5.1430     5.0440     5.2840    23.5840   -11.1720 
  113.7500     2.3590   100.0250     4.6920     4.4930     4.6500    23.9310   -10.8630 
  113.8750     2.3420   103.1280     4.7040     4.2730     4.4920    24.3040   -10.5960 
  114.0000     2.3400   106.3230     5.1790     4.4300     4.7220    24.6540   -10.3680 
  114.1250     2.3730   106.1380     6.0110     4.9930     5.4010    24.8040   -10.1850 
  114.2500     2.4240   100.5110     6.8360     5.7490     7.6740    24.8000   -10.0600 
  114.3750     2.4670    92.4950     7.3250     6.4180    11.7170    24.7190   -10.0250 
  114.5000     2.4760    88.9450     7.2590     6.6760    12.5450    24.6520   -10.0690 
  114.6250     2.4400    92.3090     6.6220     6.3320     8.2330    24.6390   -10.1150 
  114.7500     2.3850    97.1310     5.8280     5.7300     5.8280    24.6690   -10.1710 
  114.8750     2.3340   100.0610     5.1910     5.1690     5.0980    24.7180   -10.2790 
  115.0000     2.3000   101.9130     4.8850     4.8300     5.0020    24.6680   -10.4180 
  115.1250     2.2860   103.8530     4.9490     4.8020     5.0320    24.3520   -10.5530 
  115.2500     2.2850   103.2060     5.1850     4.9610     5.3810    23.9510   -10.7070 
  115.3750     2.2930    98.1540     5.4440     5.1790     5.8040    23.7600   -10.9140 
  115.5000     2.3030    92.7590     5.6180     5.3400     5.9700    23.6780   -11.1230 
  115.6250     2.3100    94.7590     5.6420     5.3700     5.8160    23.5700   -11.3250 
  115.7500     2.3100    99.6320     5.5610     5.2980     5.5120    23.6460   -11.5320 
  115.8750     2.3000   100.4350     5.4220     5.1610     5.3590    23.9600   -11.7120 
  116.0000     2.2860    95.9190     5.2930     4.9990     5.7380    24.2450   -11.8850 
  116.1250     2.2740    91.3440     5.3150     4.8940     6.1220    24.2010   -12.0820 
  116.2500     2.2730    90.4350     5.6230     4.9520     6.0270    23.9580   -12.2530 
  116.3750     2.2970    91.3840     6.3400     5.2930     6.0870    23.8120   -12.3720 
  116.5000     2.3530    91.4250     7.5070     6.0100     6.5600    23.9210   -12.4880 
  116.6250     2.4350    86.5110     9.0270     7.1700     8.9040    24.0570   -12.6480 
  116.7500     2.5080    79.6740    10.4680     8.5190    14.6480    24.0570   -12.8080 
  116.8750     2.5440    76.5200    11.3960     9.6560    20.3560    24.0470   -12.9450 
  117.0000     2.5250    77.1400    11.5250    10.1350    18.8300    24.0420   -13.0530 
  117.1250     2.4560    78.3400    10.8330     9.7360    12.5400    23.9220   -13.1810 
  117.2500     2.3740    78.3840     9.8690     8.9650     9.7480    23.7850   -13.3480 
  117.3750     2.3000    78.2100     9.0070     8.1910     9.8170    23.7560   -13.4810 
