~V
VERS. 2.00: Ver 2.00
~W
STRT.M 54.0000:
STOP.M 277.0000:
STEP.M 0.1250:
NULL. -999.2500:
UWI. F10247:
~C
DEPT.M :
GR.API :
RML.OHMM :
RI. :
RXO.OHMM :
CALI.CM :
DEN.GM/CC :
SP.MV :
~A
# ...
  177.7500    65.2190   129.9610   116.5310    86.6420    24.0290     2.1580   -27.0640 
  177.8750    64.0730   127.9240   115.6070    98.4500    24.2760     2.1660   -27.0940 
  178.0000    62.7140   122.1360   111.1390   129.6630    24.6400     2.1880   -27.1050 
  178.1250    61.8040   112.8720   103.2320   121.2730    24.9490     2.2320   -27.1010 
  178.2500    61.9160   101.8220    93.1340    73.7870    25.1610     2.2750   -27.0850 
  178.3750    63.5060    91.9290    83.5880    46.0780    25.2310     2.2930   -27.0470 
  178.5000    66.2200    84.8160    76.2250    41.6340    25.1280     2.2770   -27.0010 
  178.6250    69.0720    81.0060    71.6710    45.1270    24.9880     2.2430   -26.9260 
  178.7500    71.4400    80.7830    70.2520    52.0760    24.9130     2.2100   -26.8460 
  178.8750    73.1740    83.2800    71.2240    50.6870    24.9230     2.1830   -26.7470 
  179.0000    74.0700    88.4840    74.4880    53.5510    24.9550     2.1580   -26.6440 
  179.1250    73.1390    96.9020    80.3170    60.5450    25.0020     2.1260   -26.5560 
  179.2500    70.9610   110.2350    90.0480    58.4140    25.0530     2.0880   -26.4120 
  179.3750    67.3800   128.0090   103.5390    59.4110    25.1190     2.0550   -26.2730 
  179.5000    62.3350   148.0770   119.4340    82.2220    25.0910     2.0340   -26.1120 
  179.6250    57.6590   164.9950   133.7980   115.5460    25.0130     2.0310   -25.9780 
  179.7500    56.0780   168.9320   139.0780   130.5840    24.9670     2.0510   -25.8260 
  179.8750    57.9170   159.3530   133.7040   117.2800    24.9530     2.0910   -25.6960 
  180.0000    61.3260   142.3030   121.1740    97.8420    24.9270     2.1420   -25.5600 
  180.1250    63.3690   126.0850   107.6860    81.3820    24.8670     2.1870   -25.4370 
  180.2500    62.7040   117.0430    98.9020    72.2340    24.8430     2.2100   -25.3510 
  180.3750    62.3020   114.7150    95.5240    66.8040    24.8440     2.2180   -25.2710 
  180.5000    63.8270   117.1080    96.5170    74.0470    24.8680     2.2200   -25.1990 
  180.6250    66.0840   120.7840    99.5330    91.8710    24.8850     2.2200   -25.1220 
  180.7500    64.9020   120.2690   100.4380   100.4430    24.9120     2.2200   -25.0460 
  180.8750    61.6980   113.0780    96.5000    93.5010    24.9050     2.2200   -24.9980 
  181.0000    60.2810   100.5680    87.9570    83.0750    24.8690     2.2240   -24.9540 
  181.1250    62.6080    86.8450    77.5500    71.8840    24.8210     2.2340   -24.9230 
  181.2500    65.1120    76.6010    69.0370    56.2680    24.6960     2.2510   -24.9170 
  181.3750    64.7170    71.1650    64.1050    44.8960    24.5110     2.2670   -24.9270 
  181.5000    63.2350    70.5550    63.1150    47.6150    24.4140     2.2780   -24.9600 
  181.6250    62.8840    74.3910    65.8800    54.9410    24.4060     2.2790   -24.9920 
  181.7500    64.0350    83.1940    72.8870    62.4800    24.4030     2.2680   -25.0550 
  181.8750    64.9790    95.9230    83.5180    71.6980    24.4120     2.2460   -25.0910 
  182.0000    63.4600   110.6460    96.6460    68.7980    24.3950     2.2130   -25.1680 
  182.1250    59.0530   122.1260   108.2150    58.6230    24.3190     2.1740   -25.2380 
  182.2500    54.9290   119.4410   108.4900    62.3480    24.1700     2.1430   -25.3270 
  182.3750    52.6010   101.6710    94.8950    88.6740    24.1100     2.1340   -25.4130 
  182.5000    51.4340    76.8870    73.4510    97.4080    24.1000     2.1580   -25.4990 
  182.6250    55.6560    55.5410    53.6140    49.9040    24.0300     2.2050   -25.5950 
  182.7500    67.3580    44.5830    42.0510    24.0430    23.9290     2.2440   -25.7090 
  182.8750    75.4500    42.9650    38.1540    21.1180    23.8830     2.2530   -25.8430 
  183.0000    71.6920    50.2940    41.6660    38.5700    23.8880     2.2360   -25.9710 
  183.1250    60.0980    66.7350    53.1630    99.1560    23.9750     2.2080   -26.0970 
  183.2500    52.7230    93.2900    74.7710   252.1380    24.0650     2.1910   -26.2030 
  183.3750    52.0440   123.2330   101.6540   269.2630    24.1620     2.1880   -26.2810 
  183.5000    54.6510   145.1640   124.1120   183.8050    24.2870     2.1950   -26.3370 
  183.6250    58.5000   149.2640   132.1810   117.3000    24.4480     2.2030   -26.3620 
  183.7500    61.9710   137.6010   124.8670    99.9730    24.5800     2.2100   -26.3410 
  183.8750    62.9910   123.7250   113.4340    97.9720    24.6270     2.2180   -26.2930 
  184.0000    61.8730   112.0240   102.6590   104.6930    24.6020     2.2220   -26.2030 
  184.1250    61.1560   102.2950    93.2530    94.9240    24.4870     2.2230   -26.1010 
  184.2500    64.4160    93.4910    84.6530    79.2830    24.2900     2.2240   -25.9630 
  184.3750    68.3080    85.3080    76.6310    77.1470    24.1100     2.2310   -25.8280 
  184.5000    67.7750    78.3150    69.6690    75.1430    24.0210     2.2450   -25.6700 
  184.6250    62.2910    73.2040    64.3700    63.0300    24.0100     2.2630   -25.5300 
  184.7500    58.1240    70.9220    61.6110    53.3160    24.0440     2.2750   -25.3670 
  184.8750    60.2090    71.1720    61.1790    53.4720    24.0450     2.2770   -25.2260 
  185.0000    64.1630    73.7670    62.9400    55.9880    24.0320     2.2680   -25.0840 
  185.1250    64.8890    78.4230    66.6550    54.6780    24.0160     2.2550   -24.9460 
  185.2500    62.7580    84.7270    72.0130    57.7120    24.0030     2.2440   -24.8060 
  185.3750    61.0050    91.1570    77.6770    62.8740    23.9900     2.2380   -24.6510 
  185.5000    60.1280    96.1640    82.2650    71.2520    23.9590     2.2370   -24.5010 
  185.6250    60.0290    98.3100    84.4670    79.4490    23.8980     2.2420   -24.3440 
  185.7500    62.0210    96.1950    82.9530    79.3360    23.7840     2.2510   -24.1840 
  185.8750    64.4550    90.9550    78.5590    71.2660    23.7050     2.2620   -24.0090 
  186.0000    66.6350    84.0850    72.4670    58.3570    23.5820     2.2700   -23.8300 
  186.1250    69.4240    77.1800    66.0650    50.7610    23.4230     2.2780   -23.6440 
  186.2500    72.4900    71.3910    60.4390    49.0510    23.2590     2.2840   -23.4590 
  186.3750    72.6610    66.8720    55.8160    46.5620    23.2510     2.2890   -23.2880 
  186.5000    69.8210    63.8980    52.3990    43.9210    23.4130     2.2950   -23.1360 
  186.6250    67.2010    63.0850    50.6000    42.2520    23.7770     2.2980   -22.9870 
  186.7500    66.3750    66.1280    51.5930    40.7890    24.2000     2.2930   -22.8900 
  186.8750    64.7170    74.0000    56.0830    40.6660    24.4010     2.2780   -22.7930 
  187.0000    62.5020    88.2300    65.3340    47.4220    24.4540     2.2540   -22.7370 
  187.1250    62.0570   110.1480    80.5620    67.1110    24.4590     2.2240   -22.6780 
  187.2500    63.0900   141.4180   103.1930   112.4800    24.4540     2.1950   -22.6510 
  187.3750    63.3540   178.4440   130.3610   145.5070    24.4510     2.1710   -22.6390 
  187.5000    62.4760   216.6590   158.5360   143.5920    24.4520     2.1550   -22.6280 
  187.6250    60.5270   251.6120   184.3820   137.8350    24.4540     2.1470   -22.6310 
  187.7500    57.1260   282.0950   206.9010   163.2810    24.4540     2.1460   -22.6120 
  187.8750    53.9640   311.6080   228.5740   217.2950    24.4560     2.1490   -22.6140 
  188.0000    52.6180   340.0680   249.6830   252.0320    24.4640     2.1500   -22.5930 
  188.1250    52.3420   361.6370   266.8140   254.3150    24.4770     2.1450   -22.5780 
  188.2500    52.1330   363.7090   271.5770   282.1160    24.4690     2.1380   -22.5470 
  188.3750    52.4610   344.6540   261.5690   349.5870    24.4770     2.1360   -22.5000 
  188.5000    52.0860   308.9940   238.4970   346.3920    24.5100     2.1460   -22.4530 
  188.6250    49.7410   264.9100   207.4590   249.6300    24.5410     2.1660   -22.3850 
  188.7500    48.7500   220.5950   174.3590   172.7240    24.5450     2.1860   -22.3170 
  188.8750    51.3790   181.5500   144.1950   122.4170    24.5360     2.1990   -22.2220 
