~V
VERS. 2.00: Ver 2.00
~W
STRT.M 56.0000:
STOP.M 270.0000:
STEP.M 0.1250:
NULL. -999.2500:
UWI. F10225:
~C
DEPT.M :
SP.MV :
DEN.GM/CC :
GR.API :
RML.OHMM :
RI. :
RXO.OHMM :
CALI.CM :
~A
# ...
  146.0000   -16.4260     2.3110    83.3690     7.0510     4.9440     5.9860    24.2490 
  146.1250   -16.3420     2.3140    85.8230     6.9830     4.9210     5.9090    24.2500 
  146.2500   -16.2090     2.3170    86.5930     6.8570     4.8730     5.8410    24.2940 
  146.3750   -16.0650     2.3230    84.1830     6.7400     4.8170     5.7770    24.4740 
  146.5000   -15.9590     2.3320    80.2220     6.6750     4.7640     5.6760    24.8340 
  146.6250   -15.9150     2.3410    77.2140     6.6740     4.7270     5.5820    25.1450 
  146.7500   -15.8950     2.3440    76.0370     6.7000     4.7080     5.5010    25.2380 
  146.8750   -15.8590     2.3390    76.0780     6.7190     4.7100     5.4270    25.0920 
  147.0000   -15.8090     2.3320    76.7060     6.7180     4.7250     5.3920    24.8820 
  147.1250   -15.8030     2.3340    78.2940     6.6990     4.7400     5.4930    24.8040 
  147.2500   -15.8510     2.3430    79.6520     6.6690     4.7370     5.7090    24.8440 
  147.3750   -15.9400     2.3500    79.2740     6.6230     4.7090     5.8460    24.8640 
  147.5000   -16.0350     2.3520    78.3310     6.5510     4.6620     5.8070    24.8250 
  147.6250   -16.1080     2.3470    79.3180     6.4430     4.6070     5.6690    24.7130 
  147.7500   -16.1550     2.3400    80.3050     6.3130     4.5520     5.6210    24.4840 
  147.8750   -16.1790     2.3360    79.0770     6.1830     4.4990     5.7180    24.2500 
  148.0000   -16.2040     2.3360    76.6280     6.0710     4.4440     5.8710    24.2060 
  148.1250   -16.2310     2.3380    75.6750     5.9920     4.3830     5.8600    24.3710 
  148.2500   -16.2680     2.3370    76.4650     5.9320     4.3080     5.7480    24.5220 
  148.3750   -16.3060     2.3360    78.4170     5.8640     4.2110     5.5130    24.5880 
  148.5000   -16.3330     2.3350    80.6750     5.7570     4.0910     5.1760    24.6390 
  148.6250   -16.3500     2.3360    81.8870     5.6010     3.9640     4.9070    24.6700 
  148.7500   -16.3730     2.3390    81.0250     5.4260     3.8640     4.7460    24.5610 
  148.8750   -16.4190     2.3430    78.3820     5.2750     3.8150     4.6310    24.3020 
  149.0000   -16.4820     2.3450    77.3280     5.1800     3.8170     4.6420    23.9350 
  149.1250   -16.5730     2.3430    80.0420     5.1590     3.8470     4.7090    23.6350 
  149.2500   -16.6630     2.3390    83.9640     5.1860     3.8680     4.7400    23.3590 
  149.3750   -16.7150     2.3370    86.6820     5.2310     3.8610     4.7430    23.0780 
  149.5000   -16.7140     2.3390    87.8000     5.2660     3.8260     4.7100    22.8710 
  149.6250   -16.6840     2.3420    88.0760     5.2720     3.7780     4.6960    22.7730 
  149.7500   -16.6680     2.3440    87.7420     5.2460     3.7330     4.7450    22.7480 
  149.8750   -16.6750     2.3450    87.1380     5.1990     3.6970     4.7590    22.7500 
  150.0000   -16.6800     2.3450    87.1530     5.1540     3.6740     4.7220    22.7340 
  150.1250   -16.6350     2.3460    87.7350     5.1380     3.6800     4.6670    22.7010 
  150.2500   -16.5570     2.3470    88.9420     5.1730     3.7300     4.7720    22.6950 
  150.3750   -16.4880     2.3510    90.8380     5.2580     3.8220     4.9810    22.7370 
  150.5000   -16.4590     2.3570    92.5700     5.3720     3.9380     5.1470    22.7820 
  150.6250   -16.4900     2.3620    93.4080     5.4720     4.0320     5.1110    22.7910 
  150.7500   -16.5610     2.3650    94.1080     5.5180     4.0650     5.0200    22.7830 
  150.8750   -16.6510     2.3690    94.8340     5.4840     4.0240     4.9630    22.8090 
  151.0000   -16.7540     2.3720    94.4540     5.3710     3.9320     5.0450    22.8890 
  151.1250   -16.8720     2.3680    92.1260     5.2200     3.8360     5.1410    22.9530 
  151.2500   -17.0030     2.3580    89.3350     5.1200     3.7840     5.1240    22.9530 
  151.3750   -17.1540     2.3460    87.3280     5.1750     3.8280     5.0380    22.9100 
  151.5000   -17.3280     2.3350    87.0540     5.4690     4.0200     5.1150    22.8650 
  151.6250   -17.5150     2.3280    88.3820     6.0620     4.4180     5.6270    22.8580 
  151.7500   -17.6970     2.3280    87.5900     6.8470     4.9840     6.4790    22.8830 
  151.8750   -17.8370     2.3310    83.1580     7.6440     5.6170     7.4110    22.8820 
  152.0000   -17.9300     2.3310    79.1120     8.2520     6.1700     8.1720    22.8310 
  152.1250   -18.0020     2.3200    79.5740     8.4660     6.4570     8.3560    22.7470 
  152.2500   -18.0810     2.3020    81.3690     8.3140     6.4480     7.9830    22.6640 
  152.3750   -18.1750     2.2890    81.0320     7.9270     6.2110     7.5680    22.6090 
  152.5000   -18.2610     2.2860    79.8580     7.4560     5.8430     7.3820    22.5790 
  152.6250   -18.2910     2.2910    80.0680     7.0640     5.4610     6.9790    22.5520 
  152.7500   -18.2530     2.2960    80.4530     6.8290     5.1660     6.6200    22.5150 
  152.8750   -18.2160     2.2990    79.6810     6.7620     5.0140     6.1600    22.4750 
  153.0000   -18.2440     2.3020    78.8170     6.8420     5.0180     5.7280    22.4530 
  153.1250   -18.3250     2.3080    78.7790     7.0570     5.1780     6.0160    22.4630 
  153.2500   -18.4100     2.3120    78.4900     7.3820     5.4540     6.9840    22.4810 
  153.3750   -18.4750     2.3110    77.2170     7.8160     5.8130     7.8020    22.4620 
  153.5000   -18.5290     2.3030    76.0680     8.3900     6.2580     7.8380    22.3980 
  153.6250   -18.6210     2.2910    76.1410     9.1560     6.8230     7.9440    22.3650 
  153.7500   -18.7740     2.2780    76.8650    10.0670     7.4980     8.7800    22.3720 
  153.8750   -18.9590     2.2680    76.2860    11.0160     8.2380     9.9360    22.3590 
  154.0000   -19.1400     2.2610    73.5880    11.8450     8.9490    10.5670    22.3570 
  154.1250   -19.2980     2.2600    72.8370    12.3000     9.4410    10.4850    22.4610 
  154.2500   -19.4400     2.2620    75.1760    12.2710     9.5890    10.2430    22.6570 
  154.3750   -19.5650     2.2630    77.4010    11.8240     9.3830    10.1730    22.8640 
  154.5000   -19.6810     2.2610    76.1690    11.1790     8.9450     9.8340    23.0160 
  154.6250   -19.7960     2.2560    73.1100    10.6220     8.4730     8.8860    23.0430 
  154.7500   -19.9170     2.2470    71.2070    10.3220     8.1260     8.0610    22.9950 
  154.8750   -20.0290     2.2400    70.7610    10.3180     7.9770     8.1870    22.9450 
  155.0000   -20.1110     2.2400    71.5590    10.5700     8.0310     9.3920    22.9130 
  155.1250   -20.1750     2.2420    72.5210    11.0320     8.2800    10.3640    22.9010 
  155.2500   -20.2220     2.2420    72.0240    11.6790     8.6910     9.9110    22.8910 
  155.3750   -20.2460     2.2370    70.5350    12.5420     9.2750     9.2670    22.8600 
  155.5000   -20.2560     2.2290    68.6660    13.6850    10.0710     9.7390    22.8270 
  155.6250   -20.2610     2.2250    67.0380    15.1860    11.1620    11.7270    22.8270 
  155.7500   -20.2400     2.2270    66.3010    16.9530    12.5140    15.0220    22.8490 
  155.8750   -20.1520     2.2330    66.6800    18.7290    13.9760    17.9360    22.8640 
  156.0000   -20.0040     2.2380    67.1290    20.1030    15.2460    18.4340    22.8470 
  156.1250   -19.8200     2.2400    65.4300    20.5180    15.8530    17.2240    22.7610 
  156.2500   -19.6430     2.2360    62.5110    19.9300    15.6800    16.8020    22.6410 
  156.3750   -19.5050     2.2290    60.5880    18.6440    14.9070    15.7020    22.5080 
  156.5000   -19.3880     2.2180    60.0940    17.1270    13.8790    13.4380    22.3690 
  156.6250   -19.2250     2.2060    61.1350    15.8810    12.9780    11.8880    22.2600 
  156.7500   -19.0330     2.1970    63.4210    15.1320    12.4010    11.6320    22.2030 
  156.8750   -18.8830     2.1920    66.3100    14.9020    12.2020    12.2200    22.1920 
  157.0000   -18.7920     2.1920    68.0450    15.1000    12.3570    13.0010    22.1900 
  157.1250   -18.7690     2.1970    67.1230    15.5820    12.7990    13.4960    22.1520 
