~V
VERS. 2.00: Ver 2.00
~W
STRT.M 48.0000:
STOP.M 276.0000:
STEP.M 0.1250:
NULL. -999.2500:
UWI. F10244:
~C
DEPT.M :
GR.API :
RML.OHMM :
RI. :
RXO.OHMM :
CALI.CM :
DEN.GM/CC :
SP.MV :
~A
   48.0000    39.0660    23.5250     3.9260     1.3160    25.9000  -999.2500  -999.2500 
   48.1250    39.5660    21.3910     3.9550     1.2560    25.8970  -999.2500  -999.2500 
   48.2500    40.9720    19.5670     3.9030     1.2460    25.8890  -999.2500  -999.2500 
   48.3750    40.8710    18.3420     3.8370     1.2350    25.8980  -999.2500  -999.2500 
   48.5000    40.6650    17.4850     3.7620     1.2320    25.9050  -999.2500  -999.2500 
   48.6250    40.2140    16.7340     3.6920     1.2300    25.9080  -999.2500  -999.2500 
   48.7500    40.2140    16.0300     3.6340     1.2280    25.9090  -999.2500  -999.2500 
   48.8750    40.9330    15.7250     3.5950     1.2300    25.9020  -999.2500  -999.2500 
   49.0000    41.0010    16.2680     3.5670     1.2340    25.8960  -999.2500  -999.2500 
   49.1250    39.9380    18.0620     3.5450     1.2350    25.9010  -999.2500  -999.2500 
   49.2500    39.3720    21.0200     3.5260     1.2180    25.9150  -999.2500  -999.2500 
   49.3750    41.4930    23.8940     3.5090     1.2240    25.9300  -999.2500  -999.2500 
   49.5000    44.4080    25.0330     3.4900     1.2320    25.9400  -999.2500   312.9350 
   49.6250    46.4180    23.9550     3.4650     1.2730    25.9470  -999.2500   312.9350 
   49.7500    46.2310    21.4690     3.4310     1.3080    25.9500  -999.2500   312.5240 
   49.8750    43.5850    19.0290     3.3880     1.2800    25.9530  -999.2500   311.0940 
   50.0000    41.9940    17.4000     3.3420     1.2950    25.9550  -999.2500   308.6610 
   50.1250    44.0170    16.4970     3.2920     1.3280    25.9480  -999.2500   305.0310 
   50.2500    48.7850    15.9150     3.2410     1.2860    25.9370  -999.2500   299.9800 
   50.3750    50.6680    15.2760     3.1910     1.3010    25.9240  -999.2500   292.8210 
   50.5000    49.2600    14.5750     3.1520     1.2590    25.9270  -999.2500   283.3590 
   50.6250    48.3720    14.0290     3.1350     1.2400    25.9100  -999.2500   271.4310 
   50.7500    49.5760    13.8090     3.1450     1.2400    25.8900  -999.2500   257.3920 
   50.8750    50.4800    13.7480     3.1770     1.2490    25.8730  -999.2500   241.6940 
   51.0000    48.8400    13.2980     3.2090     1.2470    25.8520  -999.2500   224.9970 
   51.1250    46.2180    12.1930     3.2230     1.2360    25.8300  -999.2500   207.4590 
   51.2500    44.9360    10.7080     3.2100     1.2280    25.8190     0.0000   189.1370 
   51.3750    44.8560     9.6040     3.1700     1.2310    25.8170     0.0000   170.4110 
   51.5000    44.7130     9.3880     3.1190     1.2330    25.8170     0.0000   151.9840 
   51.6250    44.3760    10.1890     3.0670     1.2240    25.8180     1.4850   134.2870 
   51.7500    43.9890    11.6690     3.0160     1.2130    25.8200     1.9860   117.4970 
   51.8750    44.0590    12.8510     2.9660     1.2190    25.8200     1.9980   101.8110 
   52.0000    44.5510    13.0760     2.9180     1.2350    25.8180     2.0130    86.9870 
   52.1250    44.8790    12.5000     2.8730     1.2650    25.8150     2.0230    73.2870 
   52.2500    43.9890    11.5910     2.8300     1.2950    25.8160     2.0240    61.3350 
   52.3750    42.6270    10.5110     2.7910     1.2940    25.8200     2.0170    51.7910 
   52.5000    43.1520     9.3160     2.7540     1.3070    25.8220     2.0080    44.2100 
   52.6250    44.6690     8.3160     2.7190     1.3230    25.8220     2.0010    38.3630 
   52.7500    45.4350     7.9120     2.6870     1.3440    25.8220     1.9970    34.0060 
   52.8750    43.7350     8.2640     2.6560     1.2800    25.8220     1.9980    31.2110 
   53.0000    41.1130     8.8380     2.6190     1.2900    25.8160     2.0010    29.5270 
   53.1250    40.1460     9.1940     2.5650     1.4640    25.8010     2.0060    28.7130 
   53.2500    41.8020     9.2710     2.4890     2.0950    25.7760     2.0120    28.3750 
   53.3750    44.1180     9.7330     2.3870     3.0070    25.7620     2.0200    28.1030 
   53.5000    45.4080    11.1710     2.2720     2.6450    25.7540     2.0300    27.8830 
   53.6250    45.1140    13.2990     2.1500     1.9910    25.7440     2.0430    27.7240 
   53.7500    43.2930    15.0060     2.0240     2.0120    25.7240     2.0590    27.7460 
   53.8750    40.9620    14.7420     1.8850     2.6030    25.7040     2.0800    27.8370 
   54.0000    39.7330    12.4440     1.7280     3.5280    25.6870     2.1060    27.9920 
   54.1250    40.1900     8.8060     1.5450     5.0030    25.6640     2.1360    28.1530 
   54.2500    41.6960     5.0880     1.3220     4.2250    25.6310     2.1690    28.2860 
   54.3750    42.6340     2.6620     1.0480     2.7500    25.6050     2.2170    28.4350 
   54.5000    43.3110     1.4730     0.7600     1.9230    25.6040     2.2920    28.5680 
   54.6250    44.0770     0.9470     0.5070     2.0210    25.5800     2.4010    28.6290 
   54.7500    45.6120     0.6120     0.3220     2.2560    25.4070     2.5300    28.3430 
   54.8750    47.1760     0.3530     0.2180     2.2310    24.9910     2.6260    27.2950 
   55.0000    49.9870     0.1840     0.1670     2.0670    24.5030     2.6370    25.3940 
   55.1250    54.3770     0.1210     0.1590     1.8600    24.3060     2.5360    22.7010 
   55.2500    58.4970     0.1770     0.1950     1.7630    24.4640     2.3360    19.3190 
   55.3750    59.0480     0.3870     0.3120     1.9680    24.8460     2.0900    15.3010 
   55.5000    57.2610     0.7330     0.5480     2.4880    25.4550     1.8730    10.7750 
   55.6250    54.4780     1.1740     0.9640     3.8920    26.9720     1.7250     5.8750 
   55.7500    52.1910     2.0290     1.6190     6.1730    29.7250     1.6540     0.8700 
   55.8750    51.6440     3.0130     2.5630     7.7360    32.2120     1.6510    -3.7490 
   56.0000    52.1430     4.1420     3.6450     8.0990    33.4370     1.6740    -7.7550 
   56.1250    52.1610     5.2250     4.6830     8.4340    34.1890     1.7000   -11.1270 
   56.2500    51.8690     6.1070     5.5300     9.2340    34.2800     1.7130   -13.9220 
   56.3750    52.6350     6.7190     6.1160     9.4450    33.0600     1.7160   -16.1860 
   56.5000    54.1220     7.1490     6.5280     8.4500    30.8670     1.7280   -18.0150 
   56.6250    54.8340     7.4240     6.7920     7.3790    28.0530     1.7690   -19.4630 
   56.7500    54.2040     7.5400     6.9040     6.7750    24.9430     1.8490   -20.6250 
   56.8750    53.6360     7.4800     6.8450     6.7480    23.2470     1.9540   -21.4920 
   57.0000    53.6040     7.3160     6.6880     6.7860    22.9260     2.0420   -22.1600 
   57.1250    53.9820     7.1170     6.4970     6.5790    23.5520     2.0800   -22.5510 
   57.2500    55.8980     6.9470     6.3350     6.1210    24.6180     2.0550   -22.7360 
   57.3750    58.8160     6.8720     6.2630     5.8100    25.9470     1.9700   -22.6660 
   57.5000    59.1720     6.9000     6.2890     5.8160    27.2980     1.8660   -22.4380 
   57.6250    55.9370     7.0250     6.4090     6.0190    28.6960     1.7760   -22.0410 
   57.7500    54.0310     7.2290     6.6050     6.5780    29.6750     1.7310   -21.4630 
   57.8750    56.7490     7.4840     6.8490     7.0480    28.8400     1.7610   -20.7830 
   58.0000    62.0090     7.7080     7.0650     7.6420    26.3620     1.8510   -20.0900 
   58.1250    66.6850     7.8130     7.1650     8.2490    24.2220     1.9730   -19.4630 
   58.2500    70.1020     7.7260     7.0820     8.5850    23.2290     2.0930   -18.8850 
   58.3750    74.7870     7.4360     6.8040     8.3440    23.1460     2.1720   -18.3450 
   58.5000    80.6600     7.0900     6.4720     7.6040    23.4020     2.2080   -17.8340 
   58.6250    84.8540     6.8280     6.2210     6.9470    23.6400     2.2110   -17.4430 
   58.7500    84.1740     6.7630     6.1580     6.9520    23.5750     2.1980   -17.2660 
   58.8750    80.7330     6.9770     6.3640     7.6800    23.2130     2.1840   -17.3180 
   59.0000    78.6880     7.3810     6.7500     8.5690    22.8760     2.1780   -17.4830 
   59.1250    76.5240     7.8610     7.2110     9.0410    22.7390     2.1780   -17.7030 
