~V
VERS. 2.00: Ver 2.00
~W
STRT.M 52.0000:
STOP.M 254.0000:
STEP.M 0.1250:
NULL. -999.2500:
UWI. F10213:
~C
DEPT.M :
DEN.GM/CC :
GR.API :
RML.OHMM :
RI. :
RXO.OHMM :
CALI.CM :
SP.MV :
~A
# ...
  130.7500     2.4750    80.3450    32.7970    29.8470    31.2950    24.9630   -19.2660 
  130.8750     2.4960    78.8550    32.5880    29.6090    32.6150    24.8770   -19.3180 
  131.0000     2.5190    75.9790    31.8660    28.9850    34.1830    24.7620   -19.3360 
  131.1250     2.5380    71.0350    30.5820    27.8910    34.3720    24.7430   -19.3510 
  131.2500     2.5460    68.5110    29.1780    26.6650    30.1440    24.7380   -19.3690 
  131.3750     2.5430    70.6900    28.0780    25.6680    25.7160    24.6940   -19.4110 
  131.5000     2.5370    73.8030    27.6100    25.1960    24.9540    24.6910   -19.4760 
  131.6250     2.5420    74.7140    28.0790    25.5390    25.4870    24.7460   -19.5750 
  131.7500     2.5500    74.5620    29.3320    26.5980    27.2270    24.7660   -19.6650 
  131.8750     2.5500    74.6000    31.1260    28.2300    28.7420    24.7010   -19.7330 
  132.0000     2.5440    74.6880    32.8510    29.9860    31.6890    24.6350   -19.8060 
  132.1250     2.5420    76.5110    32.9960    30.5320    33.2230    24.6610   -19.8680 
  132.2500     2.5410    80.1700    30.4740    28.6260    32.5300    24.7080   -19.9460 
  132.3750     2.5350    84.4500    25.3150    24.1170    30.6280    24.6480   -20.0240 
  132.5000     2.5250    86.4160    18.9750    18.3680    26.7960    24.5640   -20.0440 
  132.6250     2.5080    86.7550    13.3190    13.3260    17.3600    24.5620   -19.9840 
  132.7500     2.4750    87.6110     8.9950     9.6850     9.7840    24.6660   -19.8970 
  132.8750     2.4270    86.2440     6.9040     7.3570     6.7000    24.8160   -19.8100 
  133.0000     2.3810    82.1740     5.8710     6.0230     5.8740    24.9100   -19.7200 
  133.1250     2.3590    78.3730     5.5490     5.4270     5.9130    24.8940   -19.6060 
  133.2500     2.3530    77.7910     5.4870     5.1850     6.0530    24.9190   -19.4950 
  133.3750     2.3520    79.0820     5.4870     5.1150     6.0700    24.9510   -19.3920 
  133.5000     2.3440    79.9940     5.4580     5.0970     5.9420    24.9590   -19.3180 
  133.6250     2.3300    80.3140     5.4100     5.0810     5.9620    24.8950   -19.2500 
  133.7500     2.3150    79.8960     5.3970     5.0760     6.2250    24.7120   -19.1500 
  133.8750     2.2910    80.5490     5.4230     5.0880     6.2720    24.4730   -19.0350 
  134.0000     2.2360    81.2030     5.4420     5.0900     6.2770    24.4860   -18.9640 
  134.1250     2.1380    79.6070     5.3950     5.0320     5.6470    25.1540   -18.9640 
  134.2500     2.0480    79.3920     5.2810     4.9060     5.3420    25.9350   -18.9390 
  134.3750     2.0090    81.9040     5.1320     4.7320     5.0980    26.0970   -18.8550 
  134.5000     2.0330    84.5310     4.9960     4.5530     4.8570    25.5710   -18.7620 
  134.6250     2.1040    85.6730     4.9270     4.4240     4.7030    24.7760   -18.7040 
  134.7500     2.1790    86.9280     4.9200     4.3530     4.6810    24.3240   -18.7100 
  134.8750     2.2280    88.3140     4.9600     4.3260     4.7180    24.1270   -18.7620 
  135.0000     2.2350    88.4640     5.0310     4.3280     4.7480    24.0800   -18.8050 
  135.1250     2.2140    89.6160     5.1260     4.3510     4.9140    24.1470   -18.8030 
  135.2500     2.1980    91.9190     5.2390     4.3920     5.0460    24.3720   -18.8110 
  135.3750     2.1980    94.0360     5.3780     4.4590     5.0940    24.5810   -18.8600 
  135.5000     2.2150    94.9730     5.5490     4.5590     5.0840    24.6630   -18.9330 
  135.6250     2.2480    91.8280     5.7540     4.6930     5.2160    24.6760   -19.0170 
  135.7500     2.2790    85.2700     5.9630     4.8350     5.4160    24.6900   -19.0920 
  135.8750     2.2980    81.2230     6.1340     4.9580     5.6490    24.7110   -19.1340 
  136.0000     2.3050    81.6860     6.2300     5.0290     5.8550    24.7290   -19.1340 
  136.1250     2.3060    82.3140     6.2150     5.0180     6.0240    24.8470   -19.0890 
  136.2500     2.3040    82.7350     6.1250     4.9450     6.1180    24.9470   -19.0520 
  136.3750     2.2970    84.8720     6.0080     4.8380     6.0750    24.9020   -19.0430 
  136.5000     2.2830    88.3790     5.9200     4.7380     5.9480    24.8130   -19.0250 
  136.6250     2.2690    90.3690     5.9160     4.6880     5.8880    24.8490   -18.9620 
  136.7500     2.2570    90.9140     5.9840     4.6910     5.8780    24.9810   -18.9030 
  136.8750     2.2490    88.4260     6.0840     4.7280     5.8470    25.1060   -18.8800 
  137.0000     2.2470    84.3860     6.1580     4.7660     5.8080    25.0800   -18.9270 
  137.1250     2.2550    83.2200     6.1360     4.7560     5.8030    24.9660   -19.0220 
  137.2500     2.2670    84.3810     6.0150     4.6850     5.7910    24.8440   -19.0760 
  137.3750     2.2760    87.5650     5.8330     4.5670     5.6920    24.7270   -19.0670 
  137.5000     2.2810    91.1010     5.6580     4.4390     5.4840    24.6190   -19.0310 
  137.6250     2.2860    91.2900     5.5870     4.3620     5.2770    24.6030   -19.0060 
  137.7500     2.2910    89.0260     5.6410     4.3630     5.1610    24.6280   -18.9760 
  137.8750     2.2940    89.1680     5.7970     4.4380     5.1890    24.5680   -18.9270 
  138.0000     2.2960    92.9320     5.9880     4.5540     5.4060    24.4340   -18.8290 
  138.1250     2.3010    96.1020     6.1050     4.6450     5.7480    24.3350   -18.7270 
  138.2500     2.3030    97.2230     6.0970     4.6620     5.8930    24.3150   -18.6070 
  138.3750     2.2960    97.1880     5.9760     4.5970     5.6050    24.3410   -18.4810 
  138.5000     2.2820    95.6400     5.8020     4.4800     5.2600    24.3400   -18.3720 
  138.6250     2.2730    95.1550     5.6620     4.3620     5.1060    24.3200   -18.2480 
  138.7500     2.2700    96.0290     5.5950     4.2810     5.1020    24.3050   -18.0510 
  138.8750     2.2630    96.1910     5.5970     4.2440     5.1310    24.3210   -17.7440 
  139.0000     2.2500    93.5360     5.6320     4.2380     5.1730    24.3240   -17.3580 
  139.1250     2.2380    91.3000     5.6580     4.2390     5.1610    24.2850   -16.9340 
  139.2500     2.2350    93.2350     5.6660     4.2330     5.1170    24.2290   -16.5250 
  139.3750     2.2400    97.8590     5.6730     4.2270     4.9880    24.1880   -16.1250 
  139.5000     2.2500   101.3310     5.7090     4.2400     4.8950    24.1480   -15.7230 
  139.6250     2.2620   101.2240     5.8050     4.2940     4.9410    24.1080   -15.3460 
  139.7500     2.2720    95.9700     5.9510     4.3850     5.0780    24.0680   -15.0480 
  139.8750     2.2840    87.2760     6.1210     4.5000     5.2760    24.0340   -14.8560 
  140.0000     2.3020    80.2500     6.2780     4.6150     5.4770    24.0050   -14.7520 
  140.1250     2.3230    79.4880     6.3760     4.6940     5.4990    23.9900   -14.6740 
  140.2500     2.3380    82.2830     6.4100     4.7250     5.4560    23.9340   -14.5930 
  140.3750     2.3470    85.0930     6.3910     4.7110     5.5310    23.8250   -14.5350 
  140.5000     2.3470    86.6410     6.3470     4.6700     5.6330    23.7420   -14.5260 
  140.6250     2.3430    84.7550     6.3080     4.6280     5.6640    23.7040   -14.5480 
  140.7500     2.3380    82.3560     6.2930     4.6040     5.6350    23.6680   -14.5510 
  140.8750     2.3370    85.4170     6.2980     4.5990     5.6040    23.6060   -14.5170 
  141.0000     2.3400    92.2640     6.3140     4.6060     5.6220    23.4460   -14.4650 
  141.1250     2.3440    92.8390     6.3260     4.6130     5.7640    23.1450   -14.4060 
  141.2500     2.3500    87.6980     6.3260     4.6140     6.0270    22.8310   -14.3520 
  141.3750     2.3550    86.0910     6.3140     4.6090     6.2240    22.5890   -14.2810 
  141.5000     2.3570    91.4380     6.2970     4.6010     6.1880    22.4400   -14.1420 
  141.6250     2.3500    95.5330     6.2850     4.5970     6.0420    22.3420   -13.9130 
  141.7500     2.3380    95.3860     6.2810     4.5980     5.9400    22.2740   -13.6440 
  141.8750     2.3260    94.7880     6.2780     4.6070     5.9360    22.2200   -13.3480 
