~V
VERS. 2.00: Ver 2.00
~W
STRT.M 50.0000:
STOP.M 281.0000:
STEP.M 0.1250:
NULL. -999.2500:
UWI. F10234:
~C
DEPT.M :
DEN.GM/CC :
GR.API :
RML.OHMM :
RI. :
RXO.OHMM :
CALI.CM :
SP.MV :
~A
# ...
  218.7500     2.2390    48.9720   102.9360    90.8940   108.4250    24.3870   -12.9240 
  218.8750     2.2740    45.7830    98.4100    87.8610   104.4780    24.2860   -12.7730 
  219.0000     2.2770    45.0270    93.5860    84.4130    90.4820    24.2050   -12.6950 
  219.1250     2.2350    46.8020    89.9270    81.7280    70.8520    24.1750   -12.6330 
  219.2500     2.1810    48.8100    87.7940    80.2700    71.6330    24.2180   -12.6100 
  219.3750     2.1420    49.0960    86.9100    79.9260    82.4200    24.3440   -12.6010 
  219.5000     2.1300    47.8360    86.6640    80.2420    86.1040    24.5300   -12.6160 
  219.6250     2.1350    45.8890    86.1570    80.4460    81.6100    24.6650   -12.6240 
  219.7500     2.1370    44.3430    84.6310    79.6900    73.9020    24.7200   -12.6220 
  219.8750     2.1330    44.7510    81.7540    77.5030    71.8970    24.6750   -12.6660 
  220.0000     2.1290    47.7240    77.5860    73.8780    72.9890    24.5610   -12.6710 
  220.1250     2.1360    50.4730    72.2700    69.0030    71.5950    24.4130   -12.6920 
  220.2500     2.1580    50.8510    66.5300    63.6420    62.5640    24.2790   -12.6920 
  220.3750     2.1900    51.1450    61.2790    58.6270    49.2770    24.2150   -12.6650 
  220.5000     2.2220    54.9110    57.6190    54.9480    41.0770    24.2560   -12.6100 
  220.6250     2.2380    58.8690    57.0000    53.9090    39.1900    24.4310   -12.5730 
  220.7500     2.2320    57.4130    59.4410    55.6360    40.8900    24.6900   -12.5300 
  220.8750     2.2050    52.0100    64.6150    60.0030    46.5770    24.9650   -12.4830 
  221.0000     2.1660    47.9090    71.3020    66.0630    59.6990    25.1860   -12.4510 
  221.1250     2.1300    47.7610    76.8670    71.5390    81.6250    25.2720   -12.3640 
  221.2500     2.1040    49.5670    78.9810    74.1180    97.5490    25.2280   -12.2440 
  221.3750     2.0940    51.2650    77.0330    72.9690    91.3800    25.0670   -12.1000 
  221.5000     2.0970    51.3560    72.4090    69.0460    68.4440    24.8370   -12.0060 
  221.6250     2.1060    50.1740    67.6580    64.4810    51.3610    24.5920   -11.8710 
  221.7500     2.1160    48.3830    64.3850    60.9920    49.5700    24.3810   -11.7740 
  221.8750     2.1230    46.6800    62.7320    58.9120    55.3600    24.2230   -11.6760 
  222.0000     2.1320    45.8880    62.3330    58.0240    60.1520    24.1150   -11.5540 
  222.1250     2.1570    46.9970    62.9230    58.1260    59.2230    24.0260   -11.4840 
  222.2500     2.2100    48.8060    64.2280    58.8830    52.4160    23.9440   -11.4350 
  222.3750     2.2800    49.8860    66.4370    60.3610    47.0110    23.8730   -11.4140 
  222.5000     2.3350    48.6920    69.8370    62.7850    53.0500    23.8210   -11.3530 
  222.6250     2.3380    46.0920    74.5310    66.3480    80.6910    23.8170   -11.3530 
  222.7500     2.3010    44.7750    79.7010    70.4420    87.4710    23.8660   -11.3190 
  222.8750     2.2500    46.8400    84.6980    74.5070    78.4820    23.9520   -11.2490 
  223.0000     2.2090    50.7060    89.1840    78.1490    71.8920    24.0570   -11.2180 
  223.1250     2.1820    51.4670    93.2250    81.2420    71.4210    24.1680   -11.1660 
  223.2500     2.1600    50.2240    97.3380    84.1580    74.5040    24.2710   -11.1570 
  223.3750     2.1400    49.6780   101.7470    87.1160    78.9280    24.3580   -11.1850 
  223.5000     2.1290    50.2160   106.2450    90.0350    81.3230    24.4180   -11.2610 
  223.6250     2.1340    49.5490   110.3390    92.6060    82.7320    24.4420   -11.2610 
  223.7500     2.1470    47.8580   113.9560    94.8820    86.7820    24.4400   -11.2760 
  223.8750     2.1580    47.4540   117.1260    97.0390    92.3100    24.4310   -11.2910 
  224.0000     2.1600    48.6480   119.6870    99.1610   101.7690    24.4170   -11.2980 
  224.1250     2.1530    50.5320   121.0400   101.1380   114.1650    24.3860   -11.3220 
  224.2500     2.1440    52.4840   121.0760   102.8120   119.8630    24.3330   -11.3070 
  224.3750     2.1410    53.4380   120.0840   104.1510   111.6450    24.2540   -11.2410 
  224.5000     2.1430    53.4790   118.9940   105.4640   101.3030    24.1540   -11.1210 
  224.6250     2.1510    53.0490   119.3130   107.6110   102.6450    24.0390   -10.9570 
  224.7500     2.1630    52.9890   120.5940   110.3970   105.7770    23.9240   -10.7970 
  224.8750     2.1770    52.7860   119.1910   111.0410   101.6880    23.8210   -10.6690 
  225.0000     2.1910    50.8210   109.0950   104.3260    90.9630    23.7430   -10.4920 
  225.1250     2.2090    50.1570    86.3340    85.3290    87.2860    23.6980   -10.3270 
  225.2500     2.2310    51.6580    60.0560    61.1360    73.1020    23.6750   -10.1840 
  225.3750     2.2570    53.8030    38.1910    39.6720    44.0910    23.6690   -10.0810 
  225.5000     2.2840    56.4810    23.6450    24.8690    19.2620    23.6690    -9.9850 
  225.6250     2.3070    60.9540    16.1390    17.0620    10.4160    23.6680    -9.9760 
  225.7500     2.3210    67.4510    12.4540    13.0610     7.9370    23.6630   -10.0130 
  225.8750     2.3240    73.6650    11.3590    11.5000     7.3510    23.6540   -10.0360 
  226.0000     2.3130    75.8630    12.4430    11.8540     7.6930    23.6450   -10.1130 
  226.1250     2.2890    71.5450    16.3280    14.6420    10.8290    23.6630   -10.2110 
  226.2500     2.2590    63.1330    23.1290    20.1460    20.1850    23.7080   -10.3450 
  226.3750     2.2250    55.3120    33.1090    28.9170    36.4070    23.7720   -10.4840 
  226.5000     2.1910    51.5730    45.7580    40.7920    51.7810    23.8380   -10.6690 
  226.6250     2.1680    52.2710    59.1380    53.8650    55.0610    23.8710   -10.8340 
  226.7500     2.1750    54.3380    70.3050    64.6870    57.1590    23.8660   -10.9280 
  226.8750     2.2350    54.0690    77.6220    71.4630    65.1490    23.8360   -11.0370 
  227.0000     2.3410    50.7780    80.8400    74.0570    86.7440    23.8100   -11.1020 
  227.1250     2.4270    49.1780    79.7930    72.5050   121.6680    23.7920   -11.1680 
  227.2500     2.4340    50.3140    75.5610    68.1280   121.7590    23.7860   -11.2150 
  227.3750     2.3700    53.6900    68.9880    61.8270    85.2720    23.7880   -11.2670 
  227.5000     2.2880    57.2860    61.5900    54.8410    57.3790    23.7800   -11.2790 
  227.6250     2.2380    59.0400    55.3730    48.6660    47.9870    23.7620   -11.2990 
  227.7500     2.2300    59.5760    51.2390    44.0830    44.6660    23.7580   -11.3100 
  227.8750     2.2450    59.1990    49.3410    41.3980    38.0480    23.7710   -11.2880 
  228.0000     2.2520    58.3680    49.4810    40.6520    33.8630    23.7980   -11.3100 
  228.1250     2.2320    57.1590    51.5730    41.9910    35.7750    23.8700   -11.3040 
  228.2500     2.1980    56.8770    54.9520    44.7670    45.2870    23.9890   -11.2950 
  228.3750     2.1670    57.7200    59.3640    48.6180    57.4730    24.1260   -11.2670 
  228.5000     2.1460    57.9600    64.4130    53.1580    62.8030    24.2390   -11.2670 
  228.6250     2.1510    56.1830    68.1050    56.9160    57.0000    24.2570   -11.2210 
  228.7500     2.1870    53.5800    66.9080    56.9170    48.5750    24.1600   -11.2030 
  228.8750     2.2620    51.9470    58.2130    50.6410    44.1400    23.9710   -11.2080 
  229.0000     2.3560    53.6300    43.7370    39.1430    44.4830    23.7490   -11.1690 
  229.1250     2.4160    58.9360    29.3670    27.2280    33.5740    23.5300   -11.1600 
  229.2500     2.4170    65.1390    18.9570    18.3220    16.8130    23.3520   -11.1450 
  229.3750     2.3740    69.3150    12.6860    12.7100     8.1850    23.2520   -11.1300 
  229.5000     2.3290    70.3780     9.4280     9.5880     6.1910    23.2520   -11.0780 
  229.6250     2.3150    69.6370     8.1690     8.2210     6.4040    23.3470   -11.0530 
  229.7500     2.3240    69.0710     7.8140     7.7400     6.6010    23.4940   -11.0320 
  229.8750     2.3400    69.7730     7.9530     7.8230     6.4430    23.6540   -10.9830 
