~V
VERS. 2.00: Ver 2.00
~W
STRT.M 52.0000:
STOP.M 254.0000:
STEP.M 0.1250:
NULL. -999.2500:
UWI. F10213:
~C
DEPT.M :
DEN.GM/CC :
GR.API :
RML.OHMM :
RI. :
RXO.OHMM :
CALI.CM :
SP.MV :
~A
# ...
  164.5000     2.3150    82.6750    12.6480    11.5240     9.8570    22.3540   -14.4710 
  164.6250     2.3070    77.8850    13.3780    12.0470    10.1860    21.9990   -14.6260 
  164.7500     2.2960    75.1810    14.1340    12.7010    11.6120    22.2550   -14.7860 
  164.8750     2.2830    77.7830    14.8350    13.3550    13.2650    22.5420   -14.9410 
  165.0000     2.2760    80.3020    15.5680    14.0040    13.4590    22.6430   -15.0820 
  165.1250     2.2840    75.4440    16.6110    14.8190    12.3230    22.7020   -15.2630 
  165.2500     2.3020    68.3480    18.0430    15.9190    12.6450    22.8000   -15.4540 
  165.3750     2.3210    64.9710    19.7140    17.2750    16.5150    22.9070   -15.5900 
  165.5000     2.3360    65.5280    21.2550    18.6590    22.4580    23.0370   -15.6550 
  165.6250     2.3430    66.0300    22.0850    19.5930    24.0700    23.2720   -15.6540 
  165.7500     2.3360    66.1520    22.1250    19.8650    21.2750    23.5760   -15.6620 
  165.8750     2.3090    67.6430    21.6370    19.5900    18.0200    23.9380   -15.7240 
  166.0000     2.2750    71.2020    21.0840    19.1200    17.2560    24.3680   -15.8200 
  166.1250     2.2540    74.7940    20.8420    18.8060    18.4930    24.4080   -15.8650 
  166.2500     2.2530    77.1250    20.8530    18.7060    19.6640    23.9140   -15.8780 
  166.3750     2.2670    77.3800    20.9470    18.7390    19.2140    23.0780   -15.9010 
  166.5000     2.2840    76.2860    20.9950    18.8050    18.3580    22.4520   -15.9060 
  166.6250     2.2900    74.6480    20.9390    18.8310    17.4150    22.2520   -15.8830 
  166.7500     2.2830    71.3830    20.7800    18.7750    16.6000    22.2430   -15.8570 
  166.8750     2.2700    69.0630    20.4680    18.5830    16.8880    22.3710   -15.7810 
  167.0000     2.2620    69.8440    19.9310    18.1970    18.2320    22.7390   -15.6190 
  167.1250     2.2630    71.1760    19.1350    17.5900    18.0770    23.2400   -15.4450 
  167.2500     2.2680    70.0860    18.2690    16.9100    16.1350    23.3860   -15.3080 
  167.3750     2.2720    68.4180    17.5200    16.3050    13.7830    23.0140   -15.1890 
  167.5000     2.2710    70.3960    17.0100    15.8850    13.1160    22.3660   -15.1240 
  167.6250     2.2630    74.8110    16.7440    15.6920    13.7120    22.0380   -15.0890 
  167.7500     2.2560    78.5300    16.5340    15.5950    13.6980    21.8090   -15.0660 
  167.8750     2.2510    79.1020    16.2560    15.4860    12.4800    21.4080   -15.0620 
  168.0000     2.2510    76.9520    15.8950    15.3140    11.2550    20.8800   -15.1060 
  168.1250     2.2540    77.1390    15.5740    15.1320    11.2550    20.8990   -15.1950 
  168.2500     2.2630    78.8350    15.4390    15.0540    11.9090    21.3660   -15.3260 
  168.3750     2.2750    78.9200    15.5380    15.1470    12.7780    21.9630   -15.4940 
  168.5000     2.2870    79.5450    15.7870    15.3770    13.8110    22.4570   -15.6250 
  168.6250     2.2910    83.8660    15.9890    15.5960    14.6000    22.9730   -15.7790 
  168.7500     2.2930    85.8310    16.0270    15.6770    14.6540    23.5100   -15.9820 
  168.8750     2.2950    82.8530    15.9290    15.6200    14.5110    23.8120   -16.2030 
  169.0000     2.2990    79.9820    15.8090    15.5150    14.4500    23.8800   -16.4370 
  169.1250     2.3010    81.9670    15.8200    15.5010    14.3310    23.9530   -16.6980 
  169.2500     2.3000    84.2750    16.0290    15.6470    14.3860    24.2140   -16.9680 
  169.3750     2.2960    83.5520    16.4780    15.9880    15.5480    24.4690   -17.2700 
  169.5000     2.2920    80.0830    17.2490    16.5720    17.1170    24.6020   -17.6510 
  169.6250     2.2920    77.4430    18.5740    17.5820    17.1000    24.5850   -18.0720 
  169.7500     2.2960    75.6880    20.4740    19.0900    17.4300    24.4710   -18.4630 
  169.8750     2.3020    74.0150    22.8430    21.1020    19.2490    24.3400   -18.8580 
  170.0000     2.3020    70.7160    25.3240    23.4190    24.0550    24.3300   -19.2440 
  170.1250     2.2920    68.6490    27.1760    25.4460    28.0780    24.4920   -19.6010 
  170.2500     2.2830    70.4590    27.9350    26.5640    28.5440    24.6100   -19.9490 
  170.3750     2.2830    72.8340    27.6640    26.6040    25.7130    24.6610   -20.3020 
  170.5000     2.2890    71.4970    27.0970    26.0650    23.0500    24.6610   -20.6730 
  170.6250     2.2940    66.2350    27.6920    26.0760    24.1110    24.6780   -21.0570 
  170.7500     2.2920    62.5540    30.5890    27.6770    26.1510    24.7320   -21.4630 
  170.8750     2.2860    61.1010    36.8080    31.9200    29.5830    24.7530   -21.9050 
  171.0000     2.2780    58.8680    47.3690    40.1670    35.5210    24.7840   -22.4060 
  171.1250     2.2650    59.8460    68.3540    55.3650    53.5080    24.9000   -22.9480 
  171.2500     2.2460    63.8230   100.9300    77.9400    88.3250    25.1100   -23.4860 
  171.3750     2.2250    66.1190   129.7800   107.0050   130.2170    25.3520   -24.0160 
  171.5000     2.2100    64.0080   165.0210   138.4560   165.5380    25.5610   -24.5120 
  171.6250     2.2040    59.1020   193.0790   164.1940   181.9030    25.7140   -24.9330 
  171.7500     2.2080    55.9890   208.1190   179.7280   189.9860    25.7800   -25.2650 
  171.8750     2.2170    56.8110   210.6870   184.8770   193.4140    25.7880   -25.5200 
  172.0000     2.2290    60.3320   205.7040   182.7480   191.7000    25.7720   -25.7510 
  172.1250     2.2340    62.1380   198.4730   177.4390   173.6040    25.7460   -25.9690 
  172.2500     2.2300    60.7310   192.1640   172.5610   155.4990    25.7140   -26.1140 
  172.3750     2.2240    60.1180   186.6940   168.7370   144.9210    25.6380   -26.2040 
  172.5000     2.2210    61.4840   180.8030   165.1310   141.8850    25.5670   -26.3060 
  172.6250     2.2180    62.3970   173.4380   160.6160   146.1140    25.5110   -26.4130 
  172.7500     2.2170    62.2700   165.3370   155.3220   149.1940    25.3790   -26.5320 
  172.8750     2.2200    62.9750   157.7700   150.0840   115.2790    25.0960   -26.6920 
  173.0000     2.2310    64.7350   151.9790   146.0510    76.2590    24.7310   -26.8740 
  173.1250     2.2600    65.7620   148.2160   143.8470    73.3630    24.4410   -26.9870 
  173.2500     2.3060    65.0570   144.1310   141.6260    91.7940    24.1160   -27.1210 
  173.3750     2.3470    62.0380   137.2340   136.9730   104.8050    24.0010   -27.2830 
  173.5000     2.3510    58.4240   126.3790   128.3240    97.4830    24.2220   -27.3860 
  173.6250     2.3170    56.3170   112.9510   116.0870    94.1110    24.5950   -27.4660 
  173.7500     2.2930    56.1100   100.8880   103.9660    78.9570    24.9070   -27.5700 
  173.8750     2.2900    57.0230    92.8470    95.0400    61.0780    25.1030   -27.6780 
  174.0000     2.2960    58.0040    90.0780    91.2530    53.7030    25.2780   -27.7530 
  174.1250     2.3000    59.7840    93.3680    94.0000    63.7020    25.5220   -27.8790 
  174.2500     2.2980    62.5040   100.8090   101.5480    90.3940    25.6840   -28.0580 
  174.3750     2.2940    64.5170   110.6670   112.2370   124.1310    25.7310   -28.2410 
  174.5000     2.2850    64.4250   120.3580   123.4570   154.0110    25.7090   -28.4360 
  174.6250     2.2720    62.5250   126.0340   131.2350   169.7730    25.6170   -28.6360 
  174.7500     2.2600    60.9930   126.2530   133.6230   163.4590    25.4760   -28.7750 
  174.8750     2.2530    60.0860   121.0800   130.2310   149.4820    25.2380   -28.8410 
  175.0000     2.2520    58.7330   111.6150   121.8120   148.4250    24.8030   -28.9060 
  175.1250     2.2550    55.7620    99.4460   109.5970   137.7960    24.1730   -28.9370 
  175.2500     2.2600    52.4050    87.3670    96.6310   122.3970    23.7630   -28.8760 
  175.3750     2.2660    51.6450    77.2480    85.1250    99.1970    23.8800   -28.7640 
  175.5000     2.2740    56.4380    70.2420    76.6040    82.3950    24.4270   -28.6440 
  175.6250     2.2820    63.8360    67.3510    72.3470    79.2560    25.0800   -28.5230 
