~V
VERS. 2.00: Ver 2.00
~W
STRT.M 60.0000:
STOP.M 276.0000:
STEP.M 0.1250:
NULL. -999.2500:
UWI. F10216:
~C
DEPT.M :
DEN.GM/CC :
GR.API :
RML.OHMM :
RI. :
RXO.OHMM :
CALI.CM :
SP.MV :
~A
   60.0000     1.9970  -999.2500  -999.2500  -999.2500  -999.2500  -999.2500   112.8410 
   60.1250     2.0120  -999.2500  -999.2500  -999.2500  -999.2500  -999.2500   111.8210 
   60.2500     2.0240  -999.2500  -999.2500  -999.2500  -999.2500  -999.2500   110.3500 
   60.3750     2.0290  -999.2500  -999.2500  -999.2500  -999.2500  -999.2500   108.5070 
   60.5000     2.0270  -999.2500  -999.2500  -999.2500  -999.2500  -999.2500   106.3870 
   60.6250     2.0230  -999.2500  -999.2500  -999.2500  -999.2500  -999.2500   104.0080 
   60.7500     2.0260  -999.2500  -999.2500  -999.2500  -999.2500  -999.2500   101.4330 
   60.8750     2.0450  -999.2500  -999.2500  -999.2500  -999.2500  -999.2500    98.7210 
   61.0000     2.0870  -999.2500  -999.2500  -999.2500  -999.2500  -999.2500    95.9600 
   61.1250     2.1550    36.2430     0.3370     0.2200     0.2050    25.3180    93.2230 
   61.2500     2.2270    36.2430     0.3370     0.2200     0.2050    25.3180    90.5080 
   61.3750     2.2770    36.7700     0.3310     0.2200     0.2370    25.3100    87.7790 
   61.5000     2.2840    37.9500     0.3250     0.2180     0.2700    25.2900    84.9950 
   61.6250     2.2480    41.2770     0.3310     0.2150     0.3000    25.2700    82.1420 
   61.7500     2.2040    46.3950     0.3430     0.2060     0.3340    25.2670    79.1950 
   61.8750     2.1890    51.0310     0.3360     0.1850     0.3730    25.2830    76.0790 
   62.0000     2.2360    52.1690     0.2770     0.1470     0.4160    25.2920    72.6940 
   62.1250     2.3500    50.2460     0.1730     0.0970     0.4550    25.2820    68.8920 
   62.2500     2.4830    50.3380     0.0830     0.0530     0.5130    25.2640    64.6540 
   62.3750     2.5990    52.4910     0.0330     0.0260     0.5540    25.2580    59.9030 
   62.5000     2.6750    54.2590     0.0200     0.0180     0.5840    25.2680    54.5390 
   62.6250     2.6800    56.2450     0.0620     0.0470     1.1670    25.2020    48.1590 
   62.7500     2.6220    61.2520     0.2000     0.1460     3.5640    24.9360    40.6430 
   62.8750     2.5250    69.4930     0.5260     0.3870     6.9970    24.5250    32.2440 
   63.0000     2.4140    78.6340     1.1780     0.8830     8.2440    24.2800    23.5120 
   63.1250     2.3220    85.2030     2.3100     1.8020     7.7940    24.3260    14.9180 
   63.2500     2.2660    87.0490     3.5260     2.9450     7.6010    24.3550     6.7440 
   63.3750     2.2460    86.3340     4.2680     3.9360     7.5720    24.2230    -0.7970 
   63.5000     2.2490    86.8170     4.4410     4.5410     7.7820    23.9970    -7.5210 
   63.6250     2.2550    89.0860     4.4120     4.8290     7.3510    23.9350   -12.9310 
   63.7500     2.2510    89.4980     4.4630     5.0330     6.6590    24.0570   -16.9130 
   63.8750     2.2360    87.1880     4.6070     5.2250     6.4730    24.1550   -19.6680 
   64.0000     2.2110    84.8860     4.8170     5.4310     6.9740    24.0940   -21.6410 
   64.1250     2.1810    83.4740     5.1300     5.7180     7.3250    23.8720   -23.1050 
   64.2500     2.1670    80.8290     5.5980     6.1690     8.1230    23.7020   -24.2890 
   64.3750     2.1900    78.2170     6.2610     6.8370     8.5630    23.6750   -25.2430 
   64.5000     2.2590    77.7460     7.0800     7.6790     9.3170    23.7870   -25.9840 
   64.6250     2.3490    78.3950     7.8700     8.4850    11.8880    23.9200   -26.4620 
   64.7500     2.4020    78.0900     8.3570     8.9590    18.1650    24.1130   -26.7300 
   64.8750     2.3920    79.7360     8.3470     8.9040    24.7930    24.3400   -26.8140 
   65.0000     2.3400    84.7910     7.8720     8.3420    16.6530    24.5620   -26.8040 
   65.1250     2.2870    88.6310     7.1830     7.5030     9.9140    24.6140   -26.7670 
   65.2500     2.2540    89.6390     6.5670     6.7020     8.1230    24.4980   -26.7200 
   65.3750     2.2330    90.5490     6.1170     6.0660     7.9600    24.3830   -26.6550 
   65.5000     2.2140    91.2370     5.8740     5.6550     7.9470    24.4300   -26.6060 
   65.6250     2.2030    87.9070     5.9570     5.5700     7.3300    24.6760   -26.6720 
   65.7500     2.2240    81.6100     6.4360     5.8210     7.0540    24.9010   -26.8450 
   65.8750     2.2920    77.1600     7.4090     6.4660     7.2420    25.0330   -27.1050 
   66.0000     2.3860    76.8220     8.9000     7.5440     9.3320    25.0300   -27.4330 
   66.1250     2.4370    76.6370    10.7180     8.9990    16.4460    24.8030   -27.8120 
   66.2500     2.4120    72.2980    12.1780    10.3430    26.7990    24.4840   -28.2150 
   66.3750     2.3390    65.0520    12.6050    10.9900    25.6580    24.1040   -28.6740 
   66.5000     2.2620    59.3600    11.8260    10.6360    16.3710    23.7520   -29.1810 
   66.6250     2.2120    58.5040    10.4110     9.5370    11.8820    23.5320   -29.6640 
   66.7500     2.1870    60.8470     9.2400     8.4230    10.3680    23.4600   -30.0950 
   66.8750     2.1730    64.5020     8.6150     7.6290     9.7000    23.5080   -30.4530 
   67.0000     2.1600    67.7000     8.5100     7.2390     8.9450    23.6380   -30.7280 
   67.1250     2.1520    69.7030     8.7480     7.2110     9.2930    23.7300   -30.9100 
   67.2500     2.1530    72.0610     9.0460     7.3270    10.0020    23.7040   -31.0320 
   67.3750     2.1630    75.6080     9.2960     7.4700    10.2760    23.6610   -31.0980 
   67.5000     2.1720    79.4860     9.4970     7.5920     9.8380    23.6770   -31.1280 
   67.6250     2.1680    80.5280     9.7300     7.7070     9.3580    23.7640   -31.1570 
   67.7500     2.1550    78.2060    10.0410     7.8490     9.2950    23.7080   -31.2200 
   67.8750     2.1400    74.6710    10.4020     8.0200     9.6230    23.5560   -31.3340 
   68.0000     2.1310    71.9610    10.7220     8.1810     9.8240    23.4460   -31.4540 
   68.1250     2.1270    71.1160    10.8630     8.2500     9.8750    23.4080   -31.5430 
   68.2500     2.1240    71.1780    10.8080     8.1950     9.8340    23.3860   -31.6510 
   68.3750     2.1190    72.1100    10.6140     8.0400     9.7350    23.3570   -31.7760 
   68.5000     2.1130    72.4380    10.4000     7.8620     9.6610    23.2930   -31.9210 
   68.6250     2.1080    70.4500    10.3000     7.7590     9.7820    23.2350   -32.0490 
   68.7500     2.1070    67.4500    10.3390     7.7620    10.0240    23.1680   -32.1600 
   68.8750     2.1090    65.4020    10.4770     7.8520    10.3440    23.1200   -32.2290 
   69.0000     2.1140    64.5380    10.6270     7.9720    10.3110    23.0870   -32.2530 
   69.1250     2.1160    63.2620    10.6690     8.0360    10.2420    23.0760   -32.2750 
   69.2500     2.1160    61.6560    10.5850     8.0100    10.0780    23.0460   -32.2670 
   69.3750     2.1230    61.2070    10.4200     7.9070     9.4560    22.9700   -32.1850 
   69.5000     2.1430    62.4270    10.2440     7.7690     8.8270    22.8250   -32.0180 
   69.6250     2.1800    65.0810    10.1050     7.6300     8.6860    22.7170   -31.7990 
   69.7500     2.2150    68.6120     9.9750     7.4850     9.0010    22.7880   -31.5370 
   69.8750     2.2320    71.4280     9.7930     7.3010     9.6110    23.0440   -31.2520 
   70.0000     2.2250    72.6410     9.5080     7.0530     9.8300    23.3310   -30.9830 
   70.1250     2.1980    72.0140     9.1410     6.7480     8.8800    23.4810   -30.7400 
   70.2500     2.1650    70.7460     8.8280     6.4620     8.1250    23.5520   -30.5050 
   70.3750     2.1370    69.6460     8.7120     6.2840     7.6600    23.6350   -30.3400 
   70.5000     2.1250    68.3020     8.9030     6.2840     7.6620    23.6960   -30.2530 
   70.6250     2.1380    69.5980     9.4690     6.5260     8.0570    23.5220   -30.2620 
   70.7500     2.1600    73.3500    10.2410     6.9340     8.6790    23.3620   -30.3010 
   70.8750     2.1710    75.0140    11.0160     7.4120     9.4050    23.3200   -30.3810 
   71.0000     2.1580    70.9800    11.5640     7.8260    10.0680    23.3440   -30.4820 
   71.1250     2.1250    65.2430    11.6430     8.0100    10.1510    23.3580   -30.5710 
