~V
VERS. 2.00: Ver 2.00
~W
STRT.M 50.0000:
STOP.M 274.0000:
STEP.M 0.1250:
NULL. -999.2500:
UWI. F10208:
~C
DEPT.M :
SP.MV :
DEN.GM/CC :
GR.API :
RML.OHMM :
RI. :
RXO.OHMM :
CALI.CM :
~A
# ...
  162.5000   -19.2000     2.1800    56.5480    42.6650    37.3880    36.7880    25.1700 
  162.6250   -19.3180     2.1790    53.8380    42.9020    37.6280    36.3850    25.1810 
  162.7500   -19.4510     2.1730    53.8640    43.7800    38.4970    38.4270    25.2540 
  162.8750   -19.6020     2.1630    57.5380    45.2580    40.0040    40.9620    25.3770 
  163.0000   -19.7560     2.1520    59.2500    47.0530    41.9240    43.4690    25.4480 
  163.1250   -19.8840     2.1440    57.2090    48.5360    43.7640    45.8790    25.3400 
  163.2500   -19.9910     2.1400    55.8090    49.1700    45.0310    47.0580    25.0920 
  163.3750   -20.0750     2.1410    54.3150    48.6820    45.4510    46.9270    24.6840 
  163.5000   -20.1890     2.1460    52.2720    47.0190    44.9080    47.1470    24.5170 
  163.6250   -20.3510     2.1530    51.9300    43.9350    43.0120    46.9700    24.6460 
  163.7500   -20.5400     2.1590    53.8180    39.5260    39.6180    44.0420    24.7550 
  163.8750   -20.6930     2.1640    55.2950    33.9370    34.7010    39.9930    24.8990 
  164.0000   -20.8060     2.1690    54.6490    27.7660    28.8310    34.8270    24.8540 
  164.1250   -20.8510     2.1760    55.8590    21.9200    23.0090    26.6220    24.7550 
  164.2500   -20.8820     2.1880    60.1350    16.9390    17.9450    18.5770    24.6600 
  164.3750   -20.8390     2.2060    65.3960    13.0570    13.9030    13.2580    24.5270 
  164.5000   -20.7810     2.2260    69.4640    10.3100    10.9220    11.3700    24.5350 
  164.6250   -20.7190     2.2460    69.4690     8.7630     9.0720    10.1950    24.4870 
  164.7500   -20.6130     2.2630    66.2830     8.0920     8.0940     8.2680    24.4020 
  164.8750   -20.4760     2.2730    62.9980     8.2100     7.9360     7.2030    24.2500 
  165.0000   -20.3480     2.2760    64.3720     9.0730     8.5720     8.6930    24.2600 
  165.1250   -20.2750     2.2680    69.5230    10.6910    10.0770    12.7510    24.3120 
  165.2500   -20.2840     2.2530    70.3950    12.6810    12.1170    15.5600    24.3950 
  165.3750   -20.3850     2.2380    66.8710    14.4900    14.1840    17.2750    24.4500 
  165.5000   -20.5370     2.2270    63.1440    15.3560    15.4600    18.7580    24.4440 
  165.6250   -20.7350     2.2270    62.5400    14.6760    15.1100    18.8430    24.3510 
  165.7500   -20.9280     2.2350    62.5380    13.2590    13.7780    16.6630    24.3270 
  165.8750   -21.0930     2.2450    61.8990    11.9240    12.2750    13.5180    24.3200 
  166.0000   -21.2270     2.2540    62.6710    11.1450    11.1350    11.4910    24.3280 
  166.1250   -21.3520     2.2570    65.4620    11.1140    10.6320    11.6930    24.3190 
  166.2500   -21.4500     2.2560    67.4710    11.5840    10.6380    14.1850    24.3450 
  166.3750   -21.5240     2.2530    67.9490    12.3340    11.0210    17.4040    24.3420 
  166.5000   -21.5690     2.2490    68.4200    13.1440    11.6080    17.2200    24.3560 
  166.6250   -21.5980     2.2440    69.1240    13.9360    12.2520    15.0410    24.2550 
  166.7500   -21.6330     2.2380    67.5560    14.8400    12.9190    15.3880    24.2690 
  166.8750   -21.7090     2.2290    64.4590    16.0290    13.7060    18.1650    24.3550 
  167.0000   -21.8070     2.2180    61.6960    17.6060    14.7610    21.6990    24.3880 
  167.1250   -21.9130     2.2120    61.6640    19.5230    16.2410    22.9430    24.4040 
  167.2500   -22.0320     2.2120    63.2030    21.4310    17.9750    23.5160    24.3930 
  167.3750   -22.1790     2.2200    65.0570    22.9850    19.6500    26.4130    24.2990 
  167.5000   -22.3250     2.2330    66.0530    23.8860    20.8910    33.7320    24.1020 
  167.6250   -22.4480     2.2450    65.5820    23.8310    21.2730    35.3620    23.8980 
  167.7500   -22.5270     2.2510    64.2250    23.0530    20.9090    29.6450    23.8070 
  167.8750   -22.5880     2.2490    62.2210    21.8750    20.0410    22.7420    23.8830 
  168.0000   -22.6490     2.2420    61.1500    20.6790    19.0060    20.0150    24.1020 
  168.1250   -22.7340     2.2340    62.3230    19.7820    18.1340    20.3390    24.3210 
  168.2500   -22.8350     2.2270    63.3550    19.1880    17.5410    20.8160    24.4410 
  168.3750   -22.9680     2.2250    62.6360    18.7980    17.2080    20.5580    24.4500 
  168.5000   -23.0940     2.2250    61.9640    18.4970    17.0350    19.9860    24.3910 
  168.6250   -23.2380     2.2300    64.9680    18.2340    16.9180    19.4560    24.3450 
  168.7500   -23.3940     2.2390    69.7310    18.0010    16.8010    19.2100    24.3660 
  168.8750   -23.5170     2.2500    70.5620    17.8100    16.6970    19.0420    24.3850 
  169.0000   -23.5950     2.2600    66.3860    17.6700    16.6350    19.0620    24.3890 
  169.1250   -23.6300     2.2670    63.9500    17.6380    16.6510    19.0330    24.3970 
  169.2500   -23.6350     2.2680    65.6400    17.7810    16.7520    18.8630    24.4310 
  169.3750   -23.6030     2.2660    69.2430    18.1710    16.9710    18.8290    24.4590 
  169.5000   -23.5400     2.2610    71.5370    18.8610    17.3550    19.3390    24.4580 
  169.6250   -23.4670     2.2550    72.5660    19.9010    18.0000    20.5490    24.4650 
  169.7500   -23.4550     2.2510    73.3290    21.2010    18.8920    22.0010    24.4730 
  169.8750   -23.5020     2.2470    72.1570    22.7520    20.0280    23.5060    24.4960 
  170.0000   -23.6250     2.2420    68.8950    24.6120    21.4520    25.5720    24.4920 
  170.1250   -23.7890     2.2350    65.1150    26.9920    23.3790    27.7480    24.5490 
  170.2500   -23.9610     2.2280    62.5650    29.9710    25.9080    29.8220    24.5990 
  170.3750   -24.1430     2.2200    61.4580    33.5500    29.0970    31.8120    24.7330 
  170.5000   -24.3460     2.2150    60.7970    37.4040    32.7630    37.0640    25.1700 
  170.6250   -24.4140     2.2120    60.6880    40.4600    36.1220    44.8360    25.5510 
  170.7500   -24.3670     2.2100    59.0700    41.6000    38.0910    48.9780    25.7800 
  170.8750   -24.2240     2.2090    57.0910    40.3700    38.0110    45.0600    25.8260 
  171.0000   -24.0220     2.2100    58.9870    37.4970    36.2020    35.4440    25.6280 
  171.1250   -23.8040     2.2180    65.9700    34.6840    33.9270    28.4480    25.0350 
  171.2500   -23.5640     2.2300    71.9270    33.2700    32.5690    27.9630    24.0910 
  171.3750   -23.3160     2.2430    72.7830    33.6400    32.7170    34.1300    23.4100 
  171.5000   -23.1370     2.2500    70.9390    35.5560    34.3920    50.1380    23.1980 
  171.6250   -23.1100     2.2470    70.1510    38.2400    37.0970    58.0280    23.2490 
  171.7500   -23.1800     2.2340    69.9890    40.2900    39.4780    50.4210    23.2530 
  171.8750   -23.2910     2.2170    68.8870    40.8220    40.4970    41.7410    23.1620 
  172.0000   -23.3750     2.2030    66.2740    39.8640    39.9000    39.1930    23.1570 
  172.1250   -23.3920     2.2020    64.0660    38.5830    38.5330    41.5430    23.5890 
  172.2500   -23.3840     2.2160    62.8200    38.5400    37.9010    43.5750    24.1680 
  172.3750   -23.3630     2.2400    63.1530    40.6760    38.9640    41.0630    23.9510 
  172.5000   -23.3200     2.2610    64.2810    45.4700    42.3380    40.4720    23.6780 
  172.6250   -23.2850     2.2670    62.8530    55.3080    48.7770    56.2780    23.5810 
  172.7500   -23.2380     2.2590    59.3860    71.6740    57.6130    72.3140    23.8340 
  172.8750   -23.2270     2.2440    56.5340    84.2050    67.9570    82.2160    24.1050 
  173.0000   -23.2590     2.2300    55.6740    96.1990    78.3120    86.7850    23.8010 
  173.1250   -23.3690     2.2210    54.7700   105.5220    86.6660    86.7680    23.8970 
  173.2500   -23.5340     2.2130    53.6880   112.0370    92.5980    85.5170    24.0720 
  173.3750   -23.7260     2.2070    55.0990   116.3890    96.5900    86.2330    24.1060 
  173.5000   -23.9120     2.2010    58.2690   119.3400    99.3510    87.6070    23.9150 
  173.6250   -24.0710     2.1950    58.3360   120.9290   100.9830    86.8090    23.7230 
