~V
VERS. 2.00: Ver 2.00
~W
STRT.M 52.0000:
STOP.M 271.0000:
STEP.M 0.1250:
NULL. -999.2500:
UWI. F10212:
~C
DEPT.M :
GR.API :
RML.OHMM :
RI. :
RXO.OHMM :
CALI.CM :
SP.MV :
DEN.GM/CC :
~A
# ...
   63.2500    76.8450     9.3230     8.6480    10.3950    25.4700   -36.4870     2.2000 
   63.3750    70.1570     9.1130     8.4850    10.0550    25.7720   -36.8500     2.2020 
   63.5000    65.4610     8.8070     8.2110     9.3600    25.7260   -36.9200     2.1990 
   63.6250    66.5170     8.5650     7.9420     8.9820    25.3390   -36.7060     2.1850 
   63.7500    69.8920     8.4530     7.7570     9.0300    24.8530   -36.3160     2.1640 
   63.8750    72.2640     8.4520     7.6640     9.2740    24.4410   -35.7920     2.1510 
   64.0000    74.8330     8.4860     7.6160     9.4550    24.2360   -35.2110     2.1550 
   64.1250    77.6860     8.4400     7.5270     9.4060    24.2900   -34.6360     2.1720 
   64.2500    80.2030     8.2830     7.3510     9.3500    24.3260   -34.1000     2.1880 
   64.3750    82.4110     8.0650     7.1110     9.0720    24.3510   -33.6700     2.2010 
   64.5000    86.1540     7.8830     6.8730     8.4450    24.3840   -33.4350     2.2090 
   64.6250    88.7180     7.8470     6.7360     8.1440    24.4420   -33.4910     2.2100 
   64.7500    85.8340     7.9640     6.7290     8.5160    24.5190   -33.7710     2.2080 
   64.8750    80.8450     8.2050     6.8410     9.5210    24.6160   -34.1780     2.2020 
   65.0000    78.3560     8.5170     7.0390    10.4760    24.6720   -34.6560     2.1930 
   65.1250    77.5690     8.8430     7.2810    10.7340    24.5930   -35.1960     2.1860 
   65.2500    76.0790     9.1420     7.5180    10.6830    24.4550   -35.7670     2.1890 
   65.3750    74.7020     9.3970     7.7210    10.6160    24.3820   -36.3370     2.2020 
   65.5000    73.4020     9.6000     7.8680    10.6730    24.3790   -36.8470     2.2150 
   65.6250    70.1500     9.7300     7.9410    10.7960    24.4330   -37.2180     2.2230 
   65.7500    68.0660     9.7860     7.9620    10.9180    24.4910   -37.5060     2.2240 
   65.8750    67.7170     9.7650     7.9580    11.0550    24.6340   -37.8080     2.2140 
   66.0000    66.2240     9.6790     7.9610    11.2310    25.1260   -38.1710     2.1860 
   66.1250    64.6680     9.5860     7.9990    11.4820    25.8150   -38.6180     2.1440 
   66.2500    66.4130     9.5460     8.0520    11.7200    25.8010   -39.1420     2.1130 
   66.3750    70.8050     9.5700     8.0780    11.8290    25.4730   -39.7520     2.1090 
   66.5000    74.5210     9.6200     8.0370    11.9270    25.2520   -40.4360     2.1280 
   66.6250    75.4530     9.6430     7.9110    12.1630    25.2190   -41.1770     2.1580 
   66.7500    73.1500     9.6320     7.7610    12.4690    25.2320   -41.9100     2.1790 
   66.8750    69.6570     9.6360     7.6520    12.7210    25.2570   -42.5830     2.1860 
   67.0000    67.1380     9.7330     7.6350    13.0360    25.4020   -43.1460     2.1810 
   67.1250    66.5340     9.9820     7.7380    13.2480    25.8970   -43.4650     2.1750 
   67.2500    66.7350    10.3000     7.9030    13.3820    26.6420   -43.5450     2.1710 
   67.3750    67.5610    10.5600     8.0490    13.7070    27.2160   -43.3750     2.1690 
   67.5000    68.7880    10.6300     8.0880    14.3120    27.5040   -42.9560     2.1670 
   67.6250    69.9400    10.4070     7.9340    14.4760    27.5820   -42.3110     2.1660 
   67.7500    71.3880     9.9930     7.6390    13.4780    27.4800   -41.5130     2.1630 
   67.8750    75.0160     9.5210     7.2840    11.6540    26.9040   -40.6280     2.1570 
   68.0000    79.7820     9.1420     6.9700    10.1570    25.7220   -39.7400     2.1450 
   68.1250    80.6100     9.0740     6.8490     9.7670    24.9150   -38.9130     2.1420 
   68.2500    77.7730     9.3790     6.9900    10.3450    25.0750   -38.0890     2.1500 
   68.3750    76.3510    10.0540     7.4190    10.1750    25.5850   -37.2150     2.1580 
   68.5000    76.8600    11.0010     8.1000     8.7740    25.7050   -36.2790     2.1550 
   68.6250    76.2280    11.9400     8.8850     7.9790    25.1370   -35.2460     2.1660 
   68.7500    73.8140    12.4690     9.4490     8.2830    24.4190   -34.1460     2.2220 
   68.8750    71.8860    12.3090     9.5110     9.4010    23.7100   -32.9310     2.3180 
   69.0000    72.3200    11.4480     8.9800    10.4230    23.1230   -31.5550     2.4020 
   69.1250    75.9990    10.1300     7.9860    10.2150    23.2910   -30.0660     2.3910 
   69.2500    82.1550     8.8090     6.9030     8.5980    23.9160   -28.6710     2.3290 
   69.3750    88.5290     7.7300     5.9460     6.8180    24.3530   -27.5190     2.2810 
   69.5000    91.8940     6.9930     5.2220     6.0040    24.4890   -26.6660     2.2640 
   69.6250    92.2290     6.6430     4.7960     5.6120    24.5070   -26.2240     2.2650 
   69.7500    90.5400     6.5860     4.6120     5.7130    24.4770   -26.1570     2.2690 
   69.8750    90.3330     6.7900     4.6550     6.1600    24.4020   -26.4880     2.2790 
   70.0000    91.7490     7.2320     4.9090     6.8490    24.3010   -27.2090     2.2960 
   70.1250    89.7740     8.0410     5.4400     8.1680    24.1920   -28.3050     2.3110 
   70.2500    84.1810     9.3830     6.3200    10.3530    24.1280   -29.5840     2.3140 
   70.3750    78.8810    11.4550     7.6960    13.0410    24.1530   -30.9720     2.3120 
   70.5000    78.8070    14.2700     9.6770    16.6860    24.2360   -32.4650     2.3110 
   70.6250    81.3240    17.4150    12.2110    27.8840    24.2890   -34.0330     2.3160 
   70.7500    78.8800    19.8100    14.5460    47.4630    24.1660   -35.5710     2.3320 
   70.8750    72.7760    20.4130    15.6910    56.5270    23.8500   -37.0360     2.3610 
   71.0000    67.9430    18.9190    15.0910    36.3020    23.5280   -38.3670     2.3960 
   71.1250    66.5540    16.1240    13.1720    20.1380    23.5620   -39.4650     2.3970 
   71.2500    64.1780    13.4880    11.1270    15.1830    23.9350   -40.3140     2.3440 
   71.3750    60.0340    11.5510     9.4250    14.2780    24.3460   -40.8550     2.2550 
   71.5000    59.0170    10.3370     8.1690    14.1700    24.5630   -41.0700     2.1750 
   71.6250    64.4240     9.6490     7.3310    13.1840    24.7040   -41.0000     2.1380 
   71.7500    70.9570     9.1510     6.7290    11.1000    24.6970   -40.8720     2.1370 
   71.8750    77.1430     8.7790     6.3080     9.0820    24.5900   -40.8170     2.1550 
   72.0000    82.3270     8.6030     6.0760     8.2940    24.4890   -40.9060     2.1780 
   72.1250    83.2180     8.7550     6.0950     8.4480    24.5500   -41.2180     2.2010 
   72.2500    78.6200     9.1690     6.3200     9.5720    24.7130   -41.7600     2.2210 
   72.3750    73.6230     9.7370     6.7000    11.7270    24.8880   -42.5260     2.2290 
   72.5000    72.5110    10.3050     7.1470    13.0890    24.9660   -43.4940     2.2180 
   72.6250    71.6150    10.6900     7.5280    13.4580    24.8670   -44.5830     2.1940 
   72.7500    69.8540    10.8480     7.7610    13.8300    24.7430   -45.6240     2.1710 
   72.8750    69.1910    10.8150     7.8290    14.5480    24.8130   -46.4950     2.1540 
   73.0000    70.5510    10.6760     7.7690    15.0100    25.1650   -47.1500     2.1460 
   73.1250    71.8340    10.5240     7.6410    15.0230    25.5080   -47.6040     2.1490 
   73.2500    71.7680    10.4160     7.5130    15.2590    25.6870   -47.9640     2.1570 
   73.3750    70.0840    10.3570     7.4090    16.1360    25.7040   -48.2700     2.1600 
   73.5000    66.3750    10.3370     7.3310    17.2930    25.6300   -48.5170     2.1550 
   73.6250    63.4470    10.3440     7.2800    15.8290    25.4510   -48.6490     2.1410 
   73.7500    62.2370    10.3570     7.2420    14.9510    25.2700   -48.6570     2.1240 
   73.8750    61.3770    10.3550     7.2060    14.5500    25.0960   -48.5270     2.1110 
   74.0000    60.0650    10.3080     7.1530    14.3790    24.9930   -48.2910     2.1030 
   74.1250    60.0320    10.1790     7.0570    14.2740    25.1140   -47.9670     2.1000 
   74.2500    62.2640     9.9820     6.9140    14.2250    25.2450   -47.5310     2.0980 
   74.3750    65.3060     9.7420     6.7330    14.1370    25.1290   -46.9800     2.0970 
