~V
VERS. 2.00: Ver 2.00
~W
STRT.M 50.0000:
STOP.M 284.0000:
STEP.M 0.1250:
NULL. -999.2500:
UWI. F10254:
~C
DEPT.M :
GR.API :
RML.OHMM :
RI. :
RXO.OHMM :
CALI.CM :
DEN.GM/CC :
SP.MV :
~A
# ...
  128.7500    82.1200     8.6330     8.3440     7.6210    24.8370     2.3610     0.2750 
  128.8750    85.3570     7.7700     7.5400     7.9060    25.0110     2.3560     0.5040 
  129.0000    87.5690     7.3790     7.0620     9.6970    25.0970     2.3520     0.6040 
  129.1250    87.8990     7.3070     6.8660    10.2150    25.0560     2.3310     0.5710 
  129.2500    87.4800     7.2550     6.7440     7.9540    24.9710     2.2970     0.5320 
  129.3750    88.6440     7.0900     6.5820     7.2830    24.9160     2.2660     0.4440 
  129.5000    90.1700     6.8230     6.3600     7.5590    24.9160     2.2520     0.2850 
  129.6250    91.2190     6.5800     6.1600     7.0920    24.9990     2.2600     0.0710 
  129.7500    93.3490     6.4590     6.0590     6.3790    25.1050     2.2740    -0.1420 
  129.8750    95.0680     6.4910     6.0850     6.0890    25.1640     2.2820    -0.3800 
  130.0000    93.3200     6.6870     6.2440     6.3820    25.1620     2.2760    -0.7120 
  130.1250    88.8910     7.0600     6.5480     6.9640    25.1510     2.2510    -1.0960 
  130.2500    86.1390     7.4950     6.9150     7.2290    25.1330     2.2160    -1.4280 
  130.3750    85.3940     7.8420     7.2310     7.0950    25.1030     2.1810    -1.7510 
  130.5000    84.3740     7.9560     7.3660     7.7830    25.0550     2.1580    -2.1060 
  130.6250    83.3820     7.7590     7.2340     8.6540    24.8990     2.1620    -2.3560 
  130.7500    84.3170     7.4290     6.9670     8.3110    24.5720     2.1870    -2.5740 
  130.8750    85.3420     7.1620     6.7150     7.0500    24.1430     2.2200    -2.7880 
  131.0000    84.4120     7.1300     6.6130     6.5270    23.7530     2.2470    -2.9460 
  131.1250    79.6110     7.5020     6.8030     7.2090    23.8470     2.2560    -3.0970 
  131.2500    73.0870     8.2420     7.2940     8.5430    24.4390     2.2520    -3.3430 
  131.3750    67.3860     9.2780     8.0750     9.4910    25.1840     2.2380    -3.6720 
  131.5000    64.0710    10.4570     9.0660    10.5580    25.6370     2.2130    -4.0460 
  131.6250    61.7870    11.5360    10.0890    12.9930    25.6980     2.1720    -4.5920 
  131.7500    59.1470    12.3440    10.9410    17.1520    25.6420     2.1220    -5.2450 
  131.8750    56.5920    12.8120    11.5150    18.2100    25.6980     2.0700    -5.8930 
  132.0000    56.2220    12.9550    11.7840    15.9010    25.8200     2.0300    -6.5010 
  132.1250    59.1550    12.8450    11.7800    14.3320    25.6550     2.0110    -7.0400 
  132.2500    61.5420    12.7010    11.6860    13.8750    25.3320     2.0080    -7.4690 
  132.3750    61.2360    12.6910    11.6470    13.6200    24.9650     2.0180    -7.7550 
  132.5000    59.6350    12.9150    11.7610    13.1140    24.6480     2.0380    -7.9730 
  132.6250    59.5720    13.3700    12.0570    12.8840    24.5260     2.0660    -8.1130 
  132.7500    60.9410    13.8550    12.4090    13.8430    24.5230     2.0970    -8.1560 
  132.8750    62.5590    14.1820    12.6770    16.1180    24.6340     2.1230    -8.0810 
  133.0000    63.7880    14.2160    12.7490    18.0410    24.6920     2.1420    -7.9540 
  133.1250    63.6130    13.9270    12.5650    15.7680    24.6200     2.1510    -7.8850 
  133.2500    62.8930    13.5170    12.2500    14.3490    24.5120     2.1550    -7.8820 
  133.3750    63.2490    13.1480    11.9200    13.4840    24.3940     2.1580    -7.8790 
  133.5000    64.3580    12.9240    11.6680    13.1550    24.2310     2.1630    -7.8630 
  133.6250    63.6330    12.8810    11.5500    13.0670    24.0450     2.1710    -7.9200 
  133.7500    62.2030    12.9200    11.5200    12.8600    23.8750     2.1770    -7.9630 
  133.8750    62.3690    12.9710    11.5300    12.8430    23.7590     2.1820    -8.0170 
  134.0000    64.2490    13.0020    11.5500    13.0460    23.7070     2.1830    -8.0970 
  134.1250    65.7040    13.0160    11.5720    13.2180    23.7790     2.1840    -8.1250 
  134.2500    67.0400    13.0290    11.5950    12.8980    24.0940     2.1840    -8.0970 
  134.3750    68.3980    13.0450    11.6210    12.3680    24.5700     2.1820    -8.1230 
  134.5000    68.5950    13.0590    11.6460    12.3290    24.9110     2.1740    -8.1880 
  134.6250    65.0020    13.0590    11.6640    12.9650    24.8230     2.1560    -8.1540 
  134.7500    61.0630    13.0430    11.6770    13.0910    24.4820     2.1320    -8.1560 
  134.8750    59.9180    13.0250    11.6890    12.8310    24.2510     2.1070    -8.2260 
  135.0000    62.4410    13.0270    11.7120    12.6420    24.2360     2.0890    -8.2530 
  135.1250    66.8390    13.0750    11.7560    12.6890    24.3110     2.0860    -8.2600 
  135.2500    69.2960    13.1510    11.8120    12.6580    24.3120     2.0940    -8.2470 
  135.3750    68.7710    13.2180    11.8580    12.6750    24.3020     2.1110    -8.2000 
  135.5000    64.4500    13.2350    11.8670    12.6520    24.2810     2.1310    -8.1490 
  135.6250    60.0950    13.1660    11.8110    12.4940    24.2530     2.1510    -8.1460 
  135.7500    60.7860    13.0480    11.7080    12.1140    24.2210     2.1660    -8.1260 
  135.8750    66.3580    12.9240    11.5890    11.5940    24.1570     2.1760    -7.9940 
  136.0000    72.8700    12.8280    11.4860    11.2290    24.0370     2.1770    -7.8170 
  136.1250    75.5740    12.7760    11.4250    11.1070    23.8700     2.1670    -7.7010 
  136.2500    74.5450    12.7430    11.3970    11.1200    23.7420     2.1510    -7.6570 
  136.3750    71.2170    12.7090    11.3850    11.2950    23.6800     2.1360    -7.6040 
  136.5000    68.0650    12.6630    11.3760    11.5450    23.6400     2.1260    -7.4780 
  136.6250    67.8930    12.6030    11.3590    11.6960    23.6160     2.1260    -7.2980 
  136.7500    68.9710    12.5400    11.3370    11.9050    23.6340     2.1310    -7.1790 
  136.8750    68.2450    12.4870    11.3170    12.2220    23.7040     2.1350    -7.1330 
  137.0000    66.5140    12.4540    11.3080    12.3210    23.7580     2.1340    -7.1070 
  137.1250    67.5020    12.4660    11.3290    12.3590    23.7260     2.1250    -7.0440 
  137.2500    70.9620    12.5210    11.3840    12.1810    23.6490     2.1140    -6.8990 
  137.3750    74.2230    12.5730    11.4480    11.9160    23.6000     2.1060    -6.6610 
  137.5000    75.1870    12.5010    11.4370    11.6620    23.5950     2.1040    -6.3000 
  137.6250    73.4040    12.0860    11.1760    11.5380    23.7060     2.1120    -5.8650 
  137.7500    72.9540    11.3060    10.6200    11.4090    23.8960     2.1310    -5.2380 
  137.8750    77.1650    10.2960     9.8540    10.7430    24.1870     2.1580    -4.4700 
  138.0000    84.2580     9.3510     9.0980     9.0960    24.5410     2.1900    -3.7010 
  138.1250    86.1110     8.8970     8.6740     8.0520    24.9430     2.2110    -2.9160 
  138.2500    80.8670     9.0280     8.6900     8.0480    25.1830     2.2100    -2.2490 
  138.3750    74.4600     9.6370     9.1190     8.7660    25.2540     2.1880    -1.7770 
  138.5000    70.4040    10.4030     9.7650    10.4000    25.2780     2.1590    -1.4480 
  138.6250    67.1480    10.7500    10.1550    12.1910    25.4220     2.1470    -1.1170 
  138.7500    66.0510    10.3530     9.8970    12.1600    25.5430     2.1620    -0.7700 
  138.8750    70.2230     9.2430     8.9480     9.9800    25.5300     2.1990    -0.4380 
  139.0000    78.8140     7.7740     7.6200     7.2740    25.4250     2.2420    -0.1190 
  139.1250    84.5250     6.4610     6.3850     6.6480    25.3500     2.2710     0.1840 
  139.2500    84.1910     5.6280     5.5320     6.3930    25.3320     2.2900     0.5290 
  139.3750    80.9710     5.4310     5.1800     5.9100    25.3320     2.3150     0.9670 
  139.5000    79.4640     5.9310     5.3810     5.5390    25.3320     2.3650     1.3720 
  139.6250    81.2430     7.1860     6.2300     7.0570    25.3180     2.4420     1.5280 
  139.7500    80.7670     8.8380     7.5270    12.1890    25.2820     2.5130     1.4080 
  139.8750    76.4470    10.4490     8.9860    19.1700    25.2400     2.5450     1.0730 
