~V
VERS. 2.00: Ver 2.00
~W
STRT.M 50.0000:
STOP.M 283.0000:
STEP.M 0.1250:
NULL. -999.2500:
UWI. F10256:
~C
DEPT.M :
DEN.GM/CC :
GR.API :
RML.OHMM :
RI. :
RXO.OHMM :
CALI.CM :
SP.MV :
~A
# ...
  241.2500     2.3940    97.4770     7.8210     6.8110     7.5950    24.5230    -2.1340 
  241.3750     2.3890    97.0150     7.8510     6.7700     7.3920    24.4840    -1.8620 
  241.5000     2.3880    95.8030     7.8970     6.7380     7.1970    24.4240    -1.6440 
  241.6250     2.3940    95.9090     7.9340     6.7030     7.1950    24.4360    -1.4900 
  241.7500     2.4020    95.8200     7.9240     6.6410     7.4440    24.4110    -1.3690 
  241.8750     2.4090    94.8480     7.8490     6.5380     7.8120    24.3630    -1.2400 
  242.0000     2.4140    92.6230     7.7300     6.4090     7.8730    24.3660    -1.1190 
  242.1250     2.4200    88.7340     7.6600     6.3170     7.6150    24.3900    -1.0350 
  242.2500     2.4270    84.4770     7.7500     6.3440     7.2100    24.3560    -0.9570 
  242.3750     2.4340    82.6230     8.0860     6.5650     7.3110    24.3530    -0.8850 
  242.5000     2.4380    84.2650     8.6990     7.0210     8.0940    24.3850    -0.8320 
  242.6250     2.4320    86.4790     9.5760     7.7370     9.0610    24.3510    -0.7860 
  242.7500     2.4180    86.6220    10.5640     8.6050    10.1790    24.3380    -0.7410 
  242.8750     2.3970    85.0930    11.5350     9.5230    11.7380    24.3730    -0.7320 
  243.0000     2.3750    86.9720    12.3680    10.3730    13.0000    24.3880    -0.7410 
  243.1250     2.3580    93.1470    12.9270    11.0020    12.8870    24.3270    -0.7050 
  243.2500     2.3500    96.5220    13.1880    11.3510    12.1960    24.3260    -0.6470 
  243.3750     2.3480    94.3520    13.1130    11.3680    12.0050    24.3320    -0.6060 
  243.5000     2.3520    89.7220    12.5460    11.0320    12.3160    24.2620    -0.5890 
  243.6250     2.3550    88.1060    11.5570    10.3290    11.7450    24.2310    -0.5590 
  243.7500     2.3570    87.3150    10.2780     9.4420    10.3780    24.2480    -0.5290 
  243.8750     2.3560    85.5370     8.8500     8.5500     8.7570    24.2380    -0.5130 
  244.0000     2.3540    82.1970     8.0890     7.8340     7.7280    24.2070    -0.5060 
  244.1250     2.3490    78.8700     7.9090     7.4860     7.0790    24.2270    -0.5390 
  244.2500     2.3390    75.5650     8.1680     7.5180     6.9650    24.2150    -0.6010 
  244.3750     2.3230    71.9440     8.8540     7.9350     7.6410    24.1770    -0.6560 
  244.5000     2.3020    68.3700     9.9090     8.7080     8.7400    24.2010    -0.7030 
  244.6250     2.2750    63.6150    11.2400     9.7980     9.7640    24.2170    -0.7860 
  244.7500     2.2500    59.7210    12.6120    11.0110    11.0370    24.1940    -0.9040 
  244.8750     2.2280    59.8020    13.8360    12.1830    13.4940    24.2160    -1.0260 
  245.0000     2.2140    62.3300    14.7950    13.1750    16.0780    24.2670    -1.1690 
  245.1250     2.2090    63.2390    15.5050    13.9270    17.7220    24.2340    -1.3480 
  245.2500     2.2100    61.4550    16.2520    14.6150    17.7100    24.1970    -1.5370 
  245.3750     2.2170    59.6270    17.3530    15.4770    16.9170    24.1770    -1.7450 
  245.5000     2.2290    60.1310    19.0870    16.7710    18.1010    24.1030    -1.9470 
  245.6250     2.2490    62.0050    21.6490    18.7580    20.6780    24.0820    -2.1470 
  245.7500     2.2730    62.9150    24.6240    21.2120    22.1620    24.1310    -2.3200 
  245.8750     2.2940    61.9650    27.4180    23.7080    23.1190    24.0980    -2.4510 
  246.0000     2.3030    59.2030    29.2720    25.6060    26.9410    23.9340    -2.5570 
  246.1250     2.2960    55.9910    29.1970    25.9720    30.8560    23.8650    -2.6220 
  246.2500     2.2830    55.7670    27.3640    24.7710    30.8680    23.8960    -2.6580 
  246.3750     2.2750    58.7630    24.3810    22.4310    25.8700    23.8440    -2.6590 
  246.5000     2.2750    60.3260    21.1830    19.7360    19.7650    23.7900    -2.6450 
  246.6250     2.2750    57.7620    18.7270    17.5090    16.8850    23.8180    -2.6430 
  246.7500     2.2670    58.1310    17.2330    16.0240    16.3290    23.8040    -2.6490 
  246.8750     2.2490    63.3840    16.5920    15.2700    17.1600    23.7750    -2.6520 
  247.0000     2.2290    66.2210    16.5210    15.0880    17.5130    23.7900    -2.6300 
  247.1250     2.2140    62.0640    16.7200    15.2920    17.9240    23.7840    -2.6260 
  247.2500     2.2050    58.2390    16.9060    15.6050    17.2620    23.7190    -2.6060 
  247.3750     2.1990    58.4750    16.9810    15.8920    16.6720    23.7090    -2.5740 
  247.5000     2.1940    60.3550    16.9140    16.0710    16.2330    23.7180    -2.5580 
  247.6250     2.1920    59.4630    16.6450    16.0440    15.7760    23.7320    -2.5230 
  247.7500     2.1940    58.5450    16.2030    15.7570    15.7640    23.8560    -2.4440 
  247.8750     2.2010    59.3530    15.5570    15.1410    16.0330    24.0100    -2.3640 
  248.0000     2.2110    61.0430    14.7420    14.1910    16.0110    24.0900    -2.3060 
  248.1250     2.2220    62.5220    13.8130    12.9860    15.0130    24.1150    -2.2130 
  248.2500     2.2300    62.9240    12.8980    11.7680    12.8640    24.1980    -2.1480 
  248.3750     2.2360    63.9720    11.7350    10.7070    10.2260    24.2280    -2.1080 
  248.5000     2.2380    67.3000    10.8870     9.9060     8.8720    24.2070    -2.0430 
  248.6250     2.2400    72.3340    10.3940     9.4240     8.5820    24.2540    -1.9800 
  248.7500     2.2430    77.0380    10.1250     9.1680     8.4910    24.2630    -1.9170 
  248.8750     2.2470    79.0240    10.0010     9.0760     8.2830    24.2120    -1.8200 
  249.0000     2.2530    77.7420     9.9630     9.0940     8.1700    24.2250    -1.7220 
  249.1250     2.2570    74.6040     9.9910     9.1940     8.2470    24.2920    -1.6370 
  249.2500     2.2590    72.9140    10.0610     9.3420     8.4320    24.2800    -1.5340 
  249.3750     2.2610    72.5450    10.1590     9.5180     8.6610    24.2530    -1.4630 
  249.5000     2.2640    70.8390    10.2630     9.6940     8.9340    24.2710    -1.4200 
  249.6250     2.2720    68.7830    10.3470     9.8350     9.3520    24.1900    -1.3620 
  249.7500     2.2840    69.4660    10.4130     9.9290     9.5240    24.1030    -1.3360 
  249.8750     2.2970    71.7480    10.4750     9.9760     9.4750    24.1510    -1.3750 
  250.0000     2.3080    71.5460    10.5500     9.9900     9.4230    24.2810    -1.4520 
  250.1250     2.3160    69.4500    10.6370     9.9690     9.4170    24.3080    -1.5460 
  250.2500     2.3230    68.3640    10.6950     9.9040     9.4790    24.3590    -1.6650 
  250.3750     2.3310    68.5820    10.6780     9.7760     9.6030    24.4150    -1.8110 
  250.5000     2.3420    68.8230    10.5770     9.5830     9.7470    24.3900    -1.9860 
  250.6250     2.3530    70.0880    10.5060     9.4040     9.8580    24.3960    -2.2380 
  250.7500     2.3640    71.2820    10.7290     9.4180     9.8150    24.4270    -2.5410 
  250.8750     2.3720    70.5080    11.6080     9.8800     9.6420    24.3710    -2.8620 
  251.0000     2.3720    67.1970    13.5720    11.1210     9.4800    24.2670    -3.2220 
  251.1250     2.3590    63.1210    17.3650    13.8050    10.6280    24.2600    -3.6550 
  251.2500     2.3340    61.1930    23.0190    18.1740    14.2580    24.2540    -4.1190 
  251.3750     2.3040    62.9250    30.3670    24.3500    22.0970    24.2230    -4.5610 
  251.5000     2.2830    65.8410    38.6610    31.9250    34.3870    24.2630    -4.9950 
  251.6250     2.2790    66.2930    46.3270    39.6790    52.5980    24.3160    -5.4140 
  251.7500     2.2890    64.4120    51.9330    45.9560    67.6330    24.3300    -5.7710 
  251.8750     2.2990    62.3680    55.0370    49.9110    69.7590    24.3950    -6.0770 
  252.0000     2.3010    61.7550    56.6210    52.0750    64.9100    24.4810    -6.3090 
  252.1250     2.2940    61.8070    58.9290    54.3520    51.9370    24.4010    -6.4260 
  252.2500     2.2910    62.1160    63.5820    58.5250    48.0900    24.3800    -6.4780 
  252.3750     2.3080    61.6960    71.2650    65.5060    53.5700    24.4310    -6.4730 
