~V
VERS. 2.00: Ver 2.00
~W
STRT.M 60.0000:
STOP.M 271.0000:
STEP.M 0.1250:
NULL. -999.2500:
UWI. F10205:
~C
DEPT.M :
DEN.GM/CC :
GR.API :
RML.OHMM :
RI. :
RXO.OHMM :
CALI.CM :
SP.MV :
~A
# ...
  217.5000     2.3050    73.5600    71.8540    71.2210    60.0620    25.4440   -13.1780 
  217.6250     2.3240    73.0640    74.4620    72.9710    59.2020    24.9930   -13.4040 
  217.7500     2.3170    70.4590    80.0700    77.7660    64.1410    24.8060   -13.6080 
  217.8750     2.2890    67.6000    88.1870    85.2290    73.2180    24.9040   -13.7760 
  218.0000     2.2560    66.8790    97.7330    94.3490    84.4010    25.1680   -13.8800 
  218.1250     2.2380    69.2870   106.7280   103.2650   105.6080    25.3480   -13.9010 
  218.2500     2.2330    71.0280   113.2090   109.9920   123.2860    25.4370   -13.8500 
  218.3750     2.2370    70.1410   116.0630   113.3140   127.3720    25.5670   -13.7240 
  218.5000     2.2430    67.4740   115.3570   113.0590   125.6870    25.7820   -13.5440 
  218.6250     2.2510    65.0300   112.2080   110.0130   125.0660    26.0970   -13.3410 
  218.7500     2.2600    64.8880   109.0000   106.4920   118.7070    26.2750   -13.1540 
  218.8750     2.2660    66.5680   107.2330   104.0840   102.3890    26.2400   -13.0210 
  219.0000     2.2600    69.2450   107.7400   103.8020    87.9200    26.1210   -12.9520 
  219.1250     2.2360    71.9210   110.5980   105.9870    99.6290    26.0400   -12.9280 
  219.2500     2.2030    73.8150   113.6640   108.7730   109.9030    26.0350   -12.9130 
  219.3750     2.1740    72.8460   114.3100   109.7650   110.8090    26.1470   -12.9250 
  219.5000     2.1650    67.9290   110.3490   106.7440   111.2900    26.3690   -12.9220 
  219.6250     2.1850    62.3750   101.2400    98.5840   108.2020    26.2790   -12.9810 
  219.7500     2.2210    61.6780    90.7820    88.3300    94.7740    25.9550   -13.0130 
  219.8750     2.2610    67.7750    82.3410    79.1270    74.2090    25.6160   -13.0410 
  220.0000     2.2930    75.2850    78.1620    73.5250    52.7230    25.3750   -13.0380 
  220.1250     2.3110    75.6100    79.7300    73.5220    51.9750    25.2730   -13.0590 
  220.2500     2.3150    71.2750    85.5870    78.0000    72.7150    25.3230   -13.0680 
  220.3750     2.3030    68.2940    94.4220    85.7950   105.7170    25.4840   -13.0450 
  220.5000     2.2780    68.6550   104.2620    95.1520   115.3570    25.5200   -13.0320 
  220.6250     2.2560    68.9430   111.7420   103.2030    99.9400    25.2770   -12.9770 
  220.7500     2.2640    67.8020   114.1620   107.2540   101.7130    24.8960   -12.9130 
  220.8750     2.3180    66.2480   110.0470   105.5250   120.7340    24.7030   -12.8210 
  221.0000     2.4110    64.7500    99.6750    97.6510   140.9440    24.7300   -12.7140 
  221.1250     2.5100    64.7230    84.4100    84.1580   126.4260    24.7670   -12.5360 
  221.2500     2.5760    67.9280    67.5370    68.1350    85.9950    24.6840   -12.3510 
  221.3750     2.5900    73.9070    51.0330    51.7430    47.1780    24.6100   -12.1570 
  221.5000     2.5610    79.2910    36.4270    36.8810    33.1020    24.6740   -11.9270 
  221.6250     2.5070    79.3010    25.2750    25.4220    26.3970    24.9080   -11.6370 
  221.7500     2.4530    73.7960    17.3620    17.2470    20.4420    25.1110   -11.2980 
  221.8750     2.4100    64.5940    12.3160    11.9440    12.3120    25.1830   -10.9640 
  222.0000     2.3820    55.2900     9.4690     8.8160     7.1860    25.1890   -10.7430 
  222.1250     2.3720    52.1100     8.2870     7.3470     5.8430    25.1500   -10.7400 
  222.2500     2.3710    54.6710     7.9670     6.7800     5.9750    25.1510   -10.8920 
  222.3750     2.3750    57.2630     8.1930     6.8400     6.7730    25.2580   -11.2190 
  222.5000     2.3800    55.0560     8.7320     7.3330     7.9210    25.4490   -11.6830 
  222.6250     2.3840    49.7860     9.3650     8.0800     8.8820    25.5610   -12.2990 
  222.7500     2.3910    46.4630     9.8710     8.8200     9.2090    25.5580   -12.9680 
  222.8750     2.4030    45.6870    10.1200     9.3710     9.0350    25.4970   -13.5440 
  223.0000     2.4190    46.6370    10.0490     9.5960     9.0600    25.4340   -13.8190 
  223.1250     2.4360    49.3670     9.6320     9.3880     8.9860    25.3920   -13.5920 
  223.2500     2.4420    52.5310     9.0190     8.8680     8.0700    25.3570   -12.9800 
  223.3750     2.4240    54.1730     8.3250     8.1530     7.0220    25.2860   -12.0660 
  223.5000     2.3760    53.5490     7.6530     7.3700     6.2640    25.1490   -11.0050 
  223.6250     2.3100    52.5630     7.0960     6.6390     5.6560    24.9140    -9.8120 
  223.7500     2.2620    55.6790     6.6840     6.0240     5.1790    24.6800    -8.6040 
  223.8750     2.2520    64.4300     6.3340     5.5540     4.9300    24.5750    -7.4500 
  224.0000     2.2800    73.5810     5.9360     5.2300     4.7430    24.6260    -6.5010 
  224.1250     2.3180    75.2450     5.5470     5.0460     4.7100    24.7460    -5.8840 
  224.2500     2.3330    71.3850     5.3200     4.9380     4.9070    24.8040    -5.5240 
  224.3750     2.3230    68.3140     5.2600     4.8710     5.1130    24.8120    -5.3470 
  224.5000     2.3020    68.0810     5.2600     4.8290     5.1690    24.7990    -5.2500 
  224.6250     2.3020    70.9520     5.2930     4.8440     5.0230    24.7690    -5.2910 
  224.7500     2.3300    76.8120     5.4290     4.9530     4.9910    24.8700    -5.4570 
  224.8750     2.3750    84.2020     5.6980     5.1910     5.3790    24.9280    -5.7840 
  225.0000     2.4180    91.1790     6.1010     5.5670     6.8850    24.8670    -6.2570 
  225.1250     2.4420    94.2540     6.5930     6.0560     9.9650    24.9820    -6.8760 
  225.2500     2.4460    97.1020     7.0620     6.5560    11.5780    25.1970    -7.5970 
  225.3750     2.4400   101.8460     7.4280     6.9760    10.0120    25.3290    -8.3950 
  225.5000     2.4330   104.5710     7.6540     7.2560     8.6730    25.3240    -9.2540 
  225.6250     2.4290    99.7260     7.7440     7.3650     8.3700    25.2610   -10.0620 
  225.7500     2.4270    92.3510     7.7780     7.3770     8.2410    25.2320   -10.8070 
  225.8750     2.4240    91.6790     7.8030     7.3470     8.1930    25.2280   -11.4460 
  226.0000     2.4220    98.7180     7.8350     7.3080     8.1190    25.2360   -11.9700 
  226.1250     2.4220   105.3520     7.8630     7.2630     7.9400    25.2630   -12.3650 
  226.2500     2.4220   111.5740     7.8760     7.2020     7.8710    25.3030   -12.6720 
  226.3750     2.4240   119.2360     7.8890     7.1310     7.8190    25.3220   -12.9280 
  226.5000     2.4260   126.3230     7.9520     7.0840     7.9070    25.2830   -13.1420 
  226.6250     2.4270   131.0940     8.1970     7.1590     8.3400    25.1520   -13.3980 
  226.7500     2.4260   135.9770     8.7350     7.4460     8.7710    24.9220   -13.6600 
  226.8750     2.4200   141.1300     9.6730     8.0470     9.6490    24.6500   -13.9870 
  227.0000     2.4070   138.6920    11.0600     9.0430    11.7940    24.4940   -14.4050 
  227.1250     2.3880   123.7410    12.8760    10.5090    16.3070    24.5870   -14.9020 
  227.2500     2.3690   108.5620    14.8280    12.2550    20.5160    24.8700   -15.4000 
  227.3750     2.3540   101.4880    16.6360    14.0540    23.7740    25.0670   -15.8510 
  227.5000     2.3440    99.0420    18.0560    15.6410    25.8370    25.0350   -16.2730 
  227.6250     2.3390    92.8970    18.9050    16.7400    24.9550    24.7320   -16.5880 
  227.7500     2.3360    87.1720    19.3530    17.4040    22.8490    24.4040   -16.8310 
  227.8750     2.3350    87.0540    19.5680    17.7500    21.9700    24.2020   -16.9730 
  228.0000     2.3380    89.2950    19.7070    17.9220    22.0440    24.0970   -16.9930 
  228.1250     2.3400    89.4020    19.8790    18.0390    22.5520    24.0850   -16.9070 
  228.2500     2.3370    89.1020    20.1180    18.1780    22.2700    24.1760   -16.7580 
  228.3750     2.3280    89.9450    20.4190    18.3640    21.5820    24.3240   -16.5580 
  228.5000     2.3150    91.1290    20.7620    18.5990    21.8830    24.5200   -16.3150 
  228.6250     2.3040    90.6090    21.1140    18.8750    22.5860    24.8610   -16.0800 
