~V
VERS. 2.00: Ver 2.00
~W
STRT.M 54.0000:
STOP.M 277.0000:
STEP.M 0.1250:
NULL. -999.2500:
UWI. F10247:
~C
DEPT.M :
GR.API :
RML.OHMM :
RI. :
RXO.OHMM :
CALI.CM :
DEN.GM/CC :
SP.MV :
~A
# ...
   99.0000    57.4560    10.4920     7.4580     9.8950    23.8730     2.1430   -27.1030 
   99.1250    59.1410    10.6100     7.5580    10.1930    23.9600     2.1360   -26.9830 
   99.2500    59.4840    10.7500     7.6390    10.8660    24.0840     2.1390   -26.9040 
   99.3750    58.9630    10.8670     7.6780    11.1990    24.2310     2.1470   -26.8770 
   99.5000    57.9180    10.9150     7.6630    10.9210    24.3350     2.1580   -26.8690 
   99.6250    58.4620    10.8850     7.6100    10.5440    24.3660     2.1690   -26.8570 
   99.7500    62.6940    10.8460     7.5660    10.5800    24.3470     2.1800   -26.8420 
   99.8750    65.1500    10.9010     7.5780    10.4710    24.3140     2.1890   -26.8150 
  100.0000    62.9710    11.0930     7.6700     9.9370    24.2920     2.1940   -26.8070 
  100.1250    59.5820    11.3720     7.8300     9.7940    24.2490     2.1910   -26.8100 
  100.2500    59.4650    11.6050     8.0030    10.4580    24.1580     2.1790   -26.8210 
  100.3750    61.7900    11.6820     8.1190    11.2340    24.0740     2.1650   -26.8330 
  100.5000    64.3010    11.5800     8.1420    11.4480    24.0270     2.1530   -26.8530 
  100.6250    63.0880    11.3610     8.0760    10.8190    23.9890     2.1470   -26.8800 
  100.7500    57.7180    11.1470     7.9630    10.0040    23.9650     2.1470   -26.8950 
  100.8750    55.3130    11.0180     7.8660     9.9610    23.9680     2.1480   -26.9390 
  101.0000    57.6400    10.9740     7.8080    10.5180    23.9440     2.1470   -26.9820 
  101.1250    60.9590    10.9730     7.7860    11.2500    23.9380     2.1480   -27.0340 
  101.2500    62.3240    10.9560     7.7750    11.6890    23.9900     2.1520   -27.0770 
  101.3750    63.3670    10.8940     7.7480    11.7230    24.0510     2.1570   -27.1050 
  101.5000    63.4140    10.7990     7.7000    11.6150    24.1020     2.1610   -27.1240 
  101.6250    62.1360    10.7060     7.6460    11.4600    24.1440     2.1610   -27.1160 
  101.7500    60.7850    10.6610     7.6110    10.7970    24.2030     2.1610   -27.1120 
  101.8750    60.1800    10.6730     7.6010    10.5130    24.2290     2.1620   -27.0710 
  102.0000    60.9330    10.7240     7.6060    10.5840    24.2040     2.1640   -27.0120 
  102.1250    61.6820    10.7840     7.6110    10.7730    24.1670     2.1640   -26.9290 
  102.2500    59.2460    10.8090     7.5990    11.0970    24.2040     2.1600   -26.8440 
  102.3750    57.0480    10.8060     7.5850    10.9270    24.2950     2.1540   -26.7650 
  102.5000    59.7760    10.8100     7.5910    10.2620    24.3550     2.1510   -26.6950 
  102.6250    64.8570    10.8710     7.6410     9.8180    24.3740     2.1520   -26.6620 
  102.7500    65.6980    11.0270     7.7470    10.3000    24.3770     2.1560   -26.6510 
  102.8750    63.1560    11.2340     7.8800    11.0850    24.3750     2.1570   -26.6690 
  103.0000    59.6270    11.4150     8.0010    11.1950    24.3500     2.1550   -26.6930 
  103.1250    56.4050    11.4750     8.0720    10.7690    24.3020     2.1520   -26.7250 
  103.2500    54.4050    11.3380     8.0520    10.4160    24.2380     2.1490   -26.7320 
  103.3750    54.2400    11.0900     7.9650    10.4560    24.2120     2.1490   -26.7200 
  103.5000    55.0710    10.8400     7.8460    10.5950    24.2030     2.1490   -26.6860 
  103.6250    57.2580    10.6870     7.7380    10.7900    24.1970     2.1490   -26.6240 
  103.7500    60.6520    10.6890     7.6800    10.4010    24.1720     2.1510   -26.5390 
  103.8750    63.6460    10.7830     7.6710    10.0470    24.1280     2.1560   -26.4080 
  104.0000    65.2210    10.8990     7.6980    10.2480    24.0930     2.1630   -26.2770 
  104.1250    64.6280    10.9790     7.7380    10.5410    24.0820     2.1700   -26.1320 
  104.2500    61.6800    10.9940     7.7670    10.8140    24.0740     2.1740   -26.0310 
  104.3750    59.7130    10.9670     7.7720    10.5700    24.0510     2.1760   -25.9530 
  104.5000    60.5700    10.9010     7.7470    10.3100    24.0090     2.1770   -25.9060 
  104.6250    63.0760    10.8000     7.6990    10.0180    23.9670     2.1760   -25.8770 
  104.7500    65.1460    10.6720     7.6360    10.0470    23.9930     2.1710   -25.8700 
  104.8750    66.9340    10.5430     7.5700    10.2520    24.0170     2.1640   -25.8810 
  105.0000    67.9080    10.4350     7.4990     9.9780    24.0230     2.1570   -25.8880 
  105.1250    66.0020    10.3640     7.4240     9.7500    24.0180     2.1510   -25.8860 
  105.2500    61.7230    10.3210     7.3520     9.6500    23.9890     2.1490   -25.8300 
  105.3750    60.4480    10.2710     7.2880     9.2840    23.9380     2.1490   -25.7370 
  105.5000    62.9360    10.1980     7.2320     8.8210    23.8660     2.1510   -25.6030 
  105.6250    64.7810    10.1130     7.1820     8.7080    23.7770     2.1540   -25.4300 
  105.7500    61.8680    10.0440     7.1350     8.6900    23.7390     2.1570   -25.2230 
  105.8750    58.5660    10.0020     7.0930     8.6680    23.7180     2.1570   -24.9920 
  106.0000    58.2020     9.9660     7.0540     8.4660    23.6910     2.1560   -24.7510 
  106.1250    60.6670     9.9010     7.0000     8.2410    23.6450     2.1550   -24.5100 
  106.2500    64.6410     9.7710     6.9080     8.7470    23.6420     2.1620   -24.3030 
  106.3750    67.5150     9.6090     6.7890     9.5060    23.6920     2.1780   -24.1180 
  106.5000    71.4750     9.4670     6.6800     9.7400    23.7920     2.2000   -23.9780 
  106.6250    76.5690     9.4020     6.6330     9.3080    23.9010     2.2200   -23.8960 
  106.7500    75.0250     9.5070     6.7170     8.6100    24.0010     2.2300   -23.8840 
  106.8750    66.2000     9.7920     6.9280     8.7880    24.0470     2.2300   -23.9190 
  107.0000    59.4350    10.2330     7.2370     9.6120    24.0500     2.2240   -24.0030 
  107.1250    60.6580    10.7370     7.5830    10.3170    24.0410     2.2150   -24.1000 
  107.2500    64.3320    11.1250     7.8680    10.6130    24.1350     2.2030   -24.1930 
  107.3750    64.7700    11.2740     8.0280    10.8780    24.2880     2.1850   -24.2660 
  107.5000    63.7900    11.1510     8.0370    11.0270    24.3880     2.1670   -24.2870 
  107.6250    62.3110    10.8050     7.9020    11.0430    24.4480     2.1530   -24.2420 
  107.7500    62.3430    10.3070     7.6320    10.7440    24.4700     2.1530   -24.0980 
  107.8750    64.6240     9.7540     7.2790     9.9770    24.4830     2.1680   -23.8950 
  108.0000    65.9250     9.2030     6.8830     8.9390    24.4930     2.1940   -23.6380 
  108.1250    63.7450     8.7240     6.4960     8.0460    24.5100     2.2220   -23.3780 
  108.2500    62.7620     8.4490     6.2100     7.8400    24.4800     2.2480   -23.1430 
  108.3750    66.0290     8.4450     6.0810     7.7460    24.4130     2.2680   -22.9580 
  108.5000    71.9080     8.7250     6.1350     8.1920    24.2590     2.2780   -22.8360 
  108.6250    76.6470     9.2230     6.3500     8.3070    23.9740     2.2730   -22.7880 
  108.7500    77.1390     9.7700     6.6560     9.0250    23.6760     2.2540   -22.8520 
  108.8750    74.2600    10.1430     6.9210    10.2180    23.5990     2.2290   -23.0050 
  109.0000    68.9630    10.2210     7.0590    10.0110    23.7380     2.2060   -23.2410 
  109.1250    65.1250    10.0340     7.0490     8.7360    23.9820     2.1850   -23.5040 
  109.2500    65.9920     9.7660     6.9490     8.0810    24.1790     2.1630   -23.7930 
  109.3750    67.4010     9.6430     6.8800     8.4700    24.2830     2.1410   -24.0850 
  109.5000    65.5030     9.7600     6.9200     9.3830    24.3250     2.1250   -24.3810 
  109.6250    60.9630    10.1080     7.1020     9.7850    24.3490     2.1230   -24.6720 
  109.7500    60.3130    10.5970     7.4100     9.8390    24.3390     2.1340   -24.9140 
  109.8750    62.6270    11.0570     7.7420    10.1170    24.3130     2.1480   -25.1060 
  110.0000    63.0660    11.3630     8.0080    10.6100    24.2850     2.1530   -25.2440 
  110.1250    60.4270    11.4200     8.1250    10.7740    24.2430     2.1480   -25.3450 
