~V
VERS. 2.00: Ver 2.00
~W
STRT.M 60.0000:
STOP.M 271.0000:
STEP.M 0.1250:
NULL. -999.2500:
UWI. F10237:
~C
DEPT.M :
GR.API :
RML.OHMM :
RI. :
RXO.OHMM :
CALI.CM :
DEN.GM/CC :
SP.MV :
~A
# ...
  251.2500    25.9410    19.5610    20.9230    28.8780    24.5780     2.4980    -8.5540 
  251.3750    31.4550    13.2590    14.3690    15.9310    24.6250     2.4180    -8.4850 
  251.5000    39.5190     9.5960    10.4240     8.7920    24.6610     2.3700    -8.4110 
  251.6250    44.2920     7.9300     8.4450     6.9550    24.6870     2.3540    -8.3530 
  251.7500    46.4360     7.2460     7.4670     6.5830    24.7020     2.3460    -8.3270 
  251.8750    47.6370     7.1160     7.1120     6.6300    24.7480     2.3310    -8.3350 
  252.0000    48.0670     7.2190     7.1020     6.6810    24.7790     2.3080    -8.3530 
  252.1250    48.0140     7.3010     7.2060     7.1180    24.8340     2.2950    -8.3840 
  252.2500    47.3770     7.2370     7.2430     7.7340    24.8520     2.3050    -8.5020 
  252.3750    48.4210     7.0460     7.1720     7.8020    24.7880     2.3310    -8.6610 
  252.5000    52.6860     6.8190     7.0330     6.7610    24.6900     2.3520    -8.7610 
  252.6250    55.7820     6.6880     6.9110     6.1180    24.6850     2.3570    -8.8400 
  252.7500    54.0870     6.7160     6.8760     6.3200    24.7210     2.3630    -8.9110 
  252.8750    49.5320     6.9110     6.9620     7.2300    24.7520     2.3840    -8.9400 
  253.0000    47.6290     7.2360     7.1650     7.8860    24.7870     2.4190    -9.0230 
  253.1250    47.9580     7.6290     7.4460     8.0700    24.8200     2.4460    -9.1050 
  253.2500    45.0350     8.0060     7.7230     8.4310    24.8210     2.4500    -9.1090 
  253.3750    42.3080     8.3320     7.9460     8.7630    24.7870     2.4410    -9.1190 
  253.5000    44.3870     8.6070     8.1050     9.0150    24.7750     2.4370    -9.1480 
  253.6250    46.4820     8.8700     8.2260     9.0120    24.7780     2.4380    -9.1500 
  253.7500    42.6090     9.1630     8.3670     9.1570    24.8170     2.4330    -9.1240 
  253.8750    37.9930     9.4970     8.5580     9.3390    24.8550     2.4190    -9.0700 
  254.0000    39.0890     9.8530     8.7980     9.7870    24.8690     2.4070    -9.0080 
  254.1250    44.1460    10.1780     9.0470    10.4270    24.8380     2.4060    -8.9310 
  254.2500    46.5370    10.4310     9.2510    10.5330    24.8360     2.4110    -8.8460 
  254.3750    46.0960    10.6010     9.3800    10.2410    24.8060     2.4150    -8.7670 
  254.5000    42.9800    10.7120     9.4490    10.7070    24.7630     2.4080    -8.7110 
  254.6250    40.0820    10.8330     9.5210    11.6640    24.7580     2.4000    -8.6280 
  254.7500    41.0810    11.0520     9.6790    12.3220    24.7840     2.4070    -8.5810 
  254.8750    43.4230    11.4290     9.9820    12.8860    24.8200     2.4350    -8.5620 
  255.0000    44.2170    11.9820    10.4490    13.4000    24.8130     2.4720    -8.5070 
  255.1250    43.7310    12.6710    11.0560    12.9880    24.7520     2.5020    -8.5190 
  255.2500    44.9130    13.3570    11.6790    12.8320    24.6890     2.5200    -8.5320 
  255.3750    45.8310    13.9100    12.2070    12.8370    24.6440     2.5280    -8.4900 
  255.5000    45.0540    14.2370    12.5480    13.1930    24.5960     2.5290    -8.4850 
  255.6250    44.7140    14.2960    12.6440    13.2590    24.5580     2.5280    -8.4910 
  255.7500    45.6150    14.2150    12.5970    12.5630    24.4490     2.5220    -8.4650 
  255.8750    45.9230    14.1000    12.5000    12.0650    24.3260     2.5060    -8.4940 
  256.0000    43.1030    14.0360    12.4260    11.4730    24.2730     2.4810    -8.5090 
  256.1250    39.2880    14.0690    12.4190    11.4220    24.3360     2.4590    -8.5080 
  256.2500    36.9540    14.1580    12.4540    11.9350    24.4380     2.4450    -8.5260 
  256.3750    36.1910    14.2500    12.4950    12.6950    24.5110     2.4360    -8.5430 
  256.5000    37.5020    14.2940    12.5180    12.9920    24.5420     2.4300    -8.5610 
  256.6250    40.4140    14.2530    12.5070    12.6680    24.5430     2.4330    -8.5810 
  256.7500    43.2840    14.1670    12.4780    13.1700    24.6190     2.4430    -8.6090 
  256.8750    44.9550    14.1010    12.4620    14.4000    24.6890     2.4560    -8.6180 
  257.0000    45.2630    14.1310    12.4980    14.9730    24.7140     2.4700    -8.6310 
  257.1250    46.0680    14.3260    12.6420    14.7310    24.7440     2.4890    -8.6120 
  257.2500    46.9030    14.6490    12.8940    14.3540    24.8010     2.5100    -8.6110 
  257.3750    45.8460    15.0450    13.2370    14.3750    24.8390     2.5290    -8.6100 
  257.5000    41.6750    15.4400    13.6270    14.6770    24.8120     2.5430    -8.5540 
  257.6250    38.3660    15.7710    13.9970    14.6640    24.7170     2.5460    -8.5440 
  257.7500    39.9300    16.0410    14.3130    14.2940    24.6060     2.5440    -8.4980 
  257.8750    42.6660    16.2770    14.5780    14.4490    24.5250     2.5390    -8.4580 
  258.0000    42.9930    16.4880    14.8000    15.1610    24.5060     2.5290    -8.4320 
  258.1250    42.6870    16.6030    14.9360    15.0580    24.5460     2.5050    -8.3580 
  258.2500    44.2990    16.5260    14.9160    13.6890    24.6200     2.4690    -8.2840 
  258.3750    47.1010    16.1750    14.6560    11.7420    24.6560     2.4350    -8.2160 
  258.5000    48.3730    15.5450    14.1270    10.1990    24.6790     2.4180    -8.1260 
  258.6250    47.5650    14.7320    13.3830     9.5400    24.7230     2.4260    -8.0340 
  258.7500    46.9040    13.9440    12.6210     9.1260    24.7860     2.4480    -7.9370 
  258.8750    47.0860    13.3050    11.9710     8.6610    24.8400     2.4740    -7.7850 
  259.0000    46.8150    12.8670    11.5040     8.3610    24.8300     2.4970    -7.6650 
  259.1250    45.9200    12.6370    11.2510     8.6260    24.8140     2.5110    -7.5410 
  259.2500    46.4320    12.5240    11.1300     9.2970    24.8000     2.5170    -7.4120 
  259.3750    48.7040    12.4700    11.0850    10.0600    24.7940     2.5150    -7.3170 
  259.5000    51.0600    12.4230    11.0640    10.3220    24.8130     2.5110    -7.2230 
  259.6250    50.7850    12.3390    11.0190     9.4120    24.7950     2.5060    -7.1350 
  259.7500    50.0730    12.1950    10.9230     8.8510    24.7470     2.5030    -7.0930 
  259.8750    49.5630    11.9900    10.7640     9.0320    24.7010     2.5010    -7.0510 
  260.0000    49.4480    11.7420    10.5520     9.3780    24.6890     2.5040    -6.9720 
  260.1250    49.4480    11.5000    10.3220     9.7070    24.7080     2.5060    -6.9440 
  260.2500    49.4480    11.3220    10.1280     9.2820    24.7690     2.5030    -6.9660 
  260.3750    49.4480    11.2490    10.0050     9.4620    24.8080     2.4930    -7.0080 
  260.5000    49.4480    11.2900     9.9610    10.4650    24.7960     2.4790    -7.0790 
  260.6250    49.4480    11.4290     9.9870    11.2600    24.7620     2.4730    -7.0820 
  260.7500    49.4480    11.5910    10.0410    13.4330    24.6590     2.4850    -7.0450 
  260.8750    49.4480    11.7320    10.1010    20.5330    24.6110     2.5090    -7.0550 
  261.0000    49.4480    11.8270    10.1560    34.5310    24.6710     2.5290    -7.0940 
  261.1250    49.4480    11.8730    10.2010    26.0490    24.7730     2.5280    -7.1270 
  261.2500    49.4480    11.8980    10.2470    17.9070    24.7990     2.5200    -7.1100 
  261.3750    49.4480    11.9300    10.3090    15.8170    24.7790     2.5170    -7.0590 
  261.5000    49.4480    12.0040    10.4120    16.7080    24.7710     2.5170    -7.0350 
  261.6250    49.4480    12.1520    10.5750    13.9450    24.7490     2.5150    -7.1120 
  261.7500    49.4480    12.3350    10.7620    12.9880    24.7350     2.5140    -7.2300 
  261.8750    49.4480    12.4860    10.9170    13.2870    24.7940     2.5180    -7.3010 
  262.0000    49.4480    12.5290    10.9820    13.7700    24.8060     2.5230    -7.3710 
  262.1250    49.4480    12.3940    10.9030    13.9430    24.8130     2.5280    -7.4520 
  262.2500    49.4480    12.1310    10.7170    13.7260    24.8070     2.5350    -7.5250 
  262.3750    49.4480    11.8100    10.4690    12.6360    24.7740     2.5440    -7.6250 
