~V
VERS. 2.00: Ver 2.00
~W
STRT.M 49.0000:
STOP.M 279.0000:
STEP.M 0.1250:
NULL. -999.2500:
UWI. F10243:
~C
DEPT.M :
GR.API :
RML.OHMM :
RI. :
RXO.OHMM :
CALI.CM :
DEN.GM/CC :
SP.MV :
~A
# ...
  116.5000   102.9650     6.6650     5.8580     5.4600    24.9190     2.2980   -11.9400 
  116.6250    99.8980     6.2580     5.3810     5.5440    24.9170     2.2820   -11.6330 
  116.7500    95.8520     5.9360     5.0610     5.6120    24.9090     2.2770   -11.3980 
  116.8750    94.2590     5.7090     4.8850     5.4860    24.9090     2.2800   -11.2660 
  117.0000    96.7300     5.6520     4.8890     5.3840    24.8820     2.2880   -11.3130 
  117.1250    99.2800     5.8100     5.0910     5.4550    24.7970     2.2990   -11.4480 
  117.2500    98.8440     6.2350     5.5250     5.6710    24.6620     2.3230   -11.6590 
  117.3750    95.2960     6.9350     6.1880     6.4690    24.5310     2.3630   -11.9130 
  117.5000    90.7640     7.7990     6.9930     9.1600    24.5220     2.4090   -12.1140 
  117.6250    86.5820     8.5030     7.6760    13.5130    24.5670     2.4340   -12.2240 
  117.7500    83.5180     8.7770     7.9830    14.5240    24.5150     2.4200   -12.3480 
  117.8750    81.1080     8.5390     7.8050     9.8070    24.3270     2.3700   -12.5480 
  118.0000    80.2870     7.9410     7.2490     7.7420    24.1490     2.3040   -12.6990 
  118.1250    82.8400     7.3470     6.6590     6.6640    24.1140     2.2540   -12.7710 
  118.2500    90.6180     6.9520     6.2350     6.2570    24.0980     2.2300   -12.7820 
  118.3750    98.6310     6.8310     6.0780     6.2560    24.0230     2.2270   -12.7870 
  118.5000    96.5880     6.9960     6.2270     6.4130    23.9170     2.2320   -12.8580 
  118.6250    87.2540     7.2910     6.5430     6.6730    23.8160     2.2310   -12.8880 
  118.7500    78.8170     7.5710     6.8950     7.1740    23.7030     2.2210   -12.7850 
  118.8750    75.5520     7.6960     7.1410     7.6400    23.6530     2.2060   -12.5790 
  119.0000    76.6930     7.5500     7.1090     7.5590    23.7020     2.1930   -12.3080 
  119.1250    78.7990     7.2090     6.8080     7.0870    23.8250     2.1860   -11.9540 
  119.2500    81.1680     6.7740     6.3210     6.4450    24.0060     2.1860   -11.5150 
  119.3750    85.2770     6.3560     5.7970     5.9830    24.2040     2.1930   -11.0390 
  119.5000    93.3610     6.0790     5.4190     5.9130    24.3010     2.2170   -10.5850 
  119.6250   101.3330     6.0110     5.2840     5.9290    24.3180     2.2670   -10.1910 
  119.7500   104.5880     6.2080     5.4430     6.2110    24.2990     2.3430    -9.8480 
  119.8750   102.4520     6.6640     5.8740     7.5460    24.3060     2.4340    -9.5490 
  120.0000    96.1020     7.2190     6.4260     9.9860    24.3650     2.5050    -9.3470 
  120.1250    89.4310     7.5410     6.7950    12.2510    24.4350     2.5350    -9.2570 
  120.2500    87.1420     7.4110     6.7640    13.0500    24.4600     2.5190    -9.2990 
  120.3750    91.2260     6.8390     6.3020    11.0050    24.4580     2.4700    -9.4110 
  120.5000    98.1890     6.0750     5.5950     7.1380    24.4790     2.4130    -9.5040 
  120.6250   104.5340     5.4480     4.9440     5.3290    24.5620     2.3700    -9.6060 
  120.7500   108.4860     5.0870     4.4820     4.7100    24.6620     2.3490    -9.7410 
  120.8750   109.6890     4.9950     4.2480     4.8320    24.7220     2.3490    -9.8320 
  121.0000   107.7610     5.1280     4.2490     5.0840    24.7530     2.3680    -9.8400 
  121.1250   106.2790     5.3420     4.3900     4.9550    24.7760     2.3930    -9.8640 
  121.2500   106.1350     5.5510     4.6010     5.1230    24.7640     2.4130    -9.9300 
  121.3750   107.0900     5.7150     4.8240     5.8170    24.7050     2.4170   -10.0210 
  121.5000   108.1310     5.8420     5.0210     6.6460    24.6260     2.3960   -10.1290 
  121.6250   107.5920     5.9810     5.1890     6.0730    24.5760     2.3610   -10.2220 
  121.7500   105.8650     6.1490     5.3280     5.8250    24.5470     2.3260   -10.3240 
  121.8750   104.0520     6.3260     5.4310     5.9970    24.5330     2.3000   -10.4800 
  122.0000   101.8700     6.4470     5.4870     6.2460    24.5330     2.2910   -10.6260 
  122.1250    99.3010     6.4810     5.5070     6.5810    24.5480     2.2930   -10.6940 
  122.2500    96.9620     6.4320     5.4960     6.7500    24.5890     2.3000   -10.6480 
  122.3750    95.0850     6.3410     5.4570     6.4280    24.6350     2.3040   -10.5300 
  122.5000    93.0250     6.2640     5.4040     6.3740    24.6570     2.3000   -10.4140 
  122.6250    91.3050     6.2280     5.3570     6.5200    24.6740     2.2900   -10.3070 
  122.7500    92.1490     6.2290     5.3250     6.4680    24.7010     2.2780   -10.2050 
  122.8750    96.0990     6.2500     5.3110     6.1760    24.7200     2.2680   -10.1340 
  123.0000    98.7900     6.2790     5.3150     5.9560    24.7260     2.2660   -10.1480 
  123.1250    96.2350     6.3110     5.3340     6.0000    24.7260     2.2710   -10.1940 
  123.2500    91.5340     6.3520     5.3770     6.0240    24.7260     2.2790   -10.2910 
  123.3750    91.8730     6.4030     5.4620     6.0080    24.7250     2.2860   -10.4610 
  123.5000    96.7050     6.4490     5.5950     5.7720    24.6910     2.2900   -10.6980 
  123.6250    98.2610     6.4680     5.7320     5.7780    24.6080     2.2910   -10.9670 
  123.7500    96.9980     6.4470     5.8140     5.9710    24.5200     2.2920   -11.1890 
  123.8750    97.5330     6.3770     5.7850     6.2270    24.5100     2.2950   -11.3220 
  124.0000    99.8110     6.2470     5.5970     6.0860    24.6270     2.3030   -11.3710 
  124.1250   101.3020     6.0540     5.3060     5.5620    24.8130     2.3170   -11.4480 
  124.2500   103.7490     5.7800     4.9730     5.1360    24.9400     2.3380   -11.5530 
  124.3750   106.3160     5.4280     4.6440     4.8910    24.9740     2.3640   -11.6180 
  124.5000   105.8850     5.0540     4.3550     5.0730    24.9390     2.3840   -11.6520 
  124.6250   102.3860     4.7720     4.1430     5.6220    24.8650     2.3890   -11.7280 
  124.7500    97.9590     4.6880     4.0870     5.5470    24.7710     2.3840   -11.8930 
  124.8750    95.1270     4.8970     4.3020     5.1390    24.6970     2.3880   -12.1270 
  125.0000    93.2150     5.5930     4.9930     5.4850    24.6660     2.4290   -12.4330 
  125.1250    88.6740     6.8290     6.1760     8.0570    24.6360     2.5040   -12.7740 
  125.2500    80.5570     8.5190     7.7640    14.5460    24.5800     2.5820   -13.1250 
  125.3750    72.4430    10.1820     9.3760    19.7870    24.5180     2.6220   -13.4780 
  125.5000    68.5350    10.9000    10.1640    18.6800    24.3910     2.5840   -13.7880 
  125.6250    67.2880    10.5180     9.8890    13.1170    24.1870     2.4940   -14.0790 
  125.7500    69.1480     9.4740     8.9410     8.9430    24.0030     2.3900   -14.3650 
  125.8750    74.8360     8.4290     7.9150     7.4950    23.9110     2.3080   -14.6420 
  126.0000    78.1350     7.8760     7.2500     7.5350    23.9110     2.2680   -14.9350 
  126.1250    75.8840     7.7730     6.9620     7.5950    23.9260     2.2530   -15.2320 
  126.2500    71.2490     7.9820     6.9620     7.5810    23.9250     2.2470   -15.5060 
  126.3750    68.6710     8.3290     7.1190     7.5620    23.9100     2.2400   -15.7610 
  126.5000    69.0360     8.6520     7.3040     7.6000    23.9200     2.2300   -16.0150 
  126.6250    69.6270     8.8770     7.4470     7.7060    23.9370     2.2190   -16.2920 
  126.7500    70.3640     9.0050     7.5380     7.7690    23.9510     2.2110   -16.5870 
  126.8750    70.1430     9.0600     7.5900     7.7690    23.9660     2.2120   -16.8670 
  127.0000    69.1580     9.0620     7.6190     7.7550    23.9840     2.2280   -17.0740 
  127.1250    70.2810     9.0360     7.6480     7.7270    24.0020     2.2530   -17.2220 
  127.2500    73.0830     8.9960     7.6840     7.7800    24.0090     2.2800   -17.3460 
  127.3750    74.7620     8.9600     7.7360     7.8250    24.0020     2.3000   -17.4890 
  127.5000    76.0720     8.9750     7.8290     7.9660    23.9800     2.3060   -17.6530 
  127.6250    78.2230     9.0730     7.9710     8.2120    23.9550     2.3050   -17.7600 
