~V
VERS. 2.00: Ver 2.00
~W
STRT.M 50.0000:
STOP.M 274.0000:
STEP.M 0.1250:
NULL. -999.2500:
UWI. F10206:
~C
DEPT.M :
SP.MV :
DEN.GM/CC :
GR.API :
RML.OHMM :
RI. :
RXO.OHMM :
CALI.CM :
~A
# ...
  252.5000   -14.8060     2.4810    55.8320    19.5980    15.9920    17.1020    24.6090 
  252.6250   -14.8140     2.5010    54.3850    19.5810    16.0370    15.3940    24.4970 
  252.7500   -14.8060     2.5120    51.5090    19.4790    16.0310    14.7410    24.5100 
  252.8750   -14.8490     2.5160    49.5670    19.2840    15.9670    15.2990    24.6140 
  253.0000   -14.8970     2.5140    50.4700    18.9720    15.8040    16.8800    24.7110 
  253.1250   -14.9280     2.5120    54.0360    18.5340    15.5130    18.6480    24.7550 
  253.2500   -14.9590     2.5070    55.9680    18.0540    15.1530    19.4490    24.8440 
  253.3750   -14.9980     2.5000    54.7880    17.6210    14.7910    18.5320    24.9260 
  253.5000   -15.0560     2.4890    53.5550    17.3290    14.5070    17.2260    24.9110 
  253.6250   -15.1250     2.4720    54.2110    17.3170    14.4210    17.3490    24.9430 
  253.7500   -15.1780     2.4540    53.9660    17.6080    14.5730    18.8250    24.8430 
  253.8750   -15.1900     2.4380    51.5470    18.1970    14.9770    20.6630    24.7730 
  254.0000   -15.1900     2.4280    50.4830    19.0190    15.5870    22.7490    24.8770 
  254.1250   -15.1900     2.4270    53.5960    19.9240    16.3040    21.7740    24.8310 
  254.2500   -15.1900     2.4350    57.5040    20.6800    16.9860    19.2330    24.8820 
  254.3750   -15.1900     2.4460    59.6640    21.1110    17.5160    17.6370    24.9490 
  254.5000   -15.1720     2.4550    60.2310    21.1150    17.7670    17.3400    25.0050 
  254.6250   -15.1310     2.4620    60.8590    20.6860    17.6080    17.3300    24.7820 
  254.7500   -15.1260     2.4700    60.6440    20.1250    17.1850    18.0010    24.6760 
  254.8750   -15.1630     2.4800    57.9120    19.6950    16.6990    20.0890    24.6390 
  255.0000   -15.2150     2.4910    52.7110    19.5710    16.3890    24.2210    24.8150 
  255.1250   -15.2710     2.4990    48.7880    19.8090    16.4690    29.3020    24.7240 
  255.2500   -15.3000     2.5030    49.2380    20.2010    16.8310    35.7100    24.7220 
  255.3750   -15.3160     2.5060    52.6260    20.5540    17.2900    36.9370    24.7350 
  255.5000   -15.3490     2.5130    55.6410    20.7170    17.6590    29.9840    24.8000 
  255.6250   -15.4100     2.5230    56.9400    20.5980    17.7940    22.4700    24.8250 
  255.7500   -15.4620     2.5330    58.7050    20.3180    17.7560    17.6400    24.8760 
  255.8750   -15.4820     2.5390    60.4820    19.9950    17.6240    14.7060    24.8440 
  256.0000   -15.4830     2.5390    62.6060    19.7030    17.4430    13.3350    24.6090 
  256.1250   -15.5080     2.5340    64.2620    19.4150    17.1870    13.7400    24.4730 
  256.2500   -15.5720     2.5270    62.9070    19.0370    16.8410    15.9270    24.5000 
  256.3750   -15.6270     2.5190    58.3940    18.5220    16.4050    19.7710    24.5310 
  256.5000   -15.6540     2.5110    54.1890    17.9190    15.9030    21.1570    24.5030 
  256.6250   -15.6760     2.5030    54.3310    17.3980    15.4250    17.6130    24.5020 
  256.7500   -15.7310     2.4930    56.0920    17.1140    15.1030    15.5080    24.5390 
  256.8750   -15.8180     2.4800    56.0970    17.1360    15.0290    16.6510    24.7180 
  257.0000   -15.9170     2.4640    54.9010    17.4180    15.2180    20.4600    24.9330 
  257.1250   -15.9720     2.4510    55.0030    17.8090    15.5720    23.4030    24.9700 
  257.2500   -16.0050     2.4440    55.5840    18.0850    15.8640    25.1670    24.9770 
  257.3750   -16.0570     2.4450    54.7260    18.1390    15.9800    25.2500    24.9770 
  257.5000   -16.1360     2.4520    53.5030    18.0060    15.9560    24.0650    24.9770 
  257.6250   -16.2390     2.4610    54.9530    17.9090    15.9410    23.0780    24.9700 
  257.7500   -16.3070     2.4680    57.4360    18.1310    16.0630    23.1070    24.9400 
  257.8750   -16.3350     2.4740    59.0410    18.7850    16.3740    25.5060    24.9870 
  258.0000   -16.3500     2.4790    60.0490    19.7140    16.8510    32.0950    25.1090 
  258.1250   -16.3940     2.4820    58.1270    20.4600    17.3620    40.3460    25.1550 
  258.2500   -16.4750     2.4880    54.7760    20.6170    17.6830    41.4230    25.2090 
  258.3750   -16.5790     2.4980    54.0060    20.0630    17.6260    34.7290    25.2140 
  258.5000   -16.6670     2.5130    56.8150    18.9830    17.1120    28.4720    25.2000 
  258.6250   -16.7120     2.5240    58.1650    17.8040    16.2590    21.9150    25.1040 
  258.7500   -16.7560     2.5250    55.1980    16.9000    15.4300    17.1060    24.9820 
  258.8750   -16.8090     2.5130    51.8430    16.3820    14.8300    14.8130    24.9020 
  259.0000   -16.8570     2.4940    51.1090    16.2380    14.5370    15.3410    24.8800 
  259.1250   -16.8920     2.4800    51.8570    16.4280    14.5570    18.4170    24.8250 
  259.2500   -16.9090     2.4760    51.7460    16.7640    14.7400    20.9730    24.7280 
  259.3750   -16.9160     2.4800    51.0410    17.1380    14.9940    20.8550    24.7170 
  259.5000   -16.9240     2.4890    50.8600    17.4710    15.2550    19.6000    24.8940 
  259.6250   -16.9240     2.4950    50.9380    17.6890    15.4790    18.5550    25.0530 
  259.7500   -16.9240     2.5000    51.1510    17.7790    15.6770    17.5520    25.0310 
  259.8750   -16.9470     2.5070    51.4670    17.7470    15.9100    17.5760    25.0790 
  260.0000   -17.0150     2.5180    51.4130    17.6860    16.2500    19.0920    25.2300 
  260.1250   -17.0980     2.5360    51.6590    17.8100    16.7500    22.4830    25.2850 
  260.2500   -17.1590     2.5510    51.9730    18.2320    17.3690    25.1970    25.1470 
  260.3750   -17.1830     2.5560    51.2720    18.9590    18.0540    25.3310    24.8840 
  260.5000   -17.2170     2.5450    49.6760    19.8860    18.7130    23.5600    24.7710 
  260.6250   -17.2550     2.5190    49.5880    20.7000    19.1910    23.6460    24.7900 
  260.7500   -17.2960     2.4910    52.6110    20.9510    19.3810    24.7210    24.9050 
  260.8750   -17.3280     2.4690    56.5720    20.4470    19.1780    27.4640    25.0710 
  261.0000   -17.3270     2.4540    57.7840    19.4090    18.5550    25.9680    25.1390 
  261.1250   -17.3160     2.4470    55.9050    18.2870    17.6040    18.8190    25.1680 
  261.2500   -17.3330     2.4410    54.6880    17.4530    16.5920    13.8100    25.0670 
  261.3750   -17.3720     2.4390    55.2430    16.9820    15.6920    12.3840    25.0160 
  261.5000   -17.4000     2.4400    55.6300    16.7660    15.0330    12.7040    24.8600 
  261.6250   -17.4550     2.4470    55.1860    16.7020    14.7220    12.2130    24.8880 
  261.7500   -17.5040     2.4560    55.1570    16.7910    14.6900    12.4380    24.8880 
  261.8750   -17.5250     2.4630    55.5220    17.0930    14.8760    12.9630    24.8900 
  262.0000   -17.5520     2.4660    56.2210    17.5110    15.2120    13.4150    24.8900 
  262.1250   -17.6010     2.4640    56.4920    17.8710    15.6300    14.5090    24.8900 
  262.2500   -17.6290     2.4620    55.9450    18.1690    16.0570    15.9680    24.8900 
  262.3750   -17.6330     2.4630    54.9100    18.4810    16.4770    17.8630    24.8870 
  262.5000   -17.6260     2.4690    53.9120    18.8860    16.9010    20.5770    24.8770 
  262.6250   -17.6360     2.4760    54.1440    19.4480    17.3630    24.2500    24.8290 
  262.7500   -17.6720     2.4770    56.1170    20.0800    17.8890    29.1790    24.8530 
  262.8750   -17.7250     2.4730    57.3130    20.5940    18.4630    33.4730    24.8840 
  263.0000   -17.7660     2.4640    55.7810    20.8120    18.9900    33.7540    24.8890 
  263.1250   -17.7970     2.4560    53.3720    20.6690    19.2580    32.5780    24.8810 
  263.2500   -17.8330     2.4540    52.2130    20.3920    19.1830    32.3960    24.8500 
  263.3750   -17.8970     2.4570    51.8870    20.1740    18.7950    32.0870    24.8370 
  263.5000   -17.9740     2.4640    52.2110    20.1190    18.2480    32.3230    24.8970 
  263.6250   -18.0120     2.4740    54.3480    20.2310    17.7590    33.5920    24.9950 
