~V
VERS. 2.00: Ver 2.00
~W
STRT.M 50.0000:
STOP.M 281.0000:
STEP.M 0.1250:
NULL. -999.2500:
UWI. F10234:
~C
DEPT.M :
DEN.GM/CC :
GR.API :
RML.OHMM :
RI. :
RXO.OHMM :
CALI.CM :
SP.MV :
~A
# ...
   95.0000     2.1250    54.6280     9.4140     7.0880     8.7680    25.7530   -10.7240 
   95.1250     2.0960    57.1840     9.4260     7.1300     8.7380    25.8360   -10.5120 
   95.2500     2.0540    59.6790     9.5810     7.2420     8.5740    25.7790   -10.2630 
   95.3750     2.0090    59.3920     9.9560     7.4760     8.5730    25.5920    -9.9730 
   95.5000     1.9810    57.9240    10.5400     7.8470     8.9420    25.2990    -9.6620 
   95.6250     2.0020    62.4970    11.2040     8.3020     9.1160    24.9590    -9.3430 
   95.7500     2.0810    72.2060    11.7170     8.6990     8.9830    24.6340    -9.0270 
   95.8750     2.1880    79.1390    11.9220     8.9180     8.9660    24.3550    -8.7070 
   96.0000     2.2620    77.9220    11.7760     8.8990     9.2000    24.1460    -8.4410 
   96.1250     2.2610    71.8570    11.3450     8.6400     9.4110    24.0400    -8.2490 
   96.2500     2.2200    67.5190    10.8120     8.2590     9.4720    24.0140    -8.0600 
   96.3750     2.1770    65.1280    10.2660     7.8270     9.4950    24.0170    -7.8980 
   96.5000     2.1530    64.9240     9.7470     7.3960     9.5010    24.0160    -7.7330 
   96.6250     2.1590    70.1420     9.3020     7.0120     8.7040    24.0150    -7.6170 
   96.7500     2.1800    78.0430     8.9580     6.6990     7.5670    24.0210    -7.5710 
   96.8750     2.2010    83.1440     8.7360     6.4770     7.0730    24.0470    -7.4620 
   97.0000     2.2120    81.9050     8.6260     6.3500     7.2840    24.1000    -7.3550 
   97.1250     2.2130    77.0870     8.5970     6.3180     7.6930    24.1760    -7.2800 
   97.2500     2.2080    71.9960     8.5970     6.3380     7.6060    24.2660    -7.2600 
   97.3750     2.1980    67.2540     8.6030     6.3750     7.2190    24.3590    -7.2810 
   97.5000     2.1860    64.2070     8.5950     6.4000     7.0430    24.4460    -7.3180 
   97.6250     2.1740    64.9790     8.5490     6.3920     6.9910    24.5170    -7.3670 
   97.7500     2.1660    67.5990     8.4690     6.3570     6.9440    24.5660    -7.4340 
   97.8750     2.1620    70.6440     8.3700     6.3010     6.9260    24.5890    -7.5200 
   98.0000     2.1610    73.4570     8.2750     6.2370     6.9170    24.5920    -7.6600 
   98.1250     2.1600    73.6260     8.2190     6.1850     6.9230    24.5920    -7.8090 
   98.2500     2.1600    71.5760     8.2220     6.1670     6.8070    24.5940    -7.9130 
   98.3750     2.1630    70.1240     8.2830     6.1970     6.7020    24.6000    -7.9800 
   98.5000     2.1650    70.4600     8.3930     6.2730     6.7560    24.6080    -7.9960 
   98.6250     2.1620    70.1460     8.5310     6.3810     7.0000    24.6170    -8.0370 
   98.7500     2.1560    68.9580     8.6580     6.4830     7.3100    24.6260    -8.0380 
   98.8750     2.1500    68.3440     8.7390     6.5490     7.5100    24.6360    -8.0080 
   99.0000     2.1470    67.0360     8.7550     6.5630     7.5580    24.6450    -7.9530 
   99.1250     2.1470    63.7500     8.7100     6.5250     7.4410    24.6500    -7.8200 
   99.2500     2.1470    61.7850     8.6520     6.4780     7.4560    24.6530    -7.6750 
   99.3750     2.1440    64.6170     8.6260     6.4530     7.6070    24.6530    -7.5580 
   99.5000     2.1360    70.2050     8.6680     6.4700     7.7680    24.6530    -7.4890 
   99.6250     2.1250    69.9520     8.7930     6.5320     8.0190    24.6520    -7.3840 
   99.7500     2.1170    63.5780     8.9400     6.6090     8.0810    24.6520    -7.3180 
   99.8750     2.1160    58.9350     9.0430     6.6670     8.0740    24.6520    -7.3260 
  100.0000     2.1240    61.2970     9.0610     6.6860     7.9780    24.6530    -7.3430 
  100.1250     2.1410    63.7160     8.9980     6.6600     7.7890    24.6550    -7.4310 
  100.2500     2.1610    60.8230     8.9300     6.6250     7.6810    24.6620    -7.6080 
  100.3750     2.1770    56.4180     8.9090     6.6100     7.6550    24.6800    -7.8030 
  100.5000     2.1870    55.7660     8.9610     6.6410     7.6660    24.7050    -8.0510 
  100.6250     2.1850    58.3030     9.0920     6.7330     7.7980    24.7340    -8.3740 
  100.7500     2.1730    59.1820     9.2630     6.8600     8.1010    24.7650    -8.6910 
  100.8750     2.1550    57.5930     9.4330     6.9930     8.4110    24.7950    -8.9540 
  101.0000     2.1380    55.6910     9.5530     7.1020     8.6140    24.8220    -9.1920 
  101.1250     2.1310    56.9530     9.5760     7.1540     8.6130    24.8400    -9.3960 
  101.2500     2.1330    58.9800     9.5240     7.1530     8.5580    24.8500    -9.5120 
  101.3750     2.1400    58.6750     9.4370     7.1100     8.4720    24.8520    -9.5780 
  101.5000     2.1480    56.1370     9.3550     7.0450     8.2710    24.8530    -9.5700 
  101.6250     2.1540    55.7110     9.3080     6.9800     8.1190    24.8550    -9.4970 
  101.7500     2.1580    58.3150     9.2930     6.9330     7.9910    24.8550    -9.3900 
  101.8750     2.1600    60.6360     9.3040     6.9140     7.8710    24.8560    -9.2470 
  102.0000     2.1620    59.3750     9.3480     6.9310     7.8650    24.8580    -9.1000 
  102.1250     2.1580    57.3550     9.4470     6.9990     8.1190    24.8580    -8.9720 
  102.2500     2.1440    57.1830     9.5920     7.1090     8.3810    24.8370    -8.8560 
  102.3750     2.1230    58.1950     9.7600     7.2470     8.5700    24.7940    -8.7450 
  102.5000     2.1070    59.0030     9.9160     7.3880     8.6270    24.7370    -8.6300 
  102.6250     2.1130    58.9750    10.0110     7.4940     8.6950    24.6710    -8.5400 
  102.7500     2.1380    58.6580    10.0310     7.5470     8.6980    24.6020    -8.4690 
  102.8750     2.1710    58.4590     9.9860     7.5480     8.7520    24.5430    -8.4340 
  103.0000     2.1940    60.1380     9.9160     7.5190     8.8610    24.5060    -8.4230 
  103.1250     2.1960    62.0020     9.8700     7.5020     9.0240    24.5010    -8.4350 
  103.2500     2.1880    60.7030     9.8750     7.5270     9.2350    24.5390    -8.4720 
  103.3750     2.1830    56.8160     9.9370     7.6050     9.5310    24.6230    -8.5540 
  103.5000     2.1870    53.5260    10.0460     7.7310     9.8460    24.7340    -8.7100 
  103.6250     2.1930    53.8630    10.1760     7.8830    10.0300    24.8600    -8.8610 
  103.7500     2.1930    56.7340    10.2960     8.0310    10.1800    24.9870    -9.0120 
  103.8750     2.1830    58.7630    10.3770     8.1560    10.3040    25.1040    -9.1580 
  104.0000     2.1630    57.2640    10.4000     8.2380    10.3990    25.1980    -9.2650 
  104.1250     2.1390    55.1220    10.3640     8.2550    10.3510    25.2520    -9.3230 
  104.2500     2.1200    55.6520    10.2930     8.2080    10.1690    25.2680    -9.3230 
  104.3750     2.1120    56.6030    10.1730     8.0950     9.9570    25.2460    -9.2590 
  104.5000     2.1180    55.2310     9.9670     7.9080     9.6240    25.2090    -9.1000 
  104.6250     2.1390    54.6060     9.6160     7.6260     9.1070    25.1720    -8.9170 
  104.7500     2.1630    57.7010     9.1480     7.2720     8.7410    25.1380    -8.7190 
  104.8750     2.1810    62.2850     8.6230     6.8760     8.1840    25.1080    -8.5070 
  105.0000     2.1910    65.7390     8.1470     6.5000     7.6830    25.0870    -8.3310 
  105.1250     2.2050    67.4390     7.9030     6.2680     7.0180    25.0560    -8.1590 
  105.2500     2.2250    68.4000     7.9910     6.2680     6.4860    25.0040    -8.0080 
  105.3750     2.2440    67.4920     8.4750     6.5620     6.6550    24.9230    -7.9070 
  105.5000     2.2460    63.5300     9.3380     7.1610     9.0110    24.8220    -7.9100 
  105.6250     2.2230    57.3790    10.4330     8.0080    15.6710    24.7100    -7.9410 
  105.7500     2.1910    53.3430    11.3940     8.8470    20.3610    24.6000    -7.9990 
  105.8750     2.1660    53.2050    11.9160     9.4320    15.8430    24.5020    -8.1160 
  106.0000     2.1580    54.9660    11.8690     9.6060    11.8340    24.4270    -8.2280 
  106.1250     2.1620    56.3050    11.3620     9.3580    10.8290    24.3910    -8.3660 
