~V
VERS. 2.00: Ver 2.00
~W
STRT.M 40.0000:
STOP.M 276.0000:
STEP.M 0.1250:
NULL. -999.2500:
UWI. F10236:
~C
DEPT.M :
SP.MV :
GR.API :
RML.OHMM :
RI. :
RXO.OHMM :
CALI.CM :
DEN.GM/CC :
~A
# ...
  118.7500    -9.8620    87.1530     7.9110     6.9130     7.2980    24.0300     2.3990 
  118.8750    -9.4820    92.1110     6.9370     6.0450     6.0220    23.8360     2.3630 
  119.0000    -9.1930    93.2760     6.4560     5.4860     5.9540    23.4900     2.3220 
  119.1250    -9.0180    88.8580     6.4750     5.3010     6.1900    23.2460     2.2950 
  119.2500    -8.9300    82.7340     6.7210     5.3460     6.3790    23.1480     2.2780 
  119.3750    -8.9270    79.4520     6.9450     5.4720     6.5680    23.1100     2.2670 
  119.5000    -8.9410    81.5850     6.9430     5.5270     6.7120    23.1110     2.2630 
  119.6250    -8.9510    84.7720     6.6920     5.4510     6.8680    23.1810     2.2700 
  119.7500    -8.9700    84.5770     6.5080     5.4050     7.1500    23.3270     2.2880 
  119.8750    -8.9480    83.7330     6.7520     5.6030     7.1400    23.5370     2.3200 
  120.0000    -8.8960    84.8150     7.7850     6.2870     7.3540    23.7780     2.3700 
  120.1250    -8.8100    83.8470    10.0380     7.8540     9.1980    24.0140     2.4400 
  120.2500    -8.7490    78.1780    13.2180    10.3120    13.9250    24.1700     2.5160 
  120.3750    -8.7280    71.1060    16.6100    13.3560    20.3780    24.2260     2.5830 
  120.5000    -8.7420    66.2170    18.8520    15.9350    26.2620    24.2200     2.6210 
  120.6250    -8.8160    63.5320    18.1600    16.1590    25.6990    24.1270     2.6100 
  120.7500    -8.9180    62.5350    15.3310    14.2510    19.3150    23.9260     2.5590 
  120.8750    -9.0470    64.6370    11.9240    11.4890    12.4690    23.7010     2.4790 
  121.0000    -9.1670    68.4800     9.1350     8.9840     8.6610    23.4420     2.3920 
  121.1250    -9.2790    72.9820     7.4440     7.2500     7.8910    23.3200     2.3280 
  121.2500    -9.3370    78.1790     6.4770     6.1130     7.1290    23.3930     2.2950 
  121.3750    -9.3440    83.7870     5.9680     5.4240     6.2070    23.7580     2.2900 
  121.5000    -9.3110    86.0530     5.6980     5.0380     5.6250    24.1360     2.3020 
  121.6250    -9.3230    83.4570     5.5290     4.8510     5.6430    24.1780     2.3180 
  121.7500    -9.3010    81.0220     5.4040     4.7600     5.8540    24.1060     2.3250 
  121.8750    -9.3210    81.9890     5.3540     4.7590     5.7940    24.2170     2.3270 
  122.0000    -9.3640    84.6600     5.4210     4.8690     5.5120    24.4090     2.3270 
  122.1250    -9.4690    83.7840     5.6680     5.1330     5.6270    24.2960     2.3210 
  122.2500    -9.6170    79.5240     6.1010     5.5480     6.1210    23.9320     2.3080 
  122.3750    -9.7960    74.9710     6.7210     6.1120     6.9260    23.6280     2.2890 
  122.5000    -9.9420    72.2030     7.4660     6.7810     7.6950    23.4450     2.2690 
  122.6250   -10.0040    71.4590     8.1400     7.3990     7.9980    23.3370     2.2540 
  122.7500    -9.9750    71.7380     8.4800     7.7340     8.1500    23.2310     2.2500 
  122.8750    -9.8360    72.2010     8.3070     7.6090     8.7560    23.1460     2.2600 
  123.0000    -9.5920    72.0100     7.6610     7.0410     8.9410    23.1520     2.2770 
  123.1250    -9.2300    72.9380     6.8900     6.3100     7.9720    23.3130     2.2970 
  123.2500    -8.7860    75.5450     6.4900     5.8200     6.8520    23.5640     2.3200 
  123.3750    -8.2640    76.6900     6.8160     5.8280     6.1600    23.7520     2.3550 
  123.5000    -7.7900    72.3240     8.1510     6.5380     6.7880    23.8900     2.4060 
  123.6250    -7.3240    63.3960    10.8470     7.7890    10.3060    24.0630     2.4740 
  123.7500    -6.9470    56.4280    14.5310    10.2940    16.8810    24.2110     2.5460 
  123.8750    -6.6380    53.5540    18.5810    13.4870    22.5780    24.2700     2.6020 
  124.0000    -6.4210    53.7480    22.0630    16.7460    23.6050    24.2800     2.6300 
  124.1250    -6.2750    53.5560    24.0640    19.1390    23.6000    24.2930     2.6350 
  124.2500    -6.2030    52.0310    24.9950    20.5590    20.8060    24.3020     2.6350 
  124.3750    -6.1810    49.7540    25.4260    21.2960    20.1950    24.2450     2.6330 
  124.5000    -6.1990    47.8740    25.6290    21.5990    23.0710    24.1610     2.6320 
  124.6250    -6.2280    47.8570    25.3150    21.3600    26.7010    24.1230     2.6320 
  124.7500    -6.2750    49.5660    24.3130    20.5600    23.8150    24.1240     2.6220 
  124.8750    -6.3260    51.8040    22.7500    19.3120    19.1780    24.0560     2.5920 
  125.0000    -6.3870    52.1140    21.0140    17.8970    16.9020    23.9490     2.5560 
  125.1250    -6.4640    50.0450    19.6360    16.6970    16.0110    23.8850     2.5300 
  125.2500    -6.5350    49.1800    18.8580    15.9240    14.4650    23.8600     2.5200 
  125.3750    -6.6060    50.0640    18.6900    15.6380    13.1510    23.8410     2.5210 
  125.5000    -6.6410    51.2730    18.9830    15.7730    13.0750    23.8340     2.5290 
  125.6250    -6.6720    50.8340    19.5520    16.2110    14.6370    23.8160     2.5380 
  125.7500    -6.7130    49.4630    20.1600    16.7410    17.0220    23.7340     2.5410 
  125.8750    -6.7450    47.5510    20.6750    17.2310    18.1040    23.5400     2.5330 
  126.0000    -6.7670    46.2910    21.0000    17.5760    16.2330    23.2640     2.5170 
  126.1250    -6.7710    47.4660    21.0830    17.6980    15.1210    23.0520     2.5000 
  126.2500    -6.7540    51.0790    21.0320    17.6790    14.9330    22.8890     2.4890 
  126.3750    -6.7280    55.0050    20.9370    17.6020    14.7200    22.7650     2.4880 
  126.5000    -6.6550    56.1930    20.8430    17.5220    13.7960    22.6700     2.4960 
  126.6250    -6.6030    52.8900    20.7590    17.4570    13.4090    22.6820     2.5090 
  126.7500    -6.4960    48.6630    20.6740    17.4010    14.0170    22.7930     2.5240 
  126.8750    -6.3750    46.5490    20.5810    17.3540    15.4920    22.9840     2.5390 
  127.0000    -6.2320    46.5390    20.4740    17.3190    16.3730    23.1960     2.5550 
  127.1250    -6.0880    47.7860    20.3810    17.3190    17.3360    23.4940     2.5670 
  127.2500    -5.9480    50.4500    20.3420    17.3650    18.9510    23.9320     2.5760 
  127.3750    -5.8160    53.4660    20.3790    17.4620    20.8370    24.3640     2.5860 
  127.5000    -5.7300    54.8820    20.5020    17.6110    20.9500    24.6650     2.5970 
  127.6250    -5.5980    54.7500    20.7210    17.8280    20.6450    24.8210     2.6050 
  127.7500    -5.5090    53.8170    20.9740    18.0930    21.4040    24.8400     2.6140 
  127.8750    -5.4290    50.8330    21.1880    18.3570    22.0620    24.8620     2.6240 
  128.0000    -5.3620    46.6870    21.2990    18.5530    20.7350    24.9420     2.6320 
  128.1250    -5.2960    45.0900    21.2460    18.5930    20.5750    24.9960     2.6300 
  128.2500    -5.2420    46.1300    21.0780    18.4940    20.8340    25.0200     2.6200 
  128.3750    -5.2060    46.9140    20.8640    18.3130    20.5940    25.0050     2.6100 
  128.5000    -5.1580    47.0720    20.6610    18.1170    20.3320    24.9840     2.6040 
  128.6250    -5.1690    48.2130    20.4400    17.9120    19.6310    24.9940     2.6000 
  128.7500    -5.1390    49.4020    20.1160    17.6410    20.5940    25.0270     2.5990 
  128.8750    -5.1280    50.4000    19.6430    17.2590    21.7350    25.0530     2.5990 
  129.0000    -5.1200    50.5620    19.0670    16.7930    20.4530    25.0610     2.5950 
  129.1250    -5.1300    49.2410    18.5660    16.3740    17.5470    25.0270     2.5810 
  129.2500    -5.1460    47.6250    18.3150    16.1400    16.5760    25.0250     2.5680 
  129.3750    -5.1580    47.4530    18.4020    16.1740    17.0110    25.0100     2.5660 
  129.5000    -5.1910    48.8920    18.8030    16.4890    18.8260    24.9880     2.5780 
  129.6250    -5.1980    50.3800    19.4120    17.0400    19.8910    24.9840     2.5950 
  129.7500    -5.2450    50.9700    20.0280    17.6530    20.7950    24.9930     2.6050 
  129.8750    -5.2780    50.5120    20.5460    18.2120    21.5650    24.9930     2.6070 
