~V
VERS. 2.00: Ver 2.00
~W
STRT.M 20.0000:
STOP.M 256.0000:
STEP.M 0.1250:
NULL. -999.2500:
UWI. F10201:
~C
DEPT.M :
DEN.GM/CC :
GR.API :
RML.OHMM :
RI. :
RXO.OHMM :
CALI.CM :
SP.MV :
~A
# ...
   87.5000     2.2520    79.0820     8.7770     7.2740     9.6310    24.8440   -20.4670 
   87.6250     2.2520    78.1010     8.2750     6.9020     9.4580    24.8860   -20.4060 
   87.7500     2.2540    79.5870     7.5190     6.3070     9.0220    24.9620   -20.2190 
   87.8750     2.2670    82.7500     6.8710     5.7240     8.1530    25.0900   -20.0050 
   88.0000     2.2980    88.7830     6.7260     5.4140     7.0840    25.2140   -19.7700 
   88.1250     2.3570    94.6500     7.5400     5.6970     6.5960    25.3000   -19.6400 
   88.2500     2.4330    91.6000     9.3120     6.6420     8.4590    25.3120   -19.6630 
   88.3750     2.5110    79.8400    11.9060     8.2800    14.8210    25.2610   -19.8590 
   88.5000     2.5630    68.1860    14.7370    10.3910    27.7900    25.1970   -20.2210 
   88.6250     2.5570    63.2420    16.2560    12.0800    33.5010    25.1060   -20.7840 
   88.7500     2.5000    62.4740    15.6230    12.4400    26.4960    24.9940   -21.4870 
   88.8750     2.4120    63.8200    13.4430    11.4830    17.7110    24.9350   -22.2310 
   89.0000     2.3190    67.2330    11.1030     9.9980    13.9830    24.9790   -23.0090 
   89.1250     2.2430    68.7420     9.6390     8.7960    14.3200    25.1350   -23.7230 
   89.2500     2.1920    66.9940     8.9710     8.0780    14.5850    25.2420   -24.3330 
   89.3750     2.1700    65.0350     8.8360     7.7750    12.7060    25.2240   -24.8330 
   89.5000     2.1710    65.4800     8.9700     7.7450    11.1570    25.1320   -25.2540 
   89.6250     2.1870    67.1380     9.1680     7.8500    10.7070    25.0840   -25.5820 
   89.7500     2.2010    67.5460     9.3140     7.9640    10.7550    25.1230   -25.8150 
   89.8750     2.2070    67.6320     9.3800     8.0440    10.9560    25.2730   -26.0440 
   90.0000     2.2050    66.6260     9.3670     8.0700    11.0970    25.4490   -26.2170 
   90.1250     2.2010    64.2300     9.2720     8.0280    11.0920    25.5600   -26.3450 
   90.2500     2.2040    62.6820     9.1420     7.9480    11.1210    25.6390   -26.4980 
   90.3750     2.2120    62.0740     9.0260     7.8630    11.1690    25.6990   -26.6000 
   90.5000     2.2240    60.6320     8.9690     7.8070    11.0940    25.7390   -26.6620 
   90.6250     2.2330    59.3870     9.0030     7.8020    11.0780    25.7520   -26.7390 
   90.7500     2.2340    59.8780     9.0870     7.8270    11.6490    25.7510   -26.7680 
   90.8750     2.2290    59.7630     9.1720     7.8550    13.5510    25.7270   -26.7330 
   91.0000     2.2220    58.4890     9.2120     7.8570    16.2680    25.6640   -26.7100 
   91.1250     2.2180    60.5550     9.1710     7.8110    15.2370    25.5780   -26.6390 
   91.2500     2.2170    64.4910     9.0760     7.7290    11.8520    25.5360   -26.5140 
   91.3750     2.2180    65.1610     8.9600     7.6300    10.3250    25.5250   -26.4020 
   91.5000     2.2210    62.7700     8.8540     7.5330    10.0350    25.5230   -26.2330 
   91.6250     2.2220    61.9050     8.7900     7.4570    10.0600    25.5220   -25.9940 
   91.7500     2.2240    63.7410     8.7690     7.4050    10.0270    25.5210   -25.7470 
   91.8750     2.2270    65.8130     8.7760     7.3750     9.9700    25.5230   -25.4580 
   92.0000     2.2310    66.0890     8.7810     7.3520    10.0040    25.5240   -25.1330 
   92.1250     2.2360    64.3750     8.7330     7.3110    10.1630    25.5380   -24.7910 
   92.2500     2.2400    64.1080     8.6050     7.2290    10.2100    25.5940   -24.4640 
   92.3750     2.2420    67.0680     8.4030     7.0960     9.9940    25.7000   -24.1370 
   92.5000     2.2430    71.8900     8.1660     6.9230     9.6160    25.8070   -23.8440 
   92.6250     2.2440    73.5780     7.9720     6.7530     9.2330    25.8510   -23.6240 
   92.7500     2.2440    71.9160     7.8760     6.6410     8.9150    25.8830   -23.4710 
   92.8750     2.2420    68.7350     7.9060     6.6190     8.8180    25.9430   -23.3690 
   93.0000     2.2370    65.9550     8.0510     6.6930     9.3830    26.0060   -23.3060 
   93.1250     2.2280    64.5960     8.2740     6.8470     9.8750    26.0680   -23.3650 
   93.2500     2.2180    63.8480     8.4920     7.0180    10.1080    26.1050   -23.4550 
   93.3750     2.2080    64.6680     8.6470     7.1640    10.2550    26.1190   -23.5900 
   93.5000     2.2020    65.3430     8.7140     7.2670    10.4050    26.1110   -23.7930 
   93.6250     2.2030    61.9700     8.6980     7.3310    10.4050    26.0630   -23.9700 
   93.7500     2.2090    58.5420     8.6570     7.3820    10.3280    25.9670   -24.0980 
   93.8750     2.2190    60.3780     8.6250     7.4320    10.2830    25.8630   -24.2530 
   94.0000     2.2300    66.2930     8.6240     7.4870    10.2980    25.7920   -24.4080 
   94.1250     2.2410    67.7350     8.6680     7.5480    10.4910    25.7690   -24.5230 
   94.2500     2.2510    64.7870     8.7520     7.6170    10.7250    25.7700   -24.6400 
   94.3750     2.2600    63.1060     8.8710     7.6950    10.7590    25.7800   -24.7250 
   94.5000     2.2680    62.9440     9.0070     7.7720    10.9040    25.7960   -24.7730 
   94.6250     2.2700    60.8510     9.1160     7.8220    11.9430    25.8160   -24.8280 
   94.7500     2.2670    59.6730     9.1420     7.8150    14.8500    25.8540   -24.8920 
   94.8750     2.2570    61.7370     9.0320     7.7280    18.5420    25.9030   -24.9370 
   95.0000     2.2410    64.9970     8.7770     7.5500    17.1480    25.9310   -24.9430 
   95.1250     2.2190    65.7000     8.4880     7.3300    12.7530    25.9370   -24.8850 
   95.2500     2.2030    64.8760     8.4270     7.2290    11.0760    25.9390   -24.8090 
   95.3750     2.2050    64.5990     8.8670     7.4380    10.9500    25.9460   -24.7050 
   95.5000     2.2430    65.7390    10.0080     8.1400    11.3800    25.9700   -24.5940 
   95.6250     2.3250    65.3740    11.9580     9.5300    13.3700    26.0110   -24.5130 
   95.7500     2.4200    63.1140    14.1890    11.3420    18.7590    26.0400   -24.4690 
   95.8750     2.4890    61.6620    15.8690    13.0230    28.7490    26.0160   -24.4840 
   96.0000     2.4950    62.6980    16.0400    13.7460    34.3780    25.9310   -24.5690 
   96.1250     2.4310    65.3670    14.2570    12.8340    25.6280    25.8130   -24.7350 
   96.2500     2.3480    66.7760    11.8510    11.1060    15.8650    25.6770   -24.9500 
   96.3750     2.2800    66.3230     9.8100     9.3630    11.3430    25.5520   -25.2100 
   96.5000     2.2370    64.9920     8.5310     8.0620    10.0140    25.4870   -25.4770 
   96.6250     2.2180    63.7270     8.0500     7.3920    10.0360    25.4710   -25.7300 
   96.7500     2.2070    61.7450     8.0080     7.1580    10.1970    25.4600   -25.9340 
   96.8750     2.1990    58.1410     8.1870     7.2020    10.2420    25.4260   -26.0520 
   97.0000     2.1930    56.5770     8.4200     7.3640    10.1490    25.3590   -26.1290 
   97.1250     2.1890    59.1880     8.5890     7.5160    10.0790    25.2550   -26.1550 
   97.2500     2.1870    60.2640     8.6780     7.6180    10.1220    25.1660   -26.0800 
   97.3750     2.1860    58.1020     8.6980     7.6740    10.2770    25.1180   -25.9680 
   97.5000     2.1870    56.7580     8.6710     7.6950    10.5080    25.1020   -25.8470 
   97.6250     2.1950    58.2400     8.6180     7.6860    10.6760    25.0960   -25.6520 
   97.7500     2.2060    59.6730     8.5590     7.6550    10.8840    25.0610   -25.4620 
   97.8750     2.2180    60.5710     8.5060     7.6090    11.0700    25.0000   -25.3050 
   98.0000     2.2260    61.8230     8.4630     7.5550    11.1160    25.0020   -25.1140 
   98.1250     2.2260    63.3670     8.4400     7.5070    11.0320    25.1290   -24.9030 
   98.2500     2.2200    62.4740     8.4380     7.4710    10.9900    25.2320   -24.7140 
   98.3750     2.2100    60.1750     8.4580     7.4480    10.9880    25.2730   -24.5240 
   98.5000     2.2020    60.0510     8.4920     7.4360    10.9500    25.2790   -24.3070 
   98.6250     2.1990    63.1570     8.5280     7.4310    10.8140    25.2760   -24.0750 
