~V
VERS. 2.00: Ver 2.00
~W
STRT.M 58.0000:
STOP.M 273.0000:
STEP.M 0.1250:
NULL. -999.2500:
UWI. F10226:
~C
DEPT.M :
SP.MV :
DEN.GM/CC :
GR.API :
RML.OHMM :
RI. :
RXO.OHMM :
CALI.CM :
~A
# ...
  125.5000    -8.8530     2.4810    47.3800    23.4270    22.7690    19.8710    24.2830 
  125.6250    -8.8620     2.4530    44.8080    24.0680    23.2990    21.1980    24.1610 
  125.7500    -8.8510     2.4230    45.9260    24.4460    23.6650    22.2150    24.0300 
  125.8750    -8.8100     2.4020    49.5350    24.3020    23.5920    21.5160    23.9860 
  126.0000    -8.7430     2.3990    51.6470    23.8210    23.1860    20.3420    23.9930 
  126.1250    -8.6510     2.4210    52.0960    23.2640    22.6540    19.0550    24.0230 
  126.2500    -8.5460     2.4610    52.4460    22.8390    22.1880    19.0640    24.0420 
  126.3750    -8.4570     2.5050    51.7340    22.6250    21.8900    20.1000    24.0370 
  126.5000    -8.3800     2.5380    49.1890    22.5140    21.7020    20.4330    24.0180 
  126.6250    -8.3080     2.5510    47.0780    22.4190    21.5580    19.8950    23.9990 
  126.7500    -8.2440     2.5460    47.4050    22.3110    21.4240    19.5070    23.9600 
  126.8750    -8.1830     2.5350    49.8590    22.2440    21.3300    19.6650    23.9330 
  127.0000    -8.1220     2.5310    52.1950    22.3040    21.3420    19.1580    23.9100 
  127.1250    -8.0650     2.5390    54.0310    22.5400    21.5110    19.5890    23.9010 
  127.2500    -8.0170     2.5560    55.5360    22.9240    21.8270    20.6720    23.9440 
  127.3750    -7.9730     2.5730    56.1370    23.3610    22.2170    21.2600    24.0030 
  127.5000    -7.9370     2.5840    56.2820    23.7080    22.5490    21.2790    24.0750 
  127.6250    -7.8970     2.5920    56.2730    23.8400    22.7000    21.1910    24.1600 
  127.7500    -7.8410     2.6000    55.1050    23.6590    22.5720    21.4610    24.2650 
  127.8750    -7.7740     2.6090    53.6970    23.1070    22.0980    20.8550    24.3210 
  128.0000    -7.7210     2.6130    53.6340    22.3290    21.4070    20.4920    24.3360 
  128.1250    -7.6950     2.6080    53.2770    21.4770    20.6300    19.6940    24.3960 
  128.2500    -7.6900     2.5940    51.4920    20.7080    19.9080    18.3440    24.4580 
  128.3750    -7.6870     2.5790    50.1590    20.1920    19.3980    17.8310    24.4420 
  128.5000    -7.6700     2.5700    50.3700    19.9580    19.1420    18.8180    24.3770 
  128.6250    -7.6520     2.5680    50.2150    19.9840    19.1380    19.4190    24.4550 
  128.7500    -7.6360     2.5730    49.3730    20.2110    19.3470    19.5900    24.5930 
  128.8750    -7.6270     2.5820    48.7480    20.5660    19.7170    18.8240    24.6690 
  129.0000    -7.5970     2.5910    49.4170    20.9470    20.1470    19.3490    24.6810 
  129.1250    -7.5250     2.5970    51.2390    21.2690    20.5450    20.3460    24.6810 
  129.2500    -7.4230     2.5940    52.4390    21.4340    20.8140    21.7010    24.6580 
  129.3750    -7.3350     2.5830    49.7180    21.3140    20.8110    21.3230    24.6030 
  129.5000    -7.2740     2.5670    45.6620    20.8900    20.5030    20.6220    24.5740 
  129.6250    -7.2400     2.5540    44.8300    20.1800    19.8970    19.6780    24.6720 
  129.7500    -7.2320     2.5480    47.1310    19.2700    19.0760    17.3100    24.8240 
  129.8750    -7.2380     2.5500    48.6970    18.3270    18.1960    15.8490    24.9260 
  130.0000    -7.2440     2.5510    47.9120    17.5250    17.4270    15.1850    24.9630 
  130.1250    -7.2750     2.5480    46.1130    16.9690    16.8740    14.2270    24.9580 
  130.2500    -7.3310     2.5420    45.2830    16.6930    16.5840    13.7180    24.9330 
  130.3750    -7.3870     2.5370    45.9260    16.6510    16.5430    14.1590    24.9070 
  130.5000    -7.4500     2.5340    46.5220    16.6460    16.5850    14.7760    24.9340 
  130.6250    -7.5180     2.5330    46.3300    16.5370    16.5720    15.0670    24.9810 
  130.7500    -7.5920     2.5350    46.7230    16.2620    16.4270    15.0040    25.0480 
  130.8750    -7.6880     2.5400    49.6340    15.8620    16.1460    14.6650    25.1170 
  131.0000    -7.8170     2.5490    53.3110    15.4900    15.8500    14.0550    25.2090 
  131.1250    -7.9600     2.5590    55.2130    15.2730    15.6430    13.3740    25.2650 
  131.2500    -8.1050     2.5640    55.0290    15.2510    15.5690    13.3280    25.2190 
  131.3750    -8.2560     2.5530    53.8340    15.3450    15.5770    13.4960    25.1260 
  131.5000    -8.3960     2.5230    52.7700    15.3950    15.5330    13.3280    25.0550 
  131.6250    -8.5270     2.4830    52.7200    15.3030    15.3500    13.1890    25.0140 
  131.7500    -8.6680     2.4510    53.3560    15.0540    15.0120    13.0880    25.0170 
  131.8750    -8.8190     2.4540    55.4530    14.7700    14.6220    12.4530    25.0440 
  132.0000    -8.9690     2.4930    57.6530    14.6940    14.3960    11.9220    25.0780 
  132.1250    -9.1100     2.5480    57.5570    15.0450    14.5300    12.2940    25.0910 
  132.2500    -9.2530     2.5830    55.2400    15.9830    15.1700    13.1220    25.0710 
  132.3750    -9.4180     2.5700    55.8470    17.6950    16.5120    15.2500    25.0400 
  132.5000    -9.6210     2.5300    62.9770    20.0410    18.4870    20.7830    25.0400 
  132.6250    -9.8510     2.4890    73.5180    22.8340    20.9810    28.1380    25.0880 
  132.7500   -10.0830     2.4570    81.0620    25.8170    23.7810    28.3230    25.1450 
  132.8750   -10.2940     2.4090    81.2870    28.6560    26.5740    27.1290    25.2230 
  133.0000   -10.5000     2.3290    77.1610    31.0170    29.0010    28.9900    25.3020 
  133.1250   -10.7170     2.2260    73.7040    32.5660    30.7170    32.0200    25.3260 
  133.2500   -10.9260     2.1410    72.3550    33.0600    31.4640    34.1220    25.3450 
  133.3750   -11.1050     2.1230    73.1300    32.3310    31.0380    38.0360    25.4500 
  133.5000   -11.2350     2.1710    76.0640    30.8550    29.8400    36.1470    25.6800 
  133.6250   -11.3240     2.2560    79.4140    29.1340    28.3070    30.7970    25.9460 
  133.7500   -11.3790     2.3450    80.0500    27.6110    26.8470    25.0130    26.1780 
  133.8750   -11.4020     2.4070    76.6530    26.5850    25.7630    22.3290    26.3230 
  134.0000   -11.4070     2.4400    72.7790    25.9710    25.0380    22.2620    26.3470 
  134.1250   -11.3800     2.4440    71.8030    25.6300    24.5770    23.8780    26.2520 
  134.2500   -11.3430     2.4270    74.5180    25.3920    24.2550    24.4130    26.1310 
  134.3750   -11.3050     2.4070    79.3290    25.1060    23.9400    24.4790    26.0110 
  134.5000   -11.2750     2.3990    82.2420    24.7510    23.5850    24.8680    25.9460 
  134.6250   -11.2670     2.4160    83.2070    24.4220    23.2540    24.1420    25.8570 
  134.7500   -11.2780     2.4500    82.8880    24.2590    23.0620    23.0940    25.6650 
  134.8750   -11.3170     2.4890    80.5650    24.4020    23.1330    22.4420    25.3670 
  135.0000   -11.3630     2.5120    77.1030    24.7930    23.4240    22.8840    25.1010 
  135.1250   -11.3900     2.5150    75.1880    25.3140    23.8430    24.6390    24.9160 
  135.2500   -11.3770     2.5020    76.0360    25.7700    24.2310    27.0930    24.7780 
  135.3750   -11.3080     2.4860    77.3170    25.8810    24.3490    26.9870    24.7280 
  135.5000   -11.1990     2.4780    78.3990    25.5640    24.1010    24.7400    24.6960 
  135.6250   -11.0580     2.4790    79.5710    24.8620    23.4980    22.9940    24.6850 
  135.7500   -10.8900     2.4850    80.9650    23.9310    22.6500    21.5590    24.6810 
  135.8750   -10.6920     2.4890    80.9830    22.9400    21.6900    20.2100    24.6810 
  136.0000   -10.4980     2.4860    77.7590    21.9460    20.6900    19.2900    24.6810 
  136.1250   -10.3420     2.4800    72.5180    20.8950    19.6290    18.9920    24.6810 
  136.2500   -10.2210     2.4750    69.7180    19.7700    18.5130    19.6290    24.6810 
  136.3750   -10.1390     2.4750    74.8350    18.7400    17.4850    19.1720    24.6810 
  136.5000   -10.0900     2.4790    82.6760    18.0430    16.7310    17.4520    24.6810 
  136.6250   -10.0550     2.4850    85.4550    17.8270    16.3600    15.4120    24.6810 
