~V
VERS. 2.00: Ver 2.00
~W
STRT.M 50.0000:
STOP.M 281.0000:
STEP.M 0.1250:
NULL. -999.2500:
UWI. F10234:
~C
DEPT.M :
DEN.GM/CC :
GR.API :
RML.OHMM :
RI. :
RXO.OHMM :
CALI.CM :
SP.MV :
~A
# ...
   61.2500     2.1330    65.1340     8.2770     5.8220    10.0460    26.2090    -6.4700 
   61.3750     2.1810    62.2630     8.7610     6.6490    10.5390    25.2690    -8.5820 
   61.5000     2.1930    60.6330     9.7490     7.2000    10.5870    24.8320   -10.2480 
   61.6250     2.1900    58.6860    11.1540     7.4140    10.3430    24.7440   -11.4680 
   61.7500     2.1820    56.6970    12.7130     7.4430     9.9870    24.7290   -12.3660 
   61.8750     2.1710    55.0720    14.3200     7.4220     9.8280    24.7410   -12.9330 
   62.0000     2.1610    54.8090    15.9710     7.4430     9.8720    24.7620   -13.2320 
   62.1250     2.1570    56.9350    17.6530     7.5190    10.2660    24.7750   -13.3440 
   62.2500     2.1590    59.2330    18.7990     7.5890    10.6590    24.7960   -13.2840 
   62.3750     2.1640    60.4590    18.4500     7.5830    10.8460    24.8300   -13.0650 
   62.5000     2.1680    60.5790    16.5750     7.4510    10.5660    24.8800   -12.7380 
   62.6250     2.1680    61.3650    14.4260     7.2120     9.5930    24.9410   -12.3030 
   62.7500     2.1730    65.3780    12.8520     6.9840     8.9060    25.0070   -11.8930 
   62.8750     2.2010    70.8840    11.8960     6.8550     8.2000    25.0700   -11.5460 
   63.0000     2.2580    73.6900    11.4500     6.8670     7.4460    25.1250   -11.2180 
   63.1250     2.3240    72.6970    11.4600     7.0150     8.5590    25.1610   -10.9440 
   63.2500     2.3680    73.4420    11.7180     7.1720     9.8330    25.1820   -10.7970 
   63.3750     2.3730    76.8150    11.9970     7.2190     8.5100    25.1890   -10.7330 
   63.5000     2.3440    79.2930    12.0060     7.0830     7.2010    25.1900   -10.8090 
   63.6250     2.3070    80.5940    11.5610     6.7650     6.6570    25.1800   -11.0380 
   63.7500     2.2880    85.1540    11.0080     6.3870     6.2280    25.1560   -11.2850 
   63.8750     2.2920    91.2730    10.7190     6.0440     5.6490    25.1160   -11.6060 
   64.0000     2.3080    95.6320    10.8650     5.8020     5.1210    25.0660   -12.0060 
   64.1250     2.3170    97.2480    11.3220     5.7030     5.0780    25.0100   -12.4270 
   64.2500     2.3090    97.6540    11.6150     5.7180     5.2730    24.9550   -12.8750 
   64.3750     2.2840    98.1420    11.4930     5.8420     5.5600    24.9070   -13.3830 
   64.5000     2.2560    98.2270    11.1510     6.0620     5.8670    24.8710   -13.9280 
   64.6250     2.2420    94.2130    11.0820     6.3700     6.3340    24.8530   -14.4680 
   64.7500     2.2480    86.6550    11.3680     6.7270     6.6810    24.8510   -14.9900 
   64.8750     2.2700    79.6780    11.7330     7.1030     7.8200    24.8560   -15.4530 
   65.0000     2.2990    77.3510    11.8230     7.4570     9.7190    24.8610   -15.8260 
   65.1250     2.3030    78.6530    11.6040     7.7620    10.7490    24.8710   -16.0780 
   65.2500     2.2730    78.2360    11.6720     8.0790    11.3140    24.8920   -16.2050 
   65.3750     2.2230    74.0470    12.5320     8.5190    10.6840    24.9220   -16.2310 
   65.5000     2.1840    69.1420    14.2210     9.1700    10.2160    24.9580   -16.1190 
   65.6250     2.2170    66.6060    16.1740     9.9740    11.2880    24.9990   -15.9550 
   65.7500     2.3360    65.7060    17.1920    10.5690    15.1360    25.0450   -15.7900 
   65.8750     2.4800    66.0080    17.1280    10.5490    21.6650    25.0930   -15.5930 
   66.0000     2.5510    69.2590    14.9680     9.7530    21.8050    25.1400   -15.4170 
   66.1250     2.4940    75.3550    12.3350     8.5040    13.2960    25.1730   -15.4010 
   66.2500     2.3880    80.4830    10.5790     7.4670     7.5300    25.1890   -15.4820 
   66.3750     2.3040    82.6450     9.9360     6.9760     6.1200    25.2020   -15.6540 
   66.5000     2.2830    80.1170    10.3550     7.1550     7.2850    25.2580   -15.9850 
   66.6250     2.3180    71.4400    11.7220     8.0450    12.8960    25.3590   -16.3420 
   66.7500     2.3440    61.0260    13.2840     9.2190    22.4010    25.4840   -16.7020 
   66.8750     2.3220    54.0260    14.1270    10.1240    23.7650    25.6240   -17.0620 
   67.0000     2.2570    54.9970    13.5850    10.2300    14.2040    25.7590   -17.3400 
   67.1250     2.1860    61.9950    11.8710     9.3800    10.3040    25.8500   -17.5120 
   67.2500     2.1440    68.2340    10.1170     8.2160     8.4930    25.8810   -17.6640 
   67.3750     2.1370    74.2110     8.8660     7.1910     7.0120    25.8180   -17.7640 
   67.5000     2.1560    81.5260     8.2620     6.5460     5.6930    25.6490   -17.8220 
   67.6250     2.1860    85.4560     8.2850     6.3950     5.8270    25.3960   -17.8650 
   67.7500     2.2080    82.2640     8.6490     6.6020     6.2200    25.1450   -17.9020 
   67.8750     2.2090    76.9370     9.1710     7.0760     7.2110    24.9180   -17.9700 
   68.0000     2.1910    74.0610     9.6700     7.6780     8.6870    24.7450   -18.0720 
   68.1250     2.1670    70.6430     9.9390     8.1700     9.7450    24.6550   -18.1370 
   68.2500     2.1550    65.5110     9.9260     8.3750     9.7070    24.6290   -18.1270 
   68.3750     2.1610    62.2600     9.6500     8.2360     9.1390    24.6550   -18.0540 
   68.5000     2.1850    63.2290     9.1880     7.8200     8.2000    24.7190   -17.9500 
   68.6250     2.2140    68.4520     8.6500     7.2520     7.0550    24.7830   -17.8570 
   68.7500     2.2390    75.0870     8.1590     6.6960     6.4990    24.8270   -17.8070 
   68.8750     2.2560    80.5350     7.7870     6.2350     6.2840    24.8480   -17.8300 
   69.0000     2.2610    84.1520     7.5970     5.9280     6.3180    24.8450   -17.9560 
   69.1250     2.2520    85.2900     7.7490     5.8870     6.3930    24.8150   -18.1850 
   69.2500     2.2320    82.6400     8.3530     6.1750     6.5470    24.7720   -18.5300 
   69.3750     2.2130    75.4100     9.5260     6.8730     7.6180    24.7220   -19.0080 
   69.5000     2.2110    66.7740    11.2730     8.0190    10.3590    24.6680   -19.5070 
   69.6250     2.2600    59.6050    13.4150     9.5670    16.3000    24.6220   -20.0700 
   69.7500     2.3490    53.1270    15.3370    11.1210    21.9890    24.5930   -20.6700 
   69.8750     2.4340    48.4930    16.3910    12.1990    22.1930    24.5920   -21.1870 
   70.0000     2.4650    48.6160    16.1930    12.4140    16.7100    24.6160   -21.6550 
   70.1250     2.4190    52.2160    14.8980    11.7020    12.3680    24.6650   -22.1420 
   70.2500     2.3420    56.2700    13.3910    10.6550    10.8730    24.7200   -22.5520 
   70.3750     2.2700    59.5270    12.1620     9.6560    10.6970    24.7740   -22.8760 
   70.5000     2.2210    60.6280    11.4100     8.9200    10.4290    24.8210   -23.1380 
   70.6250     2.2010    57.8890    11.1770     8.5560    10.0330    24.8540   -23.3090 
   70.7500     2.1930    54.9460    11.2130     8.4410     9.8270    24.8720   -23.3950 
   70.8750     2.1860    54.0130    11.3490     8.4680     9.9970    24.8720   -23.3840 
   71.0000     2.1710    53.2680    11.4540     8.5360    10.3560    24.8540   -23.3090 
   71.1250     2.1460    52.4440    11.4190     8.5520    10.9460    24.8230   -23.1430 
   71.2500     2.1230    51.9850    11.2450     8.4820    11.1700    24.7840   -22.9090 
   71.3750     2.1110    52.6880    10.9850     8.3420    10.4180    24.7430   -22.6490 
   71.5000     2.1120    54.2390    10.7120     8.1790     9.7050    24.7040   -22.3630 
   71.6250     2.1240    55.6270    10.4970     8.0400     9.4680    24.6750   -22.0260 
   71.7500     2.1350    56.1460    10.3540     7.9440     9.5090    24.6550   -21.7100 
   71.8750     2.1430    55.9740    10.2880     7.8910     9.6830    24.6490   -21.4680 
   72.0000     2.1470    57.5420    10.3010     7.8770     9.7410    24.6540   -21.2280 
   72.1250     2.1510    60.2990    10.3940     7.8980     9.5690    24.6710   -20.9910 
   72.2500     2.1550    60.7660    10.5160     7.9340     9.5390    24.7050   -20.8250 
   72.3750     2.1610    59.2120    10.6190     7.9730     9.7080    24.7580   -20.6630 
