~V
VERS. 2.00: Ver 2.00
~W
STRT.M 50.0000:
STOP.M 278.0000:
STEP.M 0.1250:
NULL. -999.2500:
UWI. F10217:
~C
DEPT.M :
SP.MV :
DEN.GM/CC :
GR.API :
RML.OHMM :
RI. :
RXO.OHMM :
CALI.CM :
~A
# ...
  173.7500   -22.0820     2.1850    61.1990   150.0360   118.4770    99.5590    23.9840 
  173.8750   -22.1620     2.1880    56.2670   160.1170   124.3660    82.4220    24.0070 
  174.0000   -22.2290     2.1890    53.2910   176.6660   135.7980   129.3580    24.0280 
  174.1250   -22.2560     2.1850    56.8930   195.2170   149.8920   186.9700    24.0760 
  174.2500   -22.2590     2.1760    61.5680   207.8380   160.6780   199.3560    24.1100 
  174.3750   -22.2350     2.1660    62.5070   209.3840   163.8220   159.0870    24.1230 
  174.5000   -22.1680     2.1580    59.9190   200.9150   158.9110   127.7920    24.1100 
  174.6250   -22.0670     2.1560    58.4930   188.7500   149.6940   112.8120    24.0720 
  174.7500   -21.9150     2.1590    60.3310   178.7230   141.3370   109.1080    23.9900 
  174.8750   -21.7030     2.1660    65.0480   171.8910   135.3350   108.8580    23.8890 
  175.0000   -21.4660     2.1750    69.6830   167.5510   131.4600   110.0060    23.8070 
  175.1250   -21.2520     2.1820    69.7430   164.4960   128.9260   115.2780    23.7490 
  175.2500   -21.0510     2.1870    67.3850   161.2650   126.6200   118.6330    23.6810 
  175.3750   -20.8770     2.1910    67.0070   157.2170   124.0900   116.8180    23.6500 
  175.5000   -20.7400     2.1970    69.4460   152.4290   121.3520   112.0770    23.7190 
  175.6250   -20.6300     2.2060    69.6650   148.1030   119.2180   106.3770    23.8430 
  175.7500   -20.5780     2.2150    65.5780   145.9410   118.8560   102.2940    23.9660 
  175.8750   -20.5630     2.2230    61.9570   147.4550   121.4440   103.6370    24.0410 
  176.0000   -20.5690     2.2290    62.8790   153.7810   127.9810   108.1060    24.0570 
  176.1250   -20.5490     2.2330    64.3770   166.2830   140.0440   119.5320    23.9970 
  176.2500   -20.5320     2.2340    63.8530   182.5300   156.5150   136.1360    23.9470 
  176.3750   -20.4970     2.2320    65.0230   196.5030   173.7210   155.6580    23.9750 
  176.5000   -20.4710     2.2250    68.3000   195.1820   181.5570   181.2790    24.0910 
  176.6250   -20.4470     2.2160    67.3850   160.7220   160.2740   208.6390    24.1490 
  176.7500   -20.3890     2.2090    63.3640   109.3290   115.9400   210.2490    24.1140 
  176.8750   -20.3350     2.2120    64.5490    64.0180    70.1750   130.5580    24.0070 
  177.0000   -20.2700     2.2290    74.0840    34.9890    38.3540    44.7340    23.8980 
  177.1250   -20.2670     2.2650    86.8150    21.3130    22.7680    18.3180    23.8400 
  177.2500   -20.2970     2.3100    95.0980    15.0610    15.3710     9.7720    23.8260 
  177.3750   -20.3510     2.3530    96.1110    13.0140    12.4210     8.3460    23.8540 
  177.5000   -20.3920     2.3820    90.8600    13.6040    12.0220     9.4660    23.9490 
  177.6250   -20.4590     2.3880    83.5010    16.6290    13.8630    13.0540    24.1000 
  177.7500   -20.5600     2.3790    78.3790    21.7210    17.6870    19.4160    24.2120 
  177.8750   -20.6740     2.3610    74.3040    28.8550    23.6240    29.5670    24.2270 
  178.0000   -20.8190     2.3410    69.0610    37.8060    31.5280    36.9730    24.1340 
  178.1250   -20.9210     2.3180    64.9220    48.5400    41.1640    36.5850    23.9890 
  178.2500   -20.9990     2.2900    65.8740    60.7650    51.9780    40.8340    23.8480 
  178.3750   -21.0720     2.2560    70.0000    74.4770    63.9150    59.5630    23.7650 
  178.5000   -21.1430     2.2210    71.3260    89.1620    76.5670    88.9030    23.7350 
  178.6250   -21.1970     2.1910    69.4350   102.8770    88.2450    99.8180    23.6750 
  178.7500   -21.2520     2.1740    69.2600   112.9030    96.7090    89.8680    23.5810 
  178.8750   -21.2980     2.1720    69.6190   116.7550   100.0870    78.8650    23.4740 
  179.0000   -21.3260     2.1790    68.3180   113.0880    97.5120    73.2280    23.3830 
  179.1250   -21.3820     2.1900    68.6630   101.3610    88.6050    68.6540    23.3510 
  179.2500   -21.4570     2.1980    71.5000    85.2710    76.0000    61.5410    23.3560 
  179.3750   -21.5360     2.2060    72.8650    68.0840    61.9670    52.1430    23.3850 
  179.5000   -21.6250     2.2190    72.4680    52.6630    48.7660    39.3180    23.4140 
  179.6250   -21.7150     2.2420    75.7960    41.1160    38.4250    27.7620    23.4490 
  179.7500   -21.7990     2.2720    80.2400    32.8700    30.8770    21.0970    23.4830 
  179.8750   -21.8780     2.3030    80.5020    27.2700    25.6770    18.5640    23.5060 
  180.0000   -21.9790     2.3280    78.9920    23.6370    22.2450    17.0770    23.5160 
  180.1250   -22.0440     2.3400    81.5600    21.5730    20.2500    14.7010    23.5450 
  180.2500   -22.1010     2.3420    85.5260    20.3660    19.0700    14.3320    23.6270 
  180.3750   -22.1430     2.3380    86.6040    19.7270    18.4240    15.9540    23.7460 
  180.5000   -22.1740     2.3340    84.8460    19.5650    18.1700    16.8610    23.8620 
  180.6250   -22.2010     2.3350    82.9280    20.1740    18.4650    16.7880    23.9690 
  180.7500   -22.2200     2.3390    80.9560    21.8500    19.4900    16.1020    24.1040 
  180.8750   -22.2430     2.3380    78.5280    25.0630    21.5980    15.8380    24.2180 
  181.0000   -22.2470     2.3260    78.2930    30.2510    25.2250    17.9720    24.2750 
  181.1250   -22.2760     2.3030    80.1640    37.9190    31.0580    26.6080    24.3020 
  181.2500   -22.2900     2.2780    79.2050    47.1640    38.5610    38.5810    24.3520 
  181.3750   -22.3040     2.2590    73.9520    56.7830    46.6890    47.9760    24.4660 
  181.5000   -22.3140     2.2510    69.2410    65.3770    53.9410    55.9390    24.6310 
  181.6250   -22.3220     2.2520    69.8540    72.1490    59.0830    60.1970    24.7570 
  181.7500   -22.3300     2.2540    70.0210    78.7530    63.2850    57.5120    24.8510 
  181.8750   -22.3330     2.2480    67.9580    87.5480    68.5600    51.5350    24.9030 
  182.0000   -22.3330     2.2330    66.2950   100.5160    76.8800    50.5190    24.8430 
  182.1250   -22.3100     2.2100    66.3230   118.6040    89.5660    68.7330    24.6740 
  182.2500   -22.2840     2.1870    67.5920   138.1190   104.1470   107.2640    24.5240 
  182.3750   -22.2400     2.1680    68.8760   153.5190   116.6520   140.4700    24.4470 
  182.5000   -22.2050     2.1580    69.8800   159.3130   122.7400   147.3540    24.4030 
  182.6250   -22.1590     2.1610    69.2450   154.0910   120.1710   120.3830    24.3360 
  182.7500   -22.1070     2.1730    68.0800   146.2550   114.3310    93.5460    24.2670 
  182.8750   -22.0500     2.1900    67.3540   141.7950   109.9820    76.5150    24.2200 
  183.0000   -22.0030     2.2050    64.6120   143.4730   109.9940    73.8540    24.1870 
  183.1250   -21.9660     2.2130    60.5610   152.4650   115.9540    84.6880    24.1430 
  183.2500   -21.9360     2.2130    60.4910   166.3410   126.2360   104.1120    24.1080 
  183.3750   -21.9190     2.2100    62.8090   182.9690   139.3300   119.3520    24.0970 
  183.5000   -21.8810     2.2060    63.4050   199.3780   153.1130   119.8640    24.0930 
  183.6250   -21.8640     2.2050    60.8740   210.3870   163.9560   122.2120    24.0730 
  183.7500   -21.8410     2.2050    60.0080   212.2830   168.6720   137.7080    24.0330 
  183.8750   -21.8180     2.2040    60.8200   203.4000   165.2080   158.7660    23.9870 
  184.0000   -21.7590     2.2010    61.7750   186.1340   154.2200   175.4600    23.9310 
  184.1250   -21.6950     2.1980    64.5110   166.5940   139.3180   146.1150    23.8420 
  184.2500   -21.6220     2.1990    67.3610   151.1220   126.0780   107.8870    23.6940 
  184.3750   -21.5350     2.2050    66.9860   142.5030   117.5460    78.0980    23.5140 
  184.5000   -21.4290     2.2140    63.8080   141.5140   115.1250    67.9930    23.4280 
  184.6250   -21.2920     2.2200    61.7520   148.5350   119.7640    74.0170    23.5090 
  184.7500   -21.1520     2.2200    61.2820   160.3490   129.0890    88.2630    23.7190 
  184.8750   -20.9980     2.2140    60.0180   173.8320   140.7540    98.8800    23.9190 
