~V
VERS. 2.00: Ver 2.00
~W
STRT.M 56.0000:
STOP.M 284.0000:
STEP.M 0.1250:
NULL. -999.2500:
UWI. F10233:
~C
DEPT.M :
GR.API :
RML.OHMM :
RI. :
RXO.OHMM :
CALI.CM :
DEN.GM/CC :
SP.MV :
~A
# ...
  157.2500    66.5580    44.1400    39.1230    37.1770    25.5420     2.2390   -14.6260 
  157.3750    61.2440    47.3770    42.0270    44.2480    25.6000     2.2430   -14.5900 
  157.5000    56.9000    50.0740    44.6360    48.6330    25.6220     2.2480   -14.5590 
  157.6250    60.6330    51.5680    46.2370    43.6890    25.5400     2.2540   -14.6190 
  157.7500    67.8490    51.9680    46.7930    37.8460    25.4710     2.2590   -14.5930 
  157.8750    70.7270    51.4600    46.4340    37.0500    25.4110     2.2620   -14.5670 
  158.0000    68.9430    50.2580    45.3820    40.2790    25.2920     2.2600   -14.6630 
  158.1250    67.4520    48.5360    43.8600    40.2820    25.0380     2.2510   -14.7150 
  158.2500    68.0860    46.7260    42.2640    34.1410    24.8580     2.2340   -14.6940 
  158.3750    68.9730    45.2520    40.9180    26.3880    24.8200     2.2090   -14.7600 
  158.5000    69.9950    44.5520    40.1430    22.3680    24.9250     2.1820   -14.8530 
  158.6250    72.7660    45.2640    40.4320    22.1740    25.1780     2.1750   -14.8620 
  158.7500    74.7940    47.4800    41.9200    24.2340    25.3900     2.1960   -14.9630 
  158.8750    72.5130    51.2190    44.7160    25.7660    25.3750     2.2360   -15.0870 
  159.0000    66.4820    56.1170    48.6590    27.4920    25.1250     2.2770   -15.0850 
  159.1250    61.2290    60.8570    52.8750    34.3790    24.9240     2.2930   -15.1570 
  159.2500    60.6110    63.2230    55.5380    48.8520    24.8440     2.2710   -15.2930 
  159.3750    63.2940    61.4480    55.0420    61.7390    24.8750     2.2150   -15.3370 
  159.5000    67.0020    55.4850    50.9700    59.0140    24.9780     2.1550   -15.3660 
  159.6250    70.9290    47.3550    44.5280    39.0550    25.0730     2.1220   -15.4840 
  159.7500    72.4600    40.0720    38.2980    27.0730    25.2280     2.1110   -15.5190 
  159.8750    71.3330    34.8800    33.5460    23.2220    25.4230     2.1130   -15.4900 
  160.0000    70.0900    31.9690    30.6480    23.6170    25.4510     2.1290   -15.5560 
  160.1250    71.1480    31.0640    29.5450    24.2040    25.0290     2.1620   -15.6170 
  160.2500    72.8640    30.9450    29.2830    21.5250    24.2160     2.2020   -15.6050 
  160.3750    73.3590    30.6550    29.0370    18.2480    23.4640     2.2370   -15.6560 
  160.5000    73.9980    29.3610    27.9790    16.8270    23.0930     2.2560   -15.7510 
  160.6250    75.0930    26.5780    25.5230    17.0000    23.2440     2.2590   -15.7560 
  160.7500    74.9820    23.0530    22.2900    16.7670    23.6180     2.2570   -15.7570 
  160.8750    74.2500    19.5340    18.9810    15.1120    23.9540     2.2580   -15.8510 
  161.0000    73.7690    16.6150    16.1650    12.7660    24.1670     2.2670   -15.9220 
  161.1250    73.2330    14.8170    14.3150    11.9890    24.2830     2.2840   -15.9410 
  161.2500    73.4910    14.1140    13.3990    11.9320    24.3680     2.3040   -16.0600 
  161.3750    76.0480    14.5440    13.4330    12.1600    24.3210     2.3180   -16.1380 
  161.5000    77.4280    16.1310    14.4370    13.3770    24.1330     2.3240   -16.1360 
  161.6250    72.9030    18.9770    16.5690    18.0170    23.9990     2.3270   -16.2510 
  161.7500    67.2810    22.5820    19.5110    25.8070    23.9930     2.3270   -16.4170 
  161.8750    65.8530    26.4050    22.8810    29.7910    24.0310     2.3150   -16.5060 
  162.0000    67.5600    29.7420    26.0630    29.3580    24.1070     2.2880   -16.6310 
  162.1250    67.8650    31.6120    28.0800    28.7660    24.3800     2.2560   -16.8140 
  162.2500    67.6050    31.7830    28.5400    29.7070    24.8310     2.2360   -16.9120 
  162.3750    67.3880    30.3590    27.4580    31.2390    25.1660     2.2300   -17.0640 
  162.5000    66.5590    27.8000    25.2520    31.0510    25.1760     2.2370   -17.3150 
  162.6250    67.9870    24.7340    22.5240    25.1430    24.7770     2.2560   -17.5100 
  162.7500    72.7750    21.8990    19.9530    18.4390    24.1790     2.2730   -17.6480 
  162.8750    78.1950    19.6960    17.8770    14.8150    23.6090     2.2800   -17.8260 
  163.0000    80.6470    18.3020    16.4430    13.3790    23.1810     2.2780   -17.9990 
  163.1250    81.5120    17.8090    15.7710    12.6130    22.8850     2.2830   -18.0860 
  163.2500    82.4980    17.8930    15.6450    11.9980    22.6190     2.2950   -18.2180 
  163.3750    82.7030    18.3160    15.9000    11.9420    22.4240     2.3080   -18.3510 
  163.5000    80.7830    18.8390    16.3370    12.3110    22.3530     2.3140   -18.3590 
  163.6250    75.8790    19.2110    16.7260    12.9920    22.3710     2.3070   -18.3220 
  163.7500    71.6740    19.3070    16.9140    13.1070    22.3810     2.2950   -18.3900 
  163.8750    71.1460    19.0970    16.8470    13.1020    22.3690     2.2860   -18.4340 
  164.0000    72.5950    18.6240    16.5400    13.1310    22.3350     2.2830   -18.4200 
  164.1250    73.4930    17.9520    16.0140    12.7720    22.3200     2.2900   -18.4920 
  164.2500    75.1870    17.2180    15.3800    12.1330    22.3180     2.3030   -18.5240 
  164.3750    78.7660    16.5050    14.7190    11.8900    22.3190     2.3180   -18.5060 
  164.5000    80.4140    15.8660    14.1010    11.9120    22.3160     2.3310   -18.5790 
  164.6250    79.3520    15.3630    13.5930    11.8640    22.3230     2.3400   -18.7140 
  164.7500    80.4650    15.0400    13.2340    11.6110    22.3500     2.3450   -18.7230 
  164.8750    83.3490    14.9410    13.0690    11.6210    22.3710     2.3440   -18.7370 
  165.0000    83.6760    15.0750    13.1140    11.4910    22.3650     2.3410   -18.7870 
  165.1250    79.3990    15.4640    13.3960    11.5870    22.3430     2.3340   -18.7140 
  165.2500    76.1760    16.0410    13.8570    12.0060    22.3670     2.3230   -18.6680 
  165.3750    77.1220    16.7440    14.4540    13.4840    22.4220     2.3130   -18.6870 
  165.5000    79.6130    17.4620    15.1070    15.1100    22.4670     2.3100   -18.6470 
  165.6250    79.3680    18.0240    15.6870    15.7930    22.4820     2.3140   -18.4990 
  165.7500    76.0530    18.3470    16.0980    16.3540    22.5330     2.3150   -18.4210 
  165.8750    72.9080    18.4150    16.2950    16.8260    22.6720     2.3110   -18.3760 
  166.0000    72.2360    18.3110    16.3140    16.8020    22.8600     2.3050   -18.2690 
  166.1250    74.4420    18.2160    16.2840    16.2010    23.1000     2.2980   -18.2600 
  166.2500    77.8290    18.2950    16.3590    16.3290    23.3560     2.2900   -18.2570 
  166.3750    79.0490    18.6220    16.6080    16.9640    23.6200     2.2830   -18.1580 
  166.5000    78.8610    19.1800    17.0340    18.5950    23.9220     2.2780   -18.0310 
  166.6250    79.6630    19.8430    17.5620    19.7740    24.2610     2.2790   -18.0360 
  166.7500    83.2830    20.3680    18.0040    19.9690    24.5740     2.2860   -18.0310 
  166.8750    87.2170    20.5710    18.2170    19.7520    24.7310     2.2960   -17.9810 
  167.0000    87.8030    20.3860    18.1330    19.4050    24.8340     2.3070   -18.0130 
  167.1250    85.2810    19.8920    17.7910    18.8990    24.8820     2.3180   -17.9950 
  167.2500    82.9860    19.4470    17.4560    18.2550    24.8920     2.3250   -17.9800 
  167.3750    81.8050    19.4520    17.4270    18.2430    24.8890     2.3220   -18.0740 
  167.5000    80.7290    20.3640    18.0560    18.8150    24.9140     2.3070   -18.2150 
  167.6250    80.6660    23.0250    20.0040    20.3480    24.9310     2.2850   -18.2680 
  167.7500    80.6940    27.8750    23.7320    24.6040    24.9250     2.2620   -18.3800 
  167.8750    78.3560    35.3850    28.7330    35.5730    24.9210     2.2400   -18.5280 
  168.0000    73.3080    45.3410    36.8490    56.8580    24.9960     2.2250   -18.5990 
  168.1250    67.9530    55.4670    46.5600    85.7980    25.2070     2.2280   -18.7770 
  168.2500    65.2510    60.8980    53.2260   101.6790    25.3310     2.2470   -18.9780 
  168.3750    66.0610    57.8110    52.7110    91.8210    25.2640     2.2750   -19.0970 
