~V
VERS. 2.00: Ver 2.00
~W
STRT.M 50.0000:
STOP.M 274.0000:
STEP.M 0.1250:
NULL. -999.2500:
UWI. F10208:
~C
DEPT.M :
SP.MV :
DEN.GM/CC :
GR.API :
RML.OHMM :
RI. :
RXO.OHMM :
CALI.CM :
~A
# ...
  173.7500   -24.2180     2.1900    55.9710   121.1950   101.5130    81.6410    23.5730 
  173.8750   -24.3410     2.1870    54.5710   120.2090   100.9600    75.9910    23.5170 
  174.0000   -24.4560     2.1870    55.1360   118.4930    99.6950    80.0580    23.8540 
  174.1250   -24.5720     2.1900    55.0060   117.1020    98.5240    81.1870    24.0030 
  174.2500   -24.6660     2.1940    54.1850   116.9690    98.2860    81.7420    24.0010 
  174.3750   -24.7650     2.1970    54.4790   118.6800    99.5360    82.2400    23.9230 
  174.5000   -24.8280     2.1990    55.3700   122.5200   102.5380    84.9740    23.9710 
  174.6250   -24.8930     2.2040    55.4800   128.6470   107.4310    91.2960    24.1090 
  174.7500   -24.9440     2.2100    53.8600   135.9560   113.3830   100.8840    24.1470 
  174.8750   -25.0260     2.2160    51.4000   143.3530   119.6150   110.8670    24.3070 
  175.0000   -25.1150     2.2160    53.1860   149.6510   125.3170   115.7690    24.3650 
  175.1250   -25.1860     2.2070    59.4730   153.6040   129.5600   119.5040    24.3140 
  175.2500   -25.2610     2.1980    63.3390   155.3390   132.1400   123.1030    24.2740 
  175.3750   -25.3180     2.1930    61.7790   155.1280   133.0040   122.8890    24.2100 
  175.5000   -25.3650     2.1970    58.1220   153.5810   132.4590   114.5310    24.0920 
  175.6250   -25.4200     2.2070    56.7130   151.7250   131.1500   105.3460    23.9370 
  175.7500   -25.4690     2.2160    56.1510   150.7200   130.1000   102.5160    23.7440 
  175.8750   -25.4810     2.2200    55.2930   151.1120   129.9220   110.7140    23.7500 
  176.0000   -25.4690     2.2160    53.8830   152.8300   130.8310   121.2010    23.5970 
  176.1250   -25.4120     2.2080    51.3500   155.3600   132.6890   128.9990    23.1660 
  176.2500   -25.3310     2.1990    48.6580   157.7940   134.8060   132.1600    22.9510 
  176.3750   -25.2510     2.1920    46.6000   159.5910   136.7180   136.4930    22.9330 
  176.5000   -25.1880     2.1850    46.7390   160.5670   138.1820   145.1400    23.0650 
  176.6250   -25.1130     2.1810    48.3880   160.8970   139.2690   150.1670    23.1550 
  176.7500   -25.1180     2.1780    48.4290   161.2130   140.4020   148.2320    23.1230 
  176.8750   -25.1450     2.1780    48.3360   161.8720   141.7570   148.8780    23.4130 
  177.0000   -25.2490     2.1810    49.9710   162.8840   143.2240   142.6750    24.1860 
  177.1250   -25.4080     2.1850    53.3930   164.0070   144.6030   129.7170    24.5280 
  177.2500   -25.6060     2.1880    55.6060   164.7660   145.7300   121.6490    24.6470 
  177.3750   -25.8140     2.1880    54.4100   164.1180   145.9560   120.3040    24.6750 
  177.5000   -26.0300     2.1820    49.6780   160.1540   143.7640   120.1290    24.6390 
  177.6250   -26.2420     2.1700    46.6450   150.3630   136.7360   120.7970    24.6420 
  177.7500   -26.4540     2.1580    49.0070   136.5190   125.6890   127.9060    24.6890 
  177.8750   -26.6710     2.1510    53.1240   121.7120   112.8780   129.3620    24.7830 
  178.0000   -26.8540     2.1520    55.8350   109.3050   101.3410   101.9610    24.7400 
  178.1250   -26.9780     2.1610    58.1260   102.3990    94.2400    77.4630    24.6540 
  178.2500   -27.0530     2.1690    59.1410   100.6150    91.7320    72.8590    24.6360 
  178.3750   -27.0630     2.1720    58.2840   103.0180    93.2440    78.7300    24.7270 
  178.5000   -27.0680     2.1680    58.5410   107.8110    97.3960    82.4620    24.7130 
  178.6250   -27.0790     2.1630    59.5880   112.1540   101.8830    85.0990    24.7140 
  178.7500   -27.0830     2.1630    56.6290   113.6440   104.2900    88.9270    24.7170 
  178.8750   -27.1150     2.1680    53.0690   111.6540   103.6540    88.4490    24.7700 
  179.0000   -27.1780     2.1760    54.0350   107.1280   100.4250    80.7130    24.8400 
  179.1250   -27.3200     2.1840    56.8530   101.5440    95.7140    72.6700    24.8310 
  179.2500   -27.4860     2.1890    56.6520    95.9950    90.7510    68.3040    24.7910 
  179.3750   -27.6430     2.1930    55.8620    90.6440    85.8900    70.0060    24.7830 
  179.5000   -27.7330     2.1970    56.8690    85.5400    81.2930    67.3820    24.7740 
  179.6250   -27.6710     2.2010    57.3470    80.9530    77.2330    60.1420    24.7470 
  179.7500   -27.4890     2.2040    57.4200    77.1060    73.7660    55.3550    24.7920 
  179.8750   -27.2620     2.2020    58.7430    74.2920    70.9460    54.6310    25.0550 
  180.0000   -27.0310     2.1970    59.6310    72.7540    68.9050    56.0800    25.4380 
  180.1250   -26.7660     2.1920    58.4970    72.7700    68.0620    60.3410    26.1620 
  180.2500   -26.4540     2.1920    57.3000    74.0370    68.5060    62.1300    26.3510 
  180.3750   -26.1750     2.1950    57.1300    76.4920    70.4150    59.0490    26.4450 
  180.5000   -25.9330     2.2000    57.0890    80.0830    73.7950    58.0230    26.4590 
  180.6250   -25.8940     2.2010    57.9290    84.6510    78.4950    61.8330    26.2320 
  180.7500   -26.0180     2.2000    60.1250    89.2620    83.6050    69.3140    25.5990 
  180.8750   -26.2240     2.1990    61.3140    92.7440    88.0430    77.6220    24.9600 
  181.0000   -26.4030     2.2010    59.9510    93.8130    90.4040    80.7180    24.3290 
  181.1250   -26.5700     2.2060    57.0360    91.4430    89.1840    74.6180    23.8220 
  181.2500   -26.7840     2.2130    54.0670    87.1310    85.4790    72.7080    24.0220 
  181.3750   -27.0430     2.2220    52.3980    82.5190    80.8830    73.5910    24.4400 
  181.5000   -27.3300     2.2290    54.1420    79.0510    76.9980    65.0910    24.4930 
  181.6250   -27.5900     2.2340    58.6210    77.7490    75.1450    53.1700    24.7020 
  181.7500   -27.7610     2.2350    60.8940    77.9390    75.0080    52.4190    24.7870 
  181.8750   -27.8860     2.2290    61.0850    78.7840    75.8830    60.7350    24.8240 
  182.0000   -27.9770     2.2200    60.7020    79.5140    76.9200    71.6930    24.8810 
  182.1250   -28.0520     2.2110    58.1670    79.8060    77.4180    72.2260    24.7470 
  182.2500   -28.1180     2.2070    54.5400    80.2930    77.6180    63.9620    24.5000 
  182.3750   -28.2060     2.2100    53.5650    82.1210    78.5290    59.5560    24.3790 
  182.5000   -28.2950     2.2160    55.1290    86.7150    81.6370    63.0520    24.3930 
  182.6250   -28.3630     2.2200    56.3270    96.2960    89.2280    73.4250    24.4410 
  182.7500   -28.4500     2.2170    56.4320   111.1500   101.7870    84.1120    24.4710 
  182.8750   -28.5280     2.2070    54.4820   131.2460   119.4410    89.5380    24.4770 
  183.0000   -28.6490     2.1940    50.6310   155.2210   141.0610    98.8220    24.5320 
  183.1250   -28.7940     2.1800    48.9580   179.5690   163.7170   118.1880    24.4940 
  183.2500   -28.9510     2.1690    50.4110   199.2600   182.9530   146.9380    24.3750 
  183.3750   -29.0710     2.1610    50.9450   210.2020   195.1140   144.6700    24.2690 
  183.5000   -29.2100     2.1570    49.8660   210.0700   197.9020   111.7660    24.1840 
  183.6250   -29.3380     2.1570    51.0850   196.6920   188.8280    86.4280    24.2070 
  183.7500   -29.4570     2.1600    53.5660   173.9600   170.4850    76.8810    24.2170 
  183.8750   -29.5580     2.1630    53.5180   146.2450   146.0060    82.0440    24.1950 
  184.0000   -29.6440     2.1640    52.8050   119.2120   120.3470    84.7700    24.1940 
  184.1250   -29.7380     2.1630    54.6490    98.7040    99.4600    78.4760    24.1180 
  184.2500   -29.8480     2.1620    58.3240    85.7740    85.4190    58.2770    24.0950 
  184.3750   -29.9400     2.1640    60.3220    80.2690    78.5840    47.8320    24.1200 
  184.5000   -29.9980     2.1690    60.8530    81.1630    78.2680    56.7590    24.2720 
  184.6250   -30.0490     2.1760    60.5470    87.4390    83.8440    62.2490    24.3140 
  184.7500   -30.1410     2.1840    59.4510    95.8980    92.3730    74.3260    24.3090 
  184.8750   -30.2550     2.1900    59.3660   103.8480   101.3110    84.4360    24.1060 
