~V
VERS. 2.00: Ver 2.00
~W
STRT.M 50.0000:
STOP.M 271.0000:
STEP.M 0.1250:
NULL. -999.2500:
UWI. F10251:
~C
DEPT.M :
DEN.GM/CC :
GR.API :
RML.OHMM :
RI. :
RXO.OHMM :
CALI.CM :
SP.MV :
~A
# ...
   95.0000     2.1910    63.7440    10.5950     7.7280    10.5130    23.3340   -16.6550 
   95.1250     2.1890    63.9540    10.4980     7.7070    10.5620    23.3830   -16.7440 
   95.2500     2.1860    64.0390    10.4060     7.6740    10.6440    23.4510   -16.7650 
   95.3750     2.1820    66.3170    10.3410     7.6400    10.7720    23.5020   -16.6800 
   95.5000     2.1780    70.8200    10.3120     7.6200    10.7470    23.4690   -16.5200 
   95.6250     2.1720    72.1530    10.3130     7.6260    10.5760    23.3620   -16.4260 
   95.7500     2.1680    70.7010    10.3210     7.6490    10.4340    23.3180   -16.3880 
   95.8750     2.1690    69.0550    10.3120     7.6710    10.5290    23.3310   -16.2760 
   96.0000     2.1750    66.5270    10.2670     7.6740    10.6860    23.3220   -16.0420 
   96.1250     2.1810    62.9000    10.1690     7.6370    10.6110    23.2860   -15.7930 
   96.2500     2.1820    62.5010    10.0500     7.5680    10.4620    23.2350   -15.6230 
   96.3750     2.1820    65.1530     9.9450     7.4920    10.4200    23.1830   -15.5080 
   96.5000     2.1810    67.0100     9.8960     7.4460    10.4350    23.1020   -15.3750 
   96.6250     2.1780    65.8130     9.9510     7.4740    10.3450    22.8540   -15.2070 
   96.7500     2.1770    66.2590    10.0900     7.5690    10.2170    22.5210   -15.0630 
   96.8750     2.1820    69.9530    10.2500     7.6890    10.2700    22.5020   -14.9560 
   97.0000     2.1920    72.4020    10.3370     7.7700    10.3210    22.8990   -14.8550 
   97.1250     2.2050    70.4180    10.2450     7.7300    10.3220    23.2980   -14.7170 
   97.2500     2.2210    68.4060    10.0360     7.5940    10.2810    23.4880   -14.5030 
   97.3750     2.2420    70.5420     9.8460     7.4430    10.0890    23.5710   -14.2940 
   97.5000     2.2620    73.5120     9.8150     7.3730     9.8080    23.5570   -14.2070 
   97.6250     2.2640    71.0320     9.9960     7.4560     9.8690    23.4330   -14.1940 
   97.7500     2.2550    66.9890    10.2150     7.6190    10.3440    23.3360   -14.1140 
   97.8750     2.2510    65.3430    10.3470     7.7910    10.7620    23.3090   -14.0350 
   98.0000     2.2580    65.5320    10.4480     7.9750    11.3290    23.3010   -14.0590 
   98.1250     2.2640    65.6770    10.9710     8.3940    11.3920    23.3140   -14.1680 
   98.2500     2.2840    65.8110    12.4030     9.3420    11.6320    23.3740   -14.2900 
   98.3750     2.3450    65.9000    15.1040    11.1250    14.2990    23.5090   -14.3560 
   98.5000     2.4490    64.5020    19.1260    13.9580    23.2390    23.7460   -14.3320 
   98.6250     2.5410    61.3000    23.8640    17.7950    48.1630    23.9830   -14.3130 
   98.7500     2.5590    59.5540    27.4280    21.3150    51.3010    24.0990   -14.3680 
   98.8750     2.4950    60.8540    27.9920    22.7960    28.9450    23.9450   -14.4130 
   99.0000     2.3960    63.2860    25.1460    21.3760    15.2920    23.5670   -14.3790 
   99.1250     2.3220    63.0690    20.4100    17.9250    14.9600    23.3190   -14.3420 
   99.2500     2.2810    62.3870    16.0340    14.3970    21.1900    23.2650   -14.3690 
   99.3750     2.2530    64.7990    12.7260    11.4960    22.7540    23.2300   -14.4420 
   99.5000     2.2260    70.0110    10.5020     9.3620    14.4260    23.1650   -14.4810 
   99.6250     2.2110    74.1160     9.2280     7.9870    10.4190    23.1280   -14.3790 
   99.7500     2.2090    73.8560     8.5380     7.1210     9.6480    23.1120   -14.2610 
   99.8750     2.2080    70.3550     8.3130     6.6840     9.8720    23.0970   -14.2340 
  100.0000     2.2020    68.5450     8.4630     6.6170     9.2070    23.0720   -14.2840 
  100.1250     2.1950    70.8880     8.8900     6.8810     8.3930    23.0170   -14.3180 
  100.2500     2.1880    71.8660     9.3890     7.3100     9.0150    23.0150   -14.3570 
  100.3750     2.1810    69.1430     9.8250     7.7770    10.1230    23.0460   -14.4740 
  100.5000     2.1770    65.8500    10.1110     8.1640    10.6670    23.0960   -14.7040 
  100.6250     2.1770    63.8810    10.1920     8.3590    10.7200    23.1190   -15.0120 
  100.7500     2.1760    61.6750    10.1380     8.3850    10.8200    23.1290   -15.2860 
  100.8750     2.1720    60.1470    10.0130     8.2960    10.7760    23.1320   -15.5060 
  101.0000     2.1710    59.9750     9.8900     8.1630    10.7630    23.1320   -15.7220 
  101.1250     2.1730    59.5980     9.8230     8.0490    10.9350    23.1230   -15.9900 
  101.2500     2.1750    59.8360     9.8060     7.9660    11.0250    23.0940   -16.2460 
  101.3750     2.1740    62.4070     9.8160     7.8960    11.0280    23.0610   -16.3880 
  101.5000     2.1710    65.2230     9.8280     7.8200    11.0570    23.0910   -16.4040 
  101.6250     2.1700    64.4540     9.8200     7.7240    11.1740    23.1220   -16.4690 
  101.7500     2.1700    62.5160     9.7910     7.6210    11.2130    23.1310   -16.5800 
  101.8750     2.1690    61.0330     9.7560     7.5350    11.2420    23.0950   -16.6230 
  102.0000     2.1660    60.2300     9.7340     7.4910    11.2570    23.0170   -16.5610 
  102.1250     2.1590    60.2270     9.7550     7.5140    11.3900    22.9760   -16.4360 
  102.2500     2.1520    61.7520     9.8200     7.5830    11.4730    22.9560   -16.3130 
  102.3750     2.1470    63.3330     9.9170     7.6690    11.2420    22.9240   -16.2320 
  102.5000     2.1430    61.8840    10.0320     7.7410    10.9770    22.8530   -16.1630 
  102.6250     2.1440    59.1900    10.1440     7.7740    11.0460    22.8220   -16.0020 
  102.7500     2.1490    58.1130    10.2360     7.7730    11.0350    22.8160   -15.8360 
  102.8750     2.1590    58.3280    10.2950     7.7510    10.5370    22.8220   -15.7240 
  103.0000     2.1680    59.1440    10.3120     7.7210    10.0840    22.8390   -15.6360 
  103.1250     2.1730    62.1560    10.2830     7.6820     9.9440    22.8890   -15.5460 
  103.2500     2.1760    65.4670    10.2230     7.6270     9.7300    22.9290   -15.4250 
  103.3750     2.1800    66.6170    10.1410     7.5490     9.6650    22.9400   -15.3130 
  103.5000     2.1840    66.0270    10.0290     7.4460     9.5670    22.9330   -15.3110 
  103.6250     2.1900    66.5410     9.8910     7.3290     9.5350    22.9390   -15.4210 
  103.7500     2.2020    68.3870     9.8070     7.2510     9.6450    23.0250   -15.4880 
  103.8750     2.2210    69.3110     9.9120     7.2900     9.7530    23.0600   -15.5270 
  104.0000     2.2450    67.7010    10.3220     7.5190     9.8790    22.9980   -15.6520 
  104.1250     2.2760    64.1910    11.0770     7.9980     9.9450    22.8950   -15.8380 
  104.2500     2.3150    62.4040    11.9320     8.6050    10.3800    22.7780   -15.9930 
  104.3750     2.3570    62.4840    12.5910     9.1550    10.7630    22.7010   -16.0840 
  104.5000     2.3850    61.7740    12.7640     9.4190    10.3780    22.7070   -16.1260 
  104.6250     2.3620    59.6440    12.2700     9.1900     9.9130    22.7790   -16.1690 
  104.7500     2.2980    58.6330    11.4500     8.6430     9.7920    22.7710   -16.2540 
  104.8750     2.2340    59.2420    10.6420     8.0050    10.1340    22.7100   -16.3340 
  105.0000     2.2000    61.1120    10.0820     7.4750    10.5930    22.7040   -16.3450 
  105.1250     2.1940    63.4080     9.8910     7.1940    10.8320    22.8490   -16.3610 
  105.2500     2.1910    63.9580     9.9230     7.1190    10.9600    23.0830   -16.4380 
  105.3750     2.1840    61.4850    10.0380     7.1800    10.8920    23.2320   -16.5340 
  105.5000     2.1760    58.0880    10.1300     7.2880    10.9700    23.2540   -16.5380 
  105.6250     2.1730    59.2150    10.1630     7.3820    11.1850    23.1690   -16.3850 
  105.7500     2.1750    63.9430    10.1790     7.4590    11.2200    23.0590   -16.1620 
  105.8750     2.1810    66.8890    10.1970     7.5290    11.0790    22.9970   -15.9160 
  106.0000     2.1880    65.0230    10.2050     7.5870    10.8560    23.0070   -15.6400 
  106.1250     2.1920    61.1260    10.1730     7.6060    10.6700    23.0710   -15.2100 
