~V
VERS. 2.00: Ver 2.00
~W
STRT.M 50.0000:
STOP.M 270.0000:
STEP.M 0.1250:
NULL. -999.2500:
UWI. F10223:
~C
DEPT.M :
GR.API :
RML.OHMM :
RI. :
RXO.OHMM :
CALI.CM :
DEN.GM/CC :
SP.MV :
~A
# ...
  263.7500    60.6600     8.9350     7.8970     7.3580    23.7940     2.4510   -15.2020 
  263.8750    60.6600     8.9230     7.8810     7.4920    23.7960     2.4570   -15.1440 
  264.0000    60.6600     8.9160     7.8620     7.6080    23.8500     2.4680   -15.1060 
  264.1250    60.6600     8.9170     7.8490     7.7500    23.8840     2.4790   -15.0630 
  264.2500    60.6600     8.9270     7.8440     7.7800    23.8690     2.4880   -14.9800 
  264.3750    60.6600     8.9400     7.8440     7.7400    23.8160     2.4950   -14.9110 
  264.5000    60.6600     8.9530     7.8400     7.8690    23.7260     2.5000   -14.8540 
  264.6250    60.6600     8.9590     7.8330     8.1890    23.7130     2.5010   -14.7950 
  264.7500    60.6600     8.9600     7.8300     8.2910    23.4910     2.4970   -14.7240 
  264.8750    60.6600     8.9550     7.8350     7.9000    22.9060     2.4930   -14.6300 
  265.0000    60.6600     8.9490     7.8450     7.4710    22.4020     2.4930   -14.5340 
  265.1250    60.6600     8.9460     7.8530     7.0380    22.5460     2.4980   -14.4890 
  265.2500    60.6600     8.9470     7.8570     6.6980    22.9150     2.5100   -14.4680 
  265.3750    60.6600     8.9470     7.8570     6.5580    23.2930     2.5120   -14.4290 
  265.5000    60.6600     8.9470     7.8570     6.6190    23.6950     2.5130   -14.3600 
  265.6250    60.6600     8.9470     7.8570     6.7600    23.9430     2.5100   -14.3010 
  265.7500    60.6600     8.9470     7.8570     6.9050    24.0250     2.5060   -14.2920 
  265.8750    60.6600     8.9470     7.8570     7.0950    24.0160     2.5040   -14.1670 
  266.0000    60.6600     8.9470     7.8570     7.1540    23.9740     2.5080   -13.7170 
  266.1250    60.6600     8.9470     7.8570     7.2560    23.9340     2.5140   -13.1770 
  266.2500    60.6600     8.9470     7.8570     7.6250    23.9390     2.5140   -12.6320 
  266.3750    60.6600     8.9470     7.8570     8.0760    23.9610     2.5080   -12.0820 
  266.5000    60.6600     8.9470     7.8570     8.4100    23.9680     2.5050   -11.5230 
  266.6250    60.6600     8.9470     7.8570     8.8480    24.0050     2.5080   -11.0680 
  266.7500    60.6600     8.9470     7.8570     9.8750    24.0520     2.5120   -10.5950 
  266.8750    60.6600     8.9470     7.8570    11.4620    24.1060     2.5130   -10.0760 
  267.0000    60.6600     8.9470     7.8570    13.0060    24.1100     2.5140   -10.0870 
  267.1250    60.6600     8.9470     7.8570    14.2250    24.0520     2.5180   -10.0990 
  267.2500    60.6600     8.9470     7.8570    14.9610    23.9690     2.5170   -10.1010 
  267.3750    60.6600     8.9470     7.8570    15.4550    23.8410     2.4950  -999.2500 
  267.5000    60.6600     8.9470     7.8570    15.9360    23.6930     2.4460  -999.2500 
  267.6250    60.6600     8.9470     7.8570    14.8360    23.1780     2.3630  -999.2500 
  267.7500    60.6600     8.9470     7.8570    12.8510    22.1000     2.2430  -999.2500 
  267.8750    60.6600     8.9470     7.8570    11.2820    20.8790     2.1060  -999.2500 
  268.0000    60.6600     8.9470     7.8570    10.5860    20.2010     1.9960  -999.2500 
  268.1250    60.6600     8.9470     7.8570    10.4430    20.0680     1.9330  -999.2500 
  268.2500    60.6600     8.9470     7.8570    10.4270    20.0600     1.9100  -999.2500 
  268.3750    60.6600     8.9470     7.8570    10.4250    20.0600     1.9090  -999.2500 
  268.5000    60.6600     8.9470     7.8570    10.4250    20.0600     1.9110  -999.2500 
  268.6250    60.6600     8.9470     7.8570    10.4240    20.0600     1.9120  -999.2500 
  268.7500    60.6600     8.9470     7.8570    10.4200    20.0600     1.9130  -999.2500 
  268.8750    60.6600     8.9470     7.8570    10.4160    20.0600     1.9130  -999.2500 
  269.0000    60.6600     8.9470     7.8570    10.4190    20.0570     1.9120  -999.2500 
  269.1250    60.6600     8.9470     7.8570    10.4210    20.0530     1.9120  -999.2500 
  269.2500    60.6600     8.9470     7.8570    10.4210    20.0510     1.9110  -999.2500 
  269.3750    60.6600     8.9470     7.8570    10.4210    20.0520     1.9120  -999.2500 
  269.5000    60.6600     8.9470     7.8570    10.4160    20.0540     1.9120  -999.2500 
  269.6250    60.6600     8.9470     7.8570    10.4030    20.0520     1.9130  -999.2500 
  269.7500    60.6600     8.9470     7.8570    10.3870    20.0510     1.9020  -999.2500 
  269.8750    60.6600     8.9470     7.8570    10.3790    20.0500  -999.2500  -999.2500 
  270.0000    60.6600     8.9470     7.8570    10.3750    20.0500  -999.2500  -999.2500 
