~V
VERS. 2.00: Ver 2.00
~W
STRT.M 20.0000:
STOP.M 256.0000:
STEP.M 0.1250:
NULL. -999.2500:
UWI. F10201:
~C
DEPT.M :
DEN.GM/CC :
GR.API :
RML.OHMM :
RI. :
RXO.OHMM :
CALI.CM :
SP.MV :
~A
# ...
  222.5000     2.4520    64.9030    44.9270    38.3200    34.3440    24.1930   -28.4990 
  222.6250     2.4330    62.6120    42.5600    36.1070    34.8330    24.0770   -28.5160 
  222.7500     2.4010    62.3230    42.9540    36.1540    33.4480    24.0210   -28.4220 
  222.8750     2.3600    62.5080    46.2080    38.5650    30.2430    24.1160   -28.2970 
  223.0000     2.3210    63.1690    52.3600    43.6070    29.9370    24.3800   -28.1690 
  223.1250     2.3030    63.1310    60.3800    50.9730    37.6690    24.5290   -27.9270 
  223.2500     2.3200    60.1940    65.6480    56.9690    51.9240    24.4930   -27.6580 
  223.3750     2.3720    55.1200    62.2040    56.0330    73.2630    24.2680   -27.4120 
  223.5000     2.4440    50.8080    48.3360    45.3490   103.1020    23.9400   -27.1420 
  223.6250     2.4970    51.0420    31.2270    30.3080    84.8030    23.6220   -26.9500 
  223.7500     2.5080    56.6280    18.6090    18.6120    39.4260    23.5460   -26.9340 
  223.8750     2.4840    65.4500    11.2370    11.4670    15.7400    23.7460   -27.0280 
  224.0000     2.4460    73.3520     7.6010     7.6870     6.8820    24.0150   -27.1960 
  224.1250     2.4230    75.5220     6.4040     6.1190     5.1000    24.1810   -27.4260 
  224.2500     2.4080    73.8260     6.3360     5.6070     5.6250    24.3170   -27.6690 
  224.3750     2.3950    73.6440     6.9410     5.8030     7.5210    24.4310   -27.8960 
  224.5000     2.3830    76.6650     7.8640     6.4600     8.6870    24.4800   -28.0930 
  224.6250     2.3710    78.8520     8.6760     7.2730     8.6540    24.4940   -28.2670 
  224.7500     2.3640    78.5780     9.0870     7.9030     8.7650    24.5110   -28.3400 
  224.8750     2.3680    78.5700     9.0810     8.2210     9.1440    24.5060   -28.2770 
  225.0000     2.3770    82.9870     8.8290     8.2690     9.4620    24.4750   -28.1770 
  225.1250     2.3870    88.2670     8.5440     8.1550     9.3250    24.4600   -28.0500 
  225.2500     2.3920    89.9150     8.3550     7.9980     9.2020    24.4620   -27.9170 
  225.3750     2.3940    90.3840     8.2800     7.8440     9.1860    24.4740   -27.8670 
  225.5000     2.3930    94.6480     8.2950     7.7110     9.1540    24.4800   -27.8830 
  225.6250     2.3920   102.4490     8.3490     7.6040     9.2050    24.4790   -27.9270 
  225.7500     2.3920   108.4520     8.3820     7.5000     9.3330    24.4780   -27.9770 
  225.8750     2.3940   113.7990     8.3810     7.3830     9.4030    24.4880   -28.1170 
  226.0000     2.3980   118.0840     8.3690     7.2420     9.2560    24.5040   -28.2640 
  226.1250     2.4010   116.0980     8.4020     7.0980     9.0180    24.5000   -28.4100 
  226.2500     2.4000   111.1670     8.5370     7.0130     8.8920    24.4830   -28.6170 
  226.3750     2.3930   108.0050     8.8550     7.0640     8.8770    24.4680   -28.8300 
  226.5000     2.3820   105.5550     9.4500     7.3350     8.8960    24.4540   -29.0590 
  226.6250     2.3700    99.0460    10.4790     7.9530     9.1470    24.4130   -29.3200 
  226.7500     2.3590    93.4740    11.9260     8.9060    10.3480    24.2910   -29.6110 
  226.8750     2.3520    91.3170    13.7490    10.1720    12.8070    24.0470   -29.8930 
  227.0000     2.3460    87.0250    13.1840    11.6570    15.4820    23.7560   -30.1720 
  227.1250     2.3390    76.0200    14.9530    13.2060    17.0220    23.5940   -30.3960 
  227.2500     2.3330    67.7570    16.6120    14.6470    18.3220    23.5540   -30.5500 
  227.3750     2.3300    68.1860    18.0830    15.9030    20.1840    23.5680   -30.6960 
  227.5000     2.3300    73.8420    19.3330    16.9590    22.1540    23.5800   -30.7990 
  227.6250     2.3330    75.5860    20.2590    17.7720    23.8180    23.5970   -30.8340 
  227.7500     2.3380    73.5820    20.8230    18.3290    24.8300    23.6010   -30.8420 
  227.8750     2.3440    71.8880    21.0090    18.6050    24.5840    23.5810   -30.8310 
  228.0000     2.3500    72.0210    20.9230    18.6500    22.8710    23.5120   -30.7800 
  228.1250     2.3560    73.3600    20.7780    18.5930    20.4730    23.3700   -30.7340 
  228.2500     2.3610    75.1890    20.7750    18.5940    18.5630    23.2390   -30.7000 
  228.3750     2.3620    76.3470    20.9680    18.7270    18.9120    23.2370   -30.6440 
  228.5000     2.3560    77.2900    21.2900    18.9920    21.0580    23.3610   -30.5320 
  228.6250     2.3470    77.8490    21.5280    19.2820    22.9310    23.5980   -30.3880 
  228.7500     2.3360    76.7830    21.4920    19.4290    22.9650    23.8970   -30.2170 
  228.8750     2.3270    74.4880    21.1250    19.3340    22.3700    24.2110   -29.9480 
  229.0000     2.3230    71.9100    20.5220    19.0030    22.5670    24.4790   -29.5970 
  229.1250     2.3250    69.1390    19.8880    18.5370    22.6170    24.5820   -29.2050 
  229.2500     2.3330    67.4770    19.3840    18.1040    21.9790    24.6100   -28.7630 
  229.3750     2.3450    69.8130    19.0600    17.7900    21.3300    24.6110   -28.2060 
  229.5000     2.3560    76.2830    18.9090    17.6250    21.2020    24.6110   -27.5880 
  229.6250     2.3590    80.3250    18.9310    17.6240    21.1380    24.6130   -26.9510 
  229.7500     2.3490    79.2350    19.0530    17.7340    20.5630    24.6270   -26.2780 
  229.8750     2.3320    76.1840    19.1880    17.9020    19.8620    24.6550   -25.6430 
  230.0000     2.3200    74.8390    19.2010    18.0320    20.3200    24.6570   -25.0840 
  230.1250     2.3240    75.9600    19.0020    18.0010    21.6150    24.6160   -24.5490 
  230.2500     2.3440    76.7500    17.9420    17.3300    21.3500    24.5240   -24.0430 
  230.3750     2.3710    76.1770    16.9480    16.4950    19.9980    24.5190   -23.6460 
  230.5000     2.3910    76.7910    15.9040    15.5230    18.6310    24.5360   -23.3350 
  230.6250     2.3950    79.1780    14.9660    14.5830    17.1500    24.5560   -23.0870 
  230.7500     2.3850    81.6750    14.2970    13.8320    15.7500    24.5690   -22.9430 
  230.8750     2.3670    80.6840    14.1110    13.4510    15.3120    24.5720   -22.8930 
  231.0000     2.3500    75.9900    14.3980    13.4610    15.6330    24.5500   -22.8730 
  231.1250     2.3360    71.4300    15.1420    13.8820    16.2350    24.4820   -22.9030 
  231.2500     2.3280    70.2790    16.2820    14.7050    17.5380    24.3680   -22.9970 
  231.3750     2.3260    69.7240    17.7350    15.9320    20.2650    24.2620   -23.1390 
  231.5000     2.3330    67.3220    19.2730    17.3730    22.4140    24.2150   -23.2560 
  231.6250     2.3530    64.7280    20.6810    18.8320    24.0210    24.2470   -23.3190 
  231.7500     2.3830    63.7650    21.7240    20.0560    26.3170    24.3150   -23.3320 
  231.8750     2.4150    65.2140    22.1040    20.6990    28.8960    24.3910   -23.2580 
  232.0000     2.4320    67.1860    21.8860    20.7390    29.2880    24.4210   -23.1420 
  232.1250     2.4280    69.0770    21.1950    20.2620    26.3700    24.4310   -23.0170 
  232.2500     2.4030    70.8330    20.2040    19.4390    23.6810    24.4360   -22.8300 
  232.3750     2.3700    73.0550    19.0890    18.4500    22.2780    24.4370   -22.5980 
  232.5000     2.3420    74.3240    18.0440    17.4880    21.9260    24.4280   -22.4060 
  232.6250     2.3240    73.6160    17.1890    16.6530    21.1890    24.4140   -22.2410 
  232.7500     2.3160    74.0100    16.5950    15.9870    19.8520    24.4020   -22.0660 
  232.8750     2.3140    77.0000    16.3100    15.5300    18.3480    24.4000   -21.9270 
  233.0000     2.3130    77.6270    16.2440    15.2520    18.9130    24.4100   -21.8190 
  233.1250     2.3120    74.1450    16.3610    15.1610    19.7590    24.4270   -21.7280 
  233.2500     2.3140    70.1950    16.6360    15.2730    19.6860    24.4300   -21.7050 
  233.3750     2.3180    70.6640    17.0460    15.6090    18.9150    24.4220   -21.7420 
  233.5000     2.3250    74.4860    17.4870    16.0550    19.1060    24.4080   -21.7930 
  233.6250     2.3300    77.9650    17.8450    16.4910    19.3130    24.4000   -21.9180 
