~V
VERS. 2.00: Ver 2.00
~W
STRT.M 48.0000:
STOP.M 276.0000:
STEP.M 0.1250:
NULL. -999.2500:
UWI. F10244:
~C
DEPT.M :
GR.API :
RML.OHMM :
RI. :
RXO.OHMM :
CALI.CM :
DEN.GM/CC :
SP.MV :
~A
# ...
  228.0000    84.5390     7.4450     7.3630    10.3830    25.0090     2.3900    -4.2540 
  228.1250    82.3140     8.3050     8.2810    11.2160    25.0270     2.4120    -4.6490 
  228.2500    81.8580     8.9670     9.0820    10.4980    25.0740     2.4190    -4.9390 
  228.3750    86.4040     9.1580     9.4320     9.9100    25.1790     2.4160    -5.1770 
  228.5000    93.1140     9.0140     9.4140     9.8940    25.2730     2.4090    -5.3820 
  228.6250    98.9710     8.7280     9.2010    10.0130    25.3320     2.4030    -5.5330 
  228.7500   102.2370     8.4630     8.9530     9.8980    25.3070     2.4010    -5.6480 
  228.8750   101.8990     8.3110     8.7680     9.8440    25.2440     2.4030    -5.8600 
  229.0000   100.9040     8.2590     8.6420     9.9560    25.2070     2.4090    -6.3130 
  229.1250   101.8240     8.2820     8.5540    10.2490    25.1830     2.4180    -6.9530 
  229.2500   104.9880     8.3500     8.4860    10.5310    25.1550     2.4280    -7.6300 
  229.3750   106.2660     8.4320     8.4280    10.6500    25.1340     2.4360    -8.2420 
  229.5000   105.0630     8.4990     8.3700    10.6200    25.1160     2.4410    -8.8550 
  229.6250   105.7080     8.5380     8.3150    10.5460    25.1010     2.4430    -9.4970 
  229.7500   107.1030     8.5510     8.2700    10.5990    25.0990     2.4420   -10.1520 
  229.8750   107.3880     8.5550     8.2510    10.4480    25.1350     2.4410   -10.6800 
  230.0000   106.5850     8.5710     8.2610    10.3900    25.2080     2.4380   -10.9980 
  230.1250   104.6790     8.6100     8.3050    10.5290    25.2570     2.4330   -11.1950 
  230.2500   103.0350     8.6740     8.3820    10.9790    25.1590     2.4240   -11.4090 
  230.3750   106.3280     8.7520     8.4900    11.0380    25.0640     2.4140   -11.6620 
  230.5000   115.6560     8.8310     8.6160    10.7650    25.0300     2.4070   -11.9240 
  230.6250   123.5540     8.9110     8.7540    10.6830    25.0300     2.4040   -12.1620 
  230.7500   123.6920     9.0100     8.9000    11.0290    25.0070     2.4060   -12.3270 
  230.8750   119.1410     9.1700     9.0750    11.2020    24.9650     2.4110   -12.4800 
  231.0000   116.1410     9.4000     9.2910    11.0030    24.9310     2.4190   -12.6940 
  231.1250   115.0740     9.6800     9.5340    11.0110    24.9410     2.4270   -12.8890 
  231.2500   113.2490     9.9480     9.7460    11.3520    24.9680     2.4360   -12.9960 
  231.3750   110.3770    10.0780     9.8120    12.6220    24.9900     2.4470   -13.0420 
  231.5000   109.4500    10.0000     9.6710    13.5140    24.9700     2.4580   -13.0640 
  231.6250   110.9890     9.7080     9.3080    12.6230    24.9270     2.4690   -13.0740 
  231.7500   111.1060     9.2930     8.7990    11.0180    24.8780     2.4760   -13.0760 
  231.8750   106.3220     8.9640     8.3360    10.5770    24.9420     2.4760   -13.0180 
  232.0000   100.0670     8.9400     8.1510    10.6380    24.9910     2.4690   -12.9310 
  232.1250    96.2370     9.4390     8.4730    10.8900    25.0110     2.4570   -12.9050 
  232.2500    96.1440    10.7260     9.6050    11.9460    25.0080     2.4430   -13.0120 
  232.3750    96.8310    13.5460    12.3800    15.9320    24.9840     2.4320   -13.1930 
  232.5000    93.3730    18.6660    17.5740    26.8560    24.9480     2.4210   -13.3750 
  232.6250    84.5230    27.4770    26.3430    51.4530    24.9270     2.4070   -13.5560 
  232.7500    74.1450    41.2090    39.4330    88.3530    24.9220     2.3850   -13.7610 
  232.8750    68.0880    59.4380    55.9630   100.7300    24.9120     2.3570   -14.0610 
  233.0000    66.3460    77.0740    71.3070   101.5210    24.9230     2.3270   -14.3820 
  233.1250    66.6750    89.7830    81.9920   107.9860    24.9430     2.3010   -14.6410 
  233.2500    66.7860    96.0320    87.3750   113.5370    24.9460     2.2780   -14.8090 
  233.3750    66.6710    96.9600    88.6400   110.9200    24.9390     2.2630   -14.9050 
  233.5000    68.3440    95.7310    87.9640   103.6770    24.9440     2.2550   -15.0020 
  233.6250    69.7670    93.1460    85.8230    98.5140    24.9650     2.2560   -15.1470 
  233.7500    68.7420    89.2940    82.3360   100.4210    24.9580     2.2660   -15.2760 
  233.8750    67.8460    84.3130    77.6780    95.5090    24.9000     2.2810   -15.2880 
  234.0000    70.0800    79.2060    72.7820    86.4810    24.7890     2.2940   -15.2240 
  234.1250    72.7010    75.0050    68.6250    74.3850    24.6860     2.3000   -15.2010 
  234.2500    72.0540    72.7030    66.2160    68.2270    24.6620     2.2980   -15.2520 
  234.3750    69.0640    73.5950    66.8820    64.2350    24.6530     2.2900   -15.3260 
  234.5000    67.7460    77.6240    70.6430    65.6480    24.6290     2.2810   -15.3520 
  234.6250    68.1680    84.5020    77.2580    79.1390    24.5970     2.2760   -15.3670 
  234.7500    67.5980    93.0310    85.5640    99.4590    24.5880     2.2740   -15.4770 
  234.8750    66.1470   100.6020    93.0840   108.0620    24.5840     2.2730   -15.6220 
  235.0000    66.6220   104.9250    97.5700   103.7580    24.5950     2.2710   -15.7390 
  235.1250    69.2810   105.2990    98.2210    93.9060    24.6280     2.2660   -15.8200 
  235.2500    70.5340   102.7240    95.8870    83.1160    24.6420     2.2610   -15.8800 
  235.3750    67.4820    99.2530    92.5640    74.7170    24.6610     2.2580   -16.0010 
  235.5000    63.2740    96.6890    90.1240    69.6100    24.6650     2.2550   -16.1580 
  235.6250    61.6910    95.4790    89.0140    65.4340    24.6540     2.2500   -16.2310 
  235.7500    62.8890    95.3910    89.0000    61.2030    24.6010     2.2440   -16.1700 
  235.8750    63.9210    95.9490    89.6790    61.7570    24.5490     2.2380   -16.1620 
  236.0000    63.3320    96.5450    90.4810    69.0860    24.5040     2.2360   -16.2590 
  236.1250    63.0210    96.8970    91.1190    81.0200    24.5000     2.2400   -16.3680 
  236.2500    63.6600    96.5740    91.3870    84.6940    24.5720     2.2460   -16.4280 
  236.3750    64.3940    95.7500    90.9720    80.3190    24.6930     2.2490   -16.4080 
  236.5000    64.5310    95.8610    89.8410    78.8170    24.8160     2.2480   -16.3470 
  236.6250    62.9890    96.8400    88.0870    79.6980    24.8840     2.2470   -16.3350 
  236.7500    60.8040    97.0420    86.0260    81.3170    24.9070     2.2550   -16.4120 
  236.8750    61.8140    95.2620    84.2350    77.8560    24.8860     2.2820   -16.4600 
  237.0000    66.4490    93.2250    83.1790    74.8820    24.8730     2.3210   -16.3840 
  237.1250    72.1520    92.3090    83.0560    72.4590    24.8460     2.3610   -16.2710 
  237.2500    75.8000    92.3140    83.7620    73.1010    24.7650     2.3840   -16.2100 
  237.3750    76.6580    92.6010    84.8220    75.9850    24.6230     2.3800   -16.1720 
  237.5000    76.7490    92.3990    85.4200    86.7840    24.5530     2.3550   -16.1340 
  237.6250    79.1730    91.2700    85.0750    87.3030    24.5430     2.3160   -16.0530 
  237.7500    83.3370    89.1150    83.7230    78.4370    24.5670     2.2700   -15.9610 
  237.8750    82.6560    85.9750    81.4400    74.8800    24.6240     2.2310   -15.8780 
  238.0000    75.9050    82.2850    78.5460    73.3910    24.7160     2.2140   -15.7830 
  238.1250    69.7280    78.3740    75.2460    67.9790    24.8310     2.2280   -15.6650 
  238.2500    69.5790    74.6870    71.8930    73.4970    24.9920     2.2660   -15.5580 
  238.3750    74.7360    72.0260    69.1900    65.8640    25.1120     2.3060   -15.4710 
  238.5000    78.0610    70.9550    67.8450    53.7080    25.1480     2.3230   -15.4330 
  238.6250    75.8840    72.0300    68.5710    44.7190    25.1460     2.3120   -15.4250 
  238.7500    69.0060    75.6200    71.8240    48.2890    25.2170     2.2840   -15.3240 
  238.8750    62.5490    82.0570    77.9210    59.7490    25.3700     2.2570   -15.2150 
  239.0000    60.9910    89.9690    85.5460    70.6390    25.5620     2.2400   -15.2400 
  239.1250    63.3290    97.5800    93.0920    71.6290    25.6290     2.2330   -15.3480 
