~V
VERS. 2.00: Ver 2.00
~W
STRT.M 60.0000:
STOP.M 271.0000:
STEP.M 0.1250:
NULL. -999.2500:
UWI. F10237:
~C
DEPT.M :
GR.API :
RML.OHMM :
RI. :
RXO.OHMM :
CALI.CM :
DEN.GM/CC :
SP.MV :
~A
# ...
  116.2500    70.5060     8.5780     7.0120     6.5610    22.5520     2.1760   -14.4250 
  116.3750    65.1010     8.5130     6.9570     6.7260    22.5490     2.1820   -14.2090 
  116.5000    63.7090     8.3470     6.8400     6.8700    22.5240     2.1860   -14.0060 
  116.6250    66.3120     8.0420     6.6630     6.7710    22.4430     2.1870   -13.7810 
  116.7500    68.6680     7.7010     6.4830     6.7230    22.3190     2.1890   -13.5380 
  116.8750    70.2500     7.4800     6.3710     6.9340    22.2170     2.1940   -13.2670 
  117.0000    72.5420     7.5610     6.4320     7.2270    22.1220     2.1980   -13.0140 
  117.1250    74.7940     8.1460     6.8360     7.5410    22.0880     2.2040   -12.8170 
  117.2500    73.7810     9.1450     7.5980     7.7940    22.1300     2.2190   -12.6140 
  117.3750    68.6080    10.3850     8.6610     8.9130    22.2060     2.2410   -12.3500 
  117.5000    61.5350    11.5540     9.8260    10.8400    22.2880     2.2540   -12.0310 
  117.6250    55.6810    12.0900    10.6390    11.9320    22.4400     2.2370   -11.7260 
  117.7500    52.2770    11.7630    10.7630    10.2980    22.7040     2.2030   -11.3980 
  117.8750    53.7730    10.6580    10.1300     8.2940    23.1070     2.1800   -11.0420 
  118.0000    59.9780     9.1330     8.9620     7.3950    23.5500     2.1870   -10.6820 
  118.1250    65.6900     7.6020     7.5920     7.1020    23.9340     2.2230   -10.2900 
  118.2500    70.2730     6.2970     6.3140     6.4680    24.2150     2.2670    -9.8570 
  118.3750    75.5780     5.2620     5.2360     5.1920    24.3970     2.3050    -9.4160 
  118.5000    83.8880     4.4720     4.3900     4.0760    24.4950     2.3330    -9.0040 
  118.6250    94.1690     3.9260     3.8000     3.6120    24.6170     2.3470    -8.6620 
  118.7500   101.7150     3.5850     3.4160     3.5770    24.7500     2.3500    -8.4160 
  118.8750   105.5880     3.4610     3.2390     3.6280    24.8530     2.3410    -8.1980 
  119.0000   105.4490     3.5720     3.2800     3.4400    24.9410     2.3240    -7.9930 
  119.1250   102.8640     3.9860     3.5940     3.6720    24.9450     2.3020    -7.9170 
  119.2500    96.4980     4.6510     4.1430     4.1830    24.7270     2.2880    -8.0280 
  119.3750    84.4890     5.4940     4.8810     5.4520    24.3140     2.2840    -8.2490 
  119.5000    71.3500     6.3480     5.6950     7.1620    23.8950     2.2880    -8.4380 
  119.6250    65.3360     6.9090     6.3480     7.7590    23.6810     2.2920    -8.5980 
  119.7500    67.7140     7.0400     6.6630     7.2390    23.6610     2.2940    -8.7850 
  119.8750    72.5980     6.7980     6.6130     6.1790    23.7940     2.2950    -8.9650 
  120.0000    73.6680     6.3850     6.3190     5.6020    23.9800     2.2950    -9.0760 
  120.1250    71.1940     6.0140     5.9530     5.6000    24.0760     2.3020    -9.1350 
  120.2500    69.5790     5.7610     5.6390     5.5880    24.0480     2.3210    -9.1520 
  120.3750    71.7270     5.6150     5.4120     5.4330    23.9730     2.3430    -9.1080 
  120.5000    76.4140     5.5450     5.2750     5.5990    23.9440     2.3520    -9.0270 
  120.6250    77.1640     5.5600     5.2340     5.3110    23.9950     2.3360    -8.9570 
  120.7500    73.2180     5.6660     5.2800     4.9450    23.9670     2.3030    -8.9200 
  120.8750    68.1850     5.8600     5.4060     5.0060    23.8250     2.2690    -8.9310 
  121.0000    65.9250     6.1130     5.5890     5.7580    23.6350     2.2430    -8.9690 
  121.1250    66.5700     6.4180     5.8110     6.3840    23.5210     2.2390    -8.9950 
  121.2500    68.5040     6.8330     6.0980     6.4570    23.4960     2.2570    -9.0130 
  121.3750    67.7790     7.4540     6.5310     6.3120    23.5820     2.2940    -9.0300 
  121.5000    60.3110     8.3280     7.1740     6.5070    23.7060     2.3490    -9.0290 
  121.6250    50.4680     9.3570     8.0290     9.0480    23.8670     2.4210    -8.9780 
  121.7500    46.4700    10.2130     8.8620    13.8310    24.0500     2.4890    -8.8540 
  121.8750    47.7310    10.6000     9.3960    17.3400    24.3200     2.5190    -8.6680 
  122.0000    49.5390    10.4580     9.4830    15.8910    24.6380     2.5020    -8.4590 
  122.1250    48.9110    10.1970     9.3180    10.2010    24.7570     2.4830    -8.2220 
  122.2500    49.5400    10.4980     9.4280     8.0500    24.7600     2.4990    -7.9810 
  122.3750    50.9070    11.8000    10.2100     9.3680    24.7280     2.5460    -7.7670 
  122.5000    49.8240    15.7260    11.9370    14.7630    24.6520     2.5920    -7.5950 
  122.6250    44.5440    19.8000    14.8800    21.8670    24.6170     2.6090    -7.4110 
  122.7500    38.3920    24.2460    18.5310    25.6390    24.6470     2.6100    -7.2770 
  122.8750    34.8170    27.9150    22.0590    25.8610    24.7620     2.6140    -7.2330 
  123.0000    34.7360    29.8480    24.4930    24.2040    24.8240     2.6240    -7.2250 
  123.1250    35.5410    29.8280    25.2530    23.2560    24.7930     2.6300    -7.1850 
  123.2500    35.0150    29.0090    25.0800    23.4940    24.7400     2.6270    -7.1590 
  123.3750    33.9120    28.0350    24.5120    23.3920    24.7380     2.6190    -7.1750 
  123.5000    34.4020    27.1810    23.8470    23.6360    24.8010     2.6120    -7.2220 
  123.6250    35.8730    26.5000    23.1940    23.5610    24.8540     2.6050    -7.2810 
  123.7500    36.0660    25.9250    22.5740    23.4580    24.8690     2.5920    -7.3250 
  123.8750    36.1320    25.4580    22.0290    22.7530    24.8160     2.5690    -7.3840 
  124.0000    38.3340    25.1360    21.6340    20.6700    24.6490     2.5430    -7.4380 
  124.1250    39.4750    25.0120    21.4780    19.2540    24.3910     2.5260    -7.5130 
  124.2500    38.6470    25.0130    21.5040    19.0480    24.1530     2.5230    -7.5780 
  124.3750    39.0920    25.0490    21.6290    21.0230    24.1630     2.5290    -7.6230 
  124.5000    44.2770    25.0250    21.7440    22.0170    24.4300     2.5370    -7.6640 
  124.6250    49.4200    24.9340    21.7590    21.1730    24.6650     2.5390    -7.6880 
  124.7500    49.0210    24.9340    21.7580    19.2860    24.7840     2.5420    -7.6760 
  124.8750    46.2490    25.1780    21.8810    19.3910    24.8160     2.5500    -7.6430 
  125.0000    45.2410    25.7000    22.2140    20.6150    24.8360     2.5670    -7.6510 
  125.1250    44.2060    26.3620    22.7210    23.2870    24.7930     2.5880    -7.6340 
  125.2500    40.3990    26.8360    23.1690    26.7120    24.7380     2.6030    -7.5580 
  125.3750    35.8180    26.8610    23.3280    27.7860    24.6860     2.6000    -7.4820 
  125.5000    32.9540    26.3610    23.0700    24.3010    24.6090     2.5830    -7.4560 
  125.6250    34.2900    25.5310    22.4740    19.4390    24.5150     2.5640    -7.4600 
  125.7500    38.6640    24.8110    21.8930    16.9630    24.4670     2.5550    -7.4500 
  125.8750    42.2940    24.4370    21.5450    16.8640    24.5100     2.5550    -7.4330 
  126.0000    41.9060    24.4210    21.4990    18.0580    24.5780     2.5620    -7.4250 
  126.1250    39.4550    24.5540    21.6530    19.5200    24.5990     2.5680    -7.4290 
  126.2500    39.6100    24.4870    21.7150    20.5560    24.5800     2.5690    -7.4280 
  126.3750    40.5210    24.0310    21.4790    20.1330    24.5490     2.5600    -7.4340 
  126.5000    38.8960    23.2020    20.8940    18.4170    24.5250     2.5430    -7.4400 
  126.6250    36.0590    22.2260    20.0830    15.9940    24.5360     2.5290    -7.4280 
  126.7500    33.8290    21.3890    19.3080    15.5580    24.6020     2.5240    -7.3830 
  126.8750    31.9840    20.7860    18.6970    15.9690    24.6610     2.5240    -7.3320 
  127.0000    31.9520    20.3970    18.2900    15.3530    24.6860     2.5270    -7.2810 
  127.1250    35.0280    20.1670    18.1120    14.8810    24.7130     2.5370    -7.2530 
  127.2500    39.0300    19.9890    18.0790    15.2310    24.6930     2.5540    -7.2110 
  127.3750    42.2810    19.8330    18.1220    15.6020    24.6360     2.5710    -7.1340 
