~V
VERS. 2.00: Ver 2.00
~W
STRT.M 53.0000:
STOP.M 282.0000:
STEP.M 0.1250:
NULL. -999.2500:
UWI. F10240:
~C
DEPT.M :
GR.API :
RML.OHMM :
RI. :
RXO.OHMM :
CALI.CM :
DEN.GM/CC :
SP.MV :
~A
# ...
   98.0000    62.5090    12.5050     8.6700    11.9260    24.8150     2.1220   -25.6240 
   98.1250    61.5510    12.6220     8.8170    12.2610    24.7650     2.1150   -25.9220 
   98.2500    62.4230    12.8790     9.0320    12.2720    24.6940     2.1130   -26.2660 
   98.3750    63.6410    13.2970     9.3340    12.5940    24.6370     2.1180   -26.6180 
   98.5000    62.5040    13.8860     9.7410    13.5470    24.6010     2.1270   -26.8930 
   98.6250    61.0400    14.5570    10.2070    13.9370    24.5670     2.1340   -27.1440 
   98.7500    61.8040    15.1670    10.6530    14.2080    24.6070     2.1400   -27.3710 
   98.8750    62.9130    15.5150    10.9490    15.3350    24.7060     2.1480   -27.4860 
   99.0000    62.6760    15.3090    10.8880    18.5950    24.8110     2.1690   -27.4160 
   99.1250    63.0740    14.5680    10.4570    20.4650    24.8370     2.2000   -27.2120 
   99.2500    65.1860    13.4390     9.7330    16.0490    24.9020     2.2350   -26.8880 
   99.3750    68.2460    12.2230     8.8980    11.4660    25.0670     2.2630   -26.5040 
   99.5000    70.7200    11.3240     8.2050     9.8240    25.2430     2.2680   -26.1560 
   99.6250    73.0890    10.9170     7.7980     9.6780    25.3170     2.2500   -25.9000 
   99.7500    76.2750    11.0480     7.7420     9.8450    25.3370     2.2200   -25.8000 
   99.8750    78.4240    11.6600     8.0440    10.1160    25.2550     2.1890   -25.9070 
  100.0000    75.4870    12.6370     8.6950    10.9930    24.9830     2.1700   -26.2670 
  100.1250    67.9530    13.6780     9.5120    12.6740    24.5730     2.1620   -26.8140 
  100.2500    62.3860    14.5500    10.3260    14.3230    24.2660     2.1590   -27.4840 
  100.3750    62.2860    15.0850    10.9700    15.6470    24.1320     2.1560   -28.2030 
  100.5000    63.7010    15.1890    11.2870    16.0960    24.1240     2.1550   -28.8970 
  100.6250    62.2980    15.0460    11.3370    15.7930    24.1200     2.1580   -29.5400 
  100.7500    60.1250    14.8140    11.2120    15.3450    24.1260     2.1630   -30.0630 
  100.8750    60.8830    14.6060    11.0080    15.3250    24.1180     2.1680   -30.4190 
  101.0000    63.5010    14.4510    10.7770    15.0310    24.1260     2.1700   -30.6420 
  101.1250    65.2070    14.2960    10.5260    14.4900    24.1480     2.1690   -30.7800 
  101.2500    65.4570    14.1010    10.2430    13.9480    24.1960     2.1670   -30.8070 
  101.3750    64.3590    13.8310     9.9220    13.6430    24.2100     2.1650   -30.7740 
  101.5000    62.5300    13.4290     9.5560    13.4980    24.1180     2.1660   -30.7250 
  101.6250    62.1850    12.9380     9.1760    13.3910    23.8810     2.1690   -30.6070 
  101.7500    62.5020    12.5400     8.8730    13.5670    23.6180     2.1740   -30.4050 
  101.8750    60.8170    12.6010     8.8230    13.9580    23.5190     2.1780   -30.1770 
  102.0000    57.5710    13.8010     9.3710    14.3120    23.6810     2.1950   -29.9450 
  102.1250    58.1480    16.3980    10.7040    16.1740    24.0170     2.2400   -29.7040 
  102.2500    63.0860    20.4520    13.0020    23.2890    24.4860     2.3120   -29.4630 
  102.3750    69.4970    25.3960    16.1800    46.3770    25.0670     2.3930   -29.2500 
  102.5000    72.6660    29.2000    19.2770    67.2730    25.4210     2.4360   -29.1300 
  102.6250    70.6530    29.7440    20.6150    55.8040    25.4710     2.4210   -29.1280 
  102.7500    66.0770    26.7160    19.5140    28.2110    25.2560     2.3670   -29.2690 
  102.8750    61.6240    21.9240    16.8670    16.8500    24.9400     2.2910   -29.5380 
  103.0000    57.6660    17.8120    14.1840    14.4420    24.6550     2.2190   -29.9130 
  103.1250    56.1500    15.2500    12.2350    14.2990    24.5450     2.1590   -30.3470 
  103.2500    58.7110    14.1060    11.0950    14.5930    24.5210     2.1180   -30.8210 
  103.3750    62.9830    13.9350    10.6210    14.7730    24.5010     2.0950   -31.3150 
  103.5000    63.1340    14.3020    10.6450    14.7820    24.4880     2.0890   -31.7300 
  103.6250    60.6290    14.7330    10.8470    14.9120    24.4840     2.0900   -32.0290 
  103.7500    59.7770    15.0210    11.0490    15.2000    24.4760     2.0920   -32.2050 
  103.8750    61.1240    15.0860    11.1480    15.1140    24.4290     2.0930   -32.2860 
  104.0000    61.4640    14.9230    11.1010    14.8800    24.3710     2.0940   -32.2100 
  104.1250    60.0280    14.6590    10.9700    14.7780    24.3000     2.0970   -32.0420 
  104.2500    59.6450    14.3850    10.8060    14.8960    24.2950     2.1010   -31.8560 
  104.3750    62.1980    14.1710    10.6510    14.9300    24.3240     2.1050   -31.6090 
  104.5000    65.0440    14.0620    10.5430    14.6600    24.3540     2.1110   -31.2940 
  104.6250    66.2960    14.0240    10.4850    14.4050    24.3390     2.1230   -30.9780 
  104.7500    66.4230    14.0060    10.4640    14.3150    24.2900     2.1440   -30.6900 
  104.8750    65.3800    13.9440    10.4490    14.3940    24.2500     2.1700   -30.4260 
  105.0000    64.9230    13.7770    10.4060    14.7670    24.2550     2.1920   -30.1840 
  105.1250    66.1480    13.5510    10.3360    15.7180    24.2760     2.2010   -29.9530 
  105.2500    67.2690    13.3630    10.2800    16.3140    24.3340     2.1910   -29.7280 
  105.3750    67.0610    13.3440    10.2980    16.3270    24.4000     2.1660   -29.5180 
  105.5000    66.2210    13.6380    10.4740    15.9670    24.4820     2.1340   -29.3040 
  105.6250    65.1060    14.1170    10.7590    15.9590    24.5730     2.1070   -29.0450 
  105.7500    63.6770    14.4770    10.9840    16.2930    24.6150     2.0910   -28.7170 
  105.8750    64.2830    14.2860    10.8680    16.8570    24.5500     2.0920   -28.3100 
  106.0000    67.2780    13.1140    10.0790    16.9960    24.5110     2.1200   -27.8220 
  106.1250    69.5260    11.3400     8.8350    15.1050    24.5420     2.1670   -27.2970 
  106.2500    72.4100     9.5370     7.5020    10.6660    24.6490     2.2220   -26.7310 
  106.3750    77.9850     8.2210     6.4190     7.0910    24.8120     2.2650   -26.1810 
  106.5000    82.3780     7.7640     5.8460     6.3130    24.8520     2.2810   -25.8220 
  106.6250    80.7880     8.0140     5.7350     7.4210    24.6930     2.2730   -25.7020 
  106.7500    75.3740     8.8210     6.0440     9.5930    24.4720     2.2510   -25.7830 
  106.8750    71.1000     9.9880     6.7010    11.3340    24.3040     2.2230   -26.0350 
  107.0000    70.1810    11.2730     7.6040    11.9060    24.2660     2.1940   -26.5160 
  107.1250    70.7000    12.4560     8.5530    12.3450    24.2550     2.1670   -27.1250 
  107.2500    70.7200    13.4760     9.4400    13.3110    24.2550     2.1460   -27.8260 
  107.3750    69.4580    14.3500    10.2130    14.8390    24.2630     2.1330   -28.5810 
  107.5000    67.0020    15.0510    10.8210    16.1720    24.2940     2.1290   -29.2710 
  107.6250    63.8880    15.5570    11.2550    16.7100    24.3440     2.1290   -29.8420 
  107.7500    60.0160    15.8520    11.5000    16.8060    24.3960     2.1300   -30.2890 
  107.8750    57.3300    16.0140    11.5950    16.7880    24.4180     2.1270   -30.6390 
  108.0000    57.0300    16.2110    11.6370    16.8390    24.4330     2.1180   -30.8530 
  108.1250    56.6190    16.5430    11.7240    16.9470    24.4020     2.1100   -30.9470 
  108.2500    56.7930    16.9660    11.8660    16.9600    24.3280     2.1110   -30.9550 
  108.3750    59.0060    17.3310    12.0010    16.8000    24.2630     2.1260   -30.8900 
  108.5000    61.0030    17.3930    12.0020    16.5280    24.2170     2.1440   -30.7570 
  108.6250    59.9320    17.1010    11.8150    16.1960    24.1670     2.1530   -30.5700 
  108.7500    59.0790    16.5450    11.4690    15.5370    24.1270     2.1490   -30.3410 
  108.8750    61.1250    15.9330    11.0710    14.6860    24.1180     2.1370   -30.0910 
  109.0000    62.4330    15.5200    10.7720    14.2990    24.1230     2.1270   -29.8210 
  109.1250    62.8130    15.3770    10.6380    14.5470    24.1220     2.1210   -29.5520 
