~V
VERS. 2.00: Ver 2.00
~W
STRT.M 57.0000:
STOP.M 281.0000:
STEP.M 0.1250:
NULL. -999.2500:
UWI. F10238:
~C
DEPT.M :
GR.API :
RML.OHMM :
RI. :
RXO.OHMM :
CALI.CM :
DEN.GM/CC :
SP.MV :
~A
# ...
  102.0000    64.3920    16.6150    11.7970    13.4830    23.5950     2.1750   -21.3180 
  102.1250    63.9240    16.0760    11.6090    12.4460    23.5170     2.1630   -21.3100 
  102.2500    64.0670    15.2830    11.1630    11.5990    23.4490     2.1580   -21.3240 
  102.3750    64.2310    14.5480    10.6550    11.2160    23.4070     2.1730   -21.3340 
  102.5000    63.1100    13.9730    10.1890    11.5970    23.3850     2.2110   -21.3380 
  102.6250    60.6630    13.4370     9.7290    13.1300    23.4020     2.2700   -21.3200 
  102.7500    59.9430    12.7720     9.1930    15.7290    23.4830     2.3310   -21.2860 
  102.8750    63.6020    11.9630     8.5800    16.3750    23.6090     2.3650   -21.2440 
  103.0000    69.9590    11.2490     8.0230    12.5930    23.7270     2.3580   -21.2150 
  103.1250    75.2760    10.9250     7.6910     8.6170    23.7840     2.3160   -21.2450 
  103.2500    76.2410    11.2290     7.7380     7.1640    23.7430     2.2580   -21.3620 
  103.3750    73.5450    12.1500     8.2100     8.2870    23.6410     2.2010   -21.5800 
  103.5000    70.5090    13.3560     8.9720    10.1840    23.5650     2.1600   -21.8660 
  103.6250    68.1830    14.4480     9.8140    11.1470    23.5380     2.1360   -22.2090 
  103.7500    66.7540    15.0120    10.4300    11.1870    23.5350     2.1280   -22.5920 
  103.8750    66.6210    14.9130    10.6150    11.0070    23.5320     2.1300   -22.9980 
  104.0000    66.8450    14.4400    10.4500    10.8000    23.5190     2.1360   -23.3950 
  104.1250    64.9840    13.9170    10.1280    10.4450    23.4940     2.1450   -23.7400 
  104.2500    61.5520    13.5850     9.8400    10.0780    23.4680     2.1570   -24.0030 
  104.3750    60.6900    13.5020     9.6780     9.9700    23.4380     2.1690   -24.1920 
  104.5000    63.4300    13.5640     9.6210    10.1730    23.3800     2.1810   -24.3440 
  104.6250    65.3330    13.6440     9.6100    10.4990    23.2710     2.1920   -24.4900 
  104.7500    63.6570    13.6080     9.5730    10.5330    23.1510     2.1940   -24.6430 
  104.8750    60.8260    13.3980     9.4610    10.1920    23.1610     2.1830   -24.8150 
  105.0000    58.8050    13.0690     9.2840     9.8470    23.3670     2.1640   -25.0000 
  105.1250    56.6290    12.7210     9.0830     9.7660    23.6180     2.1440   -25.1940 
  105.2500    54.4650    12.4700     8.9240     9.8840    23.7610     2.1340   -25.3850 
  105.3750    53.6300    12.3900     8.8700     9.9390    23.7930     2.1380   -25.5670 
  105.5000    53.7120    12.4710     8.9410     9.8600    23.7380     2.1520   -25.7280 
  105.6250    54.4950    12.6750     9.1220     9.8560    23.6280     2.1680   -25.8560 
  105.7500    57.9380    12.9290     9.3560    10.2360    23.5220     2.1750   -25.9490 
  105.8750    62.7860    13.1230     9.5560    10.8800    23.4550     2.1720   -25.9970 
  106.0000    64.3120    13.1550     9.6350    11.0470    23.4240     2.1620   -26.0240 
  106.1250    61.5430    12.9900     9.5560    10.5480    23.4120     2.1510   -26.0310 
  106.2500    57.3360    12.6710     9.3420     9.9680    23.4100     2.1490   -26.0320 
  106.3750    54.8950    12.3040     9.0650     9.5540    23.4100     2.1570   -26.0260 
  106.5000    54.7230    11.9970     8.8080     9.3160    23.4100     2.1680   -26.0230 
  106.6250    55.7340    11.7870     8.6060     9.4280    23.4100     2.1770   -26.0250 
  106.7500    56.3310    11.6600     8.4620     9.8570    23.4120     2.1760   -26.0350 
  106.8750    56.1060    11.5870     8.3600     9.9190    23.4240     2.1660   -26.0440 
  107.0000    55.8670    11.5600     8.2890     9.3660    23.4640     2.1540   -26.0270 
  107.1250    55.0370    11.5880     8.2590     9.0440    23.5270     2.1430   -25.9940 
  107.2500    53.6630    11.6690     8.2760     9.0260    23.5770     2.1370   -25.9390 
  107.3750    52.5590    11.7690     8.3270     9.0430    23.5800     2.1360   -25.8540 
  107.5000    52.3580    11.8450     8.3840     9.0730    23.5220     2.1360   -25.7390 
  107.6250    53.5000    11.8820     8.4290     9.1110    23.4370     2.1380   -25.5900 
  107.7500    55.3780    11.9110     8.4630     9.0360    23.3560     2.1410   -25.4090 
  107.8750    55.9220    11.9900     8.5100     8.8450    23.2800     2.1460   -25.2000 
  108.0000    54.5240    12.1450     8.5880     8.7040    23.2170     2.1540   -24.9910 
  108.1250    53.5360    12.3430     8.6930     8.9200    23.1540     2.1590   -24.7790 
  108.2500    54.9980    12.4880     8.7820     9.4190    23.0990     2.1580   -24.5810 
  108.3750    57.6260    12.4750     8.7970     9.6780    23.1090     2.1500   -24.4110 
  108.5000    59.7280    12.2720     8.7040     9.4510    23.1920     2.1400   -24.2470 
  108.6250    62.2100    11.9280     8.5140     9.1030    23.3080     2.1320   -24.0880 
  108.7500    65.1380    11.5740     8.2890     8.8950    23.3840     2.1310   -23.9310 
  108.8750    65.5730    11.3610     8.1140     8.9140    23.4090     2.1410   -23.7910 
  109.0000    61.9900    11.3810     8.0580     8.9750    23.4250     2.1620   -23.6510 
  109.1250    58.2370    11.6510     8.1520     9.0850    23.4610     2.1910   -23.5040 
  109.2500    59.2850    12.1110     8.3850     9.5530    23.4980     2.2150   -23.3330 
  109.3750    63.1240    12.6140     8.6900    10.3370    23.4790     2.2210   -23.1410 
  109.5000    63.8630    12.9690     8.9450    10.9820    23.3850     2.2080   -22.9630 
  109.6250    61.6590    13.0440     9.0490    11.2260    23.2460     2.1830   -22.8090 
  109.7500    60.7820    12.7840     8.9390    10.8270    23.1880     2.1590   -22.6800 
  109.8750    62.3930    12.2850     8.6490     9.9280    23.3100     2.1410   -22.5550 
  110.0000    63.6360    11.7680     8.3070     9.0410    23.5300     2.1300   -22.4080 
  110.1250    64.1720    11.4440     8.0380     8.7580    23.6750     2.1260   -22.2360 
  110.2500    65.5330    11.5320     7.9830     9.1720    23.5920     2.1270   -22.0310 
  110.3750    66.5250    12.1640     8.2480     9.7400    23.3370     2.1330   -21.7960 
  110.5000    65.5480    13.2690     8.8370    10.3410    23.1650     2.1380   -21.5190 
  110.6250    64.4340    14.6400     9.6740    11.2720    23.2240     2.1380   -21.2010 
  110.7500    64.2570    15.8330    10.5380    12.4420    23.4460     2.1280   -20.8410 
  110.8750    63.5020    16.3180    11.0920    13.2700    23.6540     2.1120   -20.4360 
  111.0000    61.7010    15.8590    11.0950    13.0580    23.7560     2.1030   -20.0110 
  111.1250    60.3460    14.6300    10.5550    11.8150    23.7600     2.1070   -19.5520 
  111.2500    59.9090    13.1950     9.7490    10.6360    23.7560     2.1260   -19.0550 
  111.3750    61.3110    12.1620     9.0500    10.1650    23.7790     2.1480   -18.4990 
  111.5000    66.0220    11.7880     8.6850     9.8270    23.8030     2.1560   -17.9010 
  111.6250    72.2700    12.0010     8.6870     9.5770    23.8100     2.1450   -17.2690 
  111.7500    75.3750    12.4770     8.9280    10.2380    23.8170     2.1240   -16.6200 
  111.8750    74.5450    12.7500     9.1390    11.5530    23.8190     2.1100   -15.9590 
  112.0000    75.4630    12.4830     9.0540    11.8160    23.8190     2.1160   -15.2920 
  112.1250    81.2130    11.6410     8.5850    10.3230    23.8450     2.1420   -14.6330 
  112.2500    88.3220    10.4680     7.8330     8.1060    23.9300     2.1770   -14.0160 
  112.3750    91.7740     9.3270     7.0190     6.8100    24.0550     2.2140   -13.4770 
  112.5000    92.0800     8.4370     6.3200     6.6400    24.1590     2.2470   -13.0220 
  112.6250    92.5710     7.8120     5.7790     6.4440    24.2260     2.2770   -12.6460 
  112.7500    94.0500     7.3670     5.3750     5.9590    24.2500     2.3000   -12.3460 
  112.8750    95.2410     7.0240     5.0730     5.6480    24.2190     2.3140   -12.1350 
  113.0000    95.3070     6.7770     4.8570     5.4880    24.1600     2.3170   -12.0350 
  113.1250    94.2020     6.7060     4.7590     5.3860    24.1060     2.3140   -12.0580 
