~V
VERS. 2.00: Ver 2.00
~W
STRT.M 52.0000:
STOP.M 254.0000:
STEP.M 0.1250:
NULL. -999.2500:
UWI. F10213:
~C
DEPT.M :
DEN.GM/CC :
GR.API :
RML.OHMM :
RI. :
RXO.OHMM :
CALI.CM :
SP.MV :
~A
# ...
  243.2500     2.3120    58.5510     9.9280     9.4790    11.8010    24.9980   -12.4450 
  243.3750     2.3070    58.5510    10.3740     9.8830    12.3640    24.9800   -12.3790 
  243.5000     2.3390    58.5510    10.8100    10.3420    13.4630    24.9520   -12.3110 
  243.6250     2.4010    58.5510    10.9880    10.6310    14.5220    24.9480   -12.2180 
  243.7500     2.4520    58.5510    10.8330    10.6200    13.9810    24.9440   -12.1280 
  243.8750     2.4660    58.5510    10.4070    10.3180    12.4590    24.9640   -12.0930 
  244.0000     2.4530    58.5510     9.8810     9.8510    11.7070    24.9890   -12.1150 
  244.1250     2.4410    58.5510     9.4620     9.4070    12.9270    24.9630   -12.1370 
  244.2500     2.4380    58.5510     9.2340     9.1040    15.1370    24.8740   -12.1490 
  244.3750     2.4370    58.5510     9.1850     8.9660    14.5420    24.7250   -12.1570 
  244.5000     2.4300    58.5510     9.2570     8.9630    10.8100    24.6360   -12.1580 
  244.6250     2.4180    58.5510     9.3820     9.0500     9.1500    24.6610   -12.1800 
  244.7500     2.4010    58.5510     9.5140     9.1680     8.9550    24.7540   -12.2440 
  244.8750     2.3800    58.5510     9.6520     9.3040     8.8270    24.7900   -12.3260 
  245.0000     2.3620    58.5510     9.8200     9.4670     8.3780    24.7680   -12.3780 
  245.1250     2.3620    58.5510    10.0530     9.6860     8.6070    24.7420   -12.4330 
  245.2500     2.3840    58.5510    10.3610     9.9740     9.4080    24.6840   -12.5000 
  245.3750     2.4200    58.5510    10.7440    10.3340    10.2480    24.4950   -12.5580 
  245.5000     2.4510    58.5510    11.1870    10.7590    10.8030    24.2710   -12.5980 
  245.6250     2.4600    58.5510    11.6500    11.2200    10.6200    24.2380   -12.6390 
  245.7500     2.4550    58.5510    12.0800    11.6590    10.1100    24.4690   -12.6400 
  245.8750     2.4510    58.5510    12.4520    12.0440    10.0770    24.7810   -12.5920 
  246.0000     2.4550    58.5510    12.7690    12.3720    11.0940    24.9500   -12.5610 
  246.1250     2.4660    58.5510    13.0480    12.6630    13.7400    24.9800   -12.5460 
  246.2500     2.4770    58.5510    13.3010    12.9470    16.8900    24.9780   -12.4940 
  246.3750     2.4860    58.5510    13.5130    13.2160    18.3500    24.9750   -12.4420 
  246.5000     2.4950    58.5510    13.6630    13.4440    19.1810    24.9690   -12.4150 
  246.6250     2.5000    58.5510    13.7350    13.5880    19.3300    24.9650   -12.3790 
  246.7500     2.4990    58.5510    13.7590    13.6610    17.4890    24.9590   -12.2860 
  246.8750     2.4900    58.5510    13.7630    13.6740    15.1180    24.9540   -12.1800 
  247.0000     2.4770    58.5510    13.7660    13.6350    14.5550    24.9390   -12.0610 
  247.1250     2.4580    58.5510    13.7780    13.5420    14.9000    24.9410   -11.9140 
  247.2500     2.4370    58.5510    13.7900    13.4260    15.1390    24.9480   -11.8100 
  247.3750     2.4230    58.5510    13.8000    13.3170    15.1150    24.9630   -11.7290 
  247.5000     2.4260    58.5510    13.8220    13.2420    14.8950    24.9640   -11.6390 
  247.6250     2.4480    58.5510    13.8720    13.2140    13.9350    24.9440   -11.5950 
  247.7500     2.4700    58.5510    13.9380    13.2080    12.8290    24.9400   -11.5910 
  247.8750     2.4790    58.5510    13.9970    13.2080    13.3720    24.9590   -11.6040 
  248.0000     2.4760    58.5510    14.0200    13.2070    15.3380    24.9760   -11.6390 
  248.1250     2.4620    58.5510    13.9990    13.2070    16.8210    24.9770   -11.7220 
  248.2500     2.4430    58.5510    13.9670    13.2100    16.9410    24.9590   -11.8320 
  248.3750     2.4220    58.5510    13.9430    13.2170    17.7010    24.9280   -11.9640 
  248.5000     2.4100    58.5510    13.9250    13.2300    17.8570    24.9080   -12.1150 
  248.6250     2.4120    58.5510    13.9050    13.2510    16.4400    24.8930   -12.2440 
  248.7500     2.4200    58.5510    13.8910    13.2660    15.6200    24.8720   -12.3600 
  248.8750     2.4320    58.5510    13.8910    13.2660    15.0590    24.8590   -12.4710 
  249.0000     2.4490    58.5510    13.8910    13.2660    14.4880    24.8730   -12.5850 
  249.1250     2.4710    58.5510    13.8910    13.2660    13.5470    24.8590   -12.6710 
  249.2500     2.4860    58.5510    13.8910    13.2660    12.7560    24.7790   -12.7290 
  249.3750     2.4870    58.5510    13.8910    13.2660    12.7920    24.6620   -12.7730 
  249.5000     2.4770    58.5510    13.8910    13.2660    13.5530    24.5980   -12.7690 
  249.6250     2.4640    58.5510    13.8910    13.2660    14.7990    24.5920   -12.7400 
  249.7500     2.4510    58.5510    13.8910    13.2660    15.2470    24.5560   -12.7290 
  249.8750     2.4370    58.5510    13.8910    13.2660    14.9080    24.4150   -12.7360 
  250.0000     2.4260    58.5510    13.8910    13.2660    14.1880    24.1530   -12.7380 
  250.1250     2.4270    58.5510    13.8910    13.2660    13.0710    23.6610   -12.6850 
  250.2500     2.4290    58.5510    13.8910    13.2660    12.4280    22.9270   -12.5580 
  250.3750     2.4210    58.5510    13.8910    13.2660    11.9540    21.8280   -12.4360 
  250.5000     2.4040    58.5510    13.8910    13.2660    11.1080    20.0450   -12.3470 
  250.6250     2.3950    58.5510    13.8910    13.2660    10.3850    18.2160   -12.2740 
  250.7500     2.3920    58.5510    13.8910    13.2660     9.7000    17.1380   -12.2190 
  250.8750     2.3870    58.5510    13.8910    13.2660     9.0130    16.7520   -12.1550 
  251.0000     2.3750    58.5510    13.8910    13.2660     8.3310    16.4980   -12.1060 
  251.1250     2.3480    58.5510    13.8910    13.2660     7.7080    15.8040   -12.0850 
  251.2500     2.3110    58.5510    13.8910    13.2660     7.1020    14.6440   -12.0850 
  251.3750     2.2690    58.5510    13.8910    13.2660     6.7380    13.6560  -999.2500 
  251.5000     2.2300    58.5510    13.8910    13.2660     6.6040    13.1510  -999.2500 
  251.6250     2.1980    58.5510    13.8910    13.2660     6.5820    13.0180  -999.2500 
  251.7500     2.1690    58.5510    13.8910    13.2660     6.5830    12.9890  -999.2500 
  251.8750     2.1460    58.5510    13.8910    13.2660     6.5810    12.9700  -999.2500 
  252.0000     2.1310    58.5510    13.8910    13.2660     6.5790    12.9600  -999.2500 
  252.1250     2.1270    58.5510    13.8910    13.2660     6.5770    12.9590  -999.2500 
  252.2500     2.1270    58.5510    13.8910    13.2660     6.5770    12.9580  -999.2500 
  252.3750     2.1270    58.5510    13.8910    13.2660     6.5790    12.9580  -999.2500 
  252.5000     2.1260    58.5510    13.8910    13.2660     6.5800    12.9570  -999.2500 
  252.6250     2.1260    58.5510    13.8910    13.2660     6.5790    12.9550  -999.2500 
  252.7500     2.1270    58.5510    13.8910    13.2660     6.5800    12.9510  -999.2500 
  252.8750     2.1270    58.5510    13.8910    13.2660     6.5810    12.9490  -999.2500 
  253.0000     2.1260    58.5510    13.8910    13.2660     6.5830    12.9470  -999.2500 
  253.1250     2.1230    58.5510    13.8910    13.2660     6.5860    12.9410  -999.2500 
  253.2500     2.1200    58.5510    13.8910    13.2660     6.5920    12.9330  -999.2500 
  253.3750     2.1190    58.5510    13.8910    13.2660     6.5950    12.9300  -999.2500 
  253.5000     2.1200    58.5510    13.8910    13.2660     6.5940    12.9300  -999.2500 
  253.6250     2.1200    58.5510    13.8910    13.2660     6.5930    12.9300  -999.2500 
  253.7500     2.1200  -999.2500  -999.2500  -999.2500  -999.2500  -999.2500  -999.2500 
  253.8750     2.1200  -999.2500  -999.2500  -999.2500  -999.2500  -999.2500  -999.2500 
  254.0000     2.1200  -999.2500  -999.2500  -999.2500  -999.2500  -999.2500  -999.2500 
