~V
VERS. 2.00: Ver 2.00
~W
STRT.M 54.0000:
STOP.M 277.0000:
STEP.M 0.1250:
NULL. -999.2500:
UWI. F10247:
~C
DEPT.M :
GR.API :
RML.OHMM :
RI. :
RXO.OHMM :
CALI.CM :
DEN.GM/CC :
SP.MV :
~A
# ...
  155.2500    80.4830     6.2090     4.5830     5.4080    24.7950     2.3040   -14.2500 
  155.3750    77.1680     6.2350     4.5890     5.5550    24.7600     2.3180   -14.2600 
  155.5000    75.5550     6.2750     4.5750     5.6320    24.7080     2.3300   -14.2830 
  155.6250    75.8470     6.2900     4.5350     5.5830    24.6880     2.3330   -14.3040 
  155.7500    78.0140     6.2360     4.4670     5.4610    24.7290     2.3270   -14.3450 
  155.8750    82.1610     6.1360     4.3890     5.3110    24.7410     2.3170   -14.3870 
  156.0000    86.5480     6.0410     4.3190     5.2080    24.7850     2.3030   -14.4330 
  156.1250    89.3360     6.0000     4.2750     5.2000    24.8150     2.2880   -14.4950 
  156.2500    89.9250     6.0430     4.2720     5.1950    24.8560     2.2740   -14.5490 
  156.3750    90.3610     6.1290     4.2980     5.2120    24.8430     2.2670   -14.6270 
  156.5000    92.7600     6.2060     4.3350     5.2660    24.8500     2.2700   -14.7150 
  156.6250    95.9190     6.2340     4.3610     5.3270    24.7960     2.2830   -14.8080 
  156.7500    98.0110     6.1820     4.3500     5.3580    24.6350     2.2940   -14.8820 
  156.8750    98.9740     6.0670     4.3010     5.3540    24.5390     2.2990   -14.9650 
  157.0000    99.6950     5.9230     4.2260     5.3220    24.4740     2.3040   -15.0430 
  157.1250    98.2310     5.7840     4.1370     5.2200    24.4170     2.3170   -15.0910 
  157.2500    94.3020     5.6840     4.0530     4.9130    24.4150     2.3420   -15.1250 
  157.3750    92.4300     5.6150     3.9830     4.8090    24.4590     2.3650   -15.1200 
  157.5000    92.6200     5.5580     3.9260     4.8000    24.5110     2.3760   -15.0910 
  157.6250    92.7260     5.4950     3.8770     4.7760    24.5330     2.3650   -15.0320 
  157.7500    92.7340     5.4190     3.8290     4.7120    24.5570     2.3360   -14.9840 
  157.8750    94.5970     5.3410     3.7800     4.6650    24.5150     2.3040   -14.9050 
  158.0000    96.2160     5.2650     3.7320     4.6540    24.4760     2.2800   -14.8400 
  158.1250    94.6370     5.1940     3.6910     4.6120    24.4620     2.2710   -14.7900 
  158.2500    90.4560     5.1340     3.6690     4.5610    24.4700     2.2770   -14.7530 
  158.3750    87.2550     5.1010     3.6720     4.5440    24.4660     2.2940   -14.7390 
  158.5000    87.2490     5.1170     3.7060     4.5670    24.4360     2.3130   -14.7490 
  158.6250    89.6780     5.1870     3.7680     4.6180    24.4210     2.3250   -14.7860 
  158.7500    91.2510     5.2910     3.8460     4.6910    24.4580     2.3210   -14.8420 
  158.8750    91.9740     5.3810     3.9170     4.7630    24.5060     2.3070   -14.9340 
  159.0000    92.4490     5.4280     3.9680     4.8200    24.5460     2.2870   -15.0400 
  159.1250    94.6460     5.4300     3.9930     4.8620    24.5530     2.2700   -15.1670 
  159.2500    95.9780     5.4150     3.9960     4.8940    24.5200     2.2640   -15.3140 
  159.3750    93.2880     5.4370     4.0040     4.8710    24.4750     2.2670   -15.4550 
  159.5000    89.0070     5.5450     4.0480     4.8200    24.4580     2.2720   -15.6000 
  159.6250    86.2560     5.7630     4.1560     4.8010    24.4690     2.2780   -15.7430 
  159.7500    85.9800     6.0840     4.3420     4.9250    24.4970     2.2840   -15.8900 
  159.8750    86.6890     6.4280     4.5660     5.2740    24.5010     2.2920   -16.0180 
  160.0000    88.1780     6.7220     4.7810     5.9900    24.4400     2.3050   -16.1330 
  160.1250    90.9960     6.8970     4.9260     6.7790    24.3250     2.3220   -16.2210 
  160.2500    92.2550     6.8860     4.9360     6.1400    24.2210     2.3350   -16.2810 
  160.3750    90.5850     6.7250     4.8310     5.5340    24.1190     2.3400   -16.3410 
  160.5000    87.5170     6.4530     4.6500     5.5900    24.0560     2.3360   -16.3780 
  160.6250    86.7490     6.1300     4.4430     5.4660    24.0050     2.3280   -16.4060 
  160.7500    89.6310     5.8620     4.2680     5.0080    23.8550     2.3220   -16.4130 
  160.8750    91.2140     5.7300     4.1610     4.7610    23.5340     2.3180   -16.4290 
  161.0000    90.4210     5.7610     4.1350     4.8160    23.1310     2.3140   -16.4540 
  161.1250    89.7000     5.9380     4.1880     5.0650    22.8470     2.3070   -16.5240 
  161.2500    89.2440     6.1990     4.3120     5.6140    22.7080     2.2980   -16.6130 
  161.3750    87.6720     6.4210     4.4490     6.0800    22.6160     2.2920   -16.7150 
  161.5000    85.1800     6.5250     4.5490     6.2530    22.5740     2.2930   -16.8250 
  161.6250    83.8360     6.5240     4.6010     6.2780    22.6490     2.2990   -16.9480 
  161.7500    80.8630     6.6040     4.6980     6.2160    22.8760     2.3030   -17.1020 
  161.8750    74.5270     7.0040     4.9730     6.4550    23.2000     2.2990   -17.2510 
  162.0000    68.8670     7.9280     5.5470     6.8120    23.5770     2.2850   -17.3900 
  162.1250    67.9730     9.5060     6.5120     8.1300    23.8430     2.2660   -17.5050 
  162.2500    71.0390    11.8030     7.9820    12.6420    23.9720     2.2540   -17.6310 
  162.3750    73.1140    14.3590     9.7670    18.1970    24.0380     2.2530   -17.7560 
  162.5000    72.8800    16.5400    11.5140    18.4150    24.0810     2.2580   -17.8910 
  162.6250    72.2990    17.6100    12.6670    15.6250    24.0870     2.2640   -18.0260 
  162.7500    72.7870    16.8590    12.5300    15.0150    24.0610     2.2660   -18.1400 
  162.8750    74.8090    14.8550    11.3450    15.6200    24.0460     2.2690   -18.2560 
  163.0000    78.3830    12.3840     9.6550    15.8320    24.0460     2.2710   -18.3450 
  163.1250    81.5470    10.2370     8.0550    12.4380    24.0550     2.2730   -18.4370 
  163.2500    81.8030     9.1230     7.0560     7.8360    24.0590     2.2750   -18.4850 
  163.3750    80.8750     9.1420     6.7520     6.2420    24.0710     2.2840   -18.5330 
  163.5000    80.9070    10.4000     7.2280     6.9760    24.0900     2.3020   -18.5810 
  163.6250    78.8350    12.9810     8.5970    10.0900    24.0960     2.3220   -18.6410 
  163.7500    72.0280    17.0050    11.1340    17.2380    24.0740     2.3250   -18.7050 
  163.8750    66.5140    21.7340    14.5340    26.6270    24.0460     2.3030   -18.7820 
  164.0000    65.0590    26.2930    18.2750    30.4060    24.0430     2.2640   -18.8860 
  164.1250    64.5620    29.8320    21.6170    28.9130    24.1040     2.2210   -18.9970 
  164.2500    65.8680    31.7370    23.8110    36.8080    24.2230     2.1920   -19.1350 
  164.3750    72.1040    32.4870    24.9880    39.8090    24.3130     2.1790   -19.2910 
  164.5000    79.0120    32.5820    25.4800    33.9270    24.3330     2.1780   -19.4560 
  164.6250    80.7300    32.3750    25.6040    29.3590    24.3260     2.1850   -19.6150 
  164.7500    77.7770    31.6940    25.2900    27.8060    24.3480     2.1940   -19.7650 
  164.8750    75.7870    30.1610    24.2880    28.7990    24.3610     2.2080   -19.9190 
  165.0000    75.7410    27.4680    22.3690    30.0780    24.3670     2.2330   -20.0530 
  165.1250    77.1230    23.7000    19.6040    28.2090    24.3690     2.2730   -20.1850 
  165.2500    80.8390    19.5220    16.4660    21.6790    24.3690     2.3260   -20.3150 
  165.3750    84.8310    15.9470    13.6800    14.9200    24.3660     2.3730   -20.4370 
  165.5000    85.7690    13.4610    11.5990    11.0800    24.3750     2.4030   -20.5390 
  165.6250    83.3240    12.1000    10.2970    10.1170    24.3970     2.4120   -20.6270 
  165.7500    81.6580    11.7400     9.7720    10.5630    24.4380     2.4070   -20.6880 
  165.8750    81.2930    11.8880     9.7230    10.4970    24.4520     2.3990   -20.7100 
  166.0000    80.8400    12.2500     9.9530    10.1490    24.4550     2.3940   -20.7280 
  166.1250    80.7070    12.5850    10.2540    10.4520    24.4310     2.3960   -20.7140 
  166.2500    81.2070    12.7330    10.4620    10.9180    24.3210     2.4050   -20.6970 
  166.3750    80.0070    12.7480    10.5760    11.0310    24.1450     2.4150   -20.6450 
