~V
VERS. 2.00: Ver 2.00
~W
STRT.M 53.0000:
STOP.M 276.0000:
STEP.M 0.1250:
NULL. -999.2500:
UWI. F10245:
~C
DEPT.M :
GR.API :
RML.OHMM :
RI. :
RXO.OHMM :
CALI.CM :
DEN.GM/CC :
SP.MV :
~A
   53.0000    45.5140     0.8230     0.4650     1.5620    25.3450     2.0520    84.2660 
   53.1250    46.9110     0.8570     0.4540     1.2810    25.3420     2.0500    82.2290 
   53.2500    45.0570     0.8450     0.4330     1.0060    25.3380     2.0590    80.1120 
   53.3750    41.1870     0.7320     0.3960     0.8520    25.3360     2.0930    77.7840 
   53.5000    38.2950     0.4860     0.3410     0.6640    25.3360     2.1710    74.9930 
   53.6250    36.6720     0.1670     0.2800     0.4840    25.3340     2.3020    71.2860 
   53.7500    35.0180    -0.0610     0.2330     0.2550    25.3280     2.4320    66.5020 
   53.8750    34.7400    -0.1460     0.2200     0.2080    25.3070     2.4920    60.4450 
   54.0000    37.7750    -0.0960     0.2620     0.2890    25.2610     2.4560    52.9510 
   54.1250    43.7390     0.1190     0.4240     2.0910    25.2130     2.3560    43.9840 
   54.2500    48.7060     0.5110     0.7570     2.7810    25.1760     2.2470    34.2390 
   54.3750    52.5290     1.0980     1.3160     4.1170    25.0960     2.1580    24.2430 
   54.5000    54.1960     1.8360     2.1090     5.6330    24.9000     2.1060    14.4780 
   54.6250    52.8880     2.5920     3.0630     6.5840    24.6320     2.0990     5.5950 
   54.7500    51.8600     3.1660     3.9550     6.6170    24.4870     2.1110    -2.0700 
   54.8750    52.6980     3.4500     4.6050     6.3450    24.6030     2.1250    -8.1780 
   55.0000    54.6090     3.5260     4.9820     6.0130    24.8830     2.1300   -12.5320 
   55.1250    55.1490     3.5920     5.2080     5.6540    24.8670     2.1230   -15.0280 
   55.2500    54.6870     3.7470     5.4400     5.4880    24.3510     2.1120   -16.4340 
   55.3750    54.9400     3.9820     5.7150     5.8450    23.9030     2.1010   -17.2080 
   55.5000    59.1770     4.2530     6.0150     6.6040    23.6780     2.0920   -17.6310 
   55.6250    64.0990     4.4930     6.2840     7.0370    23.5920     2.0870   -17.8860 
   55.7500    65.1640     4.6630     6.4800     7.2790    23.5510     2.0870   -18.1570 
   55.8750    65.3420     4.7530     6.5850     7.4440    23.5200     2.0930   -18.4870 
   56.0000    66.5820     4.7780     6.6060     7.6550    23.5010     2.1050   -18.8970 
   56.1250    64.7640     4.7650     6.5670     7.7870    23.4920     2.1210   -19.3580 
   56.2500    58.4640     4.7510     6.5150     8.0360    23.4690     2.1370   -19.8710 
   56.3750    54.8180     4.7520     6.4740     8.4780    23.3680     2.1510   -20.4530 
   56.5000    57.5690     4.7750     6.4520     9.0770    23.1400     2.1640   -21.0960 
   56.6250    61.5540     4.8180     6.4490     8.8640    22.8780     2.1710   -21.8100 
   56.7500    61.2370     4.8660     6.4520     8.6140    22.7640     2.1710   -22.4980 
   56.8750    57.4690     4.9100     6.4510     8.3770    22.8330     2.1650   -23.1640 
   57.0000    54.1150     4.9420     6.4400     8.1040    22.9320     2.1550   -23.7780 
   57.1250    52.2060     4.9580     6.4130     7.6000    22.9380     2.1470   -24.3520 
   57.2500    52.7670     4.9610     6.3700     7.2990    22.8870     2.1460   -24.9240 
   57.3750    56.8770     4.9530     6.3140     7.1930    22.8590     2.1510   -25.4260 
   57.5000    62.3230     4.9420     6.2520     7.2170    22.8620     2.1590   -25.8370 
   57.6250    63.0410     4.9390     6.1960     7.2460    22.8850     2.1620   -26.1740 
   57.7500    60.7530     4.9500     6.1570     7.2470    22.9150     2.1590   -26.4850 
   57.8750    59.2420     4.9780     6.1400     7.2050    22.9320     2.1520   -26.7740 
   58.0000    57.0910     5.0260     6.1490     7.1430    22.9600     2.1460   -27.0480 
   58.1250    52.8890     5.1040     6.1950     7.1170    23.0280     2.1470   -27.3010 
   58.2500    51.1110     5.2210     6.2810     7.1480    23.1030     2.1550   -27.4700 
   58.3750    53.4570     5.3840     6.4150     7.1360    23.1340     2.1700   -27.5670 
   58.5000    57.0310     5.5960     6.6000     7.1170    23.1460     2.1870   -27.5880 
   58.6250    58.7860     5.8410     6.8290     7.1310    23.1540     2.2040   -27.4490 
   58.7500    58.8500     6.0770     7.0590     7.2260    23.1040     2.2160   -27.1860 
   58.8750    57.8540     6.2670     7.2520     7.3960    22.9590     2.2170   -26.8630 
   59.0000    55.9820     6.3830     7.3740     7.5480    22.8120     2.2070   -26.4790 
   59.1250    54.6380     6.4040     7.3890     7.6910    22.8130     2.1940   -26.0140 
   59.2500    54.4620     6.3560     7.3190     7.8240    22.9050     2.1920   -25.5040 
   59.3750    55.3090     6.2630     7.1880     7.8390    22.9940     2.2040   -24.9610 
   59.5000    56.3860     6.1600     7.0310     7.7710    23.0770     2.2250   -24.4250 
   59.6250    57.4810     6.0990     6.8990     7.6650    23.2090     2.2420   -23.8470 
   59.7500    58.3550     6.1250     6.8400     7.3700    23.3140     2.2480   -23.2480 
   59.8750    57.4880     6.2720     6.8890     7.0840    23.3860     2.2460   -22.6080 
   60.0000    56.2920     6.5370     7.0520     6.8960    23.4520     2.2480   -21.9430 
   60.1250    58.2910     6.8530     7.2870     6.9020    23.5990     2.2610   -21.2780 
   60.2500    61.6980     7.0960     7.4830     7.1630    23.7830     2.2760   -20.5710 
   60.3750    64.9560     7.1690     7.5480     7.7260    24.0830     2.2840   -19.8270 
   60.5000    68.4990     7.0300     7.4220     8.3290    24.5960     2.2810   -19.0760 
   60.6250    71.7180     6.7130     7.1040     8.1460    24.8560     2.2680   -18.4260 
   60.7500    73.3450     6.3880     6.7320     7.2720    24.4950     2.2550   -17.8910 
   60.8750    75.1590     6.1780     6.4220     6.7930    23.8260     2.2420   -17.4930 
   61.0000    78.6840     6.1370     6.2450     6.6630    23.3000     2.2270   -17.2840 
   61.1250    80.9060     6.2640     6.2290     6.5770    22.9600     2.2070   -17.2560 
   61.2500    80.4660     6.4560     6.2980     6.6270    22.7230     2.1780   -17.3650 
   61.3750    79.8020     6.6370     6.3880     6.8420    22.7360     2.1440   -17.5650 
   61.5000    79.6810     6.7700     6.4550     6.9290    23.0780     2.1100   -17.8360 
   61.6250    77.9790     6.8590     6.4850     6.8140    23.7230     2.0860   -18.1770 
   61.7500    75.1480     6.9590     6.5150     6.6520    24.0870     2.0770   -18.5570 
   61.8750    73.3620     7.1080     6.5780     6.6270    23.7640     2.0830   -18.9470 
   62.0000    73.5610     7.3170     6.6920     6.6800    23.0510     2.0990   -19.2240 
   62.1250    72.1500     7.5740     6.8560     6.7720    22.5600     2.1100   -19.3570 
   62.2500    67.8650     7.8280     7.0330     6.9500    22.4240     2.1130   -19.4480 
   62.3750    65.0510     8.0310     7.1840     7.1390    22.4470     2.1130   -19.5340 
   62.5000    66.5310     8.1460     7.2710     7.3540    22.5090     2.1210   -19.5990 
   62.6250    69.6490     8.1370     7.2560     7.5880    22.5090     2.1410   -19.5900 
   62.7500    70.5930     8.0360     7.1570     7.8230    22.4240     2.1670   -19.4410 
   62.8750    70.9050     7.8800     7.0030     8.0330    22.3070     2.1860   -19.1730 
   63.0000    72.2450     7.7190     6.8330     7.7810    22.2420     2.1930   -18.8680 
   63.1250    73.7590     7.6100     6.6990     7.0050    22.2770     2.1880   -18.5780 
   63.2500    76.0930     7.5640     6.6190     6.6150    22.3980     2.1810   -18.2840 
   63.3750    79.6920     7.5580     6.5860     6.5760    22.5690     2.1770   -17.9810 
   63.5000    82.8340     7.5580     6.5750     6.6710    22.7180     2.1720   -17.6680 
   63.6250    81.2730     7.5330     6.5630     6.7020    22.8550     2.1560   -17.3380 
   63.7500    77.1700     7.4970     6.5440     6.6860    23.1720     2.1250   -17.0650 
   63.8750    75.1090     7.4910     6.5410     6.6120    23.7010     2.0850   -16.8570 
   64.0000    77.1680     7.5560     6.5770     6.3950    24.0900     2.0510   -16.6880 
   64.1250    78.3450     7.7010     6.6670     6.2460    23.8080     2.0450   -16.5380 
