~V
VERS. 2.00: Ver 2.00
~W
STRT.M 52.0000:
STOP.M 271.0000:
STEP.M 0.1250:
NULL. -999.2500:
UWI. F10212:
~C
DEPT.M :
GR.API :
RML.OHMM :
RI. :
RXO.OHMM :
CALI.CM :
SP.MV :
DEN.GM/CC :
~A
# ...
  209.5000    82.3870    10.2430     7.3170     9.0490    23.7720   -12.1640     2.3220 
  209.6250    79.9430    10.8570     7.7400     9.8440    23.7150   -12.0970     2.3090 
  209.7500    77.7290    11.5770     8.2460     9.9550    23.7070   -12.0450     2.2960 
  209.8750    76.9500    12.4740     8.8750     9.9660    23.7570   -12.0300     2.2840 
  210.0000    78.6900    13.6280     9.6730    10.6200    23.8160   -12.0360     2.2770 
  210.1250    81.1700    15.0830    10.6990    12.6280    23.7370   -12.0180     2.2770 
  210.2500    83.3400    16.6440    11.8590    14.9810    23.5930   -11.9840     2.2820 
  210.3750    84.1510    18.0430    12.9910    16.5620    23.5100   -11.9320     2.2890 
  210.5000    84.0370    18.9910    13.8670    16.7700    23.5120   -11.8410     2.2920 
  210.6250    82.1080    19.2030    14.2110    16.4730    23.6680   -11.7030     2.2860 
  210.7500    78.2260    18.8490    14.0830    16.0870    23.9670   -11.5660     2.2760 
  210.8750    73.6960    18.1230    13.6080    15.4450    24.1620   -11.4150     2.2650 
  211.0000    70.7620    17.2260    12.9460    14.1640    24.1460   -11.2490     2.2580 
  211.1250    71.9310    16.3460    12.2600    12.9230    24.0570   -11.1010     2.2570 
  211.2500    74.5270    15.6620    11.7030    11.9190    24.0410   -10.9830     2.2620 
  211.3750    76.7640    15.3620    11.4080    10.8350    24.1310   -10.9160     2.2720 
  211.5000    78.3910    15.6420    11.5030    10.3750    24.3010   -10.9010     2.2850 
  211.6250    79.1840    16.7910    12.1910    11.6640    24.4120   -10.9280     2.2940 
  211.7500    77.0860    18.7620    13.4790    13.9220    24.4750   -10.9830     2.2950 
  211.8750    72.8220    21.5090    15.4120    16.8660    24.4820   -11.0610     2.2860 
  212.0000    69.2440    24.8020    17.9390    20.7610    24.4710   -11.1510     2.2720 
  212.1250    66.8960    28.0430    20.7710    24.3780    24.4540   -11.2440     2.2580 
  212.2500    64.7890    30.4510    23.2350    26.7280    24.4310   -11.3010     2.2470 
  212.3750    62.9040    31.5300    24.7770    27.7120    24.4030   -11.3110     2.2420 
  212.5000    63.2390    31.2680    25.1930    27.8530    24.3870   -11.2670     2.2450 
  212.6250    66.6690    30.0280    24.6190    26.0160    24.3750   -11.1850     2.2580 
  212.7500    69.3530    28.4800    23.6200    22.9580    24.3520   -11.0600     2.2680 
  212.8750    68.8800    26.8040    22.3980    21.6410    24.3280   -10.8930     2.2690 
  213.0000    66.9290    24.9960    21.0040    22.4830    24.3130   -10.7120     2.2630 
  213.1250    70.0190    23.1270    19.5130    21.9430    24.3100   -10.5180     2.2590 
  213.2500    76.8500    21.4880    18.1600    19.0260    24.3100   -10.3520     2.2570 
  213.3750    81.2920    20.3890    17.1740    16.0370    24.3110   -10.2220     2.2540 
  213.5000    81.0180    20.0450    16.7170    14.5400    24.3130   -10.1440     2.2530 
  213.6250    79.3530    20.5550    16.9160    15.8710    24.3130   -10.1210     2.2530 
  213.7500    77.7250    21.4190    17.4860    18.4900    24.3140   -10.1470     2.2520 
  213.8750    75.2270    22.0620    18.0390    20.2170    24.3150   -10.2370     2.2500 
  214.0000    71.9050    21.9810    18.1540    19.5050    24.3060   -10.3940     2.2480 
  214.1250    69.8750    21.0470    17.6210    17.8830    24.2800   -10.6160     2.2490 
  214.2500    69.1760    20.0210    16.9170    16.8340    24.2300   -10.8860     2.2530 
  214.3750    68.9060    19.6630    16.5710    15.7690    24.1620   -11.2010     2.2590 
  214.5000    68.0300    20.5540    17.0200    15.1510    24.1110   -11.5480     2.2660 
  214.6250    66.5280    23.2250    18.7550    17.5420    24.1180   -11.8960     2.2680 
  214.7500    66.5880    27.3250    21.7160    23.0790    24.1490   -12.2280     2.2630 
  214.8750    66.9420    32.4030    25.7620    30.5390    24.1700   -12.5430     2.2510 
  215.0000    65.2950    37.6060    30.3510    36.9750    24.1810   -12.8230     2.2330 
  215.1250    63.3850    41.4400    34.2370    39.4430    24.1840   -13.0810     2.2150 
  215.2500    63.7080    43.2710    36.5160    37.7230    24.1450   -13.3210     2.2040 
  215.3750    64.2300    43.3640    37.1650    35.0990    24.1100   -13.5280     2.2010 
  215.5000    62.6890    42.5960    36.8300    35.0310    24.0830   -13.7150     2.2020 
  215.6250    61.0220    41.9230    36.3290    33.8790    23.9930   -13.9040     2.2010 
  215.7500    61.3440    41.9180    36.2780    31.1790    23.8160   -14.1300     2.1970 
  215.8750    62.0160    42.9480    37.0260    27.8250    23.4880   -14.3970     2.1970 
  216.0000    62.4930    45.4610    38.9140    25.8530    23.1340   -14.6970     2.2020 
  216.1250    63.8810    50.6490    42.9140    26.0570    22.9090   -15.0190     2.2090 
  216.2500    63.9810    59.1470    49.8350    27.9870    22.8720   -15.3470     2.2180 
  216.3750    60.0700    71.1840    60.2920    31.7150    22.9560   -15.6800     2.2300 
  216.5000    54.2860    84.3420    72.6510    36.8650    23.0700   -16.0280     2.2480 
  216.6250    53.0080    88.3570    78.5990    47.0990    23.1010   -16.3740     2.2750 
  216.7500    55.6320    76.4980    70.8210    63.1290    23.0930   -16.6960     2.3190 
  216.8750    57.5560    54.9180    52.6030    67.9950    23.1600   -17.0000     2.3800 
  217.0000    56.0900    35.0380    34.1480    38.6120    23.3120   -17.2910     2.4350 
  217.1250    51.5230    22.7450    22.2230    17.5230    23.4000   -17.5700     2.4490 
  217.2500    46.6790    15.7150    15.3160    10.1440    23.4260   -17.8410     2.4330 
  217.3750    42.7280    12.0580    11.5740     8.6710    23.4020   -18.1200     2.4130 
  217.5000    39.7000    10.4180     9.6650     8.7310    23.3620   -18.3900     2.4010 
  217.6250    37.1590     9.9880     8.9450     8.8650    23.3460   -18.6800     2.3990 
  217.7500    37.0760     9.9370     8.7390     8.9220    23.3720   -19.0120     2.4040 
  217.8750    40.4820     9.9530     8.7490     8.7190    23.4470   -19.3820     2.4140 
  218.0000    44.9400     9.9660     8.8360     8.3290    23.5530   -19.7880     2.4170 
  218.1250    46.6980    10.1050     9.0230     8.1570    23.5770   -20.1980     2.4090 
  218.2500    45.3930    10.4460     9.3490     8.4650    23.5240   -20.5930     2.4000 
  218.3750    42.6310    10.9630     9.8050     9.2800    23.4480   -20.9380     2.3990 
  218.5000    40.5110    11.5320    10.3040    10.2650    23.4110   -21.2220     2.4070 
  218.6250    40.0830    11.9320    10.6540    11.0760    23.3740   -21.4190     2.4170 
  218.7500    41.1480    12.0400    10.7240    11.1820    23.3070   -21.5150     2.4240 
  218.8750    42.6990    11.8560    10.4950    11.0320    23.2280   -21.5010     2.4240 
  219.0000    44.5740    11.4910    10.0660    10.8070    23.1700   -21.3810     2.4070 
  219.1250    45.8970    11.1110     9.5940    10.3760    23.0680   -21.2100     2.3760 
  219.2500    45.5940    10.8380     9.2110    10.0180    22.9510   -21.0240     2.3430 
  219.3750    45.0280    10.7150     8.9670     9.8860    22.8970   -20.8420     2.3190 
  219.5000    46.0710    10.7420     8.8720    10.0350    23.0310   -20.6660     2.3090 
  219.6250    48.1060    10.9260     8.9400    10.1100    23.4190   -20.4730     2.3070 
  219.7500    47.6910    11.2370     9.1350    10.3040    23.8780   -20.2510     2.3030 
  219.8750    45.5840    11.6690     9.4450    10.5120    24.2180   -19.9750     2.3000 
  220.0000    42.7960    12.1900     9.8430    10.5990    24.3800   -19.6290     2.3050 
  220.1250    39.9580    12.6560    10.2320    10.7680    24.4310   -19.1630     2.3160 
  220.2500    39.6110    12.8230    10.4280    10.6680    24.4030   -18.6130     2.3200 
  220.3750    44.5390    12.4540    10.2310    10.3180    24.3070   -17.9790     2.3130 
  220.5000    52.9020    11.4630     9.5400     9.8510    24.1230   -17.2850     2.2960 
  220.6250    55.9580    10.0020     8.4430     9.0900    23.8060   -16.5940     2.2630 
