~V
VERS. 2.00: Ver 2.00
~W
STRT.M 58.0000:
STOP.M 277.0000:
STEP.M 0.1250:
NULL. -999.2500:
UWI. F10219:
~C
DEPT.M :
SP.MV :
DEN.GM/CC :
GR.API :
RML.OHMM :
RI. :
RXO.OHMM :
CALI.CM :
~A
# ...
  136.7500    -7.1390     2.4910    46.6760    20.4440    18.8010    20.3660    25.6800 
  136.8750    -7.2570     2.5000    47.0900    21.0040    19.3630    21.0170    25.7760 
  137.0000    -7.2620     2.5130    48.1510    21.3030    19.7240    20.9850    25.8880 
  137.1250    -7.2090     2.5260    47.7410    21.3440    19.8480    20.7590    25.9620 
  137.2500    -7.1260     2.5370    45.7080    21.1680    19.7460    20.6300    25.9690 
  137.3750    -6.9980     2.5420    44.0180    20.8340    19.4590    20.6070    25.9280 
  137.5000    -6.8660     2.5430    43.7910    20.3990    19.0420    20.5530    25.8810 
  137.6250    -6.6930     2.5410    43.6710    19.8990    18.5300    20.2000    25.8520 
  137.7500    -6.4680     2.5370    42.4060    19.3780    17.9660    19.5270    25.8530 
  137.8750    -6.2790     2.5350    41.1780    18.8750    17.4020    18.8100    25.8540 
  138.0000    -6.1250     2.5380    41.8000    18.3970    16.8620    18.2320    25.8130 
  138.1250    -5.9990     2.5440    43.5830    17.9200    16.3340    17.8980    25.7240 
  138.2500    -5.9500     2.5440    44.7760    17.4030    15.7820    17.7300    25.6370 
  138.3750    -5.9420     2.5370    45.5640    16.8340    15.1880    17.2660    25.5870 
  138.5000    -5.9530     2.5250    47.1790    16.2630    14.5840    16.2250    25.5170 
  138.6250    -6.0300     2.5110    49.7730    15.7610    14.0340    15.1220    25.3690 
  138.7500    -6.1210     2.4960    52.8310    15.3950    13.6080    14.3130    25.1750 
  138.8750    -6.2180     2.4870    55.3130    15.1700    13.3290    13.9010    25.0060 
  139.0000    -6.3920     2.4840    56.7200    15.0080    13.1420    13.9570    24.9120 
  139.1250    -6.5690     2.4870    57.7250    14.8240    12.9810    14.2800    24.9390 
  139.2500    -6.7070     2.4910    59.3330    14.5550    12.7810    14.5130    25.1140 
  139.3750    -6.8820     2.4950    61.1100    14.2120    12.5250    14.4740    25.3760 
  139.5000    -7.0620     2.5020    61.5590    13.8800    12.2650    14.3600    25.5690 
  139.6250    -7.2080     2.5080    60.5170    13.6390    12.0610    14.4970    25.6510 
  139.7500    -7.3760     2.5070    59.0030    13.5090    11.9460    14.6260    25.6680 
  139.8750    -7.5210     2.4960    58.0040    13.3970    11.8620    14.4620    25.6700 
  140.0000    -7.5850     2.4800    57.5070    13.1130    11.6570    14.2600    25.6560 
  140.1250    -7.6230     2.4640    57.3130    12.4770    11.1650    14.0140    25.6450 
  140.2500    -7.6160     2.4430    58.7650    11.3840    10.2630    13.4360    25.6470 
  140.3750    -7.5160     2.4150    63.3320     9.9110     9.0020    11.9100    25.6680 
  140.5000    -7.3320     2.3860    70.1120     8.3410     7.6360     9.4900    25.7120 
  140.6250    -7.0970     2.3680    76.8880     6.9470     6.4020     7.0500    25.8270 
  140.7500    -6.8170     2.3630    81.9260     5.9090     5.4810     5.5070    26.0770 
  140.8750    -6.5260     2.3650    85.1140     5.3460     4.9250     4.9500    26.4360 
  141.0000    -6.2680     2.3640    87.0370     5.2070     4.6460     4.8960    26.7610 
  141.1250    -5.9810     2.3580    88.3370     5.2320     4.5580     4.9400    26.9100 
  141.2500    -5.7080     2.3460    89.6760     5.3080     4.5690     4.9270    26.8490 
  141.3750    -5.4670     2.3280    90.9320     5.3590     4.6070     4.8930    26.6940 
  141.5000    -5.2550     2.3110    90.9950     5.3740     4.6310     4.8760    26.6190 
  141.6250    -5.0770     2.3020    89.8730     5.3760     4.6420     4.9030    26.6960 
  141.7500    -4.9140     2.2980    90.1700     5.3980     4.6540     4.9620    26.8060 
  141.8750    -4.8100     2.2930    93.8180     5.4520     4.6800     5.0190    26.9700 
  142.0000    -4.7340     2.2880    98.4800     5.5230     4.7190     5.0740    27.2910 
  142.1250    -4.7080     2.2870   100.2830     5.5910     4.7590     5.0800    27.6170 
  142.2500    -4.7370     2.2850    97.6450     5.6380     4.7820     5.0210    27.6410 
  142.3750    -4.7770     2.2870    92.6930     5.6570     4.7800     4.9700    27.5330 
  142.5000    -4.8510     2.2980    88.4950     5.6560     4.7540     4.9540    27.5490 
  142.6250    -4.9510     2.3130    86.7080     5.6440     4.7070     4.9220    27.4090 
  142.7500    -5.0870     2.3170    87.2320     5.6310     4.6480     4.8510    26.9240 
  142.8750    -5.2290     2.3070    88.5480     5.6150     4.5860     4.7930    26.3420 
  143.0000    -5.3430     2.2920    89.5260     5.5870     4.5220     4.7780    26.0020 
  143.1250    -5.4490     2.2830    90.5330     5.5420     4.4540     4.7780    25.8330 
  143.2500    -5.5360     2.2830    92.0940     5.4810     4.3820     4.7510    25.7290 
  143.3750    -5.6300     2.2900    93.8200     5.4210     4.3100     4.7150    25.6540 
  143.5000    -5.7160     2.3020    94.4550     5.3890     4.2500     4.6990    25.5950 
  143.6250    -5.7950     2.3130    92.8110     5.4070     4.2160     4.6820    25.5760 
  143.7500    -5.8460     2.3230    89.1980     5.4870     4.2240     4.6940    25.6380 
  143.8750    -5.8610     2.3300    86.2450     5.6170     4.2780     4.7750    25.7400 
  144.0000    -5.8720     2.3360    85.7890     5.7640     4.3630     4.9150    25.7750 
  144.1250    -5.8620     2.3440    87.0040     5.8950     4.4600     5.0510    25.7900 
  144.2500    -5.8150     2.3510    87.9700     5.9810     4.5420     5.1380    25.8640 
  144.3750    -5.7470     2.3560    87.8530     6.0050     4.5880     5.1760    25.9270 
  144.5000    -5.6630     2.3580    87.8040     5.9770     4.5910     5.1560    25.9520 
  144.6250    -5.5600     2.3590    88.6880     5.9120     4.5540     5.0900    25.9570 
  144.7500    -5.4500     2.3630    90.1880     5.8290     4.4870     5.0050    25.9880 
  144.8750    -5.3590     2.3680    90.9220     5.7440     4.4040     4.9420    26.0850 
  145.0000    -5.3080     2.3720    90.1330     5.6720     4.3240     4.9330    26.2540 
  145.1250    -5.3090     2.3720    88.8850     5.6210     4.2560     4.9600    26.4480 
  145.2500    -5.3590     2.3690    88.7120     5.6020     4.2140     4.9790    26.5060 
  145.3750    -5.4560     2.3650    89.6230     5.6140     4.2040     4.9700    26.2790 
  145.5000    -5.5890     2.3610    89.8560     5.6470     4.2200     4.9200    25.8670 
  145.6250    -5.7530     2.3560    89.7600     5.6830     4.2530     4.8460    25.4950 
  145.7500    -5.9480     2.3500    90.5590     5.7040     4.2870     4.8000    25.2960 
  145.8750    -6.1400     2.3440    92.1120     5.7000     4.3070     4.7990    25.2210 
  146.0000    -6.3170     2.3380    93.9750     5.6720     4.3060     4.7660    25.1620 
  146.1250    -6.4870     2.3320    95.7190     5.6250     4.2840     4.6530    25.0910 
  146.2500    -6.6530     2.3270    96.1650     5.5700     4.2460     4.5360    25.0340 
  146.3750    -6.7580     2.3260    95.1060     5.5140     4.2020     4.4940    25.0100 
  146.5000    -6.8110     2.3280    94.5380     5.4630     4.1590     4.4870    25.0110 
  146.6250    -6.8070     2.3300    95.3030     5.4170     4.1170     4.5070    25.0450 
  146.7500    -6.7500     2.3330    95.8530     5.3770     4.0810     4.5300    25.1020 
  146.8750    -6.6260     2.3400    95.7010     5.3430     4.0500     4.5070    25.1350 
  147.0000    -6.4300     2.3490    96.2120     5.3140     4.0260     4.4400    25.1370 
  147.1250    -6.1490     2.3530    97.9380     5.2880     4.0060     4.3740    25.1090 
  147.2500    -5.7940     2.3490    99.6040     5.2560     3.9840     4.3200    25.0670 
  147.3750    -5.4500     2.3370    99.2260     5.2060     3.9510     4.2620    25.0430 
  147.5000    -5.1310     2.3250    96.6040     5.1340     3.9010     4.1920    25.0310 
  147.6250    -4.8750     2.3170    93.6740     5.0420     3.8350     4.1200    24.9860 
  147.7500    -4.6630     2.3200    91.5980     4.9490     3.7640     4.0560    24.9160 
  147.8750    -4.5120     2.3340    89.7150     4.8770     3.7060     4.0130    24.8660 
