~V
VERS. 2.00: Ver 2.00
~W
STRT.M 49.0000:
STOP.M 279.0000:
STEP.M 0.1250:
NULL. -999.2500:
UWI. F10243:
~C
DEPT.M :
GR.API :
RML.OHMM :
RI. :
RXO.OHMM :
CALI.CM :
DEN.GM/CC :
SP.MV :
~A
# ...
  206.5000    87.5810     9.6540     9.6910    10.1100    24.7750     2.5440   -10.5870 
  206.6250    92.0180     8.5500     8.3610     7.9830    24.7950     2.5390   -10.3260 
  206.7500    95.3550     8.0470     7.6110     7.2410    24.8170     2.5420    -9.9380 
  206.8750    97.5900     8.1310     7.4720     7.7380    24.8310     2.5460    -9.4800 
  207.0000    97.3660     8.8450     8.0030     9.3710    24.8360     2.5460    -9.0700 
  207.1250    93.8180     9.9280     8.9650    11.0830    24.8360     2.5480    -8.7290 
  207.2500    88.0390    11.0110    10.0630    11.5640    24.8330     2.5600    -8.4210 
  207.3750    84.6870    11.5920    10.8400    12.6160    24.8210     2.5710    -8.1290 
  207.5000    88.3590    11.1720    10.7190    13.4940    24.7990     2.5510    -7.8650 
  207.6250    93.6760    10.0510     9.8340    13.3100    24.7670     2.4800    -7.6850 
  207.7500    94.0270     8.6890     8.5770    10.3490    24.7600     2.3660    -7.6190 
  207.8750    86.5780     7.5090     7.3700     7.3120    24.7950     2.2480    -7.6130 
  208.0000    74.3760     6.7870     6.5380     5.8400    24.5820     2.1860    -7.6010 
  208.1250    65.3510     6.4470     6.0850     5.6240    23.7240     2.1910    -7.5690 
  208.2500    62.3350     6.3790     5.9410     5.9840    22.1060     2.2400    -7.5420 
  208.3750    65.1510     6.4410     5.9760     6.4830    20.4780     2.2910    -7.5250 
  208.5000    70.2630     6.4670     6.0220     6.1180    19.7440     2.3100    -7.4700 
  208.6250    73.9800     6.3850     5.9650     5.6000    19.9740     2.3000    -7.3800 
  208.7500    75.7590     6.2270     5.8190     5.0800    20.9210     2.2780    -7.2860 
  208.8750    76.6270     6.0820     5.6710     5.0220    22.1730     2.2610    -7.1860 
  209.0000    78.8540     6.0560     5.6360     5.2530    23.1650     2.2590    -7.0990 
  209.1250    81.6680     6.1560     5.7330     5.7270    23.8140     2.2690    -7.0660 
  209.2500    83.7080     6.3490     5.9310     6.1630    24.1090     2.2890    -7.0850 
  209.3750    85.8580     6.5590     6.1610     6.6450    24.2280     2.3130    -7.1160 
  209.5000    88.9310     6.6870     6.3120     7.0600    24.4080     2.3380    -7.1120 
  209.6250    90.7530     6.7090     6.3490     6.9840    24.6450     2.3590    -7.0410 
  209.7500    90.3150     6.6570     6.2960     7.0110    24.8020     2.3750    -6.9660 
  209.8750    88.7930     6.6030     6.2190     6.8840    24.8270     2.3840    -6.9280 
  210.0000    88.1940     6.6430     6.2100     6.6460    24.7900     2.3900    -6.8410 
  210.1250    87.0000     6.8110     6.3090     6.9110    24.7710     2.3950    -6.6670 
  210.2500    83.6240     7.1090     6.5210     7.6270    24.7600     2.4020    -6.4500 
  210.3750    80.4520     7.5000     6.8170     8.1090    24.7410     2.4090    -6.2680 
  210.5000    80.2760     7.9160     7.1430     8.5620    24.7140     2.4170    -6.2100 
  210.6250    82.1200     8.2660     7.4250     8.7530    24.7030     2.4220    -6.2490 
  210.7500    83.8170     8.4860     7.6110     8.8700    24.7000     2.4210    -6.2930 
  210.8750    85.0720     8.5510     7.6790     9.0070    24.7000     2.4130    -6.2990 
  211.0000    86.9010     8.4690     7.6200     9.2310    24.6950     2.3990    -6.3370 
  211.1250    88.7830     8.3510     7.5050     8.9960    24.6860     2.3850    -6.4630 
  211.2500    90.0680     8.3110     7.4290     8.7500    24.6860     2.3770    -6.6540 
  211.3750    91.1380     8.4720     7.5100     9.1400    24.6930     2.3790    -6.8340 
  211.5000    90.5530     9.0180     7.9040     9.2860    24.6970     2.3880    -6.9340 
  211.6250    86.1220     9.9840     8.6400    10.0870    24.7040     2.3970    -6.9880 
  211.7500    79.0410    11.3780     9.7370    12.5530    24.7200     2.3960    -7.0410 
  211.8750    74.0680    13.0980    11.1380    16.3160    24.7560     2.3820    -7.1480 
  212.0000    75.0460    14.9060    12.6800    19.2000    24.7890     2.3550    -7.2920 
  212.1250    79.2910    16.5540    14.1410    19.6300    24.8300     2.3250    -7.4590 
  212.2500    83.4350    18.0130    15.4740    20.6260    24.8670     2.3050    -7.6400 
  212.3750    85.4360    19.4700    16.8140    23.6750    24.8890     2.3050    -7.8210 
  212.5000    83.9570    21.3710    18.5400    24.1420    24.8860     2.3310    -8.0190 
  212.6250    79.9820    24.0290    20.9630    24.0050    24.8620     2.3650    -8.2130 
  212.7500    75.2960    27.6320    24.2990    30.1070    24.8390     2.3900    -8.3470 
  212.8750    71.9220    32.0970    28.5130    42.5630    24.8310     2.3900    -8.3860 
  213.0000    70.4100    36.6720    33.0720    52.6740    24.8520     2.3640    -8.3630 
  213.1250    68.7280    39.7770    36.6490    50.7010    24.9050     2.3320    -8.2890 
  213.2500    66.6480    40.0260    37.7760    45.4750    24.9780     2.3130    -8.1630 
  213.3750    66.1460    37.1170    35.6790    44.8130    25.0130     2.3130    -8.0090 
  213.5000    67.7970    32.2070    31.0770    38.3750    24.9850     2.3280    -7.8720 
  213.6250    70.6860    27.6430    26.4250    24.2060    24.9260     2.3400    -7.7730 
  213.7500    75.4270    24.6050    23.0770    13.4760    24.9080     2.3380    -7.7310 
  213.8750    79.5100    23.5840    21.7210    12.2010    24.9370     2.3180    -7.7200 
  214.0000    77.4060    25.3730    23.3970    22.5740    24.9740     2.2820    -7.7620 
  214.1250    71.3680    30.4790    28.6730    48.4770    25.0220     2.2450    -7.8650 
  214.2500    66.3170    40.4220    38.7790    73.6110    25.0850     2.2220    -8.0280 
  214.3750    64.3250    56.5230    54.5090    81.8110    25.1220     2.2250    -8.2790 
  214.5000    64.2140    77.3370    74.3550    94.8990    25.0830     2.2600    -8.5720 
  214.6250    64.9550    95.2590    91.2610   114.1310    24.9770     2.3060    -8.8700 
  214.7500    64.7560   104.3330    99.5720   123.4280    24.8460     2.3420    -9.1690 
  214.8750    63.0000   103.8040    98.8820   119.0560    24.7740     2.3530    -9.4800 
  215.0000    63.1060    98.1800    93.3520   103.3920    24.8330     2.3290    -9.7820 
  215.1250    65.7450    93.8340    88.4880    84.3200    24.9770     2.2850   -10.0590 
  215.2500    68.0990    93.0970    86.6210    73.8810    25.1990     2.2360   -10.3210 
  215.3750    68.0080    96.5960    88.7730    86.5770    25.4590     2.1940   -10.5610 
  215.5000    66.1510   104.6820    95.5850   103.5090    25.6270     2.1680   -10.7670 
  215.6250    63.7890   115.2750   105.2250   116.8770    25.6610     2.1540   -10.9390 
  215.7500    61.3120   125.8100   115.5090   128.3630    25.6090     2.1530   -11.1050 
  215.8750    61.0610   133.0560   123.5430   145.6450    25.5590     2.1600   -11.2910 
  216.0000    63.2770   133.5630   125.9400   165.4760    25.5370     2.1730   -11.4900 
  216.1250    64.5360   128.7100   123.2190   159.1550    25.5250     2.1880   -11.7020 
  216.2500    64.6480   121.1270   117.2360   130.3920    25.5290     2.1990   -11.8960 
  216.3750    65.7230   113.9490   110.7260   105.5690    25.5460     2.2030   -12.0330 
  216.5000    67.5800   110.3840   107.0420    96.7760    25.5730     2.1960   -12.1000 
  216.6250    67.5270   111.4900   107.8580    93.6440    25.6000     2.1800   -12.1580 
  216.7500    65.9390   117.8340   114.1850    97.3360    25.6190     2.1600   -12.2350 
  216.8750    65.0620   129.9870   126.3930   108.3620    25.6500     2.1420   -12.3590 
  217.0000    63.1750   150.7880   144.6920   140.3760    25.7030     2.1350   -12.5150 
  217.1250    60.3710   177.2280   165.8530   190.2280    25.7540     2.1410   -12.6580 
  217.2500    60.0060   202.4520   185.9530   228.7610    25.7690     2.1550   -12.7820 
  217.3750    63.3220   218.5440   200.1940   235.1520    25.7660     2.1720   -12.9320 
  217.5000    65.1090   220.2530   203.4960   237.2960    25.7040     2.1860   -13.2050 
  217.6250    62.4430   213.0080   198.2300   217.5980    25.6220     2.1950   -13.5350 
