~V
VERS. 2.00: Ver 2.00
~W
STRT.M 52.0000:
STOP.M 271.0000:
STEP.M 0.1250:
NULL. -999.2500:
UWI. F10212:
~C
DEPT.M :
GR.API :
RML.OHMM :
RI. :
RXO.OHMM :
CALI.CM :
SP.MV :
DEN.GM/CC :
~A
# ...
  130.7500    84.1280    30.2330    26.0920    25.3240    23.8330    -7.1990     2.4410 
  130.8750    82.8880    30.2210    25.7720    27.4270    23.8500    -7.1030     2.4410 
  131.0000    81.8310    30.4930    25.7280    28.2970    23.8870    -7.0500     2.4580 
  131.1250    80.1000    30.7440    25.7700    28.6710    23.8920    -7.0040     2.4850 
  131.2500    78.1330    30.7390    25.7110    28.8790    23.8650    -6.9490     2.5060 
  131.3750    78.0110    30.3950    25.4790    27.7410    23.8580    -6.8530     2.5200 
  131.5000    79.0200    29.8260    25.1370    24.6410    24.0310    -6.7380     2.5270 
  131.6250    78.6140    29.4170    24.9430    23.7460    24.3250    -6.6600     2.5250 
  131.7500    78.7800    29.5760    25.1720    25.0440    24.5710    -6.6190     2.5150 
  131.8750    81.6940    30.5380    26.0130    27.3930    24.6490    -6.5920     2.5040 
  132.0000    83.4180    32.2160    27.4630    29.5570    24.6500    -6.5490     2.5020 
  132.1250    80.5440    33.9150    29.0960    33.2960    24.6430    -6.4930     2.5190 
  132.2500    76.9150    34.4130    29.8880    37.6590    24.6290    -6.4180     2.5450 
  132.3750    76.3120    32.6980    28.8250    36.3900    24.6010    -6.3340     2.5690 
  132.5000    78.8200    28.5670    25.5380    30.9500    24.5860    -6.2560     2.5810 
  132.6250    80.0460    22.8800    20.6930    24.0860    24.6270    -6.1750     2.5710 
  132.7500    79.8300    17.3810    15.9130    17.7750    24.7170    -6.0610     2.5370 
  132.8750    80.8590    12.9230    11.9680    12.8240    24.8020    -5.9140     2.4850 
  133.0000    83.5190     9.7550     9.0700     8.7480    24.8480    -5.7370     2.4270 
  133.1250    83.8280     7.8950     7.2470     6.6760    24.8370    -5.5300     2.3780 
  133.2500    82.2380     6.8260     6.1040     5.8300    24.8120    -5.3250     2.3460 
  133.3750    82.4740     6.2740     5.4420     5.5750    24.8060    -5.1710     2.3300 
  133.5000    83.7160     6.0300     5.1000     5.4920    24.8090    -5.0660     2.3210 
  133.6250    81.3630     5.9700     4.9820     5.4130    24.8050    -4.9640     2.3110 
  133.7500    79.6090     5.9870     4.9720     5.3170    24.7770    -4.8520     2.3000 
  133.8750    81.1300     6.0540     5.0250     5.2180    24.7570    -4.7590     2.2950 
  134.0000    84.4550     6.1520     5.1060     5.2090    24.7380    -4.7120     2.2960 
  134.1250    87.8500     6.2450     5.1760     5.4170    24.7230    -4.7530     2.3040 
  134.2500    91.9170     6.2800     5.1950     5.7030    24.7210    -4.8400     2.3120 
  134.3750    95.4210     6.2270     5.1380     5.8430    24.7220    -4.9040     2.3200 
  134.5000    95.2800     6.0930     5.0080     5.7010    24.7280    -4.9130     2.3250 
  134.6250    91.4950     5.9250     4.8350     5.3940    24.7180    -4.9090     2.3240 
  134.7500    87.8430     5.7950     4.6740     4.9880    24.6890    -4.9260     2.3200 
  134.8750    84.8340     5.7410     4.5570     4.8320    24.6520    -4.9740     2.3170 
  135.0000    83.6340     5.7640     4.4970     4.9320    24.6120    -5.0540     2.3170 
  135.1250    85.4700     5.8440     4.4920     5.0540    24.5510    -5.1280     2.3190 
  135.2500    86.9410     5.9400     4.5140     5.0990    24.5090    -5.1940     2.3240 
  135.3750    85.6320     6.0350     4.5480     5.0990    24.4940    -5.2690     2.3300 
  135.5000    84.0470     6.1260     4.5820     5.1330    24.4950    -5.3890     2.3390 
  135.6250    86.4680     6.2200     4.6110     5.1550    24.4960    -5.5390     2.3460 
  135.7500    90.0460     6.3130     4.6390     5.2100    24.4910    -5.7160     2.3470 
  135.8750    91.4530     6.3900     4.6610     5.3040    24.4890    -5.9070     2.3400 
  136.0000    90.7570     6.4370     4.6720     5.3970    24.4830    -6.0790     2.3300 
  136.1250    90.2830     6.4470     4.6670     5.5220    24.4590    -6.1980     2.3230 
  136.2500    92.1150     6.4490     4.6570     5.6400    24.4140    -6.2620     2.3180 
  136.3750    95.3500     6.4730     4.6580     5.6260    24.3630    -6.2940     2.3170 
  136.5000    95.4870     6.5430     4.6850     5.4580    24.3310    -6.2990     2.3180 
  136.6250    90.0470     6.6720     4.7470     5.4580    24.3140    -6.2940     2.3150 
  136.7500    83.5500     6.8230     4.8300     5.6060    24.3260    -6.2530     2.3110 
  136.8750    80.1310     6.9530     4.9080     5.7720    24.3220    -6.1430     2.3070 
  137.0000    81.7740     7.0230     4.9570     5.8370    24.2940    -5.9510     2.3090 
  137.1250    85.7240     6.9980     4.9510     5.7270    24.2020    -5.7360     2.3110 
  137.2500    87.1340     6.9110     4.9010     5.5990    24.0320    -5.5600     2.3100 
  137.3750    85.7940     6.8040     4.8250     5.4770    23.8810    -5.4170     2.3060 
  137.5000    83.6310     6.7200     4.7480     5.4410    23.8940    -5.2730     2.3020 
  137.6250    84.3580     6.6820     4.6870     5.4280    24.1170    -5.0860     2.3010 
  137.7500    86.3500     6.6650     4.6380     5.3920    24.3230    -4.8770     2.2990 
  137.8750    87.9280     6.6350     4.5900     5.3260    24.4380    -4.6720     2.2960 
  138.0000    87.2640     6.5640     4.5290     5.2830    24.4820    -4.5170     2.2940 
  138.1250    84.8640     6.4460     4.4470     5.2320    24.5080    -4.4270     2.2920 
  138.2500    84.3060     6.3190     4.3590     5.1120    24.5060    -4.3850     2.2910 
  138.3750    85.6680     6.2260     4.2840     5.0100    24.4740    -4.3720     2.2920 
  138.5000    88.5360     6.1970     4.2400     4.9760    24.4560    -4.3700     2.2930 
  138.6250    89.7080     6.2510     4.2450     5.0460    24.4330    -4.3780     2.2890 
  138.7500    86.6920     6.3530     4.2850     5.1610    24.4240    -4.3880     2.2850 
  138.8750    83.5620     6.4640     4.3430     5.2710    24.4180    -4.4170     2.2840 
  139.0000    83.9670     6.5480     4.3970     5.3710    24.4190    -4.4740     2.2880 
  139.1250    88.8300     6.5820     4.4270     5.3980    24.4250    -4.5330     2.2910 
  139.2500    92.6190     6.5870     4.4380     5.3410    24.4310    -4.5320     2.2910 
  139.3750    92.0900     6.5820     4.4370     5.2250    24.4410    -4.4800     2.2910 
  139.5000    88.9020     6.5820     4.4320     5.1460    24.4750    -4.4130     2.2950 
  139.6250    88.8540     6.5880     4.4290     5.1350    24.4960    -4.3760     2.3030 
  139.7500    92.6920     6.5950     4.4280     5.2150    24.4880    -4.3880     2.3110 
  139.8750    93.4710     6.6050     4.4300     5.2700    24.4580    -4.4240     2.3150 
  140.0000    88.8870     6.6220     4.4340     5.2770    24.4080    -4.4430     2.3160 
  140.1250    85.2710     6.6530     4.4430     5.2140    24.4010    -4.4050     2.3110 
  140.2500    85.8810     6.6920     4.4550     5.2150    24.4140    -4.3400     2.3070 
  140.3750    87.9050     6.7320     4.4670     5.2900    24.4220    -4.2970     2.3090 
  140.5000    89.3200     6.7690     4.4790     5.3460    24.4000    -4.2970     2.3130 
  140.6250    90.8380     6.8060     4.4920     5.3380    24.3620    -4.3040     2.3100 
  140.7500    90.0600     6.8480     4.5110     5.3350    24.3580    -4.2630     2.3030 
  140.8750    86.6310     6.9030     4.5380     5.3840    24.3870    -4.1760     2.2960 
  141.0000    83.4710     6.9680     4.5760     5.4620    24.4000    -4.0770     2.2950 
  141.1250    84.5200     7.0330     4.6210     5.5440    24.3000    -4.0300     2.3040 
  141.2500    88.4890     7.0790     4.6600     5.5570    24.0610    -4.0530     2.3160 
  141.3750    91.8650     7.0960     4.6860     5.5330    23.8330    -4.0890     2.3250 
  141.5000    93.8500     7.0860     4.6930     5.5140    23.7440    -4.1020     2.3300 
  141.6250    94.8380     7.0570     4.6830     5.4900    23.8360    -4.1020     2.3340 
  141.7500    95.1550     7.0240     4.6630     5.4560    24.0190    -4.1050     2.3360 
  141.8750    93.4970     6.9930     4.6380     5.4500    24.1880    -4.1210     2.3350 
