~V
VERS. 2.00: Ver 2.00
~W
STRT.M 53.0000:
STOP.M 296.0000:
STEP.M 0.1250:
NULL. -999.2500:
UWI. F10258:
~C
DEPT.M :
GR.API :
RML.OHMM :
RI. :
RXO.OHMM :
CALI.CM :
DEN.GM/CC :
SP.MV :
~A
# ...
  165.5000    87.5130    12.4850     9.7310    11.5120    24.9910     2.2240   -13.0630 
  165.6250    82.1400    13.7700    10.5640    12.5310    25.3350     2.2530   -12.8550 
  165.7500    73.5040    15.6000    11.8810    14.4960    25.2720     2.3220   -12.6430 
  165.8750    65.1230    17.9760    13.7380    17.1450    24.9700     2.4190   -12.4290 
  166.0000    61.1480    20.8190    16.1430    19.4870    24.8160     2.5150   -12.2140 
  166.1250    63.1900    23.9290    19.0320    20.8760    24.8560     2.5790   -11.9770 
  166.2500    65.3710    26.8820    21.9940    22.1020    24.9680     2.6060   -11.7390 
  166.3750    65.1100    29.2950    24.5910    25.5740    25.1520     2.6090   -11.5260 
  166.5000    63.8210    30.8920    26.4360    30.9600    25.3800     2.6020   -11.3330 
  166.6250    62.9880    31.5170    27.2580    31.6350    25.4290     2.5970   -11.1720 
  166.7500    62.8850    31.6030    27.4410    28.7630    25.2710     2.5970   -11.0580 
  166.8750    62.1960    31.5390    27.3710    25.6640    25.0150     2.6010   -10.9960 
  167.0000    61.2100    31.6400    27.4040    26.1140    24.8120     2.6090   -10.9610 
  167.1250    60.7660    32.0110    27.7680    28.4200    24.7360     2.6220   -10.9440 
  167.2500    62.4970    32.3620    28.2740    29.9710    24.7560     2.6370   -10.9560 
  167.3750    64.7410    32.3440    28.5670    30.2930    24.8500     2.6520   -10.9770 
  167.5000    63.7130    31.7360    28.3150    30.3670    24.9660     2.6610   -11.0030 
  167.6250    60.6880    30.5660    27.4050    28.8660    25.0900     2.6630   -11.0610 
  167.7500    59.8700    29.3250    26.3100    26.6770    25.2080     2.6600   -11.1480 
  167.8750    60.3590    28.3900    25.4410    25.2550    25.3370     2.6530   -11.2420 
  168.0000    60.5500    27.9510    25.0310    23.4900    25.4390     2.6440   -11.3600 
  168.1250    60.5370    27.9650    25.1280    25.6830    25.5010     2.6340   -11.5240 
  168.2500    60.3530    28.0280    25.3990    28.1790    25.5440     2.6220   -11.7110 
  168.3750    60.4640    27.8020    25.4970    29.3420    25.5360     2.6100   -11.9170 
  168.5000    63.1150    27.0800    25.1210    26.2140    25.4630     2.5970   -12.1470 
  168.6250    67.6830    25.8300    24.1220    21.7000    25.3960     2.5790   -12.3910 
  168.7500    70.0470    24.3940    22.8440    19.8330    25.3520     2.5560   -12.6390 
  168.8750    70.1590    23.0340    21.5740    18.0940    25.3230     2.5300   -12.8970 
  169.0000    70.1790    21.9070    20.4960    16.3230    25.2870     2.5070   -13.1510 
  169.1250    70.7170    21.0890    19.7010    15.2760    25.2510     2.4880   -13.3860 
  169.2500    71.7540    20.4890    19.1060    16.4690    25.1900     2.4720   -13.6020 
  169.3750    72.9480    20.0830    18.6730    17.7680    25.1260     2.4570   -13.7990 
  169.5000    73.3470    19.8890    18.4090    16.9420    25.1320     2.4440   -13.9740 
  169.6250    73.2260    20.0110    18.4120    15.6650    25.1860     2.4400   -14.1170 
  169.7500    72.8850    20.4460    18.7090    15.8620    25.2250     2.4480   -14.2380 
  169.8750    72.9920    21.1630    19.3100    17.3350    25.2430     2.4640   -14.3350 
  170.0000    73.8970    22.0510    20.1540    19.2180    25.2370     2.4800   -14.4080 
  170.1250    75.8250    22.9150    21.0730    20.5520    25.2610     2.4910   -14.4640 
  170.2500    78.7070    23.5750    21.8320    20.8930    25.2360     2.4930   -14.4970 
  170.3750    80.5830    23.9510    22.3000    21.4590    25.1730     2.4900   -14.5040 
  170.5000    80.4340    24.0610    22.4630    21.7030    25.1140     2.4860   -14.4870 
  170.6250    79.2830    23.9880    22.3790    21.3710    25.1240     2.4850   -14.4580 
  170.7500    80.3630    23.9090    22.2210    22.4480    25.1360     2.4880   -14.4140 
  170.8750    83.2600    23.9620    22.1230    24.2270    25.1540     2.4930   -14.3520 
  171.0000    83.2850    24.2820    22.2270    23.9590    25.1910     2.5000   -14.2720 
  171.1250    79.7100    25.0610    22.7420    22.6340    25.2270     2.5100   -14.1490 
  171.2500    77.6970    26.2860    23.7190    22.8230    25.2820     2.5220   -13.9970 
  171.3750    77.8350    27.8700    25.1600    25.3250    25.3740     2.5390   -13.8290 
  171.5000    76.4520    29.5700    26.8990    29.6810    25.5060     2.5590   -13.6540 
  171.6250    74.2920    30.9210    28.5090    32.2790    25.6840     2.5800   -13.4680 
  171.7500    73.5520    31.5870    29.5410    33.6330    25.8520     2.5950   -13.2790 
  171.8750    73.5350    31.4340    29.7370    33.3750    26.0000     2.6030   -13.0870 
  172.0000    74.0310    30.5870    29.0980    30.3560    26.0830     2.6040   -12.8900 
  172.1250    74.4670    29.4100    27.8940    29.4210    26.1040     2.6050   -12.7150 
  172.2500    72.1970    28.4420    26.7300    28.0210    26.0980     2.6050   -12.5840 
  172.3750    68.6740    28.0380    26.0050    27.8230    26.0830     2.6020   -12.5040 
  172.5000    70.0090    28.4030    25.9790    26.6410    26.1060     2.5970   -12.4710 
  172.6250    74.8290    29.6900    26.9050    26.1740    26.0660     2.6000   -12.4810 
  172.7500    75.1780    31.5690    28.5530    31.2990    25.9400     2.6190   -12.5210 
  172.8750    71.8320    33.7250    30.6490    37.8740    25.7660     2.6480   -12.5920 
  173.0000    69.3550    35.8230    32.8310    42.5880    25.6890     2.6710   -12.6900 
  173.1250    69.0370    37.6090    34.7270    40.2650    25.7590     2.6630   -12.8040 
  173.2500    68.9190    39.2020    36.3410    36.6850    25.9390     2.6300   -12.9080 
  173.3750    68.9610    40.8140    37.9350    35.3830    26.1080     2.5890   -12.9830 
  173.5000    67.6420    42.5140    39.7740    36.5870    26.1890     2.5610   -13.0280 
  173.6250    65.8350    43.8170    41.6310    42.6290    26.1450     2.5640   -13.0420 
  173.7500    66.5480    43.9400    42.5560    50.3480    25.9970     2.5890   -13.0380 
  173.8750    68.7150    42.3060    41.5910    56.5980    25.8200     2.6200   -13.0230 
  174.0000    69.3420    38.9960    38.5120    49.7430    25.6950     2.6400   -13.0080 
  174.1250    68.1210    34.8680    34.1930    37.8950    25.8050     2.6330   -12.9940 
  174.2500    68.5220    31.2870    30.3010    27.6000    25.9930     2.6070   -12.9840 
  174.3750    68.7640    28.9690    27.6440    23.5290    26.1080     2.5770   -12.9870 
  174.5000    64.2900    28.0740    26.4270    23.5590    26.1380     2.5640   -13.0110 
  174.6250    57.3020    28.3970    26.5730    25.2320    26.1430     2.5830   -13.0670 
  174.7500    54.8250    29.1030    27.3130    26.8430    26.1250     2.6160   -13.1470 
  174.8750    57.5460    29.6350    28.0280    28.3800    26.1250     2.6420   -13.2540 
  175.0000    61.5160    29.6930    28.2620    28.7650    26.1690     2.6440   -13.3820 
  175.1250    63.0660    29.2860    27.9270    24.5840    26.2580     2.6210   -13.5260 
  175.2500    63.3640    28.8090    27.4730    22.2880    26.2720     2.5940   -13.6740 
  175.3750    62.8700    28.4890    27.1910    22.9830    26.1900     2.5720   -13.8220 
  175.5000    60.8720    28.3310    27.1320    24.1710    26.1060     2.5550   -13.9710 
  175.6250    60.2920    28.0770    27.0370    26.0350    26.0370     2.5380   -14.1150 
  175.7500    62.3650    27.4670    26.5400    27.0300    26.0060     2.5180   -14.2440 
  175.8750    65.9080    26.4430    25.5020    25.1360    25.9960     2.5010   -14.3550 
  176.0000    68.3030    25.1760    24.1030    22.0010    25.9750     2.4900   -14.4520 
  176.1250    68.9240    24.0330    22.7540    20.2150    25.9350     2.4870   -14.5330 
  176.2500    69.6990    23.2870    21.7900    19.1980    25.8550     2.4880   -14.6030 
  176.3750    70.2120    23.0270    21.3440    19.1230    25.7330     2.4920   -14.6620 
  176.5000    70.3780    23.2020    21.3780    19.6040    25.6180     2.5010   -14.7010 
  176.6250    70.3470    23.7450    21.8010    20.2990    25.5400     2.5180   -14.7120 
