~V
VERS. 2.00: Ver 2.00
~W
STRT.M 53.0000:
STOP.M 269.0000:
STEP.M 0.1250:
NULL. -999.2500:
UWI. F10224:
~C
DEPT.M :
DEN.GM/CC :
GR.API :
RML.OHMM :
RI. :
RXO.OHMM :
CALI.CM :
SP.MV :
~A
# ...
   64.1250     2.2150    76.4040     7.4450     7.5860     7.9220    22.2640   -15.6020 
   64.2500     2.1930    75.6010     7.5290     7.5440     8.5940    22.2560   -15.9270 
   64.3750     2.1770    76.6970     7.2630     7.2580     8.4990    22.2900   -16.2310 
   64.5000     2.1660    79.8390     6.7700     6.7950     8.0060    22.2980   -16.4530 
   64.6250     2.1630    86.2350     6.4280     6.3960     7.6800    22.3580   -16.6190 
   64.7500     2.1730    90.1320     6.5910     6.3590     7.6320    22.4570   -16.8090 
   64.8750     2.1990    87.8800     7.5430     6.9740     8.0020    22.5620   -16.9580 
   65.0000     2.2430    82.4630     9.5840     8.6160     9.1860    22.7810   -17.0560 
   65.1250     2.3180    81.0150    13.4840    12.1550    13.2860    23.1550   -17.1650 
   65.2500     2.4230    79.7120    19.5610    17.8410    23.2400    23.4930   -17.3110 
   65.3750     2.5400    75.4700    27.3960    25.2020    43.2550    23.6660   -17.4650 
   65.5000     2.6280    71.2980    33.5750    31.6030    73.0110    23.6870   -17.6220 
   65.6250     2.6480    71.5040    31.5460    31.7580    90.3100    23.6390   -17.8530 
   65.7500     2.6200    72.1920    24.5120    26.5640    81.9280    23.5580   -18.0980 
   65.8750     2.5630    70.4310    17.5810    19.8750    55.6870    23.3820   -18.3700 
   66.0000     2.4890    67.5430    12.7160    14.3960    29.6270    23.0390   -18.6460 
   66.1250     2.4070    67.1650    10.0300    10.9870    16.7000    22.6250   -18.9120 
   66.2500     2.3250    70.1190     8.6090     8.9400    11.5190    22.2980   -19.1860 
   66.3750     2.2570    73.2340     8.0380     7.8480    10.0730    22.1270   -19.4600 
   66.5000     2.2120    73.3640     7.9960     7.4050     9.8670    22.0480   -19.7160 
   66.6250     2.1890    70.6210     8.2330     7.4020     9.5830    21.9450   -19.9080 
   66.7500     2.1710    69.8340     8.4960     7.5630     9.1800    21.8710   -20.0910 
   66.8750     2.1550    71.6470     8.7010     7.7590     8.8640    21.8820   -20.2600 
   67.0000     2.1410    73.0680     8.8310     7.9230     8.7160    22.0030   -20.4020 
   67.1250     2.1320    73.0710     8.8920     8.0230     8.7250    22.1770   -20.5110 
   67.2500     2.1290    73.1870     8.9020     8.0710     8.8870    22.3060   -20.5930 
   67.3750     2.1330    73.7140     8.8640     8.0730     9.1190    22.4580   -20.6480 
   67.5000     2.1350    74.1630     8.7890     8.0400     9.1350    22.7260   -20.7120 
   67.6250     2.1290    72.9670     8.6850     7.9900     8.8120    22.8060   -20.7890 
   67.7500     2.1190    71.7170     8.5790     7.9440     8.5890    22.7000   -20.8120 
   67.8750     2.1150    70.2710     8.4990     7.9100     8.6970    22.5530   -20.8480 
   68.0000     2.1170    66.3100     8.4700     7.8890     8.9010    22.4980   -20.8480 
   68.1250     2.1200    62.3670     8.5040     7.8770     8.8370    22.5520   -20.8590 
   68.2500     2.1200    62.8940     8.5670     7.8670     8.6440    22.5330   -20.8380 
   68.3750     2.1200    65.3800     8.6260     7.8460     8.5770    22.3770   -20.7760 
   68.5000     2.1270    65.5810     8.6530     7.8040     8.7050    22.1480   -20.7550 
   68.6250     2.1400    68.5180     8.6430     7.7320     8.8410    22.0270   -20.7050 
   68.7500     2.1560    78.1740     8.6350     7.6420     8.7030    21.9890   -20.6950 
   68.8750     2.1760    86.2320     8.6600     7.5580     8.3430    21.9800   -20.6650 
   69.0000     2.1980    83.8660     8.7480     7.5110     8.1620    22.0180   -20.6440 
   69.1250     2.2100    74.0110     8.9270     7.5390     8.5070    22.1590   -20.6190 
   69.2500     2.2090    67.1130     9.1610     7.6300     9.1180    22.3560   -20.5750 
   69.3750     2.2030    65.5960     9.3880     7.7510     9.6350    22.5570   -20.6270 
   69.5000     2.2020    67.0440     9.5380     7.8510     9.8640    22.7270   -20.6700 
   69.6250     2.2040    65.5480     9.5730     7.8780     9.9390    22.9020   -20.7020 
   69.7500     2.2040    63.0890     9.5930     7.8670    10.0160    23.0930   -20.7160 
   69.8750     2.2050    63.7780     9.7480     7.9060    10.0810    23.2840   -20.7500 
   70.0000     2.2100    66.4990    10.1690     8.1030    10.1470    23.4650   -20.8340 
   70.1250     2.2200    65.1750    10.9050     8.5470    10.4120    23.5090   -20.9500 
   70.2500     2.2310    62.4370    11.7400     9.1340    11.1490    23.2340   -21.0440 
   70.3750     2.2460    63.9200    12.3900     9.6830    12.5520    22.5440   -21.0550 
   70.5000     2.2640    68.8610    12.5580     9.9560    13.8610    21.6810   -21.0340 
   70.6250     2.2700    71.1040    12.0190     9.7200    13.2540    20.9910   -21.0160 
   70.7500     2.2490    71.7030    11.0930     9.1430    11.4720    20.5870   -21.0250 
   70.8750     2.2080    71.3540    10.1130     8.4570    10.0300    20.3830   -21.0330 
   71.0000     2.1750    69.9410     9.3430     7.8670     9.3400    20.3150   -21.0060 
   71.1250     2.1650    69.1690     8.9560     7.5220     9.0080    20.3520   -20.9710 
   71.2500     2.1650    70.4010     8.8550     7.3790     8.8050    20.4720   -20.9410 
   71.3750     2.1670    72.1870     8.9290     7.3640     8.8160    20.6310   -20.9040 
   71.5000     2.1690    73.2370     9.0580     7.3960     9.0420    20.7470   -20.8300 
   71.6250     2.1720    72.6770     9.1540     7.4180     9.3920    20.7450   -20.7480 
   71.7500     2.1750    68.7820     9.1930     7.4190     9.5980    20.7530   -20.6420 
   71.8750     2.1770    64.2010     9.1830     7.4020     9.4750    20.8160   -20.5160 
   72.0000     2.1750    61.8080     9.1400     7.3730     9.0820    20.9020   -20.3900 
   72.1250     2.1690    62.3800     9.0650     7.3250     8.6930    20.9560   -20.2060 
   72.2500     2.1620    63.8450     8.9850     7.2560     8.5030    20.9450   -19.9590 
   72.3750     2.1580    64.8090     8.9680     7.1990     8.6440    20.8660   -19.6980 
   72.5000     2.1630    66.0570     9.1020     7.2170     9.1730    20.7690   -19.4640 
   72.6250     2.1790    68.1420     9.4640     7.3870     9.7160    20.7680   -19.2070 
   72.7500     2.1960    71.1700     9.9670     7.6780     9.6950    20.8360   -18.9280 
   72.8750     2.2090    70.5390    10.4750     8.0180     9.7260    20.9130   -18.6340 
   73.0000     2.2210    63.0020    10.8040     8.2790    10.9100    20.9560   -18.3000 
   73.1250     2.2310    56.1410    10.7380     8.2840    12.0080    20.8200   -17.9450 
   73.2500     2.2270    56.0130    10.3550     8.0420    10.8550    20.6630   -17.6590 
   73.3750     2.2070    61.2570     9.8200     7.6530     8.8460    20.6060   -17.4200 
   73.5000     2.1800    67.6160     9.3230     7.2520     7.8140    20.6390   -17.2190 
   73.6250     2.1670    69.6000     9.0250     6.9680     7.6610    20.7270   -17.0630 
   73.7500     2.1730    68.8570     8.9020     6.8160     7.4300    20.8390   -16.9160 
   73.8750     2.1920    68.1210     8.8620     6.7550     7.2450    20.9630   -16.7350 
   74.0000     2.2170    71.7700     8.8110     6.7300     7.3930    21.1690   -16.5670 
   74.1250     2.2440    79.8460     8.7120     6.7050     7.8260    21.3280   -16.4160 
   74.2500     2.2660    84.8100     8.6120     6.6770     8.1040    21.3800   -16.2650 
   74.3750     2.2750    84.6000     8.5440     6.6450     8.0320    21.3850   -16.1480 
   74.5000     2.2700    82.7950     8.5110     6.6030     7.7880    21.4040   -16.0530 
   74.6250     2.2620    83.5810     8.4640     6.5360     7.5720    21.4360   -15.9500 
   74.7500     2.2610    86.3070     8.3480     6.4310     7.2250    21.4670   -15.8560 
   74.8750     2.2650    89.1430     8.1430     6.2780     6.7770    21.4950   -15.7890 
   75.0000     2.2690    91.8000     7.8770     6.0830     6.5080    21.5400   -15.7320 
   75.1250     2.2710    93.4540     7.6200     5.8790     6.5550    21.5850   -15.7500 
   75.2500     2.2700    93.1610     7.4470     5.7250     6.6740    21.5950   -15.8730 
