~V
VERS. 2.00: Ver 2.00
~W
STRT.M 53.0000:
STOP.M 267.0000:
STEP.M 0.1250:
NULL. -999.2500:
UWI. F10211:
~C
DEPT.M :
GR.API :
RML.OHMM :
RI. :
RXO.OHMM :
CALI.CM :
SP.MV :
DEN.GM/CC :
~A
# ...
  199.2500    74.4530     9.7640     8.8820     9.0070    23.8420   -24.0170     2.4110 
  199.3750    73.3470     9.9100     9.0810     9.0250    23.8330   -24.2570     2.4080 
  199.5000    71.4320     9.9410     9.1750     8.9810    23.8430   -24.4640     2.4050 
  199.6250    70.0600     9.9250     9.1890     8.9590    23.8490   -24.6290     2.4070 
  199.7500    71.2180     9.9330     9.1800     8.7860    23.8440   -24.7330     2.4160 
  199.8750    73.1500    10.0220     9.2040     8.6340    23.8280   -24.7850     2.4320 
  200.0000    72.8890    10.2380     9.3070     8.7250    23.7890   -24.7740     2.4510 
  200.1250    72.5450    10.5320     9.4660     9.0330    23.6710   -24.7190     2.4620 
  200.2500    74.1780    10.7840     9.5970     9.4850    23.3870   -24.6520     2.4610 
  200.3750    77.5790    10.8400     9.5780    10.0970    23.0120   -24.6130     2.4540 
  200.5000    81.8670    10.5420     9.2690    10.1900    23.0120   -24.6520     2.4500 
  200.6250    85.6070     9.9610     8.7080     9.7820    23.2110   -24.7820     2.4490 
  200.7500    88.1820     9.2680     8.0210     8.8590    23.3150   -24.9940     2.4470 
  200.8750    89.2790     8.6610     7.3690     7.6600    23.2840   -25.2940     2.4460 
  201.0000    88.0310     8.3150     6.9130     6.9940    23.3800   -25.7000     2.4520 
  201.1250    85.8530     8.2360     6.6870     6.8630    23.6180   -26.1900     2.4540 
  201.2500    85.2190     8.3610     6.6620     6.9660    23.8390   -26.7610     2.4410 
  201.3750    86.0010     8.5940     6.7790     7.3670    23.9860   -27.3900     2.4170 
  201.5000    86.1660     8.8070     6.9490     7.7770    24.0890   -28.0880     2.3960 
  201.6250    86.6940     8.9160     7.0860     8.0800    24.1390   -28.8620     2.3890 
  201.7500    87.7460     8.9290     7.1570     8.2250    24.1570   -29.7300     2.3940 
  201.8750    88.6330     8.9340     7.1950     8.3280    24.1670   -30.6920     2.4070 
  202.0000    89.9920     9.0620     7.2750     8.6530    24.1990   -31.7810     2.4160 
  202.1250    91.4180     9.3650     7.4430     8.8670    24.2410   -32.9740     2.4170 
  202.2500    90.6220     9.8240     7.6990     8.7340    24.2500   -34.2020     2.4090 
  202.3750    86.3370    10.3520     7.9920     9.2260    24.2450   -35.3850     2.3900 
  202.5000    80.4010    10.7620     8.1970    11.0060    24.3240   -36.3890     2.3600 
  202.6250    75.4050    10.9010     8.2140    12.9720    24.4470   -37.1430     2.3300 
  202.7500    72.3980    10.7210     8.0110    13.4680    24.5190   -37.5870     2.3100 
  202.8750    71.6090    10.3200     7.6570    13.1810    24.5380   -37.6790     2.3030 
  203.0000    70.9000     9.9970     7.3390    13.3340    24.5280   -37.3140     2.3060 
  203.1250    68.5040    10.1120     7.2720    13.7800    24.4310   -36.5390     2.3190 
  203.2500    65.5400    10.9950     7.6500    14.2870    24.1610   -35.4140     2.3520 
  203.3750    64.1210    12.9720     8.6720    15.2820    23.7860   -34.0080     2.4090 
  203.5000    63.7760    16.5080    10.7180    18.7730    23.5860   -32.3810     2.4840 
  203.6250    63.1510    19.9130    13.8380    25.5250    23.5940   -30.6370     2.5530 
  203.7500    62.2980    22.8930    17.6370    35.0600    23.7240   -28.8320     2.6050 
  203.8750    62.0980    25.4070    20.7930    44.2520    23.8610   -27.0130     2.6410 
  204.0000    62.3980    24.2170    20.9290    46.8900    23.9480   -25.2150     2.6570 
  204.1250    62.5890    19.7740    18.0760    43.0110    24.0090   -23.4440     2.6500 
  204.2500    61.5750    14.4420    13.9860    31.4270    24.0270   -21.7370     2.6090 
  204.3750    58.6400    10.1120    10.2970    17.4730    23.9660   -20.1500     2.5370 
  204.5000    56.1570     7.5510     7.8230     9.9680    23.8240   -18.7560     2.4670 
  204.6250    55.7640     6.2990     6.3880     6.8210    23.6510   -17.5540     2.4240 
  204.7500    57.1260     5.8900     5.7210     5.7670    23.5220   -16.5550     2.4110 
  204.8750    59.9790     5.9960     5.6090     5.7280    23.5350   -15.7500     2.4110 
  205.0000    65.4750     6.3520     5.8640     6.1790    23.6780   -15.1630     2.4150 
  205.1250    73.3990     6.7050     6.2340     6.6860    23.8340   -14.7610     2.4180 
  205.2500    81.1580     6.9260     6.5530     7.0130    23.9390   -14.5090     2.4190 
  205.3750    86.1920     6.9890     6.7410     6.7840    24.0000   -14.3700     2.4170 
  205.5000    87.7040     6.9170     6.7730     6.4850    24.0610   -14.3200     2.4140 
  205.6250    86.7980     6.7600     6.6810     6.3980    24.0770   -14.3200     2.4110 
  205.7500    85.6160     6.5470     6.4910     6.4200    24.0530   -14.3430     2.4070 
  205.8750    85.7790     6.3160     6.2400     6.4800    24.0370   -14.3910     2.4020 
  206.0000    86.4600     6.1510     6.0040     6.3590    24.0250   -14.4600     2.3950 
  206.1250    84.6330     6.1190     5.8600     5.9830    24.0190   -14.5600     2.3850 
  206.2500    82.2030     6.2560     5.8520     5.7500    24.0140   -14.6880     2.3750 
  206.3750    83.2440     6.5440     5.9810     6.1300    24.0650   -14.8160     2.3670 
  206.5000    84.8530     6.9060     6.2020     7.3150    24.2240   -14.9230     2.3580 
  206.6250    82.3170     7.2350     6.4280     8.2150    24.4150   -15.0090     2.3470 
  206.7500    78.6330     7.4780     6.6090     8.1920    24.5640   -15.0770     2.3380 
  206.8750    77.4330     7.6620     6.7510     7.7890    24.6650   -15.1320     2.3290 
  207.0000    77.3810     7.8950     6.9130     7.9770    24.7330   -15.1970     2.3210 
  207.1250    77.6850     8.2600     7.1600     8.7250    24.7760   -15.2780     2.3140 
  207.2500    79.1050     8.7730     7.5200     9.7120    24.8000   -15.3690     2.3090 
  207.3750    78.8280     9.3830     7.9820    10.5820    24.8260   -15.4900     2.3060 
  207.5000    74.2590     9.9940     8.5000    11.1230    24.8530   -15.6570     2.3060 
  207.6250    68.8620    10.5480     9.0170    11.2580    24.8770   -15.8610     2.3040 
  207.7500    66.0500    11.0520     9.5060    11.5400    24.8880   -16.0970     2.2970 
  207.8750    66.2960    11.5440     9.9730    12.1900    24.8870   -16.3550     2.2870 
  208.0000    69.8870    12.0520    10.4300    13.0290    24.8530   -16.6130     2.2810 
  208.1250    74.1810    12.5770    10.8930    13.5910    24.7800   -16.8490     2.2800 
  208.2500    75.7990    13.1120    11.3700    14.0080    24.6720   -17.0690     2.2820 
  208.3750    75.3510    13.6620    11.8680    14.7380    24.5510   -17.2460     2.2850 
  208.5000    75.6270    14.2270    12.3840    15.5200    24.4460   -17.3720     2.2830 
  208.6250    75.1660    14.7700    12.8930    16.2720    24.3830   -17.4650     2.2810 
  208.7500    73.0390    15.2440    13.3580    16.7670    24.3950   -17.5290     2.2810 
  208.8750    69.9030    15.6030    13.7400    16.9350    24.4430   -17.5630     2.2790 
  209.0000    67.9810    15.8060    14.0010    16.4650    24.4870   -17.5680     2.2730 
  209.1250    68.5180    15.8780    14.1550    15.6880    24.5100   -17.5410     2.2680 
  209.2500    71.2980    15.8620    14.2360    15.3300    24.5030   -17.4850     2.2710 
  209.3750    73.3050    15.8020    14.2820    15.5200    24.4770   -17.4230     2.2830 
  209.5000    71.2600    15.7610    14.3400    15.7780    24.4590   -17.3590     2.2970 
  209.6250    69.7030    15.7860    14.4440    15.4500    24.4450   -17.2820     2.3070 
  209.7500    70.7040    15.8910    14.6070    14.9250    24.4190   -17.1740     2.3110 
  209.8750    72.4270    16.0450    14.8120    14.9380    24.3880   -17.0410     2.3050 
  210.0000    73.0320    16.1640    15.0010    15.8560    24.3440   -16.8840     2.2930 
  210.1250    73.5630    16.1760    15.1140    16.4700    24.3200   -16.7300     2.2780 
  210.2500    73.1100    16.0760    15.1280    16.2260    24.3300   -16.5850     2.2690 
  210.3750    69.8520    15.9290    15.0740    15.5780    24.3790   -16.4630     2.2700 
