~V
VERS. 2.00: Ver 2.00
~W
STRT.M 60.0000:
STOP.M 271.0000:
STEP.M 0.1250:
NULL. -999.2500:
UWI. F10237:
~C
DEPT.M :
GR.API :
RML.OHMM :
RI. :
RXO.OHMM :
CALI.CM :
DEN.GM/CC :
SP.MV :
~A
# ...
  262.5000    49.4480    11.5070    10.2110    10.8040    24.7410     2.5580    -7.7340 
  262.6250    49.4480    11.2860    10.0030     8.5580    24.7170     2.5780    -7.7670 
  262.7500    49.4480    11.1380     9.8530     7.6920    24.6930     2.5990    -7.7910 
  262.8750    49.4480    11.0270     9.7420     7.9580    24.6620     2.6210    -7.8710 
  263.0000    49.4480    10.9070     9.6280     8.7940    24.6840     2.6420    -7.9500 
  263.1250    49.4480    10.7430     9.4610    10.0650    24.7060     2.6310    -7.9840 
  263.2500    49.4480    10.5400     9.2370    11.3690    24.7280     2.5730    -8.0450 
  263.3750    49.4480    10.3230     8.9860    11.5010    24.7360     2.5030    -8.1060 
  263.5000    49.4480    10.1390     8.7700    10.7820    24.7310     2.4660    -8.1570 
  263.6250    49.4480    10.0580     8.6690    10.2330    24.7380     2.4630    -8.2590 
  263.7500    49.4480    10.1010     8.6980    10.9440    24.7300     2.4660    -8.3160 
  263.8750    49.4480    10.2960     8.8670    14.4280    24.6390     2.4680    -8.3520 
  264.0000    49.4480    10.6560     9.1670    18.5740    24.6350     2.4680    -8.3920 
  264.1250    49.4480    11.1740     9.5850    20.9400    24.7720     2.4790    -8.4780 
  264.2500    49.4480    11.7420    10.0440    22.7370    24.8500     2.5070    -8.5410 
  264.3750    49.4480    12.2600    10.4710    24.7270    24.8310     2.5430    -8.5640 
  264.5000    49.4480    12.6370    10.7880    26.1460    24.7580     2.5730    -8.5440 
  264.6250    49.4480    12.8140    10.9280    25.6530    24.7350     2.5840    -8.4840 
  264.7500    49.4480    12.8740    10.9580    23.6070    24.7340     2.5790    -8.4920 
  264.8750    49.4480    12.8830    10.9530    21.1130    24.7330     2.5640    -8.4870 
  265.0000    49.4480    12.8800    10.9640    18.4250    24.7240     2.5460    -8.4860 
  265.1250    49.4480    12.8790    11.0000    15.5660    24.7140     2.5300    -8.4880 
  265.2500    49.4480    12.8840    11.0350    12.3510    24.7110     2.5160    -8.4840 
  265.3750    49.4480    12.8920    11.0520     9.8700    24.7350     2.5020    -8.5020 
  265.5000    49.4480    12.9000    11.0530     8.4940    24.7760     2.4890    -8.5470 
  265.6250    49.4480    12.9050    11.0510     7.7850    24.7850     2.4830    -8.6170 
  265.7500    49.4480    12.9100    11.0550     7.4500    24.8120     2.4840    -8.6140 
  265.8750    49.4480    12.9120    11.0580     7.5630    24.8710     2.4900    -8.6110 
  266.0000    49.4480    12.9120    11.0580     7.8940    24.9150     2.4980    -8.5800 
  266.1250    49.4480    12.9120    11.0580     8.4590    24.9250     2.5090    -8.5660 
  266.2500    49.4480    12.9120    11.0580     9.1740    24.9050     2.5200    -8.5600 
  266.3750    49.4480    12.9120    11.0580     9.3080    24.8720     2.5270    -8.5550 
  266.5000    49.4480    12.9120    11.0580     8.6640    24.8660     2.5270    -8.5220 
  266.6250    49.4480    12.9120    11.0580     8.3460    24.8590     2.5120    -8.4800 
  266.7500    49.4480    12.9120    11.0580     8.0220    24.8660     2.4890    -8.4840 
  266.8750    49.4480    12.9120    11.0580     7.7040    24.9100     2.4710    -8.5220 
  267.0000    49.4480    12.9120    11.0580     7.8790    24.9260     2.4690    -8.5830 
  267.1250    49.4480    12.9120    11.0580     8.8340    24.8700     2.4800    -8.5700 
  267.2500    49.4480    12.9120    11.0580     9.7050    24.8450     2.4920    -8.5170 
  267.3750    49.4480    12.9120    11.0580    10.2420    24.8250     2.4970    -8.4770 
  267.5000    49.4480    12.9120    11.0580    10.7280    24.8200     2.4870    -8.4600 
  267.6250    49.4480    12.9120    11.0580    10.9180    24.7680     2.4710    -8.4230 
  267.7500    49.4480    12.9120    11.0580    11.6660    24.7020     2.4660    -8.3860 
  267.8750    49.4480    12.9120    11.0580    14.0490    24.6960     2.4740    -8.3410 
  268.0000    49.4480    12.9120    11.0580    16.5650    24.7610     2.4840    -8.2740 
  268.1250    49.4480    12.9120    11.0580    16.2790    24.7990     2.4840    -8.2910 
  268.2500    49.4480    12.9120    11.0580    14.5050    24.7930     2.4750    -8.3090 
  268.3750    49.4480    12.9120    11.0580    13.1350    24.7900     2.4590  -999.2500 
  268.5000    49.4480    12.9120    11.0580    12.1860    24.7980     2.4360  -999.2500 
  268.6250    49.4480    12.9120    11.0580    11.8900    24.7940     2.4060  -999.2500 
  268.7500    49.4480    12.9120    11.0580    11.8980    24.7720     2.3630  -999.2500 
  268.8750    49.4480    12.9120    11.0580    12.1960    24.8120     2.3000  -999.2500 
  269.0000    49.4480    12.9120    11.0580    13.8460    24.9320     2.2030  -999.2500 
  269.1250    49.4480    12.9120    11.0580    10.7830    24.8140     2.0620  -999.2500 
  269.2500    49.4480    12.9120    11.0580     8.2740    24.1110     1.9380  -999.2500 
  269.3750    49.4480    12.9120    11.0580     6.5400    22.8370     1.8670  -999.2500 
  269.5000    49.4480    12.9120    11.0580     5.9100    21.9750     1.8430  -999.2500 
  269.6250    49.4480    12.9120    11.0580     5.8310    21.7290     1.8430  -999.2500 
  269.7500    49.4480    12.9120    11.0580     5.8300    21.7290     1.8460  -999.2500 
  269.8750    49.4480    12.9120    11.0580     5.8310    21.7290     1.8480  -999.2500 
  270.0000    49.4480    12.9120    11.0580     5.8310    21.7290     1.8500  -999.2500 
  270.1250    49.4480    12.9120    11.0580     5.8320    21.7250     1.8500  -999.2500 
  270.2500    49.4480    12.9120    11.0580     5.8310    21.7140     1.8480  -999.2500 
  270.3750    49.4480    12.9120    11.0580     5.8300    21.7040     1.8450  -999.2500 
  270.5000    49.4480    12.9120    11.0580     5.8290    21.6990     1.8430  -999.2500 
  270.6250    49.4480    12.9120    11.0580     5.8270    21.6990     1.8430  -999.2500 
  270.7500  -999.2500  -999.2500  -999.2500  -999.2500  -999.2500     1.8440  -999.2500 
  270.8750  -999.2500  -999.2500  -999.2500  -999.2500  -999.2500     1.8440  -999.2500 
  271.0000  -999.2500  -999.2500  -999.2500  -999.2500  -999.2500     1.8430  -999.2500 
