~V
VERS. 2.00: Ver 2.00
~W
STRT.M 58.0000:
STOP.M 277.0000:
STEP.M 0.1250:
NULL. -999.2500:
UWI. F10219:
~C
DEPT.M :
SP.MV :
DEN.GM/CC :
GR.API :
RML.OHMM :
RI. :
RXO.OHMM :
CALI.CM :
~A
# ...
  114.2500    -7.5530     2.3640   114.3800     4.9220     4.1010     4.1970    24.8860 
  114.3750    -7.4150     2.3650   115.3290     4.9150     4.0660     4.2080    24.7340 
  114.5000    -7.2380     2.3640   113.5250     4.9140     4.0540     4.1720    24.5230 
  114.6250    -7.0980     2.3630   110.3720     4.9080     4.0540     4.1240    24.3550 
  114.7500    -7.0170     2.3600   107.7070     4.9020     4.0600     4.1080    24.2820 
  114.8750    -6.9450     2.3540   106.2750     4.9200     4.0780     4.1120    24.2690 
  115.0000    -6.9710     2.3450   105.8780     4.9830     4.1190     4.1240    24.2690 
  115.1250    -7.1020     2.3360   105.5880     5.0970     4.1930     4.1740    24.2750 
  115.2500    -7.1870     2.3290   104.4170     5.2560     4.3000     4.3210    24.2930 
  115.3750    -7.2220     2.3230   102.7240     5.4380     4.4270     4.5750    24.3340 
  115.5000    -7.2950     2.3190   101.9020     5.6070     4.5490     4.8710    24.3900 
  115.6250    -7.3210     2.3150   102.1340     5.7360     4.6460     5.1140    24.4610 
  115.7500    -7.3250     2.3120   101.4760     5.7990     4.6990     5.1210    24.5610 
  115.8750    -7.4120     2.3100    99.0640     5.7930     4.7000     4.8940    24.6890 
  116.0000    -7.5070     2.3110    97.2990     5.7330     4.6570     4.7080    24.8160 
  116.1250    -7.6030     2.3150    97.1080     5.6470     4.5830     4.6610    24.9160 
  116.2500    -7.8460     2.3250    96.4190     5.5830     4.5080     4.6990    25.0080 
  116.3750    -8.2560     2.3420    93.5940     5.6100     4.4760     4.7640    25.0630 
  116.5000    -8.8100     2.3620    90.7220     5.7840     4.5340     4.8760    25.0310 
  116.6250    -9.6430     2.3810    89.4670     6.1380     4.7150     5.1370    24.9530 
  116.7500   -10.7550     2.3980    87.3390     6.6560     5.0330     5.6250    24.8870 
  116.8750   -12.0380     2.4030    82.4220     7.2530     5.4530     6.3410    24.8570 
  117.0000   -13.4590     2.3780    77.3860     7.7910     5.8850     7.1660    24.8410 
  117.1250   -14.9340     2.3160    75.0610     8.1580     6.2440     7.8850    24.8260 
  117.2500   -16.3070     2.2390    75.4880     8.2830     6.4480     8.3830    24.8200 
  117.3750   -17.5330     2.1800    77.2990     8.1940     6.4780     8.6610    24.8380 
  117.5000   -18.5590     2.1500    79.4780     8.0110     6.3960     8.6980    24.8600 
  117.6250   -19.3080     2.1390    81.0570     7.8320     6.2710     8.5610    24.8640 
  117.7500   -19.8060     2.1370    81.3990     7.7220     6.1690     8.4440    24.8450 
  117.8750   -20.0700     2.1350    80.1240     7.6950     6.1180     8.5710    24.8170 
  118.0000   -20.1760     2.1280    76.6660     7.7220     6.1120     8.9840    24.7980 
  118.1250   -20.2570     2.1240    72.0070     7.7830     6.1410     9.6410    24.7920 
  118.2500   -20.3410     2.1300    69.9060     7.8660     6.1930    10.2420    24.8480 
  118.3750   -20.4350     2.1430    71.4980     7.9620     6.2620    10.3140    24.9480 
  118.5000   -20.6290     2.1560    73.2390     8.0610     6.3410     9.8290    24.9650 
  118.6250   -20.8860     2.1620    72.9770     8.1560     6.4220     9.3170    24.9270 
  118.7500   -21.1370     2.1600    71.3730     8.2250     6.4900     9.1960    24.9510 
  118.8750   -21.4080     2.1540    69.6390     8.2490     6.5270     9.3250    25.0960 
  119.0000   -21.6180     2.1510    67.9010     8.2300     6.5330     9.4220    25.2380 
  119.1250   -21.6980     2.1510    67.1250     8.2030     6.5230     9.3000    25.2140 
  119.2500   -21.7500     2.1510    68.7850     8.2350     6.5410     9.0470    25.1080 
  119.3750   -21.7690     2.1500    71.4440     8.3900     6.6360     8.7900    25.1400 
  119.5000   -21.6890     2.1540    72.3580     8.6600     6.8210     8.5880    25.3530 
  119.6250   -21.6130     2.1700    71.5080     8.9810     7.0680     8.4540    25.6030 
  119.7500   -21.5870     2.1810    70.5590     9.2340     7.3050     8.4240    25.7330 
  119.8750   -21.5850     2.1740    69.7140     9.3080     7.4470     8.5710    25.7060 
  120.0000   -21.6880     2.1650    68.3220     9.1840     7.4550     8.9580    25.6140 
  120.1250   -21.8830     2.1590    67.7570     8.9160     7.3420     9.5140    25.4780 
  120.2500   -22.0610     2.1570    69.7020     8.6070     7.1690     9.9760    25.3090 
  120.3750   -22.2470     2.1600    73.1380     8.3520     7.0090    10.1930    25.1320 
  120.5000   -22.4340     2.1650    75.1580     8.1810     6.9000    10.2240    24.9510 
  120.6250   -22.5380     2.1700    74.3270     8.0660     6.8390    10.0830    24.8040 
  120.7500   -22.5900     2.1700    72.0930     7.9630     6.8000     9.7490    24.7230 
  120.8750   -22.6230     2.1640    70.8760     7.8400     6.7550     9.2560    24.6690 
  121.0000   -22.6450     2.1570    70.7230     7.7030     6.6980     8.7190    24.6220 
  121.1250   -22.6920     2.1530    70.4960     7.5840     6.6460     8.2840    24.5490 
  121.2500   -22.6820     2.1540    69.9990     7.5420     6.6320     8.0320    24.5140 
  121.3750   -22.5510     2.1580    69.1230     7.6540     6.6970     7.9610    24.5470 
  121.5000   -22.3470     2.1620    66.8700     7.9650     6.8650     8.0860    24.6280 
  121.6250   -22.0130     2.1680    64.2080     8.4590     7.1450     8.5300    24.8010 
  121.7500   -21.4600     2.1820    64.1920     9.0890     7.5030     9.5060    25.0390 
  121.8750   -20.6560     2.2060    67.3800     9.6010     7.8370    10.8290    25.2130 
  122.0000   -19.5480     2.2300    70.4340     9.6980     7.9970    11.8530    25.1830 
  122.1250   -18.1480     2.2490    71.2320     9.4050     7.8610    12.1900    24.9400 
  122.2500   -16.6270     2.2640    70.4320     8.7040     7.3750    11.3880    24.7160 
  122.3750   -15.0650     2.2850    69.8370     7.7910     6.6520     9.5310    24.6890 
  122.5000   -13.5240     2.3160    70.9740     7.0400     5.9610     7.6830    24.7520 
  122.6250   -12.1570     2.3550    73.7030     6.7850     5.5560     6.6570    24.8550 
  122.7500   -10.9630     2.4000    75.4120     7.3180     5.6770     6.8310    25.0770 
  122.8750    -9.9400     2.4540    73.7360     8.7180     6.4630     8.3590    25.1870 
  123.0000    -9.1720     2.5110    69.5810    10.7050     7.8280    10.9470    24.9530 
  123.1250    -8.6170     2.5550    64.7050    12.8310     9.5500    14.2780    24.5620 
  123.2500    -8.2290     2.5720    59.6820    14.4190    11.1730    17.0420    24.2920 
  123.3750    -8.0120     2.5600    55.2420    14.9050    12.1580    17.6310    24.1700 
  123.5000    -7.8650     2.5370    52.9040    14.3530    12.2840    16.2720    24.1630 
  123.6250    -7.7190     2.5180    53.1430    13.3410    11.8030    13.8770    24.2420 
  123.7500    -7.5940     2.5150    54.8240    12.7800    11.3650    12.0910    24.4040 
  123.8750    -7.4420     2.5380    56.1620    13.3210    11.5570    12.3110    24.6000 
  124.0000    -7.2400     2.5760    55.5950    14.9440    12.5270    14.5620    24.7450 
  124.1250    -7.0670     2.6110    53.1450    17.2780    14.1590    18.0330    24.7590 
  124.2500    -6.9360     2.6260    50.7080    19.7910    16.1160    20.7840    24.6300 
  124.3750    -6.8300     2.6270    49.4990    21.7270    17.9080    21.4510    24.4780 
  124.5000    -6.7570     2.6250    48.9810    22.5770    19.1070    20.8510    24.4580 
  124.6250    -6.6910     2.6200    48.8470    22.5910    19.5680    20.1460    24.4890 
  124.7500    -6.7000     2.6030    49.2360    22.1030    19.4480    19.7820    24.4760 
  124.8750    -6.8340     2.5710    49.9460    21.5550    19.0980    19.3240    24.4670 
  125.0000    -7.0150     2.5350    50.5570    21.2420    18.8310    18.6890    24.4990 
  125.1250    -7.2250     2.5080    51.3330    21.2330    18.7550    18.3280    24.5350 
  125.2500    -7.4600     2.5010    52.1630    21.4860    18.8820    18.6310    24.5490 
  125.3750    -7.6960     2.5140    52.4400    21.8740    19.1420    19.4330    24.5410 
