~V
VERS. 2.00: Ver 2.00
~W
STRT.M 49.0000:
STOP.M 279.0000:
STEP.M 0.1250:
NULL. -999.2500:
UWI. F10243:
~C
DEPT.M :
GR.API :
RML.OHMM :
RI. :
RXO.OHMM :
CALI.CM :
DEN.GM/CC :
SP.MV :
~A
# ...
  229.0000    73.1690    84.9130    76.5890    94.9960    25.0330     2.2560   -10.6130 
  229.1250    69.1060    80.8820    73.2120    77.4700    25.1290     2.2120   -10.3100 
  229.2500    65.0000    80.8690    73.5130    71.5480    25.1530     2.2110    -9.9450 
  229.3750    64.3060    84.9370    78.5620    67.5090    25.1410     2.2760    -9.5930 
  229.5000    66.9690    88.8000    87.7530    65.4380    25.0380     2.4180    -9.2980 
  229.6250    69.5240    84.4560    93.7000    76.9560    24.8270     2.5840    -9.0280 
  229.7500    69.5960    68.7340    86.9330   122.0180    24.6220     2.7150    -8.7710 
  229.8750    66.7470    46.6490    65.4110   205.6330    24.5380     2.7680    -8.4810 
  230.0000    62.9490    28.2540    40.8310   171.7450    24.5020     2.7190    -8.1990 
  230.1250    61.6460    16.8390    23.4560    55.9940    24.4240     2.6120    -8.0120 
  230.2500    63.2290    10.5440    13.5330    17.5390    24.2380     2.4860    -7.9760 
  230.3750    64.9330     7.1850     8.5300     8.2330    23.9820     2.3770    -7.9970 
  230.5000    66.4780     5.7870     6.3890     5.9880    23.7540     2.3190    -8.0260 
  230.6250    70.9850     5.3160     5.4470     5.3500    23.6320     2.3150    -8.0410 
  230.7500    77.7370     5.3860     5.2830     5.3210    23.5920     2.3540    -8.0500 
  230.8750    81.9170     5.8700     5.6830     6.9710    23.6970     2.4120    -8.1100 
  231.0000    79.6280     6.6690     6.5020     9.8340    24.0130     2.4600    -8.2670 
  231.1250    75.8740     7.5210     7.4410    10.6230    24.4140     2.4840    -8.4900 
  231.2500    75.3740     8.2230     8.2750     9.4630    24.6760     2.4890    -8.7230 
  231.3750    78.6130     8.6390     8.8350     9.0850    24.7790     2.4820    -8.9900 
  231.5000    84.5840     8.7240     9.0230     9.3690    24.7860     2.4660    -9.2700 
  231.6250    91.9590     8.6430     8.9900     9.2760    24.8000     2.4410    -9.5370 
  231.7500    98.6940     8.5260     8.8570     9.2670    24.8210     2.4110    -9.7850 
  231.8750   102.0050     8.4610     8.7130     9.2950    24.8300     2.3850    -9.9520 
  232.0000   103.2310     8.5130     8.6150     9.3610    24.8350     2.3780   -10.0220 
  232.1250   105.8000     8.6710     8.5830     9.4650    24.8520     2.3870   -10.0370 
  232.2500   108.1320     8.9050     8.6170     9.6420    24.8770     2.4060    -9.9750 
  232.3750   107.2120     9.1590     8.6880     9.8690    24.8930     2.4230    -9.8510 
  232.5000   103.9170     9.3560     8.7500    10.0790    24.8930     2.4250    -9.6780 
  232.6250   104.1740     9.4630     8.7680    10.1090    24.8800     2.4340    -9.4960 
  232.7500   107.7900     9.4870     8.7360     9.9160    24.8530     2.4370    -9.2990 
  232.8750   111.8780     9.4580     8.6660     9.6260    24.8340     2.4370    -9.1470 
  233.0000   114.8700     9.4060     8.5810     9.3350    24.8350     2.4340    -9.0750 
  233.1250   116.2090     9.3470     8.5050     9.2140    24.8640     2.4310    -9.0400 
  233.2500   116.9150     9.2810     8.4480     9.3470    24.9120     2.4290    -9.0480 
  233.3750   118.2890     9.2090     8.4170     9.5190    24.9320     2.4300    -9.1280 
  233.5000   120.5040     9.1680     8.4230     9.4380    24.8990     2.4310    -9.2980 
  233.6250   122.4270     9.2210     8.4980     9.1790    24.8310     2.4260    -9.4930 
  233.7500   124.0550     9.4340     8.6960     9.0380    24.7600     2.4140    -9.6920 
  233.8750   126.7640     9.8510     9.0700     9.0350    24.6800     2.4000    -9.8510 
  234.0000   125.6790    10.4670     9.6420     9.3550    24.6030     2.3970    -9.9090 
  234.1250   118.8920    11.0860    10.2590    10.1480    24.5200     2.4080    -9.9010 
  234.2500   113.0380    11.4690    10.7010    11.4750    24.4470     2.4280    -9.8370 
  234.3750   114.2890    11.4060    10.7330    12.1900    24.3890     2.4460    -9.6880 
  234.5000   118.5740    10.8080    10.1980    11.6180    24.3940     2.4520    -9.4820 
  234.6250   117.6490     9.9980     9.3730    10.1300    24.5000     2.4470    -9.2760 
  234.7500   112.5230     9.2850     8.5570     8.9170    24.7070     2.4380    -9.1170 
  234.8750   108.7090     8.9350     8.0370     8.5440    24.8960     2.4280    -9.0340 
  235.0000   108.0510     9.2540     8.1430     8.9790    25.0040     2.4210    -8.9950 
  235.1250   106.7390    10.3190     8.9410     9.7740    25.0030     2.4170    -8.9580 
  235.2500   102.6680    12.2720    10.5280    11.7500    24.9390     2.4140    -8.9360 
  235.3750    97.0890    15.1910    12.9660    17.5410    24.8310     2.4130    -8.9080 
  235.5000    91.6830    19.0830    16.3230    29.4630    24.7420     2.4080    -8.8330 
  235.6250    88.5140    23.4820    20.2140    37.2930    24.6800     2.3970    -8.7480 
  235.7500    87.6110    28.1610    24.4260    31.4250    24.6470     2.3780    -8.6870 
  235.8750    86.7000    33.1350    28.9960    29.5990    24.6350     2.3530    -8.6440 
  236.0000    82.0730    38.6560    34.1550    42.9290    24.6650     2.3270    -8.6300 
  236.1250    74.7290    44.4960    39.5780    65.6550    24.7460     2.3060    -8.6220 
  236.2500    69.6280    49.9700    44.5530    74.7130    24.8410     2.2930    -8.6140 
  236.3750    69.7400    54.2430    48.2190    68.9870    24.8890     2.2890    -8.6320 
  236.5000    71.9500    56.9590    50.1570    56.1510    24.8980     2.2930    -8.7380 
  236.6250    72.3400    59.5220    51.8930    46.9870    24.9080     2.2960    -8.9360 
  236.7500    71.1510    63.5880    55.1900    48.4330    24.9320     2.2920    -9.1160 
  236.8750    69.8740    70.4160    61.2340    69.7490    24.9500     2.2790    -9.2600 
  237.0000    67.5480    80.4310    70.2220    98.1030    24.9440     2.2610    -9.4000 
  237.1250    65.1090    91.3520    79.9490   109.7470    24.9040     2.2480    -9.5400 
  237.2500    65.6400   100.6350    88.1750   109.1310    24.8390     2.2450    -9.7220 
  237.3750    67.9680   106.2800    93.1700   106.3400    24.7900     2.2520    -9.9640 
  237.5000    69.6900   107.3350    94.2430   101.5180    24.8060     2.2640   -10.2130 
  237.6250    70.9680   105.6310    93.1850    97.5490    24.8400     2.2740   -10.4170 
  237.7500    71.0100   102.2010    90.9300    97.6380    24.8220     2.2780   -10.6350 
  237.8750    68.1690    97.5750    87.7800   101.1130    24.7850     2.2770   -10.8190 
  238.0000    63.9740    92.1120    83.8580    93.1060    24.8140     2.2730   -10.9760 
  238.1250    62.6300    86.5430    79.8450    78.2160    24.8560     2.2720   -11.1620 
  238.2500    64.7690    82.1180    76.2820    70.8110    24.8840     2.2750   -11.3100 
  238.3750    68.1070    79.9510    73.5090    69.3960    24.8830     2.2800   -11.4100 
  238.5000    69.1640    79.9670    71.9520    70.7090    24.8480     2.2840   -11.4540 
  238.6250    67.5760    80.5030    71.6410    71.9610    24.8140     2.2830   -11.4130 
  238.7500    65.3760    81.1560    72.4940    72.5300    24.8430     2.2800   -11.2640 
  238.8750    65.0940    82.1900    74.0490    69.7750    24.8690     2.2780   -11.1020 
  239.0000    66.4510    83.0580    75.4910    71.1220    24.8000     2.2830   -11.0130 
  239.1250    67.5000    82.6240    76.0050    83.0150    24.6890     2.2920   -10.9510 
  239.2500    68.7130    80.5620    75.1250    89.6540    24.6150     2.3010   -10.9180 
  239.3750    70.6340    77.2790    73.0120    73.2320    24.5810     2.3050   -10.8760 
  239.5000    71.2320    73.8170    70.4590    60.1500    24.5920     2.3030   -10.8270 
  239.6250    69.9430    71.1890    68.3580    61.7130    24.6240     2.2990   -10.8350 
  239.7500    67.6260    69.8560    67.1610    64.8550    24.6640     2.2970   -10.9650 
  239.8750    66.3190    69.9420    67.2020    64.6630    24.6740     2.2990   -11.1840 
  240.0000    67.4450    71.5630    68.8510    70.5470    24.6290     2.3030   -11.3300 
  240.1250    71.0590    74.2720    71.6570    70.5830    24.5840     2.3100   -11.4130 
