~V
VERS. 2.00: Ver 2.00
~W
STRT.M 57.0000:
STOP.M 259.0000:
STEP.M 0.1250:
NULL. -999.2500:
UWI. F10209:
~C
DEPT.M :
SP.MV :
DEN.GM/CC :
GR.API :
RML.OHMM :
RI. :
RXO.OHMM :
CALI.CM :
~A
# ...
  158.2500    -9.2840     2.2990    77.4070    10.9250     9.8560     9.7980    24.0550 
  158.3750    -9.1560     2.2970    78.5860    10.4680     9.6060     8.2770    23.9740 
  158.5000    -8.9360     2.2900    80.0990     9.7740     9.1130     6.7190    24.0750 
  158.6250    -8.5880     2.2810    82.4120     9.1350     8.6070     5.9790    24.2280 
  158.7500    -8.0940     2.2740    85.6370     8.7510     8.2600     6.0620    24.3140 
  158.8750    -7.4990     2.2740    88.9370     8.7330     8.1930     6.8950    24.2900 
  159.0000    -6.8890     2.2850    91.7700     8.9750     8.3630     7.7720    24.1770 
  159.1250    -6.3650     2.3050    94.3190     9.4210     8.7310     7.8220    24.0630 
  159.2500    -5.9880     2.3270    94.6480    10.0820     9.2870     7.5030    24.0200 
  159.3750    -5.7780     2.3360    89.3900    11.0700    10.0960     7.1740    24.1260 
  159.5000    -5.6130     2.3240    81.9310    12.3080    11.1130     8.0420    24.3570 
  159.6250    -5.4570     2.2890    75.4560    13.6000    12.2130    10.1500    24.5760 
  159.7500    -5.3290     2.2440    71.9080    14.6200    13.1380    12.9040    24.6850 
  159.8750    -5.2180     2.2080    73.2090    14.8860    13.4420    18.2940    24.7400 
  160.0000    -5.1460     2.1950    78.6590    14.4010    13.0590    20.3620    24.7570 
  160.1250    -5.1430     2.2080    82.6960    13.4850    12.2330    18.6230    24.7100 
  160.2500    -5.1770     2.2380    82.1110    12.6960    11.4190    14.4970    24.6610 
  160.3750    -5.2190     2.2680    82.1630    12.7800    11.1690    12.9960    24.6220 
  160.5000    -5.3140     2.2830    84.6970    14.0970    11.7500    13.2140    24.6100 
  160.6250    -5.5230     2.2780    84.6340    16.9900    13.4770    16.2110    24.6120 
  160.7500    -5.8360     2.2590    80.3160    21.7140    16.7130    20.2680    24.6590 
  160.8750    -6.2840     2.2320    77.9540    28.5560    22.0370    28.2670    24.7780 
  161.0000    -6.8370     2.2070    78.0530    36.5770    28.8570    37.4000    24.8710 
  161.1250    -7.4300     2.1880    75.2620    44.5580    36.1620    44.3460    24.9460 
  161.2500    -8.0210     2.1750    69.7980    51.0970    42.6170    49.0470    24.9830 
  161.3750    -8.5530     2.1650    66.6210    54.9780    46.9170    49.1630    24.9890 
  161.5000    -9.0280     2.1580    65.1290    56.7780    49.2660    51.1910    24.9800 
  161.6250    -9.4380     2.1550    63.4940    57.0060    49.9890    55.5360    24.9850 
  161.7500    -9.7850     2.1560    62.0800    56.0560    49.4380    58.9620    25.0050 
  161.8750   -10.0360     2.1640    61.4360    54.2480    47.9230    57.3750    25.0180 
  162.0000   -10.1940     2.1740    60.8980    52.3320    46.1570    52.1880    24.9950 
  162.1250   -10.2460     2.1820    61.6110    50.8460    44.6320    46.6190    24.9350 
  162.2500   -10.1880     2.1870    63.9070    50.0620    43.6430    44.1240    24.9210 
  162.3750   -10.0670     2.1880    64.9850    49.8680    43.2250    48.8830    24.9970 
  162.5000    -9.9560     2.1880    62.8030    49.5770    42.9130    52.8830    25.0690 
  162.6250    -9.8580     2.1870    61.7560    48.6180    42.2670    52.5860    25.0880 
  162.7500    -9.7790     2.1880    64.9840    46.7400    41.0050    48.3350    25.0790 
  162.8750    -9.6790     2.1870    69.2830    44.1540    39.1360    44.2780    25.0680 
  163.0000    -9.5410     2.1870    69.7870    41.6210    37.1890    41.8310    25.0520 
  163.1250    -9.3830     2.1870    68.1960    39.6390    35.5870    40.1850    25.0240 
  163.2500    -9.2480     2.1880    66.8230    38.4600    34.5990    37.7790    25.0130 
  163.3750    -9.1700     2.1900    63.7090    38.2360    34.4130    36.0070    25.0370 
  163.5000    -9.1290     2.1890    59.7060    38.6550    34.8040    36.3970    25.0590 
  163.6250    -9.1100     2.1860    58.5330    39.3450    35.4880    38.6560    25.0190 
  163.7500    -9.1010     2.1830    60.0320    39.6250    35.9220    40.4980    24.9350 
  163.8750    -9.0810     2.1810    62.0950    38.1930    34.9940    41.3710    24.8560 
  164.0000    -9.0280     2.1840    65.0860    34.6780    32.2520    40.1510    24.8090 
  164.1250    -8.9330     2.1920    67.5340    29.5730    28.0220    36.5630    24.7770 
  164.2500    -8.8260     2.2050    68.0310    27.6800    23.3130    30.2340    24.7320 
  164.3750    -8.7180     2.2230    67.4660    22.4680    19.3340    21.6620    24.6370 
  164.5000    -8.5910     2.2400    69.8740    18.8610    16.5020    15.9170    24.5790 
  164.6250    -8.3920     2.2540    74.6690    16.8570    14.8470    14.5510    24.5310 
  164.7500    -8.0700     2.2610    79.0820    16.1970    14.2390    15.2530    24.4990 
  164.8750    -7.6840     2.2640    82.3400    16.6040    14.6030    15.5190    24.5240 
  165.0000    -7.3370     2.2650    82.8970    17.3620    15.4660    15.5620    24.5690 
  165.1250    -7.0730     2.2650    80.3620    17.8530    16.3290    15.9240    24.6020 
  165.2500    -6.8430     2.2650    76.8430    17.5080    16.5600    16.4150    24.6160 
  165.3750    -6.5610     2.2630    76.8280    15.9250    15.5330    15.9650    24.5720 
  165.5000    -6.1870     2.2620    78.1020    13.6130    13.6180    13.3120    24.4710 
  165.6250    -5.7720     2.2640    78.0850    11.1280    11.3750     9.3440    24.2770 
  165.7500    -5.4080     2.2700    78.6720     8.9690     9.3250     7.0670    24.0440 
  165.8750    -5.1700     2.2820    82.4480     7.5130     7.8480     6.5340    23.8230 
  166.0000    -5.0510     2.2980    87.3110     6.6660     6.8980     6.5050    23.6760 
  166.1250    -5.0240     2.3130    90.1970     6.3040     6.3950     6.1350    23.6230 
  166.2500    -5.0670     2.3220    91.0860     6.2660     6.2240     5.6350    23.6440 
  166.3750    -5.2250     2.3200    93.6600     6.3880     6.2670     5.3540    23.6080 
  166.5000    -5.5150     2.3110    95.1560     6.5270     6.3760     5.8800    23.4960 
  166.6250    -5.9520     2.3030    92.1070     6.6880     6.5300     6.4260    23.4010 
  166.7500    -6.5130     2.3030    87.6000     6.9930     6.7970     6.5550    23.3240 
  166.8750    -7.1420     2.3110    89.8990     7.7240     7.3750     6.8050    23.3660 
  167.0000    -7.7830     2.3160    92.7140     9.0270     8.3890     7.0680    23.4990 
  167.1250    -8.4140     2.3090    87.2040    10.9500     9.9370     7.3150    23.6540 
  167.2500    -9.0280     2.2900    76.8200    13.3470    11.9860     8.2070    23.6020 
  167.3750    -9.6000     2.2670    74.1880    15.7980    14.2450    14.4950    23.6120 
  167.5000   -10.1390     2.2520    78.9470    17.7690    16.1340    15.3670    23.6830 
  167.6250   -10.6730     2.2480    85.1040    18.9940    17.2860    16.9050    23.6640 
  167.7500   -11.2250     2.2520    89.4160    19.6030    17.7390    17.5000    23.5240 
  167.8750   -11.7840     2.2580    92.5940    20.0760    17.8970    17.3110    23.3190 
  168.0000   -12.2990     2.2640    94.2850    20.8990    18.2510    16.6180    23.2310 
  168.1250   -12.7740     2.2660    93.1460    22.3580    19.0670    16.6520    23.2940 
  168.2500   -13.2640     2.2640    88.1500    24.7780    20.6080    23.5630    23.4430 
  168.3750   -13.8570     2.2590    81.7990    29.0310    23.5490    33.3110    23.6600 
  168.5000   -14.6160     2.2540    78.1980    35.8340    28.5200    46.9560    23.8870 
  168.6250   -15.4560     2.2530    77.0560    46.3820    36.7010    57.0290    24.1080 
  168.7500   -16.2790     2.2550    73.6190    61.9100    49.4500    69.1330    24.3510 
  168.8750   -17.0520     2.2550    64.3790    83.7510    68.1860    86.9640    24.5030 
  169.0000   -17.8140     2.2490    56.5530   108.4820    89.8190   126.2880    24.5750 
  169.1250   -18.6030     2.2360    55.2030   130.2860   109.5450   149.4610    24.6000 
  169.2500   -19.4220     2.2230    58.7880   143.1530   122.5210   156.1420    24.6230 
  169.3750   -20.2640     2.2160    60.9970   145.8430   126.8950   149.0660    24.6320 
