~V
VERS. 2.00: Ver 2.00
~W
STRT.M 55.0000:
STOP.M 274.0000:
STEP.M 0.1250:
NULL. -999.2500:
UWI. F10255:
~C
DEPT.M :
GR.API :
RML.OHMM :
RI. :
RXO.OHMM :
CALI.CM :
DEN.GM/CC :
SP.MV :
~A
# ...
  100.0000    55.3160    10.3080     8.4390    10.0600    24.1690     2.2410   -11.9620 
  100.1250    57.0000    10.1370     8.2310    10.0180    24.4870     2.2460   -11.9900 
  100.2500    57.9610    10.0790     8.1200     9.8830    24.6180     2.2420   -11.9780 
  100.3750    57.9380    10.0870     8.0870     9.6010    24.6340     2.2320   -11.9700 
  100.5000    56.7630    10.1100     8.0890     9.2080    24.6300     2.2240   -11.9440 
  100.6250    54.8970    10.0880     8.0690     9.4000    24.7500     2.2260   -11.9170 
  100.7500    54.1880    10.0010     8.0010     9.7010    24.7940     2.2350   -11.8980 
  100.8750    55.1790     9.8660     7.8950     9.9170    24.7250     2.2450   -11.8520 
  101.0000    56.5250     9.7240     7.7810     9.6990    24.5890     2.2530   -11.7790 
  101.1250    57.9670     9.6410     7.7050     9.3720    24.5520     2.2610   -11.7560 
  101.2500    59.9400     9.6450     7.6890     9.3520    24.6210     2.2710   -11.7610 
  101.3750    60.2280     9.7320     7.7340     9.5400    24.6920     2.2800   -11.7520 
  101.5000    57.8340     9.8630     7.8160     9.9420    24.6460     2.2800   -11.7490 
  101.6250    56.4400     9.9780     7.8910    10.4140    24.6300     2.2650   -11.7810 
  101.7500    58.7280    10.0510     7.9360    10.6270    24.7110     2.2410   -11.8250 
  101.8750    63.3430    10.0980     7.9610    10.5860    24.8210     2.2140   -11.8920 
  102.0000    65.8530    10.1550     7.9970    10.5020    24.8880     2.1930   -11.9810 
  102.1250    64.1180    10.2580     8.0740    10.7320    24.9020     2.1810   -12.0460 
  102.2500    59.6300    10.3880     8.1770    10.8320    24.9090     2.1790   -12.0600 
  102.3750    55.0040    10.5030     8.2750    10.8720    24.9140     2.1870   -12.0650 
  102.5000    53.0620    10.5610     8.3330    10.9010    24.8700     2.2000   -12.0840 
  102.6250    53.4120    10.5290     8.3250    10.5330    24.6930     2.2110   -12.0490 
  102.7500    54.2940    10.4400     8.2760     9.8250    24.4130     2.2140   -11.9590 
  102.8750    55.0770    10.3350     8.2100     9.4870    24.2120     2.2110   -11.8780 
  103.0000    55.4400    10.2470     8.1530     9.4570    24.2760     2.2090   -11.8400 
  103.1250    54.5920    10.2030     8.1260     9.7570    24.6090     2.2130   -11.8430 
  103.2500    52.3570    10.1870     8.1250    10.1410    24.9310     2.2210   -11.8430 
  103.3750    51.2970    10.1700     8.1350    10.3590    24.9720     2.2270   -11.8200 
  103.5000    52.9580    10.1230     8.1340    10.2090    24.7050     2.2250   -11.8220 
  103.6250    55.6100    10.0000     8.0790     9.9240    24.4430     2.2150   -11.8360 
  103.7500    57.0660     9.7970     7.9480     9.7440    24.3180     2.2050   -11.8250 
  103.8750    56.6690     9.5230     7.7370     9.5830    24.2810     2.2040   -11.7320 
  104.0000    55.8220     9.2190     7.4740     9.1520    24.2720     2.2120   -11.5530 
  104.1250    57.5430     8.9660     7.2330     8.7780    24.2450     2.2240   -11.3430 
  104.2500    60.4470     8.8360     7.0900     8.7680    24.1920     2.2330   -11.1290 
  104.3750    62.5600     8.8770     7.0930     8.9060    24.2120     2.2350   -10.9710 
  104.5000    62.5280     9.0940     7.2550     8.9640    24.3360     2.2310   -10.8210 
  104.6250    60.0250     9.4500     7.5580     9.5140    24.5030     2.2230   -10.6810 
  104.7500    56.6300     9.8090     7.8980    10.1160    24.5800     2.2170   -10.5680 
  104.8750    54.3230    10.0550     8.1730    10.3870    24.5710     2.2150   -10.5100 
  105.0000    55.5710    10.1090     8.3050    10.1940    24.5420     2.2150   -10.5280 
  105.1250    57.9130     9.9290     8.2370     9.9560    24.5210     2.2130   -10.5650 
  105.2500    57.6770     9.6040     8.0240     9.7900    24.4840     2.2040   -10.5770 
  105.3750    58.2610     9.2130     7.7140     9.5410    24.3890     2.1910   -10.5200 
  105.5000    63.0670     8.8350     7.3750     9.0610    24.2410     2.1810   -10.4300 
  105.6250    67.7320     8.5590     7.0880     8.6910    24.0880     2.1790   -10.3800 
  105.7500    67.5910     8.4180     6.9010     8.2880    24.0360     2.1850   -10.3420 
  105.8750    64.0200     8.4270     6.8410     8.1310    24.0800     2.1960   -10.2950 
  106.0000    61.0760     8.5800     6.9150     8.8220    24.1600     2.2080   -10.2350 
  106.1250    59.7710     8.8600     7.1160     9.3470    24.2560     2.2180   -10.2340 
  106.2500    60.9630     9.2030     7.3850     9.4840    24.3440     2.2260   -10.3140 
  106.3750    63.6970     9.5750     7.6940     9.3020    24.3940     2.2350   -10.4500 
  106.5000    64.1120     9.9480     8.0250     9.2700    24.4170     2.2430   -10.5710 
  106.6250    61.1240    10.2890     8.3480     9.6620    24.4450     2.2490   -10.6490 
  106.7500    58.5900    10.5570     8.6230     9.9350    24.4610     2.2490   -10.7360 
  106.8750    57.9430    10.6880     8.7990     9.8760    24.4080     2.2420   -10.8090 
  107.0000    57.5960    10.6250     8.8130     9.6300    24.2810     2.2290   -10.8270 
  107.1250    57.0740    10.3320     8.6120     9.5090    24.1910     2.2130   -10.7680 
  107.2500    57.7280     9.9290     8.2920     9.5260    24.1270     2.1940   -10.6750 
  107.3750    60.0700     9.5370     7.9560     9.5480    24.1110     2.1770   -10.5450 
  107.5000    62.4100     9.2570     7.6970     9.5170    24.1860     2.1660   -10.3940 
  107.6250    61.9380     9.1590     7.5870     9.4850    24.3270     2.1700   -10.2950 
  107.7500    59.4860     9.1870     7.5910     9.6360    24.4670     2.1880   -10.2320 
  107.8750    57.5760     9.2810     7.6660     9.9940    24.5230     2.2160   -10.1830 
  108.0000    57.8230     9.3800     7.7650    10.5030    24.5310     2.2440   -10.1430 
  108.1250    59.4440     9.4490     7.8480    10.7770    24.5310     2.2620   -10.1340 
  108.2500    60.8790     9.5000     7.9140    10.7690    24.5250     2.2680   -10.1590 
  108.3750    60.5940     9.5540     7.9760    10.7860    24.5080     2.2620   -10.2110 
  108.5000    58.9060     9.6140     8.0410    10.6760    24.4670     2.2480   -10.2660 
  108.6250    58.0750     9.6330     8.0810    10.6760    24.4130     2.2320   -10.2500 
  108.7500    59.7380     9.5560     8.0540    10.5720    24.3420     2.2220   -10.2110 
  108.8750    62.3910     9.3580     7.9290    10.5630    24.2810     2.2190   -10.1980 
  109.0000    63.1900     9.0720     7.7160    10.3960    24.2310     2.2210   -10.2110 
  109.1250    62.1330     8.8040     7.4880     9.8640    24.2000     2.2180   -10.1890 
  109.2500    61.9550     8.6660     7.3400     9.2690    24.1440     2.2100   -10.1500 
  109.3750    62.0150     8.7150     7.3320     9.0110    24.0360     2.1990   -10.1510 
  109.5000    60.4830     8.9550     7.4820     9.2970    23.9930     2.1940   -10.2410 
  109.6250    59.2520     9.3450     7.7720    10.0460    24.1060     2.2040   -10.3650 
  109.7500    60.9330     9.7540     8.1030    10.5850    24.3190     2.2230   -10.3970 
  109.8750    63.1590    10.0770     8.3880    10.7540    24.4350     2.2420   -10.3650 
  110.0000    63.0630    10.2480     8.5580    10.7550    24.4630     2.2520   -10.3570 
  110.1250    63.2380    10.2330     8.5700    10.6220    24.4630     2.2500   -10.3590 
  110.2500    64.7380    10.1170     8.4830    10.3570    24.4630     2.2410   -10.3240 
  110.3750    64.8810     9.9660     8.3540     9.9670    24.4630     2.2310   -10.2700 
  110.5000    63.0160     9.8310     8.2290     9.8160    24.4630     2.2240   -10.2050 
  110.6250    61.8240     9.7430     8.1440     9.9080    24.4540     2.2190   -10.1220 
  110.7500    62.7500     9.6990     8.1040    10.0450    24.4260     2.2150   -10.1100 
  110.8750    63.2680     9.6920     8.1020    10.0660    24.3730     2.2120   -10.1710 
  111.0000    61.2770     9.7090     8.1240    10.2000    24.2890     2.2120   -10.2470 
  111.1250    58.6690     9.7320     8.1530    10.2870    24.2140     2.2150   -10.3270 
