~V
VERS. 2.00: Ver 2.00
~W
STRT.M 50.0000:
STOP.M 270.0000:
STEP.M 0.1250:
NULL. -999.2500:
UWI. F10223:
~C
DEPT.M :
GR.API :
RML.OHMM :
RI. :
RXO.OHMM :
CALI.CM :
DEN.GM/CC :
SP.MV :
~A
# ...
  140.0000    81.9390    15.2210    14.4960    12.1950    23.1130     2.4760   -19.8490 
  140.1250    79.7930    15.3190    14.5890    12.5290    22.8680     2.4660   -19.8540 
  140.2500    77.0980    15.3740    14.6410    13.2130    22.6650     2.4560   -19.8660 
  140.3750    76.7070    15.3270    14.5980    13.5690    22.7370     2.4540   -19.8540 
  140.5000    78.7340    15.2480    14.5220    13.5280    22.9810     2.4620   -19.8100 
  140.6250    80.1150    15.3650    14.6330    13.3030    23.1900     2.4720   -19.7590 
  140.7500    77.8920    15.8690    15.1140    13.4250    23.2050     2.4780   -19.6950 
  140.8750    73.5980    16.8730    16.0700    13.9830    22.9960     2.4810   -19.6180 
  141.0000    71.1090    18.3260    17.4530    15.3270    22.6610     2.4870   -19.5450 
  141.1250    70.9010    19.9350    18.9860    18.7150    22.4630     2.4980   -19.4950 
  141.2500    72.6040    21.2330    20.2220    22.5250    22.4310     2.5140   -19.4520 
  141.3750    76.0590    21.9730    20.9270    24.2890    22.5740     2.5330   -19.4270 
  141.5000    79.7150    22.2050    21.1480    23.3220    22.9780     2.5470   -19.3950 
  141.6250    81.2590    22.1510    21.0970    20.3830    23.5550     2.5390   -19.3570 
  141.7500    79.5530    21.9190    20.8750    20.2900    23.9780     2.5150   -19.2870 
  141.8750    76.1840    21.1900    20.1810    23.2500    24.0690     2.4930   -19.1950 
  142.0000    72.9530    19.5020    18.5730    24.1250    23.9430     2.4870   -19.0820 
  142.1250    73.5270    16.6090    15.8180    20.2000    23.6850     2.4960   -18.9310 
  142.2500    78.2540    13.2930    12.6600    15.1300    23.3490     2.5020   -18.7720 
  142.3750    87.3990    10.2500     9.7620    10.3260    22.9550     2.4950   -18.6170 
  142.5000    97.9420     7.8920     7.5160     7.3950    22.6420     2.4760   -18.4750 
  142.6250   101.8530     6.0190     6.0940     5.9770    22.6430     2.4400   -18.3320 
  142.7500   100.8300     5.2560     5.2300     5.1330    23.0080     2.4000   -18.2260 
  142.8750   100.2040     4.9230     4.7630     4.7300    23.6420     2.3710   -18.1390 
  143.0000   100.7630     4.8210     4.5460     4.7100    24.2070     2.3570   -18.0570 
  143.1250    99.2580     4.8060     4.4720     4.7900    24.2290     2.3540   -17.9740 
  143.2500    97.6440     4.7780     4.4360     4.7120    24.0350     2.3560   -17.8790 
  143.3750   100.1350     4.7170     4.4010     4.5420    23.8430     2.3640   -17.7840 
  143.5000   106.3700     4.6380     4.3580     4.4000    23.7190     2.3720   -17.6940 
  143.6250   111.3290     4.5910     4.3240     4.3270    23.6630     2.3740   -17.6250 
  143.7500   110.9930     4.6070     4.3230     4.3160    23.6790     2.3720   -17.5800 
  143.8750   105.6520     4.6910     4.3650     4.3770    23.7500     2.3690   -17.5670 
  144.0000   102.9990     4.8150     4.4360     4.5140    23.8350     2.3700   -17.5820 
  144.1250   106.6530     4.9310     4.5020     4.7110    23.9020     2.3720   -17.6440 
  144.2500   109.6590     5.0100     4.5340     4.8610    23.9010     2.3740   -17.7270 
  144.3750   107.4360     5.0530     4.5300     4.9340    23.8300     2.3800   -17.8150 
  144.5000   103.2160     5.0810     4.5060     4.8420    23.7740     2.3860   -17.9090 
  144.6250   103.3610     5.1180     4.4850     4.8790    23.8250     2.3910   -17.9920 
  144.7500   103.9080     5.1720     4.4740     5.0160    23.8690     2.3940   -18.0450 
  144.8750   104.8850     5.2330     4.4710     5.1190    23.8350     2.3930   -18.0660 
  145.0000   106.0090     5.2890     4.4670     5.1210    23.7560     2.3890   -18.0650 
  145.1250   104.7810     5.3300     4.4620     5.1040    23.7350     2.3830   -18.0460 
  145.2500   101.1440     5.3630     4.4610     5.1610    23.7560     2.3790   -18.0270 
  145.3750    97.1260     5.3940     4.4620     5.2180    23.7710     2.3770   -18.0130 
  145.5000    96.0690     5.4260     4.4610     5.2830    23.7670     2.3760   -18.0070 
  145.6250    94.9790     5.4550     4.4510     5.3430    23.7440     2.3740   -18.0250 
  145.7500    93.4330     5.4730     4.4340     5.2420    23.7240     2.3720   -18.0730 
  145.8750    90.6290     5.4800     4.4150     5.1020    23.7050     2.3710   -18.1350 
  146.0000    85.5520     5.4820     4.4020     5.0550    23.6960     2.3720   -18.1940 
  146.1250    84.1120     5.4890     4.3960     5.0360    23.6990     2.3740   -18.2250 
  146.2500    90.4650     5.5020     4.3970     5.0400    23.7120     2.3730   -18.2450 
  146.3750    99.3590     5.5200     4.4030     5.0630    23.7410     2.3660   -18.2590 
  146.5000   101.6060     5.5370     4.4180     5.1090    23.7860     2.3590   -18.2590 
  146.6250    95.8200     5.5550     4.4380     5.1720    23.8140     2.3540   -18.2410 
  146.7500    92.0140     5.5740     4.4560     5.2200    23.8280     2.3560   -18.1960 
  146.8750    93.5400     5.5940     4.4710     5.2290    23.8350     2.3640   -18.1560 
  147.0000    98.3050     5.6120     4.4840     5.2280    23.8340     2.3760   -18.1400 
  147.1250    99.1810     5.6130     4.4970     5.2240    23.8200     2.3890   -18.1810 
  147.2500    94.9400     5.5880     4.5050     5.2300    23.8110     2.3990   -18.2460 
  147.3750    89.7470     5.5320     4.4960     5.2130    23.8110     2.4050   -18.3110 
  147.5000    87.3800     5.4480     4.4600     5.1600    23.8140     2.4070   -18.3760 
  147.6250    88.7150     5.3500     4.4010     5.0340    23.8090     2.4080   -18.4310 
  147.7500    89.0390     5.2670     4.3430     4.8790    23.8080     2.4090   -18.4720 
  147.8750    87.9560     5.2150     4.3020     4.8020    23.8080     2.4090   -18.4900 
  148.0000    87.3180     5.1920     4.2790     4.8150    23.7980     2.4070   -18.4950 
  148.1250    90.9470     5.1650     4.2580     4.9090    23.7780     2.4040   -18.4840 
  148.2500    97.0860     5.0990     4.2190     5.0310    23.7470     2.4010   -18.4750 
  148.3750   102.5040     4.9750     4.1540     5.1200    23.7330     2.4000   -18.4760 
  148.5000   105.2260     4.8100     4.0690     4.9420    23.7410     2.4000   -18.4980 
  148.6250   103.9460     4.6550     3.9770     4.5950    23.7590     2.3980   -18.5710 
  148.7500   100.0910     4.5560     3.9020     4.4500    23.7450     2.3960   -18.6830 
  148.8750    95.4100     4.5270     3.8570     4.4770    23.7000     2.3980   -18.8090 
  149.0000    91.2580     4.5560     3.8520     4.5780    23.6680     2.4070   -18.9290 
  149.1250    88.4020     4.6170     3.8860     4.6320    23.6760     2.4120   -19.0350 
  149.2500    86.9380     4.6800     3.9350     4.6150    23.7120     2.4100   -19.1170 
  149.3750    87.4030     4.7340     3.9760     4.5840    23.7370     2.4030   -19.1900 
  149.5000    89.6930     4.7790     3.9990     4.6380    23.7300     2.3990   -19.2560 
  149.6250    92.2800     4.8060     4.0050     4.7230    23.7290     2.4010   -19.2860 
  149.7500    93.9700     4.8110     4.0030     4.7410    23.7560     2.4070   -19.3010 
  149.8750    94.7150     4.7900     3.9950     4.7220    23.8030     2.4130   -19.3380 
  150.0000    95.0360     4.7420     3.9790     4.7160    23.8210     2.4170   -19.4120 
  150.1250    94.9820     4.6740     3.9480     4.6260    23.7690     2.4210   -19.5020 
  150.2500    93.1530     4.6100     3.9140     4.5430    23.6740     2.4230   -19.6000 
  150.3750    89.8910     4.5850     3.9020     4.5530    23.6270     2.4260   -19.6990 
  150.5000    86.7700     4.6440     3.9430     4.6040    23.6100     2.4300   -19.7880 
  150.6250    86.8650     4.8360     4.0700     4.6320    23.5880     2.4300   -19.8760 
  150.7500    91.6460     5.1150     4.2580     4.7100    23.5680     2.4230   -19.9580 
  150.8750    98.2880     5.4020     4.4610     5.0560    23.5360     2.4100   -20.0120 
  151.0000   103.5800     5.5970     4.6130     5.7620    23.4510     2.3930   -20.0300 
  151.1250   106.3500     5.5840     4.6350     6.1670    23.3580     2.3750   -20.0280 
