~V
VERS. 2.00: Ver 2.00
~W
STRT.M 63.0000:
STOP.M 280.0000:
STEP.M 0.1250:
NULL. -999.2500:
UWI. F10220:
~C
DEPT.M :
SP.MV :
DEN.GM/CC :
GR.API :
RML.OHMM :
RI. :
RXO.OHMM :
CALI.CM :
~A
# ...
  220.5000   -21.7480     2.1550    59.3190    93.0100    86.3820    52.4580    25.5640 
  220.6250   -21.4370     2.1340    61.1150    90.0820    82.6980    59.6680    25.3250 
  220.7500   -21.1050     2.1060    62.3130    90.3190    82.2480    67.7360    25.0410 
  220.8750   -20.7620     2.0850    62.3140    92.0720    83.5650    75.9600    24.9190 
  221.0000   -20.4270     2.0990    62.0250    94.1660    85.4960    79.8780    24.8670 
  221.1250   -20.1110     2.1570    61.4830    95.6860    87.0310    77.9280    24.7150 
  221.2500   -19.8530     2.2200    59.2140    96.1300    87.4510    68.0850    24.6390 
  221.3750   -19.6400     2.2360    55.8160    96.0280    87.1150    58.3750    24.7340 
  221.5000   -19.4550     2.2100    55.1790    95.8810    86.5430    58.8520    24.8650 
  221.6250   -19.3100     2.1880    59.6670    95.7270    85.9500    63.4230    24.9190 
  221.7500   -19.1820     2.1900    64.0840    94.7750    84.8200    70.5570    24.9180 
  221.8750   -19.0720     2.1980    63.7790    92.3640    82.5750    75.5180    24.9180 
  222.0000   -18.9930     2.2050    60.3900    88.4130    79.0370    76.7600    24.9190 
  222.1250   -18.9490     2.2090    58.6600    83.5920    74.6270    68.1310    24.9200 
  222.2500   -18.9300     2.2130    60.7340    79.2430    70.3340    56.2410    24.9200 
  222.3750   -18.9480     2.2170    61.5800    76.4220    67.1300    49.9830    24.9200 
  222.5000   -19.0120     2.2200    59.2880    75.5830    65.5150    51.0680    24.9200 
  222.6250   -19.1060     2.2220    56.7370    76.6680    65.5800    55.5390    24.9200 
  222.7500   -19.2590     2.2240    60.5760    79.3580    67.2010    57.5810    24.9170 
  222.8750   -19.4470     2.2260    65.9350    82.5080    69.4540    56.0220    24.9000 
  223.0000   -19.6460     2.2290    65.2190    85.0820    71.4780    57.6240    24.8620 
  223.1250   -19.8440     2.2330    59.6040    86.0520    72.3600    62.8870    24.8270 
  223.2500   -20.0480     2.2330    57.6830    84.6230    71.2580    63.5130    24.8440 
  223.3750   -20.2370     2.2270    60.3880    82.0920    68.9670    59.4480    24.9080 
  223.5000   -20.3980     2.2170    62.7620    80.3970    66.8940    54.4920    24.9680 
  223.6250   -20.5320     2.2160    62.8620    81.6640    66.8150    48.9880    25.0050 
  223.7500   -20.6050     2.2530    63.9150    88.1460    70.9380    47.0730    25.0050 
  223.8750   -20.6140     2.3370    64.4160    98.5730    78.8030    49.1960    24.8920 
  224.0000   -20.5680     2.4610    60.8260   108.9770    87.8190    62.3450    24.5890 
  224.1250   -20.4820     2.5820    55.2200   110.9310    91.8470    96.7130    24.2740 
  224.2500   -20.3460     2.6310    54.7440    93.9550    81.5060   142.7080    24.0920 
  224.3750   -20.1790     2.6150    59.0010    67.5190    61.3280   116.9710    23.9150 
  224.5000   -19.9940     2.5670    63.0900    43.6940    40.8190    56.3780    23.7230 
  224.6250   -19.7660     2.5070    61.8650    27.6520    25.9480    22.6540    23.6780 
  224.7500   -19.4470     2.4520    53.5820    19.2300    17.8140    11.6250    24.1080 
  224.8750   -19.0430     2.4140    45.4650    14.6240    13.2880     8.1930    24.3670 
  225.0000   -18.5460     2.3850    43.2850    12.0680    10.7390     8.0050    24.4580 
  225.1250   -17.9650     2.3580    46.3280    10.4750     9.1780     9.3010    24.4250 
  225.2500   -17.2990     2.3340    48.7190     9.2830     8.1300     9.9690    24.2050 
  225.3750   -16.5790     2.3190    48.4120     8.2340     7.2970     7.9410    23.7920 
  225.5000   -15.8170     2.3170    47.2670     7.3360     6.6210     5.6760    23.3940 
  225.6250   -15.0520     2.3200    46.2310     6.6350     6.0930     4.7070    23.1820 
  225.7500   -14.3440     2.3230    45.6640     6.1900     5.7420     4.6280    23.1360 
  225.8750   -13.6990     2.3240    47.3310     5.9550     5.5420     4.5900    23.1290 
  226.0000   -13.1470     2.3230    51.5280     5.9200     5.4910     4.3510    23.1300 
  226.1250   -12.6770     2.3240    55.1530     6.0680     5.5820     4.1560    23.1690 
  226.2500   -12.3010     2.3260    55.7210     6.3530     5.7950     4.2290    23.3080 
  226.3750   -12.0140     2.3210    55.9840     6.6200     6.0180     4.5740    23.5660 
  226.5000   -11.8320     2.3010    57.5130     6.7110     6.1240     5.0110    23.8930 
  226.6250   -11.7780     2.2760    58.2960     6.5160     6.0010     5.1850    24.3180 
  226.7500   -11.9170     2.2660    58.2300     6.0640     5.6120     4.9430    24.5570 
  226.8750   -12.2380     2.2740    63.8690     5.6220     5.1520     4.6650    24.6380 
  227.0000   -12.7060     2.2880    76.5760     5.4000     4.7980     4.3960    24.6650 
  227.1250   -13.2970     2.2990    89.1740     5.5030     4.6710     4.2310    24.7650 
  227.2500   -13.9750     2.3070    94.3290     5.9810     4.8590     4.6930    25.0250 
  227.3750   -14.6850     2.3120    92.6590     6.6780     5.2790     5.6600    25.3880 
  227.5000   -15.3750     2.3060    86.1370     7.4460     5.8310     6.7510    25.7600 
  227.6250   -16.0170     2.2890    79.2260     6.9940     6.3790     7.3220    25.9850 
  227.7500   -16.5310     2.2820    78.4820     7.3350     6.7590     7.0040    25.8830 
  227.8750   -16.8870     2.2970    82.9070     7.4760     6.9500     6.5960    25.4990 
  228.0000   -17.1090     2.3260    87.1200     7.5020     7.0080     6.7980    25.1000 
  228.1250   -17.2250     2.3520    89.7380     7.5060     7.0160     7.1660    24.8960 
  228.2500   -17.2720     2.3640    93.7400     7.5610     7.0420     7.3430    24.8630 
  228.3750   -17.2910     2.3700    97.3840     7.6660     7.0960     7.3380    24.8970 
  228.5000   -17.3200     2.3740   101.0100     7.7980     7.1580     7.3720    24.9190 
  228.6250   -17.3640     2.3750   106.7190     7.9290     7.2060     7.4330    24.9240 
  228.7500   -17.4150     2.3720   113.1620     8.0270     7.2140     7.4580    24.9030 
  228.8750   -17.5070     2.3670   118.3700     8.0710     7.1730     7.4690    24.7840 
  229.0000   -17.6340     2.3620   121.6190     8.0420     7.0690     7.4450    24.4870 
  229.1250   -17.8020     2.3570   120.3510     7.9550     6.9160     7.3790    24.1590 
  229.2500   -18.0120     2.3490   114.3380     7.9250     6.7900     7.4090    23.9020 
  229.3750   -18.2500     2.3380   110.9380     8.1390     6.8150     7.6270    23.9290 
  229.5000   -18.5060     2.3310   112.6210     8.8260     7.1380     8.0280    24.1920 
  229.6250   -18.7710     2.3280   112.1420    10.2320     7.9250     8.7860    24.4710 
  229.7500   -19.0670     2.3290   104.0560    12.7610     9.5090    11.2130    24.6720 
  229.8750   -19.3870     2.3330    94.4660    16.3730    11.9980    16.5460    24.7180 
  230.0000   -19.6930     2.3400    86.8150    20.9200    15.4840    23.4250    24.5760 
  230.1250   -19.9720     2.3460    80.8310    25.8660    19.7590    29.0440    24.1780 
  230.2500   -20.2180     2.3480    78.4180    29.9900    23.9510    31.2780    23.7460 
  230.3750   -20.4330     2.3460    79.1520    32.3430    26.9070    32.0520    23.5300 
  230.5000   -20.6290     2.3410    79.1090    32.7490    28.1200    32.5270    23.5460 
  230.6250   -20.7950     2.3300    76.1980    31.8350    27.8930    32.7620    23.6780 
  230.7500   -20.8890     2.3130    71.8880    30.5780    26.9610    30.6850    23.9340 
  230.8750   -20.9230     2.2980    69.9240    29.7610    26.1390    27.7120    24.2410 
  231.0000   -20.9240     2.2890    69.3130    29.6990    25.7920    26.1500    24.6080 
  231.1250   -20.8850     2.2870    68.9720    30.5320    26.1260    26.2490    24.8440 
  231.2500   -20.8330     2.2890    67.9490    32.4310    27.3950    28.1940    24.9110 
  231.3750   -20.7810     2.2950    67.8200    35.0830    29.4560    30.9300    24.9170 
  231.5000   -20.7060     2.3010    70.8590    38.1510    32.1210    33.2230    24.9190 
  231.6250   -20.6150     2.3050    74.3270    41.1300    35.0210    35.3610    24.9190 
