~V
VERS. 2.00: Ver 2.00
~W
STRT.M 50.0000:
STOP.M 281.0000:
STEP.M 0.1250:
NULL. -999.2500:
UWI. F10222:
~C
DEPT.M :
GR.API :
RML.OHMM :
RI. :
RXO.OHMM :
CALI.CM :
DEN.GM/CC :
SP.MV :
~A
# ...
  241.2500    65.1090    21.3210    20.0170    18.8230    26.1050     2.3000   -16.2060 
  241.3750    63.9900    21.3900    19.9660    19.1680    26.1530     2.2990   -16.1630 
  241.5000    63.8420    21.4470    20.0120    19.7120    26.2430     2.2970   -16.1070 
  241.6250    64.8990    21.4500    20.0480    20.0810    26.3280     2.2960   -16.0560 
  241.7500    62.9280    21.3960    20.0430    20.1940    26.3800     2.2950   -15.9800 
  241.8750    58.7480    21.4040    20.0590    20.1280    26.3680     2.2940   -15.8860 
  242.0000    57.9990    21.6020    20.1930    19.9250    26.3240     2.2940   -15.7800 
  242.1250    62.6310    22.0800    20.5500    19.4020    26.2560     2.2930   -15.6930 
  242.2500    67.6620    22.6690    21.0290    19.0950    26.2060     2.2890   -15.5820 
  242.3750    69.3380    23.1050    21.4250    20.4900    26.2470     2.2800   -15.4490 
  242.5000    69.2840    23.1060    21.4840    22.5810    26.3470     2.2710   -15.3300 
  242.6250    71.7610    22.4300    20.9700    24.1710    26.5490     2.2690   -15.1950 
  242.7500    74.0790    21.3190    20.0710    24.3110    26.7990     2.2750   -15.0870 
  242.8750    71.8420    20.1100    19.0540    22.7280    26.9690     2.2830   -14.9980 
  243.0000    65.5510    19.1770    18.2080    19.7000    27.0260     2.2890   -14.9050 
  243.1250    62.9320    18.8650    17.8170    18.2710    27.0240     2.2930   -14.8310 
  243.2500    64.4530    19.0670    17.8670    18.1130    27.0140     2.2930   -14.7780 
  243.3750    64.8490    19.5770    18.2540    19.1730    27.0120     2.2900   -14.7530 
  243.5000    63.0630    20.1350    18.7810    20.4670    27.0250     2.2820   -14.7550 
  243.6250    64.1540    20.4950    19.2050    22.7020    27.0580     2.2730   -14.7800 
  243.7500    68.1960    20.6760    19.4450    23.3570    27.0860     2.2670   -14.8260 
  243.8750    69.6280    20.8200    19.5830    21.6400    27.1160     2.2670   -14.8860 
  244.0000    67.4590    21.0510    19.7430    19.7760    27.1350     2.2660   -14.9530 
  244.1250    68.3450    21.2790    19.9170    20.4050    27.1350     2.2620   -15.0400 
  244.2500    71.2540    21.2160    19.8950    21.5650    27.1110     2.2570   -15.1250 
  244.3750    72.8960    20.6680    19.5050    22.6020    27.0870     2.2550   -15.2410 
  244.5000    74.5420    19.7180    18.7960    22.5810    27.0870     2.2580   -15.3460 
  244.6250    78.7300    18.8430    18.1140    20.1330    27.1010     2.2680   -15.4360 
  244.7500    84.2880    18.5970    17.8710    17.4480    27.0990     2.2830   -15.5570 
  244.8750    88.7480    19.2680    18.3170    15.9710    27.0750     2.2930   -15.6650 
  245.0000    94.6640    20.7750    19.5060    17.9170    27.0370     2.2900   -15.7750 
  245.1250   106.5280    22.5500    21.1960    24.1020    26.9440     2.2730   -15.8990 
  245.2500   121.4350    23.6700    22.5830    27.4160    26.8850     2.2550   -16.0300 
  245.3750   135.1880    23.5290    22.9190    26.4560    26.9400     2.2440   -16.1510 
  245.5000   144.7070    22.0650    21.9080    23.3980    27.0270     2.2400   -16.3150 
  245.6250   146.1960    19.8360    19.9440    20.4260    27.0550     2.2400   -16.4910 
  245.7500   136.5780    17.8010    18.0020    16.7450    27.0050     2.2500   -16.6450 
  245.8750   117.4660    16.3810    16.5190    14.4000    26.8550     2.2700   -16.8230 
  246.0000    97.9550    15.6360    15.5920    13.5470    26.6520     2.2950   -17.0190 
  246.1250    84.3610    15.5460    15.2270    14.0560    26.5380     2.3490   -17.2300 
  246.2500    74.2610    15.8750    15.2620    15.9280    26.5360     2.4360   -17.4410 
  246.3750    67.5570    16.4830    15.6220    16.6560    26.5370     2.4910   -17.6750 
  246.5000    67.0890    17.2550    16.2250    15.6750    26.5320     2.4520   -17.8570 
  246.6250    71.8820    18.2100    17.0530    15.3080    26.2850     2.3650   -17.9830 
  246.7500    76.3890    19.5130    18.1500    17.1710    25.9830     2.3170   -18.1120 
  246.8750    78.3850    21.4500    19.7120    21.2230    26.0900     2.3030   -18.1990 
  247.0000    78.2280    24.2670    21.9810    22.5760    26.5090     2.2930   -18.2810 
  247.1250    74.5210    28.1270    25.2400    23.6860    26.7950     2.2850   -18.3000 
  247.2500    67.1240    32.3830    29.0840    30.5430    26.7710     2.3020   -18.2640 
  247.3750    62.6720    36.0770    32.7340    48.2490    26.5360     2.3430   -18.1950 
  247.5000    65.6330    38.0190    35.0290    59.6090    26.2300     2.3890   -18.1370 
  247.6250    70.6360    37.0930    34.7300    46.7560    25.8660     2.3930   -18.0780 
  247.7500    70.7980    34.3500    32.6360    34.5320    25.7060     2.3490   -18.0000 
  247.8750    67.4570    31.0770    29.8590    30.2200    25.7140     2.2940   -17.9090 
  248.0000    64.4870    28.3590    27.3690    28.7850    25.7380     2.2630   -17.8030 
  248.1250    63.7830    26.9200    25.8570    27.5880    25.6550     2.2620   -17.7050 
  248.2500    65.8380    26.5790    25.2860    26.9710    25.5330     2.2750   -17.6300 
  248.3750    70.7060    27.1360    25.5380    27.0870    25.6000     2.2840   -17.5930 
  248.5000    72.9770    28.3410    26.4320    27.1360    25.9560     2.2840   -17.5370 
  248.6250    70.5630    29.8980    27.7680    28.5120    26.2450     2.2840   -17.5040 
  248.7500    69.4600    31.3180    29.1200    31.6330    26.1470     2.2960   -17.4860 
  248.8750    72.4870    32.2220    30.1350    34.7660    25.9340     2.3190   -17.4590 
  249.0000    76.2920    32.3980    30.5590    35.5150    25.8440     2.3450   -17.4600 
  249.1250    76.2800    31.7850    30.2460    29.6200    25.9060     2.3570   -17.4540 
  249.2500    75.4900    30.7710    29.4840    27.4970    25.9520     2.3510   -17.4240 
  249.3750    76.7420    29.6900    28.5700    29.1400    25.9360     2.3320   -17.3810 
  249.5000    80.4600    28.8990    27.8410    30.5010    25.7950     2.3190   -17.3340 
  249.6250    87.1350    28.9210    27.7500    29.7730    25.5130     2.3260   -17.2520 
  249.7500    92.7470    30.0450    28.4990    28.6280    25.1530     2.3450   -17.1580 
  249.8750    91.2580    32.7880    30.2120    29.9510    24.7760     2.3770   -17.0780 
  250.0000    80.0470    37.4740    32.7900    34.6790    24.7980     2.4310   -16.9820 
  250.1250    65.7340    43.2200    35.5560    44.0730    25.3000     2.5140   -16.8700 
  250.2500    58.8410    46.3350    36.8860    51.0190    25.7980     2.5950   -16.7730 
  250.3750    60.1710    43.2880    35.2250    55.5560    26.0130     2.6440   -16.6850 
  250.5000    63.8550    34.7730    30.4390    49.5340    26.0150     2.6450   -16.6060 
  250.6250    65.0600    25.5380    24.2850    36.8590    25.9320     2.5990   -16.5380 
  250.7500    66.3840    18.5820    17.7380    26.7220    25.8330     2.5290   -16.4820 
  250.8750    68.2810    14.0450    12.6410    17.3330    25.8450     2.4550   -16.4310 
  251.0000    67.1270    11.3600    10.2240    11.9640    25.8740     2.3980   -16.3710 
  251.1250    64.1760    10.1100     9.0990    10.2210    25.8240     2.3750   -16.3500 
  251.2500    65.8500     9.6150     8.6540     9.5960    25.8490     2.3760   -16.3260 
  251.3750    70.7870     9.5520     8.5970     9.3190    25.9570     2.3890   -16.2700 
  251.5000    72.8950     9.6840     8.7150     9.2360    26.0120     2.4030   -16.2510 
  251.6250    70.3340     9.8350     8.8520     9.3850    25.9240     2.4130   -16.2420 
  251.7500    68.5170     9.9410     8.9470     9.6670    25.8040     2.4130   -16.2120 
  251.8750    68.0220    10.0270     9.0250    10.2060    25.7220     2.4040   -16.2050 
  252.0000    67.2040    10.1330     9.1200    10.9870    25.6660     2.3920   -16.1860 
  252.1250    66.0790    10.2790     9.2510    11.1510    25.6770     2.3820   -16.1530 
  252.2500    65.3890    10.4530     9.4080    10.5380    25.6360     2.3700   -16.1200 
  252.3750    65.6790    10.6350     9.5710     9.9300    25.5950     2.3540   -16.1050 
