~V
VERS. 2.00: Ver 2.00
~W
STRT.M 56.0000:
STOP.M 284.0000:
STEP.M 0.1250:
NULL. -999.2500:
UWI. F10233:
~C
DEPT.M :
GR.API :
RML.OHMM :
RI. :
RXO.OHMM :
CALI.CM :
DEN.GM/CC :
SP.MV :
~A
# ...
  224.7500    65.4730    93.3540    86.8660    84.3670    24.4380     2.2200   -18.4320 
  224.8750    63.6730    91.5610    85.3960    82.7420    24.8130     2.2120   -18.0550 
  225.0000    63.3540    90.8370    84.8420    85.6620    25.0020     2.2030   -17.6960 
  225.1250    63.8540    91.3060    85.3340    91.5860    25.0490     2.1960   -17.3420 
  225.2500    63.0620    92.2280    86.1600    95.4200    25.0920     2.1920   -16.9980 
  225.3750    61.2760    92.9380    86.6620    99.8460    25.1100     2.1910   -16.7260 
  225.5000    60.5650    92.9350    86.3660    99.3100    25.0510     2.1990   -16.6040 
  225.6250    61.7040    92.1290    85.1880    91.7090    24.9260     2.2140   -16.5430 
  225.7500    62.9700    91.2180    83.8360    83.0870    24.8760     2.2270   -16.4760 
  225.8750    63.5750    90.7660    82.8720    86.3080    24.8760     2.2330   -16.4780 
  226.0000    63.6080    91.1660    82.6470    90.6550    24.8950     2.2330   -16.5680 
  226.1250    64.3590    93.0220    83.5990    90.5160    24.8880     2.2300   -16.6650 
  226.2500    64.0340    96.5330    85.8620    88.4390    24.8280     2.2280   -16.7450 
  226.3750    61.6560   101.9410    89.6280    88.3440    24.7240     2.2260   -16.8700 
  226.5000    59.3440   109.4280    95.0640    96.5750    24.6360     2.2210   -17.0260 
  226.6250    59.2120   119.4320   102.5500   122.8170    24.7840     2.2190   -17.1260 
  226.7500    58.8650   131.0710   115.0600   153.0270    24.9920     2.2210   -17.1910 
  226.8750    58.0820   143.2160   128.3570   164.2890    25.2690     2.2210   -17.2960 
  227.0000    57.9160   154.7920   137.7500   153.9770    25.5400     2.2180   -17.3740 
  227.1250    59.7960   165.2010   146.1690   166.1160    25.6390     2.2190   -17.3390 
  227.2500    61.2930   174.5010   153.7290   168.0240    25.6000     2.2250   -17.3680 
  227.3750    62.5230   181.8730   159.9030   160.4230    25.5300     2.2280   -17.4610 
  227.5000    63.0840   185.2870   163.2580   171.1360    25.4980     2.2230   -17.5020 
  227.6250    60.4500   180.6800   160.7830   206.4720    25.4650     2.2200   -17.4510 
  227.7500    57.5920   168.5730   152.4140   198.5560    25.2410     2.2260   -17.4570 
  227.8750    57.8040   151.8950   139.7210   144.3310    24.6130     2.2330   -17.5090 
  228.0000    60.8700   134.7540   125.6220   100.7200    23.6840     2.2340   -17.4780 
  228.1250    63.4950   120.7450   113.1400    92.2920    23.1800     2.2290   -17.4540 
  228.2500    63.3280   110.5140   103.4290    95.8150    23.0880     2.2250   -17.4600 
  228.3750    61.4860   103.7460    96.6170    99.8940    23.2760     2.2280   -17.4480 
  228.5000    58.8470    99.4050    92.1190    99.5200    23.7560     2.2350   -17.4360 
  228.6250    58.2650    96.1090    88.9770    95.4700    24.3150     2.2420   -17.4430 
  228.7500    60.7340    92.5750    85.9380    88.3910    24.7240     2.2470   -17.4110 
  228.8750    63.1320    88.6020    82.6310    88.8840    24.8710     2.2550   -17.3470 
  229.0000    64.6270    84.7370    79.3370    89.9850    24.8760     2.2700   -17.3020 
  229.1250    65.2340    82.4930    77.2070    84.0470    24.8630     2.2960   -17.2770 
  229.2500    65.7550    83.0270    77.4250    76.9960    24.8480     2.3360   -17.2620 
  229.3750    65.1350    87.2920    81.0530    74.7610    24.8170     2.3950   -17.2290 
  229.5000    60.5480    95.6740    88.5490    79.8880    24.7040     2.4710   -17.1190 
  229.6250    54.0080   107.3910    99.2380    99.6900    24.3560     2.5550   -17.0350 
  229.7500    52.4980   116.8480   108.3980   128.3580    23.7130     2.6250   -17.0700 
  229.8750    56.4850   114.9140   108.5090   142.7190    23.1080     2.6640   -17.0640 
  230.0000    61.2120    95.1670    93.0430   138.3250    22.8110     2.6680   -17.0090 
  230.1250    62.7060    64.8710    65.6340   102.9760    22.7010     2.6490   -17.0700 
  230.2500    65.5620    39.5690    40.9930    63.5060    22.5560     2.6180   -17.1740 
  230.3750    71.8740    23.1590    24.3640    30.9640    22.4110     2.5690   -17.2730 
  230.5000    79.8510    14.0530    14.9250    13.9890    22.3300     2.5070   -17.4000 
  230.6250    84.9250    10.0460    10.5950     8.3090    22.4010     2.4600   -17.6030 
  230.7500    85.4850     8.2710     8.4990     7.9020    22.5480     2.4410   -17.8030 
  230.8750    83.3550     7.6670     7.6110     8.3260    22.6880     2.4430   -18.0210 
  231.0000    80.0850     7.6580     7.4090     8.5080    22.7310     2.4480   -18.2730 
  231.1250    77.3880     7.9060     7.6090     8.4270    22.6780     2.4460   -18.5050 
  231.2500    78.2550     8.1480     7.9030     8.3750    22.5770     2.4430   -18.7310 
  231.3750    83.4100     8.3060     8.1580     8.3340    22.5070     2.4450   -18.9430 
  231.5000    89.8340     8.3740     8.3260     8.5750    22.5000     2.4510   -19.1400 
  231.6250    94.6610     8.3610     8.3890     8.7050    22.5510     2.4540   -19.3510 
  231.7500    99.7190     8.2950     8.3660     8.5780    22.6390     2.4510   -19.5430 
  231.8750   103.7840     8.2130     8.2790     8.2440    22.7330     2.4410   -19.6900 
  232.0000   105.7300     8.1770     8.1770     7.8830    22.7650     2.4290   -19.8300 
  232.1250   107.1270     8.2840     8.1410     7.7010    22.6270     2.4170   -19.9900 
  232.2500   110.6820     8.5690     8.2270     7.6590    22.4060     2.4050   -20.1110 
  232.3750   116.3910     9.0580     8.4780     7.8880    22.3500     2.3920   -20.2040 
  232.5000   119.3010     9.7600     8.9240     8.7520    22.6320     2.3830   -20.3250 
  232.6250   113.4160    10.6900     9.5990    10.4190    23.2040     2.3780   -20.4420 
  232.7500   101.4160    11.7740    10.4350    11.8680    23.8310     2.3740   -20.5600 
  232.8750    91.1870    12.9560    11.3810    13.2380    24.3420     2.3690   -20.6820 
  233.0000    87.6360    14.1600    12.3640    15.9040    24.6330     2.3680   -20.7830 
  233.1250    86.7440    15.2350    13.2610    18.0410    24.7120     2.3710   -20.8610 
  233.2500    86.4200    16.0660    13.9830    18.5740    24.7210     2.3730   -20.9050 
  233.3750    87.4890    16.5940    14.4870    18.3630    24.7100     2.3670   -20.8900 
  233.5000    88.7930    16.8470    14.7780    17.9990    24.7050     2.3560   -20.8620 
  233.6250    88.6750    16.9200    14.9040    17.9680    24.7260     2.3470   -20.8210 
  233.7500    88.6880    16.9930    14.9950    18.1310    24.7720     2.3420   -20.7370 
  233.8750    88.9280    17.2080    15.1680    18.1250    24.8200     2.3390   -20.6350 
  234.0000    86.0860    17.7360    15.5520    18.5490    24.8340     2.3370   -20.5390 
  234.1250    80.8370    18.8470    16.3480    18.8070    24.8030     2.3370   -20.4360 
  234.2500    79.5360    20.4560    17.5350    18.8950    24.7680     2.3430   -20.3410 
  234.3750    82.4510    22.1680    18.8830    19.2970    24.7320     2.3540   -20.2790 
  234.5000    84.4600    23.1640    19.7970    22.7730    24.5530     2.3640   -20.1670 
  234.6250    81.4120    22.1950    19.2090    23.8640    24.1430     2.3720   -20.0020 
  234.7500    80.1350    19.5210    17.1940    19.8080    23.6930     2.3860   -19.8770 
  234.8750    86.8200    16.2250    14.5810    13.8710    23.3280     2.4000   -19.7750 
  235.0000    96.8840    13.6190    12.3670     9.6670    23.1100     2.4020   -19.6850 
  235.1250    97.7090    12.9520    11.4190     8.2220    23.2290     2.3830   -19.6530 
  235.2500    90.0700    14.4450    11.9490     9.5090    23.5270     2.3550   -19.6700 
  235.3750    81.0690    18.3350    14.3200    14.0480    23.6320     2.3310   -19.7190 
  235.5000    74.5620    24.6630    18.9370    19.3950    23.3290     2.3150   -19.8320 
  235.6250    69.3530    33.0430    26.1820    20.9620    22.9140     2.3080   -20.0430 
  235.7500    66.0330    41.2240    34.2840    19.7790    22.5870     2.3070   -20.2320 
  235.8750    65.2850    46.9170    40.8130    18.7750    22.4130     2.3090   -20.4030 
