~V
VERS. 2.00: Ver 2.00
~W
STRT.M 60.0000:
STOP.M 276.0000:
STEP.M 0.1250:
NULL. -999.2500:
UWI. F10216:
~C
DEPT.M :
DEN.GM/CC :
GR.API :
RML.OHMM :
RI. :
RXO.OHMM :
CALI.CM :
SP.MV :
~A
# ...
  138.7500     2.2740    81.3170     5.9490     4.9820     6.4280    24.5410   -10.1650 
  138.8750     2.3020    84.2540     6.8280     5.4010     6.3830    24.6690   -10.1270 
  139.0000     2.3670    84.0870     8.8570     6.5880     7.9560    24.7250   -10.1200 
  139.1250     2.4770    76.9500    12.7240     9.1130    14.9450    24.6820   -10.1560 
  139.2500     2.5880    68.3370    18.1320    13.1070    29.5300    24.5420   -10.2250 
  139.3750     2.6390    62.8100    23.9000    18.1620    46.2730    24.4240   -10.2670 
  139.5000     2.6060    59.3180    27.4620    22.3700    54.7150    24.3820   -10.3180 
  139.6250     2.5080    57.2290    25.7710    22.3790    47.5960    24.4370   -10.3710 
  139.7500     2.3950    59.3490    21.0710    19.2530    32.0940    24.5000   -10.4080 
  139.8750     2.2930    65.7720    16.3740    15.5100    20.0060    24.6090   -10.4320 
  140.0000     2.2070    73.4080    13.3130    12.6910    13.1240    24.6730   -10.4490 
  140.1250     2.1530    78.1530    12.1840    11.2330    11.5460    24.6410   -10.4380 
  140.2500     2.1330    79.2600    12.0320    10.5850    13.4990    24.5680   -10.4020 
  140.3750     2.1490    77.5650    12.1540    10.3070    16.5690    24.5920   -10.3890 
  140.5000     2.1950    75.5250    11.9160     9.9500    16.6820    24.6860   -10.3970 
  140.6250     2.2480    74.3550    10.9380     9.1870    13.0340    24.7410   -10.3610 
  140.7500     2.2860    75.3960     9.7180     8.2500     9.9340    24.7740   -10.3410 
  140.8750     2.3090    78.7730     8.8550     7.4980     7.9980    24.8130   -10.3340 
  141.0000     2.3340    81.4440     8.7830     7.2190     7.3110    24.8390   -10.3020 
  141.1250     2.3840    79.9780     9.9050     7.7170     8.1680    24.7940   -10.2850 
  141.2500     2.4520    75.7810    12.1160     9.0010    11.4500    24.6990   -10.2790 
  141.3750     2.5160    69.8010    15.2970    11.0990    18.1990    24.5570   -10.2510 
  141.5000     2.5610    62.1380    19.0670    13.8680    23.2800    24.4570   -10.1950 
  141.6250     2.5850    54.5550    22.6220    16.8110    25.7360    24.3840   -10.1930 
  141.7500     2.6020    49.9770    25.2430    19.2010    26.2750    24.3670   -10.1880 
  141.8750     2.6130    47.9870    26.7200    20.6990    26.2210    24.3580   -10.1640 
  142.0000     2.6150    47.2750    27.3100    21.4020    27.7740    24.3660   -10.1560 
  142.1250     2.6090    47.6350    27.4110    21.5900    29.6220    24.3690   -10.1260 
  142.2500     2.6000    48.3220    27.3750    21.5900    30.9120    24.3730   -10.0900 
  142.3750     2.5920    48.8000    27.2800    21.4930    30.0490    24.3920   -10.0680 
  142.5000     2.5850    48.2120    27.1910    21.3690    27.8280    24.4290   -10.0790 
  142.6250     2.5750    45.8530    27.2020    21.3080    27.1900    24.4190   -10.0640 
  142.7500     2.5620    44.2160    27.3250    21.3410    26.9810    24.3720   -10.0560 
  142.8750     2.5500    43.8560    27.5140    21.4510    27.7810    24.3460   -10.0520 
  143.0000     2.5420    43.3930    27.6770    21.5840    28.2320    24.3510   -10.0450 
  143.1250     2.5440    44.0380    27.6330    21.6250    28.8680    24.3730   -10.0580 
  143.2500     2.5560    47.8130    27.2340    21.4490    29.0150    24.3990   -10.0620 
  143.3750     2.5680    51.3310    26.3690    20.9500    27.9230    24.4560   -10.0750 
  143.5000     2.5710    50.3330    25.0620    20.1120    26.5350    24.5250   -10.0480 
  143.6250     2.5570    47.9900    23.4900    19.0370    25.3530    24.6460   -10.0370 
  143.7500     2.5370    48.6910    22.0310    17.9900    22.7000    24.6980   -10.0190 
  143.8750     2.5210    51.8730    20.9670    17.1780    19.4790    24.7160    -9.9970 
  144.0000     2.5160    56.0470    20.4590    16.7360    17.6580    24.7050    -9.9780 
  144.1250     2.5170    60.2700    20.5650    16.7510    18.1360    24.6770    -9.9390 
  144.2500     2.5120    62.1980    20.9920    17.0580    19.7120    24.6200    -9.9090 
  144.3750     2.4990    61.0950    21.4770    17.4930    21.5310    24.5470    -9.8610 
  144.5000     2.4800    59.7310    21.7390    17.8450    22.0280    24.4530    -9.8340 
  144.6250     2.4650    59.1350    21.5080    17.8570    21.7350    24.3760    -9.7930 
  144.7500     2.4550    58.1990    20.8860    17.5230    20.9430    24.3360    -9.7410 
  144.8750     2.4440    57.5070    20.0410    16.9330    21.1490    24.3220    -9.7060 
  145.0000     2.4280    58.5930    19.1620    16.2310    20.9500    24.3390    -9.6840 
  145.1250     2.4070    60.5860    18.4370    15.5720    18.4130    24.3520    -9.6650 
  145.2500     2.3930    61.8390    17.9560    15.0600    17.1590    24.3400    -9.6610 
  145.3750     2.3910    61.5510    17.7630    14.7470    16.9430    24.3060    -9.6760 
  145.5000     2.4010    58.0980    17.8680    14.6580    17.2280    24.3210    -9.7050 
  145.6250     2.4160    53.0760    18.2820    14.8260    17.3010    24.4160    -9.7410 
  145.7500     2.4290    50.3660    18.8650    15.1690    17.2650    24.5550    -9.7950 
  145.8750     2.4390    50.2410    19.4770    15.5950    18.2670    24.6370    -9.8360 
  146.0000     2.4470    49.7710    19.9680    15.9890    19.9220    24.6040    -9.8670 
  146.1250     2.4550    48.8350    20.1960    16.2260    21.4180    24.4730    -9.9300 
  146.2500     2.4590    50.4400    20.2350    16.3230    21.2020    24.4020    -9.9600 
  146.3750     2.4580    53.6170    20.2480    16.3760    20.5220    24.3970   -10.0080 
  146.5000     2.4560    54.6650    20.4720    16.5330    18.8340    24.4450   -10.0410 
  146.6250     2.4650    52.2390    21.2120    17.0080    18.9600    24.4380   -10.0790 
  146.7500     2.4850    49.6730    22.4540    17.8300    22.0590    24.3880   -10.1340 
  146.8750     2.5070    49.5300    24.0290    18.9300    27.5960    24.3360   -10.1830 
  147.0000     2.5220    52.4720    25.5790    20.1060    26.1480    24.3020   -10.2450 
  147.1250     2.5200    56.2950    26.5560    20.9770    26.4970    24.3140   -10.2710 
  147.2500     2.5090    58.2910    26.7870    21.3370    26.6790    24.3380   -10.3100 
  147.3750     2.4940    58.2450    26.4070    21.2100    26.6900    24.3480   -10.3350 
  147.5000     2.4830    56.7060    25.7650    20.8040    25.2370    24.3470   -10.3450 
  147.6250     2.4770    54.8700    25.2200    20.3730    23.9700    24.3460   -10.3640 
  147.7500     2.4760    53.0640    24.8690    20.0490    24.0710    24.3520   -10.3650 
  147.8750     2.4790    51.9690    24.6400    19.8310    24.8520    24.3610   -10.3890 
  148.0000     2.4840    51.2360    24.4180    19.6610    25.5110    24.3780   -10.3910 
  148.1250     2.4890    48.6180    24.1230    19.4800    24.8330    24.3770   -10.4190 
  148.2500     2.4940    45.1330    23.7850    19.2880    23.4370    24.3680   -10.4440 
  148.3750     2.5060    43.4870    23.4520    19.1190    23.2580    24.3550   -10.4600 
  148.5000     2.5240    44.6860    23.1640    19.0040    23.7700    24.3520   -10.4850 
  148.6250     2.5390    47.9300    22.9630    18.9770    24.2980    24.3640   -10.4910 
  148.7500     2.5410    52.7310    22.8490    19.0230    24.9960    24.3700   -10.4990 
  148.8750     2.5220    57.2700    22.7930    19.1080    25.3260    24.3770   -10.4840 
  149.0000     2.4900    57.8450    22.7250    19.1750    23.2500    24.3630   -10.4940 
  149.1250     2.4610    54.7340    22.5010    19.1250    22.8360    24.3620   -10.4900 
  149.2500     2.4480    53.5370    22.0290    18.8970    22.6710    24.3560   -10.5080 
  149.3750     2.4560    55.9100    21.3010    18.4690    23.4220    24.3750   -10.5340 
  149.5000     2.4770    58.8830    20.4360    17.9140    23.1440    24.3920   -10.5700 
  149.6250     2.4950    59.5740    19.6960    17.4100    21.6110    24.4420   -10.6370 
  149.7500     2.5020    58.6710    19.2810    17.1110    20.4170    24.4570   -10.6910 
  149.8750     2.4970    58.4790    19.2170    17.0590    20.2420    24.4420   -10.7590 
