~V
VERS. 2.00: Ver 2.00
~W
STRT.M 56.0000:
STOP.M 284.0000:
STEP.M 0.1250:
NULL. -999.2500:
UWI. F10233:
~C
DEPT.M :
GR.API :
RML.OHMM :
RI. :
RXO.OHMM :
CALI.CM :
DEN.GM/CC :
SP.MV :
~A
# ...
  146.0000    46.7930    20.8720    18.6250    18.3360    23.8410     2.6240   -11.5080 
  146.1250    48.9600    20.9360    18.6930    19.0270    23.8020     2.6160   -11.4370 
  146.2500    50.1070    20.9030    18.7040    19.1930    23.8300     2.6090   -11.4310 
  146.3750    51.6470    20.7600    18.6520    18.8830    23.8710     2.6010   -11.3800 
  146.5000    54.2970    20.5200    18.5510    18.2640    23.8660     2.5950   -11.2390 
  146.6250    56.3290    20.2060    18.4130    16.8260    23.7840     2.5950   -11.1340 
  146.7500    56.6080    19.8950    18.2710    16.5190    23.7000     2.6010   -11.0930 
  146.8750    55.1020    19.6570    18.1610    17.3420    23.5940     2.6080   -10.9880 
  147.0000    53.9590    19.5280    18.1020    17.4330    23.4980     2.6090   -10.9280 
  147.1250    55.4330    19.4790    18.0630    16.5700    23.5150     2.6030   -10.8920 
  147.2500    58.3410    19.3990    17.9660    16.8290    23.5890     2.5980   -10.7700 
  147.3750    59.8980    19.1860    17.7480    17.6910    23.6070     2.5930   -10.6750 
  147.5000    59.0710    18.7900    17.3810    17.8300    23.5440     2.5800   -10.7030 
  147.6250    59.3230    18.2040    16.8490    16.2010    23.5390     2.5520   -10.7100 
  147.7500    63.0130    17.5110    16.1990    14.6390    23.6660     2.5200   -10.6570 
  147.8750    66.0780    16.7390    15.4470    13.9840    23.9150     2.4940   -10.6820 
  148.0000    65.4040    15.8960    14.6120    14.2480    24.1470     2.4790   -10.6720 
  148.1250    62.9740    15.0070    13.7480    13.5030    24.3280     2.4750   -10.6180 
  148.2500    62.1030    14.1780    12.9650    12.3670    24.2950     2.4790   -10.6480 
  148.3750    61.0210    13.5430    12.3740    11.3710    24.0610     2.4910   -10.6790 
  148.5000    57.5960    13.2240    12.0620    10.5420    23.8490     2.5090   -10.6420 
  148.6250    53.4410    13.3330    12.1260    10.6000    23.8350     2.5250   -10.5750 
  148.7500    51.0530    13.7560    12.4880    11.5470    23.9820     2.5320   -10.5360 
  148.8750    52.3380    14.3910    13.0680    12.7350    24.2490     2.5310   -10.4730 
  149.0000    55.3420    15.1370    13.7640    13.1210    24.5460     2.5280   -10.3920 
  149.1250    54.1030    15.8910    14.4600    13.0930    24.6430     2.5270   -10.4150 
  149.2500    48.1340    16.5110    15.0240    13.6000    24.5890     2.5260   -10.4260 
  149.3750    43.5720    16.8450    15.3250    14.3050    24.4560     2.5240   -10.3730 
  149.5000    44.4780    16.7810    15.2690    14.8750    24.3510     2.5230   -10.3500 
  149.6250    47.9050    16.2710    14.8070    14.0140    24.2610     2.5260   -10.4780 
  149.7500    50.5470    15.5570    14.1350    12.5020    24.1800     2.5300   -10.5850 
  149.8750    52.5230    14.8730    13.4420    11.2960    24.0950     2.5370   -10.7100 
  150.0000    54.6950    14.4250    12.9060    11.2230    23.9890     2.5480   -10.9300 
  150.1250    56.4520    14.3680    12.6830    11.5720    23.8290     2.5620   -11.0550 
  150.2500    59.1380    14.6120    12.7460    11.8690    23.6910     2.5730   -11.1740 
  150.3750    61.6780    15.0560    13.0400    12.5360    23.6830     2.5800   -11.3940 
  150.5000    62.5350    15.5660    13.4670    13.1940    23.7190     2.5830   -11.6320 
  150.6250    62.4770    16.0150    13.9040    13.3230    23.8060     2.5780   -11.7630 
  150.7500    62.0070    16.3610    14.2750    13.0650    23.8850     2.5650   -11.9460 
  150.8750    60.2490    16.5920    14.5610    13.4560    23.9980     2.5460   -12.1300 
  151.0000    58.6440    16.6510    14.7340    14.2500    24.1630     2.5290   -12.2180 
  151.1250    61.2190    16.3880    14.6890    14.4180    24.2880     2.5200   -12.3740 
  151.2500    66.6690    15.7920    14.3930    14.1660    24.3930     2.5170   -12.5820 
  151.3750    71.7310    14.9230    13.8720    14.0860    24.5660     2.5170   -12.7340 
  151.5000    74.3510    13.9530    13.2440    13.5910    24.6960     2.5210   -12.7980 
  151.6250    73.6540    13.1670    12.7260    11.8850    24.6640     2.5300   -12.9360 
  151.7500    72.1320    12.7220    12.4590    10.9690    24.5150     2.5330   -13.0700 
  151.8750    70.7610    12.6200    12.4640    10.3590    24.3230     2.5220   -13.1310 
  152.0000    69.0660    12.6820    12.6120    10.5550    24.2080     2.4960   -13.2750 
  152.1250    67.3730    12.5220    12.5550    11.7400    24.2220     2.4600   -13.4120 
  152.2500    69.0250    11.8470    11.9860    12.2580    24.4040     2.4280   -13.4400 
  152.3750    73.6250    10.6080    10.8210    11.3130    24.6780     2.4090   -13.4440 
  152.5000    79.0010     9.0300     9.2660     9.3430    24.8860     2.4020   -13.5560 
  152.6250    85.4340     7.5090     7.7110     6.8950    24.7780     2.4010   -13.6730 
  152.7500    90.5530     6.2940     6.4240     5.6390    24.2160     2.3970   -13.7540 
  152.8750    91.3460     5.4520     5.4890     4.8660    23.6890     2.3900   -13.9310 
  153.0000    89.4110     5.0020     4.9280     4.4690    23.5220     2.3810   -14.0870 
  153.1250    89.5770     5.0690     4.8410     4.4010    23.4570     2.3680   -14.1740 
  153.2500    89.5860     5.6850     5.2290     4.6820    23.3370     2.3480   -14.3190 
  153.3750    86.2110     6.9970     6.2020     5.6930    23.2240     2.3200   -14.5370 
  153.5000    80.7340     9.1500     7.9180     8.2810    23.1690     2.2900   -14.6910 
  153.6250    75.6540    12.2820    10.0440    13.6200    23.0940     2.2680   -14.7740 
  153.7500    71.9290    15.9120    13.4210    16.6420    22.9150     2.2560   -14.9210 
  153.8750    69.9960    19.4660    17.1320    18.9070    22.6060     2.2510   -14.9850 
  154.0000    70.3660    22.4020    20.4880    23.2130    22.4210     2.2500   -14.9790 
  154.1250    72.3640    24.3340    22.7760    29.5480    22.4240     2.2520   -15.0520 
  154.2500    73.5980    25.4180    24.0200    31.2520    22.4530     2.2570   -15.1440 
  154.3750    73.0910    25.5540    24.1770    31.1310    22.4120     2.2650   -15.1670 
  154.5000    71.0920    24.4690    23.0730    28.2290    22.3910     2.2770   -15.1310 
  154.6250    68.8650    21.9270    20.5670    24.8970    22.4570     2.2920   -15.1390 
  154.7500    68.7810    18.8510    17.5810    18.7920    22.5260     2.3050   -15.0640 
  154.8750    72.0750    16.2050    14.9740    13.0910    22.5960     2.3080   -14.9940 
  155.0000    76.7450    14.6860    13.3010     9.9130    22.7100     2.2930   -14.9910 
  155.1250    77.8240    14.8630    12.9820    10.1970    22.9590     2.2620   -14.8880 
  155.2500    74.6450    16.5840    13.9230    13.5270    23.3590     2.2300   -14.7600 
  155.3750    69.6740    19.8040    16.2170    20.1430    23.8940     2.2080   -14.6500 
  155.5000    65.1710    24.3010    19.8740    25.5000    24.3940     2.1990   -14.5640 
  155.6250    61.5020    29.6730    24.7720    28.2090    24.6400     2.2020   -14.4990 
  155.7500    59.1770    35.1030    30.0670    32.1810    24.7070     2.2080   -14.4360 
  155.8750    59.1130    40.0290    35.0550    40.7270    24.7310     2.2160   -14.3970 
  156.0000    62.5740    44.0120    39.1700    49.1500    24.7910     2.2250   -14.3880 
  156.1250    67.0940    46.4210    41.7870    49.7820    24.8880     2.2300   -14.4030 
  156.2500    69.0660    47.1320    42.8360    46.4340    24.9670     2.2260   -14.3940 
  156.3750    70.3620    46.0580    42.2180    43.8240    25.1090     2.2200   -14.4310 
  156.5000    73.7220    43.6490    40.2670    40.1030    25.2900     2.2150   -14.5040 
  156.6250    76.4250    40.9030    37.7900    34.8620    25.4260     2.2160   -14.4960 
  156.7500    76.6910    38.8670    35.7660    30.2610    25.5270     2.2190   -14.5590 
  156.8750    75.2850    38.0870    34.7240    27.6730    25.5630     2.2230   -14.6120 
  157.0000    73.1420    38.7870    34.9280    27.9430    25.5540     2.2290   -14.5590 
  157.1250    70.3840    41.0510    36.5730    30.3890    25.5270     2.2340   -14.5670 
