~V
VERS. 2.00: Ver 2.00
~W
STRT.M 50.0000:
STOP.M 283.0000:
STEP.M 0.1250:
NULL. -999.2500:
UWI. F10256:
~C
DEPT.M :
DEN.GM/CC :
GR.API :
RML.OHMM :
RI. :
RXO.OHMM :
CALI.CM :
SP.MV :
~A
# ...
  230.0000     2.2550    54.0510    81.6510    80.6520    79.1170    24.6620   -11.3790 
  230.1250     2.2580    55.8940    80.3950    79.1900    74.5080    24.7410   -11.4030 
  230.2500     2.2580    56.6110    80.9120    79.4360    75.0190    24.7560   -11.4720 
  230.3750     2.2550    56.3550    82.7540    81.0190    76.0120    24.7650   -11.5960 
  230.5000     2.2480    56.2850    85.2770    83.3480    76.3100    24.8290   -11.7490 
  230.6250     2.2400    56.3800    87.6130    85.5870    83.3780    24.8370   -11.8700 
  230.7500     2.2340    56.2080    89.0560    86.9890    87.4610    24.8070   -11.9660 
  230.8750     2.2310    56.7690    89.3050    87.1910    88.2220    24.8170   -12.0640 
  231.0000     2.2320    57.3800    88.5850    86.3230    87.1110    24.8200   -12.1890 
  231.1250     2.2360    55.3530    87.8200    85.1820    87.2300    24.7440   -12.3000 
  231.2500     2.2400    52.1120    88.2290    84.9790    93.2110    24.7350   -12.3620 
  231.3750     2.2400    50.6300    90.5870    86.5260    92.8230    24.7890   -12.4190 
  231.5000     2.2360    51.6350    94.9900    90.0360    80.9300    24.8320   -12.5070 
  231.6250     2.2310    53.8000   100.6730    94.9660    87.9930    24.8290   -12.6070 
  231.7500     2.2280    55.5830   105.7540    99.6050   106.1630    24.8730   -12.7170 
  231.8750     2.2290    54.8930   108.7680   102.5580   123.3320    24.8600   -12.8540 
  232.0000     2.2340    52.1860   109.0080   103.0490   123.9680    24.8080   -12.9800 
  232.1250     2.2390    50.5000   106.8450   101.2000   109.5090    24.8260   -13.1220 
  232.2500     2.2400    51.7520   104.4470    98.8830    98.3170    24.8280   -13.3170 
  232.3750     2.2380    54.8190   103.2710    97.4790    95.1200    24.8110   -13.5160 
  232.5000     2.2330    58.9170   103.7500    97.5620    96.8630    24.8630   -13.7040 
  232.6250     2.2280    61.6860   105.2120    98.7030   103.9410    24.8940   -13.9030 
  232.7500     2.2250    61.8820   106.1850    99.5460   109.8920    24.8700   -14.1080 
  232.8750     2.2290    59.9950   105.8250    99.2210   113.0370    24.8860   -14.3040 
  233.0000     2.2410    57.9190   104.0160    97.4970   109.4630    24.9190   -14.5020 
  233.1250     2.2580    59.2500   101.3930    94.8450    98.8470    24.8600   -14.6790 
  233.2500     2.2730    62.3820    99.1070    92.3680    88.2460    24.8220   -14.7970 
  233.3750     2.2820    63.8930    97.7270    90.6720    82.9210    24.8160   -14.8770 
  233.5000     2.2830    63.9770    97.2790    89.8760    81.9120    24.7270   -14.9170 
  233.6250     2.2750    64.4250    97.2850    89.6190    85.4420    24.5720   -14.8630 
  233.7500     2.2630    64.7170    96.9450    89.1450    85.6610    24.5010   -14.7070 
  233.8750     2.2490    62.4210    95.8250    88.0050    80.8530    24.4730   -14.4550 
  234.0000     2.2360    57.5610    93.9030    86.1070    76.1710    24.4370   -14.1710 
  234.1250     2.2310    55.8920    91.5750    83.7380    74.9570    24.5140   -13.8920 
  234.2500     2.2340    58.9050    89.5410    81.5360    75.3540    24.6290   -13.5760 
  234.3750     2.2440    63.3390    88.2440    79.9390    75.3190    24.7070   -13.2530 
  234.5000     2.2570    64.9510    87.8890    79.1810    75.3260    24.7970   -12.9680 
  234.6250     2.2680    61.0220    88.5900    79.4200    75.5400    24.8390   -12.7710 
  234.7500     2.2750    55.5170    90.0020    80.3710    75.4440    24.7680   -12.6530 
  234.8750     2.2780    49.8950    91.8720    81.8260    75.7170    24.7240   -12.6050 
  235.0000     2.2770    46.1010    93.8880    83.5220    76.7800    24.8030   -12.6200 
  235.1250     2.2740    47.5220    95.6090    85.1040    79.9480    24.8660   -12.6780 
  235.2500     2.2690    50.7430    96.6820    86.2460    84.1950    24.8560   -12.7770 
  235.3750     2.2630    52.5940    96.8380    86.6920    87.5170    24.8740   -12.8880 
  235.5000     2.2580    52.9510    95.9910    86.3120    88.6390    24.8800   -13.0040 
  235.6250     2.2550    53.6270    94.3010    85.1420    86.8010    24.8200   -13.1260 
  235.7500     2.2550    55.0320    92.4620    83.7190    83.5920    24.8360   -13.2330 
  235.8750     2.2590    55.0340    90.9870    82.4700    79.6430    24.9090   -13.3040 
  236.0000     2.2650    53.7460    90.1470    81.6550    75.6240    24.9260   -13.3410 
  236.1250     2.2720    54.3240    89.9100    81.2850    73.4030    24.9000   -13.3730 
  236.2500     2.2760    56.6760    89.7540    80.9580    75.8070    24.9450   -13.3850 
  236.3750     2.2750    58.4440    89.2710    80.3240    80.4550    24.9600   -13.3810 
  236.5000     2.2710    58.1390    88.2720    79.2020    82.1540    24.9130   -13.3630 
  236.6250     2.2660    57.5070    86.9680    77.7240    77.6200    24.9210   -13.3800 
  236.7500     2.2640    58.0000    86.0990    76.5180    71.2320    24.9260   -13.4530 
  236.8750     2.2650    58.6550    86.5200    76.3310    68.3980    24.8730   -13.5380 
  237.0000     2.2680    59.8610    89.1680    78.0290    70.3960    24.8230   -13.5940 
  237.1250     2.2800    62.8940    95.7710    83.2650    72.5500    24.8040   -13.6250 
  237.2500     2.3060    65.9020   107.0460    92.8850    74.7300    24.7100   -13.7010 
  237.3750     2.3550    65.8280   124.0570   108.0860    80.7330    24.5670   -13.8040 
  237.5000     2.4290    60.3700   146.9360   129.3220    96.7920    24.4380   -13.8640 
  237.6250     2.5170    53.3000   171.9150   154.2150   126.7260    24.3870   -13.8450 
  237.7500     2.5980    51.6460   189.3030   174.0370   177.3480    24.3810   -13.7810 
  237.8750     2.6530    54.4480   189.3990   179.2330   243.5960    24.4520   -13.6910 
  238.0000     2.6740    56.0920   164.5680   161.9920   283.9730    24.5150   -13.5600 
  238.1250     2.6560    54.6010   115.9170   119.6130   273.2870    24.4730   -13.4220 
  238.2500     2.6120    52.6960    68.8740    72.8930   241.0030    24.4380   -13.2480 
  238.3750     2.5520    52.1030    36.9860    38.4120   168.0880    24.3880   -13.0020 
  238.5000     2.4860    53.4660    19.3910    19.1280    62.4380    24.2190   -12.7400 
  238.6250     2.4280    56.4930    11.5350    10.8640    19.6120    24.0050   -12.4920 
  238.7500     2.3840    57.9540     7.8070     7.0050     8.1990    23.8420   -12.2300 
  238.8750     2.3540    56.3900     6.2620     5.2970     5.3140    23.6890   -11.9610 
  239.0000     2.3350    56.1690     5.8700     4.6880     4.8170    23.5990   -11.7230 
  239.1250     2.3280    63.9260     6.1550     4.7820     4.8620    23.7040   -11.4520 
  239.2500     2.3350    75.3180     6.7130     5.2200     4.9430    23.8510   -11.1530 
  239.3750     2.3520    83.0280     7.3600     5.8360     5.2550    24.0170   -10.8510 
  239.5000     2.3760    83.8860     7.9500     6.4790     6.0640    24.2970   -10.5150 
  239.6250     2.3980    82.3690     8.3370     6.9920     6.8230    24.5320   -10.1330 
  239.7500     2.4100    85.0150     8.5110     7.3110     7.1250    24.6100    -9.7140 
  239.8750     2.4110    90.9080     8.4980     7.4250     7.2060    24.5860    -9.2360 
  240.0000     2.4070    96.6720     8.3740     7.3790     7.2310    24.6050    -8.6600 
  240.1250     2.4020    98.1420     8.1980     7.2410     7.2680    24.5990    -8.0130 
  240.2500     2.3990    96.7560     8.0330     7.0930     7.2910    24.5800    -7.3020 
  240.3750     2.4000    96.6860     7.8960     6.9700     7.3130    24.6020    -6.5430 
  240.5000     2.4040    98.1610     7.7580     6.8910     7.3820    24.5970    -5.7720 
  240.6250     2.4080    97.4840     7.6780     6.8660     7.4330    24.5410    -4.9840 
  240.7500     2.4110    93.7610     7.6420     6.8710     7.4710    24.5460    -4.2320 
  240.8750     2.4120    90.1490     7.6440     6.8840     7.5310    24.5740    -3.5710 
  241.0000     2.4090    90.3410     7.6850     6.8830     7.6350    24.5390    -2.9970 
  241.1250     2.4020    94.3230     7.7500     6.8540     7.6760    24.5090    -2.5070 
