~V
VERS. 2.00: Ver 2.00
~W
STRT.M 53.0000:
STOP.M 282.0000:
STEP.M 0.1250:
NULL. -999.2500:
UWI. F10240:
~C
DEPT.M :
GR.API :
RML.OHMM :
RI. :
RXO.OHMM :
CALI.CM :
DEN.GM/CC :
SP.MV :
~A
# ...
  165.5000    75.9330    13.8960    11.6890    14.3580    25.2020     2.3090   -21.2620 
  165.6250    74.0560    13.1760    11.1370    12.8790    25.1980     2.3160   -21.3710 
  165.7500    73.5760    12.5500    10.6210    11.7510    25.2270     2.3240   -21.4750 
  165.8750    75.4670    12.2220    10.2870    11.5400    25.2530     2.3330   -21.5540 
  166.0000    78.8900    12.3210    10.2570    11.9600    25.2640     2.3440   -21.6280 
  166.1250    81.5820    12.6830    10.4540    12.5680    25.2480     2.3520   -21.7380 
  166.2500    81.9290    13.1180    10.7580    12.9850    25.2180     2.3550   -21.8660 
  166.3750    79.5130    13.4330    11.0200    13.4130    25.2000     2.3520   -21.9880 
  166.5000    75.9600    13.4690    11.0990    13.9040    25.1510     2.3430   -22.1020 
  166.6250    74.3830    13.3100    11.0240    13.4370    25.1030     2.3310   -22.2210 
  166.7500    74.7720    13.1010    10.8860    12.4380    25.0940     2.3190   -22.3540 
  166.8750    74.9140    12.9860    10.7910    12.0420    25.1210     2.3110   -22.5020 
  167.0000    74.6570    13.0580    10.8240    12.7040    25.1120     2.3090   -22.6380 
  167.1250    75.1070    13.2340    10.9500    13.3390    25.0520     2.3120   -22.7400 
  167.2500    75.2460    13.4000    11.1030    13.6020    25.0060     2.3180   -22.8520 
  167.3750    75.1380    13.4450    11.2040    13.7350    24.9850     2.3260   -22.9970 
  167.5000    77.8710    13.2780    11.1800    13.6410    24.9910     2.3380   -23.1680 
  167.6250    81.3980    12.9600    11.0480    13.1820    24.9700     2.3490   -23.3120 
  167.7500    82.6390    12.5660    10.8510    12.6790    24.9250     2.3550   -23.4240 
  167.8750    80.9070    12.1610    10.6320    12.6230    24.8540     2.3540   -23.5230 
  168.0000    77.7560    11.7860    10.4170    12.4290    24.8190     2.3470   -23.6510 
  168.1250    74.2470    11.4560    10.2130    11.8510    24.8300     2.3410   -23.8130 
  168.2500    71.3040    11.1820    10.0230    11.2680    24.9350     2.3350   -23.9800 
  168.3750    70.4130    10.9600     9.8390    10.9600    25.0320     2.3290   -24.1400 
  168.5000    70.9320    10.7780     9.6420    10.6390    25.0670     2.3180   -24.2580 
  168.6250    69.5040    10.5960     9.4100    10.2390    25.0180     2.3080   -24.3760 
  168.7500    68.4810    10.3690     9.1190     9.9250    24.8800     2.3080   -24.5260 
  168.8750    71.6360    10.0650     8.7520     9.6720    24.6910     2.3200   -24.6970 
  169.0000    77.7840     9.6750     8.3160     9.4070    24.6470     2.3260   -24.8310 
  169.1250    82.1410     9.2570     7.8670     8.9550    24.7080     2.3100   -24.9230 
  169.2500    84.2040     8.8730     7.4530     8.2990    24.8240     2.2720   -25.0010 
  169.3750    86.2610     8.6260     7.1370     8.0520    24.9070     2.2280   -25.0760 
  169.5000    86.7770     8.7930     7.0810     8.5990    24.8670     2.2080   -25.1800 
  169.6250    83.6230     9.6850     7.4550     9.6650    24.7010     2.2240   -25.3080 
  169.7500    79.3840    11.8130     8.5540    10.9750    24.4410     2.2720   -25.4410 
  169.8750    73.9300    21.3120    14.1900    18.7500    24.2730     2.3270   -25.5960 
  170.0000    71.1320    31.4130    21.1640    34.3760    24.3280     2.3520   -25.8000 
  170.1250    68.3590    44.2910    31.1640    48.3650    24.3340     2.3440   -26.0420 
  170.2500    67.4890    57.7840    42.9450    54.2700    24.3750     2.3120   -26.2920 
  170.3750    68.9050    68.6250    53.7180    50.8760    24.5180     2.2750   -26.5300 
  170.5000    70.2420    73.9520    60.2750    47.7240    24.8030     2.2540   -26.7430 
  170.6250    71.1460    75.9180    63.4380    53.1660    24.9990     2.2510   -26.9090 
  170.7500    69.3910    76.9010    64.9230    65.9500    25.0970     2.2540   -27.0250 
  170.8750    65.0700    78.1590    66.0330    72.7030    25.1010     2.2520   -27.0800 
  171.0000    62.3940    79.2650    66.9210    67.7020    25.1210     2.2450   -27.0790 
  171.1250    62.2350    78.9760    66.9370    60.5060    25.1350     2.2410   -27.0320 
  171.2500    61.9630    76.3750    65.3820    56.6070    25.1450     2.2370   -26.9440 
  171.3750    59.3710    71.3230    61.9550    60.0620    25.1760     2.2290   -26.8430 
  171.5000    58.1880    64.6910    57.0240    59.3110    25.2270     2.2160   -26.7470 
  171.6250    60.4080    58.5120    52.1120    51.7500    25.2170     2.2100   -26.6270 
  171.7500    63.3730    54.2130    48.3960    43.4980    25.1540     2.2200   -26.4880 
  171.8750    64.8940    52.7390    46.7230    41.3460    25.0880     2.2480   -26.3620 
  172.0000    65.0280    55.0150    48.0560    41.9910    25.0770     2.2750   -26.2460 
  172.1250    63.9360    59.7510    51.7250    47.6510    25.0860     2.2830   -26.1310 
  172.2500    62.2470    64.6170    56.1540    60.6850    25.1130     2.2690   -26.0100 
  172.3750    60.1540    65.8460    58.2350    73.3470    25.1230     2.2400   -25.8560 
  172.5000    60.2020    59.4370    53.9660    71.9500    25.1260     2.2110   -25.6670 
  172.6250    63.0410    48.6350    45.3290    57.5150    25.0920     2.1920   -25.5060 
  172.7500    65.9100    38.0060    36.1190    34.9560    25.0340     2.1890   -25.3810 
  172.8750    65.8840    30.6910    29.2270    21.0380    24.9870     2.2030   -25.2770 
  173.0000    65.1670    28.4180    26.2370    20.2530    24.9400     2.2320   -25.1980 
  173.1250    66.0300    30.4160    26.6610    28.8100    24.8840     2.2640   -25.1560 
  173.2500    65.7290    36.5520    30.6420    46.2490    24.8580     2.2870   -25.1540 
  173.3750    61.3180    46.4830    38.3750    59.2680    24.8720     2.2960   -25.2110 
  173.5000    56.6330    58.7560    49.4270    63.2090    24.9050     2.2890   -25.3290 
  173.6250    55.7990    69.0610    60.0080    69.0810    24.9600     2.2760   -25.4680 
  173.7500    56.2900    73.8490    66.3420    74.4230    24.9830     2.2630   -25.6020 
  173.8750    55.3160    72.8770    67.2110    73.2840    25.0030     2.2550   -25.6880 
  174.0000    55.1160    69.5790    64.8030    63.0350    25.0270     2.2580   -25.7340 
  174.1250    55.9440    68.0740    62.9990    55.5490    25.0880     2.2650   -25.7920 
  174.2500    55.3350    69.7490    63.4460    56.8900    25.1580     2.2670   -25.8600 
  174.3750    52.6340    74.1450    66.2290    73.3520    25.2420     2.2540   -25.9030 
  174.5000    51.0930    78.3650    69.4240    94.0070    25.2880     2.2230   -25.8800 
  174.6250    52.8210    78.4110    69.7940    88.8760    25.3000     2.1830   -25.8300 
  174.7500    57.6880    72.6990    65.7750    60.7170    25.2700     2.1470   -25.7840 
  174.8750    64.4350    63.2530    58.5220    36.8210    25.1780     2.1280   -25.7810 
  175.0000    70.3400    54.5020    51.2690    26.2300    24.9710     2.1390   -25.7890 
  175.1250    72.7470    49.1310    46.4670    27.2590    24.7700     2.1740   -25.7670 
  175.2500    71.3780    47.5500    44.7840    35.4480    24.6660     2.2170   -25.7300 
  175.3750    67.6190    49.1730    46.0140    42.9420    24.7080     2.2490   -25.6970 
  175.5000    65.0500    53.2190    49.7880    42.4060    24.8120     2.2490   -25.7180 
  175.6250    63.7120    57.8750    54.5770    43.6010    24.8490     2.2320   -25.7770 
  175.7500    63.0000    61.3610    58.7240    49.3920    24.8030     2.2150   -25.8440 
  175.8750    63.2100    61.6280    60.0700    50.4810    24.6550     2.2110   -25.9050 
  176.0000    63.7060    56.5840    56.0900    44.4010    24.3160     2.2180   -25.9650 
  176.1250    63.1060    48.1410    48.3140    41.1570    24.0840     2.2320   -26.0180 
  176.2500    63.9540    39.0390    39.4360    34.1940    23.9510     2.2530   -26.0680 
  176.3750    69.1750    31.8490    32.0510    24.0300    23.9420     2.2820   -26.1440 
  176.5000    74.6730    28.6090    28.0120    17.9570    24.0110     2.3130   -26.2420 
  176.6250    75.5670    29.1290    27.1210    20.6590    24.1440     2.3320   -26.3370 
