~V
VERS. 2.00: Ver 2.00
~W
STRT.M 55.0000:
STOP.M 276.0000:
STEP.M 0.1250:
NULL. -999.2500:
UWI. F10239:
~C
DEPT.M :
SP.MV :
DEN.GM/CC :
GR.API :
RML.OHMM :
RI. :
RXO.OHMM :
CALI.CM :
~A
# ...
  257.5000   -11.6070     2.3620    47.9980    11.2050    10.6720    11.0020    24.5380 
  257.6250   -11.5900     2.4070    46.6190    11.2450    10.7100    11.4000    24.4700 
  257.7500   -11.6050     2.4610    45.0270    11.5450    10.9950    12.4500    24.2500 
  257.8750   -11.5760     2.4960    44.5180    11.9340    11.3660    14.5250    23.9900 
  258.0000   -11.5680     2.4970    44.8790    12.2730    11.6890    16.1440    23.7930 
  258.1250   -11.5880     2.4710    44.7530    12.4770    11.8830    15.3300    23.7180 
  258.2500   -11.5660     2.4400    44.2180    12.5520    11.9550    12.8890    23.7350 
  258.3750   -11.5630     2.4260    44.4960    12.6150    12.0140    11.5700    23.8350 
  258.5000   -11.5860     2.4380    45.3980    12.7720    12.1650    11.8050    24.1300 
  258.6250   -11.5860     2.4640    45.0220    13.1200    12.4950    13.5360    24.7100 
  258.7500   -11.5670     2.4730    42.8680    13.6960    13.0440    16.2480    25.3070 
  258.8750   -11.5630     2.4450    41.7280    14.3850    13.7000    17.9680    25.3280 
  259.0000   -11.5750     2.3970    42.8750    15.0240    14.3090    17.1110    24.8350 
  259.1250   -11.5930     2.3640    45.0190    15.4160    14.6820    14.8450    24.2220 
  259.2500   -11.6210     2.3660    46.1620    15.3910    14.6590    13.0180    23.9640 
  259.3750   -11.6360     2.3840    45.6080    15.0220    14.3070    11.5860    23.9590 
  259.5000   -11.6700     2.4040    44.2660    14.3940    13.7650    12.3230    24.0950 
  259.6250   -11.7160     2.4200    43.5340    13.5950    13.2110    15.2310    24.2420 
  259.7500   -11.7360     2.4390    43.7890    13.2720    12.7900    19.7980    24.3140 
  259.8750   -11.7090     2.4680    44.7490    13.1270    12.5320    24.9370    24.3040 
  260.0000   -11.6140     2.5070    45.3300    13.0990    12.3990    28.1960    24.2560 
  260.1250   -11.5140     2.5500    44.6150    13.0870    12.3110    28.6250    24.2300 
  260.2500   -11.4310     2.5790    43.4130    12.9950    12.1820    28.4010    24.2070 
  260.3750   -11.3170     2.5890    43.4440    12.8080    11.9800    28.0940    24.1870 
  260.5000   -11.1560     2.5850    44.9740    12.5560    11.7180    26.5950    24.2370 
  260.6250   -10.9860     2.5730    46.5690    12.2870    11.4310    25.3150    24.3350 
  260.7500   -10.8640     2.5460    46.8780    12.0410    11.1550    23.0350    24.4110 
  260.8750   -10.8200     2.5070    46.1250    11.8350    10.9120    18.1620    24.4760 
  261.0000   -10.8160     2.4700    45.1660    11.6690    10.7100    13.4250    24.5590 
  261.1250   -10.7920     2.4410    45.5930    11.5370    10.5450    11.2440    24.6450 
  261.2500   -10.7720     2.4200    47.5850    11.4310    10.4070    10.4120    24.6800 
  261.3750   -10.7820     2.4040    49.4470    11.3470    10.2850     9.4660    24.5970 
  261.5000   -10.8560     2.3970    50.1530    11.2830    10.1820     8.8250    24.4730 
  261.6250   -10.9480     2.3990    49.8270    11.2330    10.1050     8.7570    24.4140 
  261.7500   -11.0080     2.4030    49.2300    11.1950    10.0550     8.9850    24.3980 
  261.8750   -11.0270     2.4020    49.6450    11.1560    10.0140     9.3140    24.4050 
  262.0000   -11.0120     2.3870    50.7190    11.1010     9.9590     9.7180    24.5190 
  262.1250   -10.9950     2.3580    50.8500    11.0060     9.8620     9.9710    24.9350 
  262.2500   -10.9820     2.3260    49.9590    10.8480     9.7080     9.7530    25.7850 
  262.3750   -10.9690     2.3020    50.5980    10.6420     9.5170     8.9710    26.7330 
  262.5000   -10.9030     2.2820    52.3030    10.4190     9.3170     8.1250    27.3960 
  262.6250   -10.8160     2.2660    53.1980    10.2180     9.1390     7.4210    27.6680 
  262.7500   -10.7210     2.2670    53.7050    10.0760     9.0060     7.0740    27.7370 
  262.8750   -10.6170     2.2850    54.9880     9.9930     8.9160     6.9780    27.7490 
  263.0000   -10.5170     2.3000    55.7920     9.9580     8.8640     7.1430    27.8770 
  263.1250   -10.4170     2.3010    54.9310     9.9560     8.8450     7.3240    28.2330 
  263.2500   -10.2580     2.2980    53.3690     9.9740     8.8540     7.5000    28.6200 
  263.3750   -10.0710     2.2960    53.3170     9.9880     8.8690     8.2570    28.6120 
  263.5000    -9.9030     2.2800    54.8640     9.9670     8.8630     9.4480    28.4210 
  263.6250    -9.7200     2.2390    56.7090     9.8720     8.8010     9.8290    28.2150 
  263.7500    -9.5570     2.1870    57.5810     9.6820     8.6590     8.6390    28.2740 
  263.8750    -9.4450     2.1530    57.7270     9.4390     8.4760     7.4130    28.8820 
  264.0000    -9.3900     2.1500    57.8920     9.2060     8.3040     6.5880    30.0810 
  264.1250    -9.3550     2.1740    58.5270     9.0520     8.2010     6.3720    30.9090 
  264.2500    -9.3650     2.2040    59.0980     9.0290     8.2140     6.9580    30.3220 
  264.3750    -9.3930     2.2130    58.9400     9.0950     8.3070     7.7970    29.2340 
  264.5000    -9.4190     2.1760    58.3650     9.1720     8.4090     7.7540    28.8710 
  264.6250    -9.4830     2.0830    57.8980     9.1670     8.4310     7.2970    29.6860 
  264.7500    -9.5970     1.9660    57.5500     9.0060     8.3000     6.8190    31.1060 
  264.8750    -9.6990     1.8830    57.5500     8.7130     8.0350     6.6710    32.6430 
  265.0000    -9.7920     1.8510    57.5500     8.3490     7.6880     6.5930    33.8960 
  265.1250    -9.9030     1.8550    57.5500     7.9960     7.3330     6.5000    34.2420 
  265.2500   -10.0040     1.8660    57.5500     7.7200     7.0430     6.1200    33.7840 
  265.3750   -10.1200     1.8660    57.5500     7.5310     6.8500     5.5360    33.7950 
  265.5000   -10.2370     1.8550    57.5500     7.4410     6.7690     5.3540    34.0390 
  265.6250   -10.3270     1.8400    57.5500     7.4760     6.8180     5.6740    33.8200 
  265.7500   -10.3650     1.8450    57.5500     7.7000     7.0340     5.9160    32.4980 
  265.8750   -10.4060     1.8890    57.5500     8.1420     7.4280     6.2100    29.9320 
  266.0000   -10.4680     1.9770    57.5500     8.8300     8.0330     7.8950    26.7600 
  266.1250   -10.5570     2.0970    57.5500     9.7380     8.8560    12.1150    24.5230 
  266.2500   -10.6260     2.2230    57.5500    10.7470     9.8220    16.4930    23.6610 
  266.3750   -10.6800     2.3250    57.5500    11.6280    10.7180    17.4120    23.4070 
  266.5000   -10.7560     2.3810    57.5500    12.1920    11.3350    16.0220    23.2480 
  266.6250   -10.8520     2.3790    57.5500    12.3190    11.5260    14.3240    23.2300 
  266.7500   -10.9830     2.3180    57.5500    12.0040    11.2640    12.3410    23.5710 
  266.8750   -11.1170     2.2170    57.5500    11.4640    10.7590    10.7510    24.3280 
  267.0000   -11.2220     2.0950    57.5500    10.8790    10.1880    10.7260    25.3090 
  267.1250   -11.2830     1.9890    57.5500    10.4090     9.7030    11.9550    26.2480 
  267.2500   -11.3600     1.9460    57.5500    10.1760     9.4280    11.7550    26.5550 
  267.3750   -11.4350     1.9810    57.5500    10.1900     9.3920    10.4700    26.1510 
  267.5000   -11.4680     2.0860    57.5500    10.4330     9.5970     9.4690    25.4850 
  267.6250   -11.5000     2.2240    57.5500    10.8450    10.0020     9.1930    24.8740 
  267.7500   -11.5480     2.3370    57.5500    11.3160    10.5130     8.7460    24.5290 
  267.8750   -11.5870     2.3850    57.5500    11.6920    10.9780     7.4510    24.3610 
  268.0000   -11.6210     2.3810    57.5500    11.8600    11.2810     7.1500    24.2600 
  268.1250   -11.6410     2.3470    57.5500    11.7690    11.3480     7.9430    24.2000 
  268.2500   -11.6480     2.2930    57.5500    11.4530    11.1800     8.3140    24.1150 
  268.3750   -11.6420     2.2400    57.5500    11.0670    10.9050     7.9020    24.0240 
  268.5000   -11.6320     2.2170    57.5500    10.7150    10.6170     7.6720    24.1020 
  268.6250   -11.6060     2.2420    57.5500    10.4530    10.3800     7.9810    24.4500 
