~V
VERS. 2.00: Ver 2.00
~W
STRT.M 55.0000:
STOP.M 276.0000:
STEP.M 0.1250:
NULL. -999.2500:
UWI. F10239:
~C
DEPT.M :
SP.MV :
DEN.GM/CC :
GR.API :
RML.OHMM :
RI. :
RXO.OHMM :
CALI.CM :
~A
# ...
  178.7500   -27.7880     2.2570    63.0840    79.7390    81.4400    74.8250    26.6600 
  178.8750   -27.9760     2.2490    60.3030    77.8460    79.7440    65.6480    26.7250 
  179.0000   -28.2160     2.2360    60.3110    75.7940    77.2560    68.7680    26.7900 
  179.1250   -28.5260     2.2240    61.6260    75.4800    75.9640    75.1760    26.8180 
  179.2500   -28.8850     2.2170    62.7890    78.3430    77.4250    75.2110    26.8000 
  179.3750   -29.2600     2.2140    62.6820    84.5770    81.9990    69.0350    26.7740 
  179.5000   -29.6710     2.2110    62.5650    94.4470    90.0080    66.3350    26.7670 
  179.6250   -30.1200     2.2060    63.2880   108.1000   101.6350    77.1580    26.7740 
  179.7500   -30.6020     2.2020    63.6560   125.2410   116.5700   110.4030    26.7900 
  179.8750   -31.0960     2.2030    62.4900   143.6620   132.6660   154.9710    26.8490 
  180.0000   -31.5640     2.2050    60.5580   160.6970   147.5000   187.3680    26.9970 
  180.1250   -31.9760     2.2040    59.0990   173.4310   158.5680   193.1240    27.2090 
  180.2500   -32.3430     2.1970    58.2750   180.1070   164.3790   171.8430    27.3760 
  180.3750   -32.6950     2.1920    57.5530   182.6730   166.5370   141.7500    27.4370 
  180.5000   -33.0400     2.1920    56.1900   183.0180   166.6390   119.7520    27.4480 
  180.6250   -33.3800     2.1970    53.5760   182.2550   165.7420   110.7580    27.4480 
  180.7500   -33.7000     2.2010    50.9010   180.5620   164.1610   108.5500    27.4490 
  180.8750   -33.9750     2.2020    50.6610   177.7460   161.8600   103.8190    27.4530 
  181.0000   -34.1990     2.1990    52.5050   173.2120   158.4190    93.6310    27.4650 
  181.1250   -34.3870     2.1970    55.2200   166.1830   153.1500    82.9730    27.4760 
  181.2500   -34.5410     2.1980    57.3760   156.1410   145.4020    77.0250    27.4650 
  181.3750   -34.6610     2.2020    58.7420   144.3270   135.9110    76.2550    27.4750 
  181.5000   -34.7410     2.2090    59.8160   132.5270   126.0290    73.5550    27.5510 
  181.6250   -34.7690     2.2150    60.1870   122.9860   117.7220    66.6900    27.6680 
  181.7500   -34.7500     2.2150    59.3920   117.9200   113.1550    58.1670    27.7000 
  181.8750   -34.7150     2.2110    57.8870   117.6410   112.9630    51.9200    27.6730 
  182.0000   -34.7010     2.2050    56.7240   121.8160   117.1270    50.7130    27.6480 
  182.1250   -34.7270     2.2010    56.4880   128.8100   124.4010    54.7440    27.6620 
  182.2500   -34.7990     2.2040    55.3440   134.9640   131.6210    61.1440    27.7010 
  182.3750   -34.8890     2.2080    52.3310   135.4480   134.1030    66.6310    27.7150 
  182.5000   -34.9530     2.2150    49.9920   127.4150   128.5900    68.8650    27.6930 
  182.6250   -34.9660     2.2250    50.4370   112.2510   115.4170    68.4960    27.6250 
  182.7500   -34.9620     2.2380    53.1730    95.3200    99.0530    63.8180    27.5530 
  182.8750   -34.9760     2.2480    56.0770    82.1070    85.3430    53.4840    27.5210 
  183.0000   -35.0210     2.2440    57.5840    74.7910    76.9630    43.0130    27.5190 
  183.1250   -35.0850     2.2250    56.5380    74.1360    75.0150    37.7970    27.5420 
  183.2500   -35.1420     2.2030    53.4540    80.4400    80.0990    39.1480    27.5980 
  183.3750   -35.1950     2.1860    51.1140    91.7990    90.6390    45.2840    27.6440 
  183.5000   -35.2870     2.1750    50.4900   106.1240   104.7690    50.8910    27.6580 
  183.6250   -35.4710     2.1750    51.1600   119.5610   118.6890    54.7160    27.6550 
  183.7500   -35.7160     2.1830    51.6000   126.9660   127.0950    56.5840    27.6550 
  183.8750   -35.9750     2.1950    50.2690   127.0690   128.1660    54.3130    27.6270 
  184.0000   -36.2150     2.2050    48.6870   122.2660   123.7400    48.6690    27.5720 
  184.1250   -36.4240     2.2120    49.4310   116.7740   117.7360    43.4180    27.5350 
  184.2500   -36.6270     2.2160    52.4780   114.1700   113.8270    41.0570    27.5270 
  184.3750   -36.8520     2.2160    53.8640   115.5840   113.5620    39.3570    27.5510 
  184.5000   -37.1060     2.2110    51.9800   121.2510   117.4020    37.6480    27.5740 
  184.6250   -37.3570     2.2050    50.3930   130.8240   125.1680    36.3830    27.5810 
  184.7500   -37.5970     2.1980    53.0560   143.1900   135.8890    36.6700    27.5680 
  184.8750   -37.8290     2.1910    56.1590   155.5450   146.8990    37.3550    27.5510 
  185.0000   -38.0630     2.1840    55.6760   165.1090   155.6400    37.2330    27.5340 
  185.1250   -38.3020     2.1790    53.3720   169.5520   159.9760    36.7520    27.5160 
  185.2500   -38.5190     2.1790    52.8260   168.2200   159.1570    37.0990    27.5090 
  185.3750   -38.6960     2.1790    52.0450   163.9330   155.4620    37.3030    27.5300 
  185.5000   -38.8110     2.1760    49.3670   159.1390   150.9950    36.4690    27.5490 
  185.6250   -38.8440     2.1740    47.6330   155.6680   147.4870    35.7910    27.5460 
  185.7500   -38.7920     2.1760    48.8690   154.4850   145.9920    37.1660    27.5400 
  185.8750   -38.6850     2.1800    50.4850   155.0400   146.2060    38.1410    27.5190 
  186.0000   -38.5110     2.1800    50.9370   156.1880   147.2420    37.9320    27.4890 
  186.1250   -38.2400     2.1720    50.8130   155.5880   147.1270    37.8140    27.4780 
  186.2500   -37.8730     2.1610    51.7770   149.8280   142.8110    37.8460    27.4930 
  186.3750   -37.4450     2.1560    53.4060   138.0720   133.1060    38.5060    27.5140 
  186.5000   -36.9620     2.1640    54.8840   122.1280   119.0500    38.7450    27.5210 
  186.6250   -36.4450     2.1820    56.0220   105.8850   103.8150    37.3420    27.5210 
  186.7500   -35.9070     2.2000    56.6970    93.3800    91.2420    34.2250    27.5240 
  186.8750   -35.3140     2.2020    56.6430    85.9640    83.1470    31.8610    27.5320 
  187.0000   -34.6580     2.1890    55.9990    83.6280    79.7960    31.7960    27.5520 
  187.1250   -33.9660     2.1750    55.7350    85.6570    80.6290    34.3380    27.5720 
  187.2500   -33.2740     2.1710    55.9560    91.0290    84.7310    39.0560    27.5570 
  187.3750   -32.5960     2.1720    55.2720    97.8530    90.2970    43.0570    27.5310 
  187.5000   -31.9490     2.1700    54.0870   104.9890    96.1490    44.9110    27.5170 
  187.6250   -31.3530     2.1640    55.0030   111.6240   101.5540    45.6010    27.5470 
  187.7500   -30.8010     2.1600    57.5100   116.6650   106.4500    45.7090    27.6580 
  187.8750   -30.2940     2.1590    58.6630   119.9510   111.3190    46.4150    27.7630 
  188.0000   -29.8510     2.1590    59.4310   124.0390   116.3980    49.0300    27.8130 
  188.1250   -29.4930     2.1540    60.9330   128.4430   121.5770    53.0360    27.8230 
  188.2500   -29.2080     2.1490    60.2240   135.5090   126.4810    55.1360    27.8020 
  188.3750   -28.9620     2.1510    56.1590   142.0660   130.8260    55.6870    27.7940 
  188.5000   -28.7390     2.1600    52.6580   147.9720   134.5150    56.7540    27.8300 
  188.6250   -28.5030     2.1720    52.1940   153.2400   137.6340    57.8990    27.8760 
  188.7500   -28.2530     2.1840    52.6460   158.0310   140.4720    58.4390    27.8910 
  188.8750   -28.0220     2.1930    54.0440   162.5780   143.3920    58.4460    27.8540 
  189.0000   -27.8310     2.1970    56.6890   166.4910   146.2760    58.2660    27.7390 
  189.1250   -27.6870     2.1930    58.5370   168.2650   148.1310    58.9770    27.5720 
  189.2500   -27.5550     2.1800    57.5130   165.3330   147.0200    60.9870    27.4500 
  189.3750   -27.4170     2.1650    54.9970   156.9330   141.9180    62.2900    27.3720 
  189.5000   -27.2730     2.1600    53.1680   144.0760   133.0230    62.5220    27.2960 
  189.6250   -27.1400     2.1650    53.5600   129.5200   122.0190    59.4680    27.1890 
  189.7500   -27.0100     2.1780    57.9420   116.1750   111.1910    54.3510    27.0550 
  189.8750   -26.8800     2.1940    65.2580   104.7500   101.6010    51.2560    26.9670 
