~V
VERS. 2.00: Ver 2.00
~W
STRT.M 60.0000:
STOP.M 271.0000:
STEP.M 0.1250:
NULL. -999.2500:
UWI. F10205:
~C
DEPT.M :
DEN.GM/CC :
GR.API :
RML.OHMM :
RI. :
RXO.OHMM :
CALI.CM :
SP.MV :
~A
# ...
  262.5000     2.4490    75.7630    11.6860    10.9550    10.2540    24.3430     2.2880 
  262.6250     2.4320    75.7630    11.4710    10.7250     9.7960    24.3660     2.0900 
  262.7500     2.4330    75.7630    11.2450    10.4740     9.4530    24.4170     1.8670 
  262.8750     2.4460    75.7630    11.0720    10.2700     9.4210    24.4320     1.6750 
  263.0000     2.4570    75.7630    11.0050    10.1710     8.3730    24.4370     1.5920 
  263.1250     2.4610    75.7630    11.0520    10.1990     8.3020    24.4230     1.5470 
  263.2500     2.4620    75.7630    11.1720    10.3090     9.1120    24.4130     1.5130 
  263.3750     2.4670    75.7630    11.3950    10.5330    10.1920    24.4140     1.5310 
  263.5000     2.4770    75.7630    11.6520    10.8010    10.5720    24.4310     1.5650 
  263.6250     2.4890    75.7630    11.9240    11.0850    10.4400    24.4450     1.6080 
  263.7500     2.5010    75.7630    12.2090    11.3750    10.3000    24.4560     1.6350 
  263.8750     2.5080    75.7630    12.5090    11.6720    10.5700    24.4650     1.6410 
  264.0000     2.5130    75.7630    12.8070    11.9700    11.3920    24.4790     1.5980 
  264.1250     2.5190    75.7630    13.0720    12.2500    12.6240    24.5070     1.5740 
  264.2500     2.5270    75.7630    13.2760    12.4870    13.6060    24.5210     1.6110 
  264.3750     2.5310    75.7630    13.4090    12.6610    12.6280    24.5130     1.6200 
  264.5000     2.5300    75.7630    13.5160    12.7970    10.9270    24.4880     1.5530 
  264.6250     2.5250    75.7630    13.6380    12.9270     9.8930    24.4760     1.4850 
  264.7500     2.5210    75.7630    13.8020    13.0760     9.3030    24.4950     1.4890 
  264.8750     2.5240    75.7630    13.9650    13.2440     9.3390    24.5340     1.4490 
  265.0000     2.5350    75.7630    14.0430    13.3940    10.2830    24.5860     1.3730 
  265.1250     2.5500    75.7630    14.0200    13.4890    11.7220    24.6420     1.2730 
  265.2500     2.5630    75.7630    13.9610    13.5030    12.1530    24.6240     1.1770 
  265.3750     2.5690    75.7630    13.9480    13.4300    11.1190    24.6540     1.1380 
  265.5000     2.5700    75.7630    13.9920    13.3150    10.2840    24.6030     1.1560 
  265.6250     2.5660    75.7630    14.0660    13.1990     9.9280    24.4860     1.2060 
  265.7500     2.5540    75.7630    14.1570    13.1110     9.9410    24.4460     1.1960 
  265.8750     2.5230    75.7630    14.2480    13.0710    11.1280    24.5320     1.2080 
  266.0000     2.4750    75.7630    14.3230    13.0610    12.3460    24.6510     1.2540 
  266.1250     2.4270    75.7630    14.3620    13.0660    11.7520    24.6490     1.3500 
  266.2500     2.4010    75.7630    14.3700    13.0730    11.8890    24.5060     1.3970 
  266.3750     2.4150    75.7630    14.4230    13.0760    14.5940    24.3460     1.3730 
  266.5000     2.4470    75.7630    14.5310    13.0770    18.3150    24.3160     1.3730 
  266.6250     2.4620    75.7630    14.6330    13.0780    21.5400    24.3860     1.3500 
  266.7500     2.4380    75.7630    14.6750    13.0780    23.5370    24.4780     1.2630 
  266.8750     2.3760    75.7630    14.6690    13.0790    21.0050    24.4600     1.2030 
  267.0000     2.3170    75.7630    14.6650    13.0790    17.9060    24.3720     1.1860 
  267.1250     2.2940    75.7630    14.6660    13.0790    14.1400    24.3230     1.1830 
  267.2500     2.3160    75.7630    14.6660    13.0790    11.9200    24.4030     1.1410 
  267.3750     2.3710    75.7630    14.6660    13.0790    12.2750    24.5430     1.0930 
  267.5000     2.4310    75.7630    14.6660    13.0790    13.7320    24.6820     1.1130 
  267.6250     2.4800    75.7630    14.6660    13.0790    16.9480    24.8140     1.1240 
  267.7500     2.5120    75.7630    14.6660    13.0790    18.7320    24.8810     1.1530 
  267.8750     2.5220    75.7630    14.6660    13.0790    17.7090    24.8320     1.1790 
  268.0000     2.5170    75.7630    14.6660    13.0790    16.9860    24.7110     1.1620 
  268.1250     2.5010    75.7630    14.6660    13.0790    20.0530    24.6130     1.1180 
  268.2500     2.4800    75.7630    14.6660    13.0790    25.9970    24.5540     1.0670 
  268.3750     2.4640    75.7630    14.6660    13.0790    24.9770    24.5660     1.0520 
  268.5000     2.4570    75.7630    14.6660    13.0790    19.4060    24.6680     0.9880 
  268.6250     2.4610    75.7630    14.6660    13.0790    15.8530    24.7970     0.9150 
  268.7500     2.4730    75.7630    14.6660    13.0790    15.1570    24.7350     0.8780 
  268.8750     2.4940    75.7630    14.6660    13.0790    16.3850    24.5430     0.8480 
  269.0000     2.5210    75.7630    14.6660    13.0790    16.1920    24.4250     0.8480 
  269.1250     2.5430    75.7630    14.6660    13.0790    13.2840    24.3970     0.8480 
  269.2500     2.5350    75.7630    14.6660    13.0790    10.8960    24.3940  -999.2500 
  269.3750     2.4470    75.7630    14.6660    13.0790     9.6940    24.3270  -999.2500 
  269.5000     2.2680    75.7630    14.6660    13.0790     8.9480    24.2290  -999.2500 
  269.6250     2.0380    75.7630    14.6660    13.0790     8.2960    24.0960  -999.2500 
  269.7500     1.8370    75.7630    14.6660    13.0790     7.8550    23.7550  -999.2500 
  269.8750     1.7750    75.7630    14.6660    13.0790     7.7400    23.0040  -999.2500 
  270.0000     1.8480    75.7630    14.6660    13.0790     7.4690    22.3860  -999.2500 
  270.1250     1.9930    75.7630    14.6660    13.0790     7.3610    22.1520  -999.2500 
  270.2500     2.3050    75.7630    14.6660    13.0790     7.3430    22.1240  -999.2500 
  270.3750     2.2630    75.7630    14.6660    13.0790     7.3430    22.1230  -999.2500 
  270.5000     2.1130    75.7630    14.6660    13.0790     7.3420    22.1250  -999.2500 
  270.6250     2.0940    75.7630    14.6660    13.0790     7.3410    22.1250  -999.2500 
  270.7500  -999.2500    75.7630    14.6660    13.0790     7.3430    22.1230  -999.2500 
  270.8750  -999.2500    75.7630    14.6660    13.0790     7.3410    22.1190  -999.2500 
  271.0000  -999.2500    75.7630    14.6660    13.0790     7.3410    22.1180  -999.2500 
