~V
VERS. 2.00: Ver 2.00
~W
STRT.M 50.0000:
STOP.M 258.0000:
STEP.M 0.1250:
NULL. -999.2500:
UWI. F10200:
~C
DEPT.M :
SP.MV :
GR.API :
RML.OHMM :
RI. :
RXO.OHMM :
CALI.CM :
DEN.GM/CC :
~A
# ...
  185.0000   -13.5010    68.8800    44.1380    43.4770    61.8590    23.9700     2.2730 
  185.1250   -13.9430    70.0290    38.3900    37.1740    42.9310    23.9450     2.2880 
  185.2500   -14.4360    69.3310    37.3610    34.9980    28.6430    23.9180     2.2950 
  185.3750   -14.9770    66.3420    41.3420    37.1830    26.7350    23.9550     2.2950 
  185.5000   -15.5600    62.2960    50.2750    43.9300    34.8920    24.0540     2.2880 
  185.6250   -16.1820    60.4970    64.6140    56.2890    55.6960    24.1050     2.2770 
  185.7500   -16.8080    61.0870    82.6670    73.0780    75.9650    24.1160     2.2630 
  185.8750   -17.4210    62.3280   102.6900    92.7780    86.6350    24.1110     2.2490 
  186.0000   -17.9970    63.2160   121.9170   112.5680    95.3490    24.0950     2.2330 
  186.1250   -18.1020    62.1400   135.5390   127.4840   114.7680    24.0590     2.2180 
  186.2500   -18.6030    58.3740   140.8430   134.5760   142.3170    24.0460     2.2060 
  186.3750   -19.0490    55.7740   136.6490   132.5330   158.9060    24.0520     2.2010 
  186.5000   -19.4250    57.9220   124.4140   122.2930   158.4400    24.0410     2.2030 
  186.6250   -19.7280    61.8190   108.3330   107.0850   134.9950    24.0080     2.2120 
  186.7500   -19.9910    64.5330    94.2630    92.7340   103.1760    24.0110     2.2240 
  186.8750   -20.2360    66.5140    84.9050    82.3900    76.8140    24.0320     2.2350 
  187.0000   -20.4580    66.3560    80.9230    77.1750    65.0280    24.0420     2.2440 
  187.1250   -20.6610    62.3770    82.4900    77.4640    65.8740    24.0310     2.2460 
  187.2500   -20.8610    57.7740    87.7240    81.4370    67.8320    23.9760     2.2390 
  187.3750   -21.0560    56.8360    95.4790    87.9910    70.7570    23.8300     2.2260 
  187.5000   -21.2510    57.9330   104.4460    95.8500    73.0120    23.5600     2.2110 
  187.6250   -21.4440    58.4660   113.1080   103.4920    76.0780    23.2660     2.2010 
  187.7500   -21.6150    58.1790   120.5150   109.9110    81.1000    23.0250     2.1970 
  187.8750   -21.7240    57.2860   126.6040   114.9890    92.4900    23.0640     2.1960 
  188.0000   -21.7770    54.9750   132.0460   119.3090   108.6450    23.4780     2.1940 
  188.1250   -21.7800    53.1440   138.1090   123.9870   119.4360    23.7700     2.1890 
  188.2500   -21.7110    53.7150   145.4670   129.7110   122.1870    23.7900     2.1860 
  188.3750   -21.5460    56.6390   153.7880   136.3120   132.0390    23.6230     2.1850 
  188.5000   -21.2840    59.6190   161.6840   142.7240   157.3500    23.4890     2.1870 
  188.6250   -20.9020    61.0810   166.2680   146.6040   183.3440    23.5530     2.1920 
  188.7500   -20.4310    61.2080   165.8910   146.4750   192.9450    23.7970     2.1990 
  188.8750   -19.9070    59.2540   160.0890   141.7810   184.0030    24.0640     2.2070 
  189.0000   -19.3050    56.6710   150.2230   133.4160   163.2820    24.1870     2.2140 
  189.1250   -18.6440    56.5760   139.2240   123.5950   144.3520    24.1930     2.2200 
  189.2500   -17.9480    58.7410   130.0750   115.0320   129.8990    24.1810     2.2240 
  189.3750   -17.2520    60.9020   124.0040   109.0230   121.3150    24.1650     2.2270 
  189.5000   -16.5720    59.8890   121.1990   105.9240   118.0000    24.1250     2.2300 
  189.6250   -15.9450    57.4660   121.4580   105.7110   120.8570    24.0590     2.2330 
  189.7500   -15.3560    55.3290   123.0680   106.9440   126.9300    23.9260     2.2360 
  189.8750   -14.8040    52.9780   124.4960   108.3200   130.6390    23.7570     2.2420 
  190.0000   -14.3150    50.6820   124.1750   108.4500   124.8720    23.6450     2.2560 
  190.1250   -13.8530    48.6450   120.5060   105.8410   119.5640    23.7550     2.2800 
  190.2500   -13.4070    46.1270   113.9920   100.7140   116.9550    23.8450     2.3020 
  190.3750   -12.9690    43.7960   105.5200    93.6860   110.3470    23.8920     2.3090 
  190.5000   -12.5240    45.0750    96.1830    85.6420    94.8060    23.9810     2.2930 
  190.6250   -12.0690    50.6940    86.7990    77.3160    80.4410    24.1150     2.2590 
  190.7500   -11.6070    53.6630    77.6370    69.0930    77.1490    24.2050     2.2270 
  190.8750   -11.1290    53.6660    68.6890    61.0580    78.5630    24.2520     2.2100 
  191.0000   -10.6360    54.2190    60.0380    53.3430    70.3550    24.2560     2.2160 
  191.1250   -10.1150    56.1290    52.2250    46.4540    55.8230    24.1960     2.2540 
  191.2500    -9.5810    57.2060    45.8140    40.8430    47.6470    24.0620     2.3180 
  191.3750    -9.0500    57.2160    41.3720    36.9430    41.7330    23.8930     2.3990 
  191.5000    -8.5270    56.4390    39.1140    34.8770    33.3470    23.7860     2.4820 
  191.6250    -7.9840    55.8480    38.8540    34.4310    28.1100    23.7320     2.5470 
  191.7500    -7.4310    56.7320    39.0930    34.3420    29.9170    23.6900     2.5920 
  191.8750    -6.8650    59.0070    38.3870    33.4100    37.8770    23.6700     2.6260 
  192.0000    -6.3050    60.5690    35.4930    30.5900    47.8160    23.6310     2.6560 
  192.1250    -5.7940    58.6680    29.7230    25.3230    54.3730    23.4620     2.6740 
  192.2500    -5.3250    54.1770    22.6720    19.1760    50.0980    23.2500     2.6650 
  192.3750    -4.8860    51.0790    16.0250    13.6500    35.3930    23.0910     2.6270 
  192.5000    -4.4670    52.3060    10.8430     9.5280    18.9120    23.0150     2.5700 
  192.6250    -4.0960    54.6110     7.5620     6.9830     9.5610    23.0060     2.5120 
  192.7500    -3.7720    52.2920     5.5220     5.3930     6.0900    23.0740     2.4670 
  192.8750    -3.5100    47.2510     4.7210     4.4420     5.0620    23.1560     2.4360 
  193.0000    -3.2970    44.1940     4.3060     3.9150     4.6290    23.2190     2.4180 
  193.1250    -3.1340    44.1670     4.1740     3.7240     4.2960    23.3140     2.4060 
  193.2500    -3.0210    44.6020     4.2210     3.7500     4.4280    23.3020     2.3980 
  193.3750    -2.9580    45.0340     4.4210     3.9570     4.8450    23.2020     2.3920 
  193.5000    -2.9590    46.0140     4.7390     4.3070     4.9680    23.0850     2.3880 
  193.6250    -3.0250    48.8940     5.1160     4.7430     5.0140    23.0940     2.3850 
  193.7500    -3.1270    52.3160     5.4640     5.1640     5.2360    23.1710     2.3790 
  193.8750    -3.2560    54.4390     5.7290     5.4950     5.3440    23.2730     2.3700 
  194.0000    -3.4100    53.5650     5.8940     5.6960     5.3040    23.3650     2.3610 
  194.1250    -3.5610    50.6820     5.9640     5.7480     5.3910    23.3940     2.3550 
  194.2500    -3.6970    50.4270     5.9900     5.7090     5.4890    23.3810     2.3560 
  194.3750    -3.8100    52.6370     6.0030     5.6240     5.5470    23.3510     2.3630 
  194.5000    -3.8780    54.9150     6.0240     5.5280     5.5510    23.3230     2.3730 
  194.6250    -3.8990    55.1590     6.0790     5.4560     5.5390    23.2910     2.3840 
  194.7500    -3.8880    54.3060     6.1680     5.4280     5.4700    23.2800     2.3920 
  194.8750    -3.8800    52.8280     6.2800     5.4550     5.4160    23.2910     2.3970 
  195.0000    -3.8740    50.4920     6.3870     5.5380     5.4320    23.3070     2.3980 
  195.1250    -3.8840    48.3020     6.4510     5.6650     5.6070    23.2860     2.3960 
  195.2500    -3.9230    46.0480     6.4540     5.7980     5.7300    23.2710     2.3930 
  195.3750    -3.9960    44.0130     6.4860     5.9100     5.8980    23.3110     2.3920 
  195.5000    -4.1180    43.1430     6.5660     5.9840     6.1800    23.3170     2.3950 
  195.6250    -4.3180    43.7720     6.7170     6.0220     6.3680    23.2240     2.4040 
  195.7500    -4.6010    44.7240     6.9190     6.0680     6.4300    23.1470     2.4170 
  195.8750    -4.9400    46.7280     7.1970     6.1660     6.3940    23.1200     2.4320 
  196.0000    -5.3410    50.4900     7.4880     6.3550     6.4680    23.1290     2.4470 
  196.1250    -5.8070    56.3770     7.8180     6.6580     6.6940    23.1730     2.4640 
