~V
VERS. 2.00: Ver 2.00
~W
STRT.M 56.0000:
STOP.M 270.0000:
STEP.M 0.1250:
NULL. -999.2500:
UWI. F10225:
~C
DEPT.M :
SP.MV :
DEN.GM/CC :
GR.API :
RML.OHMM :
RI. :
RXO.OHMM :
CALI.CM :
~A
# ...
  213.5000   -15.6530     2.2820    60.7490    20.5330    19.1460    18.2760    22.2100 
  213.6250   -15.7610     2.2860    60.4080    21.2460    19.5910    18.0330    22.2360 
  213.7500   -15.9050     2.2750    57.9290    23.0760    21.0190    17.7100    22.3570 
  213.8750   -16.0770     2.2510    53.6840    26.0010    23.4570    18.8080    22.6010 
  214.0000   -16.2730     2.2280    49.8370    34.4820    26.8140    25.0360    22.8930 
  214.1250   -16.4900     2.2170    47.9760    40.8760    30.8490    34.8080    23.1840 
  214.2500   -16.7170     2.2130    47.9930    45.9950    35.1280    39.6400    23.4780 
  214.3750   -16.9460     2.2110    49.7400    51.0340    39.4550    38.3970    23.7920 
  214.5000   -17.1750     2.2050    51.9530    56.3290    43.9780    41.9880    24.0860 
  214.6250   -17.3880     2.1990    53.4800    62.3060    49.0980    61.2870    24.2570 
  214.7500   -17.5700     2.1960    54.5510    68.4590    54.6880    84.5800    24.4440 
  214.8750   -17.7160     2.2010    54.7270    73.3080    59.8190    91.4680    24.7000 
  215.0000   -17.8140     2.2160    53.1320    75.0670    62.9930    84.9640    24.8660 
  215.1250   -17.8580     2.2360    50.2150    72.5410    62.6800    79.2580    24.8150 
  215.2500   -17.8700     2.2500    48.9260    67.2400    59.5530    73.3050    24.7340 
  215.3750   -17.8820     2.2520    50.3440    61.0460    55.0660    64.7260    24.7750 
  215.5000   -17.9160     2.2450    53.0310    54.9770    50.2860    56.9120    24.8260 
  215.6250   -17.9520     2.2380    54.5930    49.1360    45.5110    50.3260    24.7160 
  215.7500   -17.9690     2.2370    55.1670    43.2920    40.5940    45.3370    24.4790 
  215.8750   -17.9920     2.2410    56.5070    37.5020    35.5420    41.8410    24.2330 
  216.0000   -18.0450     2.2470    58.8100    32.1130    30.6800    38.3050    24.0660 
  216.1250   -18.1690     2.2530    59.9400    27.7720    26.6520    32.4240    24.0100 
  216.2500   -18.3680     2.2550    60.3240    24.8630    23.8550    25.4830    24.0020 
  216.3750   -18.6270     2.2530    61.4780    23.6540    22.5050    21.3690    24.0290 
  216.5000   -18.9260     2.2460    62.6140    24.3560    22.7400    20.6310    24.0610 
  216.6250   -19.2730     2.2350    61.1540    27.3810    24.9320    23.7690    24.0860 
  216.7500   -19.6570     2.2210    58.9750    32.5050    29.0560    30.8670    24.1050 
  216.8750   -20.0490     2.2060    58.3010    39.2530    34.9320    40.6590    24.1150 
  217.0000   -20.4430     2.1920    57.8000    46.8730    42.0040    51.3680    24.1000 
  217.1250   -20.8220     2.1830    56.7910    54.3340    49.1880    59.8900    24.0830 
  217.2500   -21.1680     2.1760    56.3770    61.0600    55.5960    65.5880    24.0870 
  217.3750   -21.4820     2.1720    56.0720    67.2240    61.1520    67.9670    24.1430 
  217.5000   -21.7660     2.1730    54.3390    73.5420    66.4920    71.3450    24.2460 
  217.6250   -22.0390     2.1770    51.3240    80.9830    72.6220    76.7630    24.2650 
  217.7500   -22.2990     2.1820    48.8470    89.7450    79.8730    88.0570    24.1230 
  217.8750   -22.5480     2.1850    48.1450    99.3320    87.8140   103.7040    23.9320 
  218.0000   -22.7920     2.1830    49.2820   108.7030    95.4960   121.7010    23.8220 
  218.1250   -23.0470     2.1780    50.5620   116.2010   101.5400   133.2500    23.7910 
  218.2500   -23.3290     2.1750    50.6670   120.9620   105.3340   140.7070    23.7880 
  218.3750   -23.6140     2.1760    50.4280   122.8960   106.8700   144.0060    23.7900 
  218.5000   -23.8480     2.1810    49.9180   122.4910   106.5480   137.8290    23.7970 
  218.6250   -23.9950     2.1870    48.2840   120.4480   104.9390   126.1150    23.7990 
  218.7500   -24.0980     2.1900    47.6630   117.7490   102.8670   116.1010    23.8060 
  218.8750   -24.1980     2.1910    49.9470   115.1000   100.9230   111.5490    23.8290 
  219.0000   -24.3170     2.1870    53.2520   112.9530    99.4650   110.8440    23.8730 
  219.1250   -24.4630     2.1810    54.4780   111.5990    98.7040   110.8780    23.9250 
  219.2500   -24.6130     2.1780    54.4380   110.8590    98.4670   110.1770    23.9860 
  219.3750   -24.7630     2.1790    54.9400   110.4190    98.4920   110.6210    24.0390 
  219.5000   -24.9240     2.1780    55.6680   109.9960    98.5240   112.8300    24.0660 
  219.6250   -25.1260     2.1770    55.5670   109.2960    98.2960   114.5370    24.0710 
  219.7500   -25.3760     2.1780    54.8170   108.1690    97.6800   111.5980    24.0790 
  219.8750   -25.6810     2.1820    53.5730   106.6030    96.6390   106.4730    24.0950 
  220.0000   -26.0210     2.1880    51.9590   104.6690    95.2000   103.6790    24.0860 
  220.1250   -26.3590     2.1950    50.6250   102.4320    93.4130   102.9270    24.0470 
  220.2500   -26.6860     2.1990    49.0950   100.0180    91.4640   101.0360    24.0030 
  220.3750   -26.9900     2.1990    46.9430    97.5510    89.5460    97.5390    23.9680 
  220.5000   -27.2430     2.1980    45.9710    95.1990    87.8150    93.2380    23.8660 
  220.6250   -27.4230     2.2010    48.3140    93.2750    86.4440    89.6990    23.6500 
  220.7500   -27.5070     2.2080    52.0110    91.9620    85.4910    88.1980    23.3740 
  220.8750   -27.4790     2.2140    54.0860    91.1920    84.8970    88.2710    23.1670 
  221.0000   -27.3360     2.2170    54.7060    90.4850    84.3150    87.7600    23.1190 
  221.1250   -27.0840     2.2190    55.8340    88.7740    82.8780    85.2650    23.2180 
  221.2500   -26.7620     2.2230    57.7980    85.4690    80.0250    83.8100    23.3160 
  221.3750   -26.4050     2.2290    59.7590    80.8240    75.8460    84.3930    23.3390 
  221.5000   -26.0350     2.2380    60.8950    75.7950    71.0840    80.2230    23.2910 
  221.6250   -25.6530     2.2450    59.6200    71.8560    67.0490    66.4480    23.2040 
  221.7500   -25.2920     2.2490    56.5070    69.9830    64.7850    54.4520    23.1780 
  221.8750   -24.9880     2.2540    54.2460    70.5850    64.8400    56.2350    23.2750 
  222.0000   -24.7490     2.2660    53.6780    73.5400    67.2230    66.5660    23.4820 
  222.1250   -24.5720     2.2930    52.6610    78.2870    71.4960    76.3900    23.6550 
  222.2500   -24.4270     2.3350    51.2190    83.3820    76.3430    82.2390    23.6900 
  222.3750   -24.2790     2.3820    50.9950    87.2100    80.3510    88.1820    23.5650 
  222.5000   -24.1550     2.4140    51.6410    88.4470    82.3090    97.9940    23.2570 
  222.6250   -24.0920     2.4090    50.8040    86.4340    81.3440    94.6620    22.9890 
  222.7500   -24.0700     2.3800    49.1460    82.3640    78.1760    85.1000    22.9540 
  222.8750   -24.0440     2.3520    48.4140    77.6540    73.9440    83.9170    23.1990 
  223.0000   -24.0130     2.3400    48.8170    73.4320    69.7720    83.7090    23.5460 
  223.1250   -23.9940     2.3360    49.6160    70.5710    66.6650    76.0600    23.7350 
  223.2500   -23.9730     2.3300    50.2640    68.8960    64.6310    69.9340    23.7840 
  223.3750   -23.9350     2.3220    51.2950    67.6450    63.0140    73.2920    23.8000 
  223.5000   -23.8600     2.3180    53.2510    65.9270    61.0330    77.1880    23.8440 
  223.6250   -23.7180     2.3180    55.9610    63.0380    58.1590    73.6120    23.8710 
  223.7500   -23.5300     2.3200    57.8210    59.2850    54.6830    67.3820    23.8580 
  223.8750   -23.3230     2.3260    57.3460    55.6610    51.3980    58.9150    23.8190 
  224.0000   -23.0920     2.3450    55.8930    53.4200    49.3140    51.2500    23.7820 
  224.1250   -22.8100     2.3810    57.0240    53.9580    49.5910    49.7280    23.7250 
  224.2500   -22.4970     2.4270    59.3390    57.5560    52.4910    56.2220    23.6480 
  224.3750   -22.1910     2.4830    58.8050    63.9510    57.9040    69.1290    23.6380 
  224.5000   -21.8870     2.5400    54.6280    71.5150    64.6340    93.2980    23.6800 
  224.6250   -21.6030     2.5770    50.5990    74.4580    67.9340   136.8410    23.6690 
