~V
VERS. 2.00: Ver 2.00
~W
STRT.M 50.0000:
STOP.M 284.0000:
STEP.M 0.1250:
NULL. -999.2500:
UWI. F10254:
~C
DEPT.M :
GR.API :
RML.OHMM :
RI. :
RXO.OHMM :
CALI.CM :
DEN.GM/CC :
SP.MV :
~A
# ...
  151.2500    65.2640    26.3720    25.1150    21.4660    24.8110     2.3710    -3.9910 
  151.3750    69.9710    26.6590    25.1190    21.1570    24.8230     2.3870    -4.1210 
  151.5000    70.3780    27.2670    25.5170    22.3410    24.8710     2.4100    -4.2090 
  151.6250    67.7170    27.8340    25.9980    24.1780    24.9550     2.4220    -4.2090 
  151.7500    65.9380    28.1990    26.3620    23.9200    25.0620     2.4160    -4.1960 
  151.8750    66.0560    28.3500    26.5680    22.6450    25.0580     2.3960    -4.2120 
  152.0000    66.2840    28.3230    26.6190    22.4180    24.9470     2.3700    -4.1830 
  152.1250    65.6510    28.1840    26.5440    23.1880    24.7670     2.3530    -4.1200 
  152.2500    64.3490    28.1260    26.4920    24.9720    24.6510     2.3510    -4.0590 
  152.3750    64.6600    28.3900    26.6620    26.6720    24.7320     2.3670    -3.9650 
  152.5000    67.1440    29.2550    27.2910    27.2100    24.9500     2.4000    -3.7660 
  152.6250    68.1410    31.1630    28.7610    26.4550    25.0400     2.4420    -3.4450 
  152.7500    66.1560    34.0020    31.0540    29.4800    25.0460     2.4830    -3.1210 
  152.8750    64.5100    37.2810    33.8610    39.9710    25.0600     2.5110    -2.8270 
  153.0000    64.3860    39.9550    36.3720    52.6760    25.0700     2.5200    -2.5090 
  153.1250    63.9090    40.4080    37.1840    60.7940    25.0290     2.5050    -2.1450 
  153.2500    62.8030    38.6320    36.0830    57.2880    24.9250     2.4770    -1.8450 
  153.3750    62.7430    35.6050    33.7530    46.7560    24.8140     2.4480    -1.5940 
  153.5000    64.2350    32.7770    31.3680    32.6600    24.7580     2.4320    -1.3700 
  153.6250    64.7630    31.4490    30.0680    29.4420    24.7680     2.4390    -1.1710 
  153.7500    62.7410    31.4950    29.9310    32.4920    24.8300     2.4620    -0.9460 
  153.8750    59.6750    32.2850    30.5730    40.3410    24.9420     2.4890    -0.6970 
  154.0000    57.5130    32.8390    31.2210    45.6600    25.0250     2.5060    -0.5170 
  154.1250    57.3390    31.9360    30.7230    43.3760    25.0150     2.4990    -0.4480 
  154.2500    59.4180    29.5820    28.8670    35.0950    24.9510     2.4740    -0.2980 
  154.3750    64.0500    26.4510    26.1630    25.9360    24.9090     2.4390    -0.1240 
  154.5000    68.8460    23.4650    23.4350    20.6140    24.9190     2.4090    -0.0410 
  154.6250    68.5810    21.4520    21.4460    18.8490    24.9720     2.3980    -0.0560 
  154.7500    64.1610    20.4300    20.2950    18.5700    24.9460     2.4040    -0.1450 
  154.8750    60.5210    20.1990    19.8650    19.1520    24.7930     2.4190    -0.2590 
  155.0000    59.9070    20.4130    19.9110    20.3090    24.7020     2.4340    -0.3600 
  155.1250    59.5610    20.7100    20.1480    22.6060    24.7360     2.4380    -0.4510 
  155.2500    58.9600    20.8860    20.3410    24.7120    24.7430     2.4340    -0.6040 
  155.3750    59.3430    21.0220    20.4990    23.1590    24.6620     2.4230    -0.7770 
  155.5000    61.6170    21.3700    20.7980    21.0470    24.6090     2.4120    -0.8940 
  155.6250    64.0600    22.2840    21.5350    23.3440    24.6430     2.4060    -0.9070 
  155.7500    64.7800    23.7690    22.7630    27.1440    24.6820     2.4110    -0.8450 
  155.8750    63.7000    25.7100    24.4310    31.3130    24.6480     2.4290    -0.8320 
  156.0000    61.5250    27.8390    26.3350    34.5610    24.5630     2.4610    -0.8100 
  156.1250    59.9320    29.6720    28.0460    34.3250    24.5940     2.5030    -0.6530 
  156.2500    59.6290    30.8490    29.1810    30.9720    24.7670     2.5410    -0.4610 
  156.3750    60.5640    31.2200    29.5620    28.7740    24.9990     2.5640    -0.2890 
  156.5000    62.5800    30.8340    29.2170    31.1060    25.1480     2.5660    -0.1390 
  156.6250    63.5720    29.8390    28.2730    33.3600    25.2210     2.5500    -0.0610 
  156.7500    61.9550    28.6380    27.1150    30.5410    25.2470     2.5220    -0.0670 
  156.8750    59.1890    27.4690    25.9740    27.4110    25.2730     2.4830    -0.0440 
  157.0000    57.2890    26.4860    25.0020    26.1200    25.2740     2.4360    -0.0090 
  157.1250    57.1030    25.8140    24.3220    23.7080    25.2530     2.3860    -0.0880 
  157.2500    58.3990    25.4230    23.9050    22.7600    25.2250     2.3510    -0.1780 
  157.3750    60.5610    25.2760    23.7220    22.2740    25.0170     2.3430    -0.2280 
  157.5000    62.9980    25.3150    23.7190    22.0450    24.5380     2.3650    -0.2820 
  157.6250    64.8200    25.4630    23.8220    23.1400    24.1550     2.4110    -0.3730 
  157.7500    65.9310    25.5860    23.9070    23.0190    24.0780     2.4580    -0.4030 
  157.8750    65.2030    25.5820    23.8830    22.0830    24.2330     2.4950    -0.3830 
  158.0000    63.5200    25.3780    23.6890    22.5870    24.3600     2.5170    -0.4250 
  158.1250    64.1110    24.9270    23.2840    22.4490    24.3500     2.5150    -0.4950 
  158.2500    65.6420    24.3430    22.7580    21.7050    24.3010     2.4930    -0.6140 
  158.3750    65.3820    23.7450    22.2070    22.7700    24.3600     2.4540    -0.7920 
  158.5000    63.3280    23.2910    21.7610    25.2980    24.4880     2.4070    -0.9460 
  158.6250    61.1270    23.2490    21.6500    25.5390    24.6610     2.3700    -1.0420 
  158.7500    59.0420    23.7210    21.9790    24.0180    24.9150     2.3610    -1.2130 
  158.8750    58.3990    24.7020    22.7730    23.3520    25.0990     2.3860    -1.4870 
  159.0000    61.3010    26.0160    23.9130    24.8960    25.0520     2.4360    -1.7340 
  159.1250    65.8120    27.2780    25.1030    28.3990    24.8800     2.4860    -1.8710 
  159.2500    67.1160    28.0550    25.9420    30.6420    24.8000     2.5070    -1.9790 
  159.3750    66.0960    28.0840    26.1540    29.6430    24.8890     2.4920    -2.1400 
  159.5000    66.3550    27.3570    25.6740    26.3400    25.1210     2.4520    -2.3730 
  159.6250    68.8800    26.0870    24.6320    23.8380    25.2900     2.4140    -2.5570 
  159.7500    69.3900    24.7430    23.4480    23.3870    25.3470     2.3980    -2.6430 
  159.8750    67.9760    23.6030    22.3840    22.0600    25.3120     2.4050    -2.6950 
  160.0000    68.0150    22.8210    21.6030    20.4050    25.2500     2.4230    -2.7180 
  160.1250    71.8610    22.4560    21.1930    20.2060    25.2130     2.4340    -2.7240 
  160.2500    74.8750    22.3440    21.0300    20.4970    25.1550     2.4330    -2.7570 
  160.3750    73.3030    22.3410    21.0000    20.9750    25.0920     2.4230    -2.7450 
  160.5000    68.8430    22.2900    20.9710    20.9480    25.0830     2.4130    -2.6720 
  160.6250    66.7600    22.0480    20.8150    20.9150    25.1560     2.4140    -2.6820 
  160.7500    67.2600    21.6550    20.5410    20.3510    25.2370     2.4240    -2.7050 
  160.8750    68.0080    21.2410    20.2380    19.8410    25.2670     2.4370    -2.6400 
  161.0000    69.5830    20.9610    20.0290    19.9360    25.2330     2.4470    -2.5610 
  161.1250    72.4430    20.9520    20.0310    20.3000    25.1940     2.4500    -2.6070 
  161.2500    72.8680    21.1170    20.1810    19.6190    25.1050     2.4510    -2.6490 
  161.3750    69.3890    21.2780    20.3380    18.5650    24.8930     2.4540    -2.6670 
  161.5000    65.1340    21.2240    20.3180    18.1070    24.6020     2.4550    -2.7050 
  161.6250    64.0540    20.7480    19.9190    17.9740    24.3590     2.4510    -2.6790 
  161.7500    64.8930    19.9530    19.2090    17.3850    24.2590     2.4450    -2.6850 
  161.8750    65.3060    19.0150    18.3390    16.5330    24.2300     2.4420    -2.8040 
  162.0000    64.1150    18.1470    17.4970    16.1020    24.2360     2.4430    -2.9330 
  162.1250    63.4050    17.5580    16.8820    15.4520    24.2930     2.4480    -2.9210 
  162.2500    64.8400    17.2660    16.5300    15.6570    24.3830     2.4510    -2.8840 
  162.3750    66.4750    17.2460    16.4340    15.7200    24.4300     2.4510    -2.9240 
