~V
VERS. 2.00: Ver 2.00
~W
STRT.M 60.0000:
STOP.M 276.0000:
STEP.M 0.1250:
NULL. -999.2500:
UWI. F10216:
~C
DEPT.M :
DEN.GM/CC :
GR.API :
RML.OHMM :
RI. :
RXO.OHMM :
CALI.CM :
SP.MV :
~A
# ...
  262.5000     2.4920    64.9320    27.5340    25.4280    31.5870    24.0860   -14.8280 
  262.6250     2.4850    64.6730    27.6710    25.5390    30.3260    23.9790   -14.8070 
  262.7500     2.4770    63.9820    27.8000    25.6590    28.8250    23.9400   -14.7870 
  262.8750     2.4740    64.7640    27.8730    25.7410    28.2880    23.8300   -14.7840 
  263.0000     2.4760    67.6080    27.8470    25.7400    28.2380    23.7910   -14.8060 
  263.1250     2.4770    71.8840    27.6800    25.6100    33.5390    23.8820   -14.7870 
  263.2500     2.4780    74.9220    27.4400    25.3990    36.7510    24.0310   -14.7500 
  263.3750     2.4810    74.1010    27.2220    25.1830    37.7230    24.1210   -14.7260 
  263.5000     2.4910    70.1280    27.1210    25.0480    31.3300    24.1440   -14.7180 
  263.6250     2.5030    66.4050    27.2360    25.0920    27.6470    24.1660   -14.7350 
  263.7500     2.5120    65.2350    27.5390    25.3130    28.0970    24.2040   -14.7460 
  263.8750     2.5180    66.1140    27.9600    25.6700    30.5670    24.2220   -14.7490 
  264.0000     2.5220    66.9510    28.3960    26.0850    33.7600    24.2010   -14.7510 
  264.1250     2.5220    67.5580    28.7690    26.4760    36.9510    24.1980   -14.7810 
  264.2500     2.5150    67.3000    29.0840    26.8210    38.2740    24.1980   -14.8290 
  264.3750     2.4990    66.9570    29.3630    27.1230    38.1600    24.1760   -14.8670 
  264.5000     2.4810    67.5230    29.6070    27.3800    37.5680    24.1620   -14.8820 
  264.6250     2.4790    68.6200    29.7520    27.5450    47.8240    24.1830   -14.8860 
  264.7500     2.5000    69.1300    29.7260    27.5750    55.5170    24.2050   -14.9020 
  264.8750     2.5380    68.4620    29.4950    27.4350    52.2490    24.1800   -14.9130 
  265.0000     2.5720    67.1940    29.1100    27.1510    37.9290    24.1040   -14.9150 
  265.1250     2.5780    66.6310    28.6870    26.8020    32.6440    24.1570   -14.9080 
  265.2500     2.5600    65.8290    28.3460    26.4840    30.4550    24.2040   -14.8950 
  265.3750     2.5320    64.4520    28.1320    26.2410    29.0920    24.1870   -14.8690 
  265.5000     2.5030    64.2250    28.0240    26.0750    28.3210    24.1390   -14.8330 
  265.6250     2.4810    65.7770    27.9290    25.9420    28.3440    24.1050   -14.8070 
  265.7500     2.4650    65.7770    27.7490    25.7750    28.8290    24.1010   -14.7460 
  265.8750     2.4540    65.7770    27.4550    25.5430    29.0380    24.0830   -14.6610 
  266.0000     2.4480    65.7770    27.0850    25.2510    28.9780    24.0750   -14.6040 
  266.1250     2.4540    65.7770    26.7400    24.9560    28.2090    24.0940   -14.5920 
  266.2500     2.4710    65.7770    26.5250    24.7460    28.1050    24.1290   -14.5740 
  266.3750     2.4920    65.7770    26.5020    24.6800    26.9760    24.1490   -14.5520 
  266.5000     2.5100    65.7770    26.6830    24.7780    27.1830    24.1750   -14.5450 
  266.6250     2.5170    65.7770    27.0620    25.0530    27.6790    24.2020   -14.5150 
  266.7500     2.5150    65.7770    27.5470    25.4480    29.8780    24.1950   -14.5310 
  266.8750     2.5100    65.7770    28.0610    25.9170    31.6280    24.1500   -14.5610 
  267.0000     2.5050    65.7770    28.5330    26.4010    33.6210    24.1110   -14.5360 
  267.1250     2.5070    65.7770    28.9140    26.8310    37.0180    24.1100   -14.4690 
  267.2500     2.5130    65.7770    29.2330    27.1860    40.1850    24.1410   -14.4240 
  267.3750     2.5230    65.7770    29.5210    27.4770    39.1160    24.1350   -14.4250 
  267.5000     2.5290    65.7770    29.8010    27.7330    35.3760    24.1100   -14.4230 
  267.6250     2.5260    65.7770    30.0580    27.9590    34.4840    24.1030   -14.4490 
  267.7500     2.5160    65.7770    30.2210    28.1090    34.4910    24.1610   -14.4580 
  267.8750     2.5020    65.7770    30.2020    28.1100    33.5770    24.1800   -14.4340 
  268.0000     2.4880    65.7770    29.9640    27.9220    32.7080    24.1180   -14.4560 
  268.1250     2.4810    65.7770    29.5430    27.5590    31.3380    24.0420   -14.4860 
  268.2500     2.4830    65.7770    29.1180    27.1620    28.3640    24.0240   -14.4940 
  268.3750     2.4930    65.7770    28.8580    26.8680    27.1650    24.0830   -14.4660 
  268.5000     2.5050    65.7770    28.8880    26.7850    27.0290    24.0950   -14.4160 
  268.6250     2.5110    65.7770    29.2500    26.9740    28.9430    24.1080   -14.3360 
  268.7500     2.5080    65.7770    29.7360    27.3030    31.9430    24.1020   -14.2560 
  268.8750     2.4970    65.7770    30.1540    27.6370    32.4050    24.1040   -14.2210 
  269.0000     2.4870    65.7770    30.3590    27.8530    31.4970    24.1040   -14.1320 
  269.1250     2.4880    65.7770    30.2930    27.8750    32.0870    24.0880   -14.0250 
  269.2500     2.4990    65.7770    30.1130    27.7910    32.7870    24.1040   -13.9290 
  269.3750     2.5150    65.7770    29.9570    27.6980    31.0360    24.1540   -13.8290 
  269.5000     2.5280    65.7770    29.9030    27.6600    31.9930    24.1920   -13.7440 
  269.6250     2.5290    65.7770    29.9540    27.6950    33.0790    24.1530   -13.7070 
  269.7500     2.5230    65.7770    30.0360    27.7530    34.1840    24.0540   -13.6760 
  269.8750     2.5160    65.7770    30.1040    27.7910    35.1860    23.9830   -13.6080 
  270.0000     2.5170    65.7770    30.1310    27.7940    35.8470    24.0010   -13.5400 
  270.1250     2.5280    65.7770    30.1090    27.7740    35.4430    24.0520   -13.4600 
  270.2500     2.5390    65.7770    30.0730    27.7630    35.6530    24.1350   -13.3980 
  270.3750     2.5430    65.7770    30.0550    27.7750    35.1600    24.1540   -13.3680 
  270.5000     2.5390    65.7770    30.0790    27.8030    35.4420    24.1210   -13.3720 
  270.6250     2.5300    65.7770    30.1530    27.8370    34.6460    24.0920   -13.3520 
  270.7500     2.5230    65.7770    30.2460    27.8700    33.4390    24.0910   -13.3270 
  270.8750     2.5190    65.7770    30.3250    27.8980    33.1520    24.0810   -13.3390 
  271.0000     2.5170    65.7770    30.3620    27.9110    32.9430    24.0940   -13.3740 
  271.1250     2.5110    65.7770    30.3520    27.8970    31.8750    24.1440   -13.4470 
  271.2500     2.5000    65.7770    30.3240    27.8650    30.6600    24.1610   -13.5310 
  271.3750     2.4840    65.7770    30.2960    27.8290    31.6130    24.1750   -13.6210 
  271.5000     2.4690    65.7770    30.2700    27.8010    32.7920    24.2240   -13.6890 
  271.6250     2.4620    65.7770    30.2700    27.8010    34.7370    24.2700   -13.7500 
  271.7500     2.4680    65.7770    30.2700    27.8010    36.0820    24.2450   -13.8330 
  271.8750     2.4810    65.7770    30.2700    27.8010    38.0710    24.1790   -13.9070 
  272.0000     2.4970    65.7770    30.2700    27.8010    42.3610    24.1370   -14.0030 
  272.1250     2.5100    65.7770    30.2700    27.8010    38.9450    24.1290   -13.9990 
  272.2500     2.5160    65.7770    30.2700    27.8010    38.1070    24.1220   -13.8550 
  272.3750     2.5140    65.7770    30.2700    27.8010    38.5040    24.1140   -13.6600 
  272.5000     2.5040    65.7770    30.2700    27.8010    39.6030    24.0940   -13.4200 
  272.6250     2.4880    65.7770    30.2700    27.8010    33.2540    24.0700   -13.1440 
  272.7500     2.4750    65.7770    30.2700    27.8010    29.9210    24.0320   -12.8110 
  272.8750     2.4710    65.7770    30.2700    27.8010    29.0300    24.0390   -12.4540 
  273.0000     2.4760    65.7770    30.2700    27.8010    30.4830    24.0860   -12.0550 
  273.1250     2.4800    65.7770    30.2700    27.8010    31.0390    24.1130   -12.0730 
  273.2500     2.4780    65.7770    30.2700    27.8010    31.4380    24.1180   -12.0900 
  273.3750     2.4710    65.7770    30.2700    27.8010    30.9860    24.1220  -999.2500 
  273.5000     2.4630    65.7770    30.2700    27.8010    25.4860    24.1350  -999.2500 
  273.6250     2.4580    65.7770    30.2700    27.8010    25.5670    24.1810  -999.2500 
