~V
VERS. 2.00: Ver 2.00
~W
STRT.M 50.0000:
STOP.M 258.0000:
STEP.M 0.1250:
NULL. -999.2500:
UWI. F10200:
~C
DEPT.M :
SP.MV :
GR.API :
RML.OHMM :
RI. :
RXO.OHMM :
CALI.CM :
DEN.GM/CC :
~A
# ...
  196.2500    -6.3310    64.3150     8.1240     7.0270     7.1450    23.1800     2.4780 
  196.3750    -6.9130    72.7890     8.4370     7.4010     7.8810    23.1500     2.4860 
  196.5000    -7.5610    78.1920     8.7800     7.7090     8.7150    23.1020     2.4830 
  196.6250    -8.2680    78.3580     8.9600     7.8620     9.4230    22.9570     2.4690 
  196.7500    -9.0240    77.7970     8.9570     7.8560     9.6000    22.5710     2.4500 
  196.8750    -9.8200    78.9290     8.8160     7.7180     9.6240    21.9120     2.4300 
  197.0000   -10.6310    80.7910     8.6200     7.5100     9.7970    21.3860     2.4150 
  197.1250   -11.4650    81.8570     8.4810     7.3240     9.8280    21.6320     2.4070 
  197.2500   -12.3010    83.4840     8.4620     7.2260     8.5110    22.2710     2.4010 
  197.3750   -13.1340    86.6970     8.5790     7.2440     7.4420    22.8930     2.3970 
  197.5000   -13.9440    88.9830     8.8030     7.3700     7.1090    23.3430     2.3940 
  197.6250   -14.6970    87.3780     9.0620     7.5650     7.8030    23.7110     2.3940 
  197.7500   -15.3950    84.1430     9.2690     7.7530     8.5220    23.9640     2.3970 
  197.8750   -16.0500    81.7720     9.3790     7.8870     8.8240    24.0410     2.3980 
  198.0000   -16.6730    82.2260     9.3900     7.9440     8.7880    24.0460     2.3890 
  198.1250   -17.2500    83.8400     9.3360     7.9360     8.7410    24.1440     2.3660 
  198.2500   -17.7780    86.2250     9.2930     7.9220     8.6110    24.3820     2.3400 
  198.3750   -18.2360    87.2400     9.3020     7.9380     8.7360    24.5590     2.3200 
  198.5000   -18.6100    85.6580     9.3650     7.9920     9.0200    24.4650     2.3140 
  198.6250   -18.8860    82.5780     9.4370     8.0510     9.5460    24.2480     2.3220 
  198.7500   -19.0580    80.0940     9.4450     8.0610    10.1670    24.0900     2.3320 
  198.8750   -19.1140    79.1440     9.3460     7.9830    10.2680    24.0070     2.3380 
  199.0000   -19.0660    77.3280     9.1420     7.8140     9.8090    23.9530     2.3380 
  199.1250   -18.9390    74.6500     8.9130     7.6060     9.3750    23.8530     2.3380 
  199.2500   -18.8030    74.7760     8.7840     7.4550     8.8350    23.5830     2.3450 
  199.3750   -18.7100    79.5260     8.8440     7.4310     8.1840    23.1870     2.3590 
  199.5000   -18.6920    85.6460     9.1230     7.5720     7.8470    23.0000     2.3740 
  199.6250   -18.7530    87.0560     9.6000     7.8880     8.1240    23.3050     2.3800 
  199.7500   -18.8530    85.9930    10.1300     8.2850     8.8830    23.6940     2.3760 
  199.8750   -18.9680    84.1040    10.5960     8.6800     9.6750    23.9600     2.3670 
  200.0000   -19.0820    79.2530    10.9090     8.9920    10.3900    24.0170     2.3620 
  200.1250   -19.1520    72.4260    10.9980     9.1450    10.6760    23.9590     2.3680 
  200.2500   -19.1270    68.0900    10.9170     9.1550    10.8080    23.9270     2.3780 
  200.3750   -18.9640    67.5840    10.7170     9.0520    10.8540    23.8800     2.3870 
  200.5000   -18.6520    69.5210    10.4520     8.8800    10.6420    23.7960     2.3880 
  200.6250   -18.1750    72.4030    10.1910     8.6970    10.4750    23.7590     2.3820 
  200.7500   -17.5760    73.6720    10.0200     8.5700    10.3320    23.8340     2.3750 
  200.8750   -16.8680    73.8030    10.0150     8.5610    10.1360    23.9350     2.3670 
  201.0000   -16.0190    75.3690    10.2040     8.7020     9.9330    23.9770     2.3580 
  201.1250   -14.9770    78.1770    10.5190     8.9630     9.7300    24.0130     2.3500 
  201.2500   -13.7550    78.1550    10.7430     9.1920    10.0150    24.0200     2.3430 
  201.3750   -12.3600    74.6450    10.7480     9.2350    10.9910    23.9410     2.3320 
  201.5000   -10.8100    70.2490    10.3860     8.9760    12.3980    23.7870     2.3150 
  201.6250    -9.1290    68.1700     9.7190     8.3750    11.9990    23.6510     2.2950 
  201.7500    -7.4350    67.7350     9.0100     7.6370     9.3950    23.5280     2.2830 
  201.8750    -5.7960    64.2790     8.2600     6.9490     6.9850    23.4930     2.2860 
  202.0000    -4.2760    56.5620     7.5890     6.4450     6.0470    23.5860     2.3070 
  202.1250    -2.9500    50.9170     7.2540     6.1960     5.9710    23.7170     2.3380 
  202.2500    -1.8270    50.2230     7.1060     6.1120     6.0190    23.6670     2.3650 
  202.3750    -0.9210    52.2350     7.0320     6.1090     6.0420    23.4970     2.3830 
  202.5000    -0.2260    56.0800     6.9500     6.1120     6.0320    23.4040     2.3950 
  202.6250     0.2140    62.2230     6.8260     6.0730     5.9520    23.3550     2.4010 
  202.7500     0.5060    67.0670     6.6910     6.0060     5.8990    23.4760     2.4050 
  202.8750     0.6750    70.4020     6.5830     5.9430     5.8370    23.6830     2.4090 
  203.0000     0.7300    73.9750     6.5320     5.9150     5.8100    23.8660     2.4130 
  203.1250     0.6540    77.5780     6.5660     5.9480     5.8080    23.9120     2.4200 
  203.2500     0.4780    79.9600     6.6620     6.0300     5.9140    23.8850     2.4250 
  203.3750     0.2020    81.0060     6.7970     6.1410     6.1940    23.8310     2.4250 
  203.5000    -0.1530    82.3950     6.9420     6.2580     6.5810    23.7850     2.4190 
  203.6250    -0.5560    82.7230     7.0770     6.3610     7.0830    23.8350     2.4100 
  203.7500    -0.9960    81.9200     7.2120     6.4560     7.4360    23.8750     2.4030 
  203.8750    -1.4470    80.2710     7.3690     6.5630     7.5690    23.8540     2.3990 
  204.0000    -1.8910    78.2060     7.5770     6.7020     7.6280    23.8540     2.3970 
  204.1250    -2.3270    78.1960     7.8720     6.9030     8.1500    23.8800     2.3960 
  204.2500    -2.7740    80.1030     8.2530     7.1700     9.1160    23.8830     2.3950 
  204.3750    -3.2170    82.2520     8.7330     7.5180    10.2430    23.9120     2.3940 
  204.5000    -3.6600    82.4850     9.3380     7.9720     9.9360    23.9470     2.3920 
  204.6250    -4.1220    79.9190    10.1550     8.6090    10.3030    23.9600     2.3850 
  204.7500    -4.6040    76.7240    11.2490     9.4830    11.5440    23.9580     2.3750 
  204.8750    -5.1170    73.6080    12.7520    10.6970    13.6680    23.9590     2.3630 
  205.0000    -5.6630    71.3960    14.8600    12.4040    15.9000    23.9610     2.3490 
  205.1250    -6.2410    70.0770    18.1720    15.0070    18.0160    23.9620     2.3340 
  205.2500    -6.8190    67.9700    23.3450    18.8230    21.7330    23.9570     2.3210 
  205.3750    -7.4120    65.0300    30.9180    24.4130    28.1170    23.9270     2.3150 
  205.5000    -8.0260    62.0880    41.4430    32.4180    38.3090    23.8120     2.3210 
  205.6250    -8.6400    59.2610    56.3000    43.8680    47.1560    23.6230     2.3410 
  205.7500    -9.2440    56.2180    72.6690    58.1120    62.6980    23.5160     2.3640 
  205.8750    -9.8050    54.3920    90.4510    74.0100    82.1550    23.5750     2.3760 
  206.0000   -10.3210    55.1740   107.4610    89.5330    92.3630    23.6840     2.3670 
  206.1250   -10.7810    56.8010   120.1750   101.5150    99.6110    23.7750     2.3370 
  206.2500   -11.2000    57.4440   127.1330   108.6330   120.0030    23.8410     2.3010 
  206.3750   -11.5700    57.1880   128.1290   110.6430   135.3800    23.8790     2.2680 
  206.5000   -11.8810    56.6060   124.4690   108.4830   131.9580    23.8920     2.2440 
  206.6250   -12.1510    56.0170   118.2940   103.7180   128.2310    23.8920     2.2290 
  206.7500   -12.3640    55.7150   112.3660    98.7440   118.2030    23.8950     2.2190 
  206.8750   -12.5500    56.4920   108.2610    95.0330   107.8700    23.8990     2.2140 
  207.0000   -12.7060    56.9920   106.9220    93.6030    98.9980    23.8960     2.2110 
  207.1250   -12.8280    56.9890   109.0830    95.2910    98.8270    23.8930     2.2090 
  207.2500   -12.9180    56.0650   113.9080    99.4390   103.7750    23.8900     2.2070 
  207.3750   -12.9800    55.7930   120.8370   105.5590   113.8510    23.8860     2.2040 
