~V
VERS. 2.00: Ver 2.00
~W
STRT.M 50.0000:
STOP.M 270.0000:
STEP.M 0.1250:
NULL. -999.2500:
UWI. F10223:
~C
DEPT.M :
GR.API :
RML.OHMM :
RI. :
RXO.OHMM :
CALI.CM :
DEN.GM/CC :
SP.MV :
~A
   50.0000    49.4730     4.6870     0.5610     6.5250    24.9590  -999.2500  -999.2500 
   50.1250    47.0620     4.1900     0.5390    12.9770    24.9660  -999.2500  -999.2500 
   50.2500    46.3550     3.5270     0.5250    13.5320    24.9640  -999.2500  -999.2500 
   50.3750    47.5850     3.2210     0.5230     9.2940    24.9570  -999.2500  -999.2500 
   50.5000    50.9150     3.4180     0.5350     7.1090    24.9520  -999.2500    30.3300 
   50.6250    54.8290     3.9880     0.5540     6.5310    24.9310  -999.2500    30.3300 
   50.7500    57.1560     4.3100     0.5630     5.9060    24.9170  -999.2500    30.3300 
   50.8750    57.7030     3.8540     0.5570     4.7280    24.9040  -999.2500    30.3300 
   51.0000    57.8520     2.8530     0.5460     2.9300    24.8680  -999.2500    30.3940 
   51.1250    57.6040     2.0760     0.5500     1.7080    24.7360  -999.2500    30.4710 
   51.2500    55.2630     1.6900     0.5740     1.1540    24.3650  -999.2500    30.5260 
   51.3750    51.5810     1.5710     0.6180     1.0140    23.7240  -999.2500    30.5220 
   51.5000    49.4860     1.5920     0.6650     1.0740    23.1380  -999.2500    30.3840 
   51.6250    50.0590     1.6400     0.6930     1.2740    22.7050  -999.2500    30.0430 
   51.7500    51.1900     1.6580     0.7000     1.4630    22.3830  -999.2500    29.5800 
   51.8750    54.1910     1.6610     0.7000     1.5490    22.1200  -999.2500    29.0480 
   52.0000    58.3790     1.6910     0.7080     1.5360    21.9610  -999.2500    28.4340 
   52.1250    57.3260     1.8140     0.7290     1.5430    21.9210  -999.2500    27.7450 
   52.2500    50.3630     2.0410     0.7460     1.5440    21.9540  -999.2500    27.0370 
   52.3750    44.6150     2.3760     0.7360     1.5660    22.0520  -999.2500    26.3710 
   52.5000    45.7630     2.8350     0.6900     1.6230    22.1310  -999.2500    25.7810 
   52.6250    49.3570     3.4410     0.6320     1.8600    22.1190  -999.2500    25.2850 
   52.7500    49.3500     4.0370     0.5910     2.0600    22.0000  -999.2500    24.8400 
   52.8750    47.8880     4.3330     0.5720     2.0300    21.9170  -999.2500    24.4130 
   53.0000    47.8370     4.1150     0.5700     1.8050    22.0350  -999.2500    24.0140 
   53.1250    49.2730     3.5900     0.5790     1.5060    22.5180  -999.2500    23.6540 
   53.2500    48.9340     3.2220     0.5880     1.3820    23.2930  -999.2500    23.3130 
   53.3750    46.3960     3.1200     0.5950     1.6630    24.1980  -999.2500    22.9950 
   53.5000    42.8780     3.1460     0.6010     3.5120    25.0100  -999.2500    22.7100 
   53.6250    39.7180     3.0500     0.6030 250007.6090    25.3060  -999.2500    22.5340 
   53.7500    37.9180     2.7540     0.6030 1000000.0000    25.3820  -999.2500    22.4710 
   53.8750    37.1590     2.3870     0.6020 1000000.0000    25.3830  -999.2500    22.5120 
   54.0000    37.6640     2.1050     0.6050 1000000.0000    25.3900  -999.2500    22.6210 
   54.1250    38.2150     1.9960     0.6120 1000000.0000    25.3870  -999.2500    22.8170 
   54.2500    38.3670     2.0900     0.6210 1000000.0000    25.3790  -999.2500    23.0620 
   54.3750    38.6980     2.4940     0.6310 1000000.0000    25.3650  -999.2500    23.3390 
   54.5000    39.9410     3.3920     0.6430 1000000.0000    25.3500     2.0250    23.6490 
   54.6250    40.3390     5.3150     0.6540 1000000.0000    25.3430     2.0250    24.0010 
   54.7500    39.7200     8.4510     0.6610 1000000.0000    25.3420     2.0290    24.3830 
   54.8750    39.1260    12.0760     0.6590 1000000.0000    25.3420     2.0400    24.8060 
   55.0000    38.8560    14.0640     0.6450 1000000.0000    25.3430     2.0470    25.2760 
   55.1250    38.5640    13.8970     0.6140   612.0770    25.3450     2.0450    25.7710 
   55.2500    37.6350    13.7420     0.5760    83.6630    25.3480     2.0380    26.2810 
   55.3750    36.0630    13.4840     0.5440    27.3630    25.3430     2.0280    26.8000 
   55.5000    36.2830    11.5980     0.5270    24.8250    25.3300     2.0160    27.3040 
   55.6250    39.7720     8.3250     0.5240    34.1060    25.3040     2.0070    27.7670 
   55.7500    41.2090     5.8030     0.5290    63.9120    25.2840     2.0050    28.2430 
   55.8750    39.7350     4.3390     0.5400    69.1190    25.2820     2.0060    28.7320 
   56.0000    39.8280     3.5840     0.5530    75.0170    25.2900     2.0070    29.2300 
   56.1250    45.7850     3.1940     0.5650   271.5280    25.2940     2.0000    29.7190 
   56.2500    52.5910     2.8620     0.5730 500303.9690    25.2880     1.9880    30.2040 
   56.3750    57.1180     2.4930     0.5780 1000000.0000    25.2770     1.9740    30.7220 
   56.5000    60.5140     2.0990     0.5800   397.6080    25.2690     1.9580    31.2830 
   56.6250    62.4640     1.7960     0.5810    24.7730    25.2340     1.9340    31.9200 
   56.7500    63.1100     1.6570     0.5860     8.3350    25.1440     1.9020    32.5810 
   56.8750    62.8350     1.6850     0.5950     5.2470    25.0140     1.8660    33.2240 
   57.0000    61.6300     1.8290     0.6090     3.4260    24.9110     1.8370    33.8610 
   57.1250    57.9830     1.9960     0.6300     1.9970    24.7290     1.8200    34.5090 
   57.2500    52.5980     2.0950     0.6530     1.2900    24.4180     1.8210    35.1690 
   57.3750    49.8080     2.1110     0.6730     1.1370    23.9740     1.8590    35.8290 
   57.5000    52.4660     2.0770     0.6860     1.2790    23.4540     1.9580    36.5070 
   57.6250    57.1400     1.9990     0.6910     1.5320    23.0340     2.1180    37.1470 
   57.7500    58.4690     1.8300     0.6950     1.7410    22.7640     2.2230    37.7170 
   57.8750    57.5500     1.5430     0.7010     1.9110    22.6270     2.2110    38.2040 
   58.0000    57.4320     1.2060     0.7060     2.0130    22.5660     2.1340    38.5720 
   58.1250    58.3410     0.9330     0.7070     1.9860    22.5240     2.0790    38.7850 
   58.2500    57.0710     0.7470     0.7070     1.8780    22.4910     2.0680    38.8760 
   58.3750    53.0330     0.6270     0.7070     1.7450    22.4490     2.0820    38.8250 
   58.5000    46.9170     0.5440     0.7040     1.6900    22.4080     2.0970    38.5810 
   58.6250    43.1860     0.4890     0.6940     1.6760    22.3730     2.1100    38.1120 
   58.7500    44.1140     0.4560     0.6780     1.6570    22.3580     2.1230    37.4590 
   58.8750    47.2690     0.4350     0.6680     1.6200    22.3580     2.1270    36.6370 
   59.0000    50.4340     0.4040     0.6710     1.5770    22.3820     2.1130    35.6720 
   59.1250    51.6360     0.3280     0.6800     1.5240    22.4600     2.0880    34.5710 
   59.2500    50.3630     0.2120     0.6800     1.4420    22.5770     2.0700    33.3300 
   59.3750    47.4980     0.0890     0.6730     1.3510    22.7320     2.0680    31.9460 
   59.5000    48.1650    -0.0040     0.6720     1.2340    22.8980     2.0810    30.4690 
   59.6250    55.3560    -0.0420     0.6880     1.0790    23.0880     2.1050    28.8980 
   59.7500    60.7910    -0.0490     0.7100     0.9300    23.2780     2.1350    27.2660 
   59.8750    59.2150    -0.0380     0.7270     0.7950    23.4050     2.1680    25.5880 
   60.0000    54.0560    -0.0170     0.7290     0.6890    23.4250     2.1980    23.8790 
   60.1250    52.3370     0.0150     0.7200     0.6380    23.3730     2.2200    22.1210 
   60.2500    54.1930     0.0610     0.7140     0.6240    23.3570     2.2300    20.3250 
   60.3750    57.5410     0.1350     0.7180     0.6050    23.3780     2.2290    18.4980 
   60.5000    60.5170     0.2350     0.7220     0.5950    23.3960     2.2190    16.6190 
   60.6250    60.3480     0.3090     0.6910     0.5950    23.3960     2.2160    14.7000 
   60.7500    57.2550     0.2860     0.6030     0.5780    23.4130     2.2400    12.7260 
   60.8750    54.0880     0.1420     0.4670     0.5420    23.4680     2.2990    10.6700 
   61.0000    53.1940    -0.0610     0.3240     0.5180    23.6400     2.3870     8.4980 
   61.1250    52.8460    -0.2170     0.2270     0.5450    23.9540     2.4960     6.2140 
