~V
VERS. 2.00: Ver 2.00
~W
STRT.M 50.0000:
STOP.M 281.0000:
STEP.M 0.1250:
NULL. -999.2500:
UWI. F10234:
~C
DEPT.M :
DEN.GM/CC :
GR.API :
RML.OHMM :
RI. :
RXO.OHMM :
CALI.CM :
SP.MV :
~A
   50.0000  -999.2500    30.2450    33.4010     2.0690    28.5940    25.6250  -999.2500 
   50.1250  -999.2500    31.5940    37.2260     2.0790    37.4790    25.6260  -999.2500 
   50.2500  -999.2500    28.1280    40.1380     2.0640   121.5760    25.6270   133.7220 
   50.3750  -999.2500    23.9710    39.0430     2.0290 13004.6390    25.6290   133.7220 
   50.5000  -999.2500    23.9310    34.2910     1.9940 17278.7130    25.6320   133.7220 
   50.6250  -999.2500    27.7970    28.8800     1.9820 17278.7130    25.6320   133.7220 
   50.7500  -999.2500    28.7950    24.9790     1.9870 17278.7130    25.6330   133.7310 
   50.8750  -999.2500    25.5710    23.2380     2.0020 17278.7130    25.6340   133.7260 
   51.0000     1.9930    22.0180    23.8850     2.0170 17278.7130    25.6340   133.6540 
   51.1250     1.9930    21.9420    27.4850     2.0250 17278.7130    25.6340   133.5640 
   51.2500     1.9930    24.4080    33.1410     2.0220 17278.7130    25.6330   133.4320 
   51.3750     1.9960    27.1720    38.7670     2.0100 17278.7130    25.6330   133.2670 
   51.5000     2.0060    29.1610    41.5320     1.9940 17278.7130    25.6320   133.0990 
   51.6250     2.0190    30.1020    40.7980     1.9770 17278.7130    25.6320   132.9300 
   51.7500     2.0260    29.8660    39.3880     1.9630  9498.5980    25.6310   132.7510 
   51.8750     2.0280    28.5880    38.6690     1.9520  1126.0750    25.6310   132.6780 
   52.0000     2.0240    27.1740    39.0380     1.9430   479.2690    25.6320   132.5440 
   52.1250     2.0190    26.6240    41.0160     1.9350  1147.8380    25.6320   132.3710 
   52.2500     2.0150    25.9640    44.1730     1.9290  9527.9070    25.6320   132.1870 
   52.3750     2.0100    24.0620    47.1370     1.9210  4403.7970    25.6320   132.0250 
   52.5000     2.0030    22.2650    47.9300     1.9080    59.2040    25.6330   131.8600 
   52.6250     1.9930    23.0290    45.6130     1.8910    40.4790    25.6340   131.6880 
   52.7500     1.9860    25.2650    42.2400     1.8740    98.4300    25.6340   131.5210 
   52.8750     1.9860    26.8810    39.5650     1.8600 12991.7960    25.6320   131.3140 
   53.0000     1.9920    28.2020    38.2440     1.8510 17278.7130    25.6300   131.0540 
   53.1250     1.9990    29.6340    37.7690     1.8420 17278.7130    25.6270   130.8070 
   53.2500     1.9990    29.5190    36.9830     1.8300  8697.7420    25.6240   130.5140 
   53.3750     1.9900    26.9970    35.3820     1.8140    68.2700    25.6220   130.1750 
   53.5000     1.9760    24.9140    33.1720     1.7930    23.6350    25.6210   129.8460 
   53.6250     1.9690    26.3470    30.7690     1.7700    53.6570    25.6210   129.4130 
   53.7500     1.9740    28.7570    28.5900     1.7480    87.6070    25.6230   128.9670 
   53.8750     1.9840    28.9040    26.9790     1.7290    56.2400    25.6260   128.5310 
   54.0000     1.9890    26.9530    26.0050     1.7150    21.0060    25.6260   128.1000 
   54.1250     1.9840    25.7280    25.6990     1.6990    52.3450    25.6260   127.7230 
   54.2500     1.9800    25.8630    25.6340     1.6820   169.0640    25.6250   127.3800 
   54.3750     1.9840    25.8590    25.4500     1.6690    85.0540    25.6220   127.0640 
   54.5000     1.9960    25.8360    25.3280     1.6690    13.6360    25.6190   126.7210 
   54.6250     2.0070    27.5750    25.9650     1.6960    11.6020    25.6160   126.3990 
   54.7500     2.0040    29.6410    27.5680     1.7380    35.4230    25.6130   126.0590 
   54.8750     1.9870    29.3460    29.8290     1.7800 12971.6510    25.6120   125.7460 
   55.0000     1.9680    26.5910    31.8970     1.8110 17278.7130    25.6140   125.4820 
   55.1250     1.9610    23.8670    31.9750     1.8220 17278.7130    25.6160   125.1390 
   55.2500     1.9670    21.4660    29.6750     1.8200 17278.7130    25.6170   124.7710 
   55.3750     1.9810    19.2050    26.3600     1.8130 17278.7130    25.6180   124.4120 
   55.5000     1.9930    19.0330    23.6460     1.8020 17278.7130    25.6180   124.0540 
   55.6250     1.9930    21.7280    22.6270     1.7840 17278.7130    25.6080   123.7090 
   55.7500     1.9840    23.2230    23.1180     1.7550 17278.7130    25.5980   123.3910 
   55.8750     1.9690    22.5740    24.4630     1.7180 17278.7130    25.5900   123.0470 
   56.0000     1.9540    21.8670    25.3810     1.6840 17278.7130    25.5860   122.6620 
   56.1250     1.9470    21.4760    24.3620     1.6660 17278.7130    25.5870   122.3140 
   56.2500     1.9520    20.3910    22.1510     1.6710 17278.7130    25.5910   121.9450 
   56.3750     1.9690    20.2140    20.0380     1.6960 17278.7130    25.5980   121.4790 
   56.5000     1.9930    21.3450    18.8990     1.7320 17278.7130    25.6090   120.9770 
   56.6250     2.0160    21.3110    19.0970     1.7750 17278.7130    25.6190   120.3930 
   56.7500     2.0300    19.6850    19.9990     1.8180 17278.7130    25.6250   119.7600 
   56.8750     2.0340    18.3070    21.1100     1.8550 17278.7130    25.6250   119.0950 
   57.0000     2.0290    18.4890    22.1040     1.8840 17278.7130    25.6260   118.3470 
   57.1250     2.0160    20.6830    22.7600     1.9100 17278.7130    25.6260   117.5350 
   57.2500     1.9990    23.3500    23.2410     1.9400 17278.7130    25.6260   116.7080 
   57.3750     1.9810    25.4100    24.0160     1.9730 17278.7130    25.6260   115.8490 
   57.5000     1.9630    25.8060    25.4530     2.0060 17278.7130    25.6260   114.9470 
   57.6250     1.9480    23.9600    27.0850     2.0350 17278.7130    25.6270   114.0120 
   57.7500     1.9380    20.4760    27.7770     2.0620 17278.7130    25.6270   113.0120 
   57.8750     1.9370    18.4640    27.2970     2.0950 17278.7130    25.6270   111.9760 
   58.0000     1.9440    19.8360    26.3430     2.1340 17278.7130    25.6270   110.8640 
   58.1250     1.9610    21.7100    25.7650     2.1750 17278.7130    25.6280   109.6070 
   58.2500     1.9810    21.6390    25.7100     2.2100 17278.7130    25.6280   108.2820 
   58.3750     1.9970    21.5910    25.7210     2.2340 17278.7130    25.6280   106.8940 
   58.5000     2.0060    24.5380    24.9230     2.2450 17278.7130    25.6280   105.3770 
   58.6250     2.0090    29.1760    22.8780     2.2410 17278.7130    25.6270   103.6530 
   58.7500     2.0080    31.4820    20.2560     2.2320 17278.7130    25.6270   101.6930 
   58.8750     2.0040    31.2460    17.5380     2.2240 17278.7130    25.6270    99.4920 
   59.0000     1.9970    31.1160    15.3140     2.2120 17278.7130    25.6260    97.0580 
   59.1250     1.9880    31.8990    14.2570     2.1800 17278.7130    25.6240    94.2820 
   59.2500     1.9790    31.2480    14.2570     2.1090 17278.7130    25.6220    91.0980 
   59.3750     1.9730    29.2730    14.5860     1.9630 17278.7130    25.6210    87.5060 
   59.5000     1.9740    28.4660    13.1600     1.6840 17278.7130    25.6210    83.4350 
   59.6250     1.9940    29.3180     8.5040     1.2290 17278.7130    25.6200    78.6600 
   59.7500     2.0640    28.7390     4.1760     0.7380 17278.7130    25.6210    73.2110 
   59.8750     2.2380    27.5970     1.7370     0.3540  4406.6600    25.6210    66.9250 
   60.0000     2.4610    27.0570     0.7030     0.1290    22.7970    25.7080    59.6860 
   60.1250     2.5040    25.7990     0.5060     0.0440     6.2180    26.1970    51.4770 
   60.2500     2.3530    25.3680     0.7220     0.0380     3.3890    27.1370    42.8310 
   60.3750     2.1330    28.4150     1.2980     0.1100     3.5170    28.3080    34.1310 
   60.5000     1.9210    34.6700     2.2850     0.3020     4.6500    29.3290    25.7140 
   60.6250     1.7660    41.5300     3.8360     0.7310     5.1160    29.9070    17.9200 
   60.7500     1.6930    50.5750     5.6930     1.4430     5.3150    30.0090    10.8830 
   60.8750     1.7310    61.6350     7.3310     2.4370     5.2080    29.6120     4.7840 
   61.0000     1.8660    68.7510     8.1730     3.6120     6.1870    28.7520    -0.1950 
   61.1250     2.0260    68.3160     8.2200     4.7860     8.4920    27.4880    -3.7860 
