~V
VERS. 2.00: Ver 2.00
~W
STRT.M 50.0000:
STOP.M 281.0000:
STEP.M 0.1250:
NULL. -999.2500:
UWI. F10222:
~C
DEPT.M :
GR.API :
RML.OHMM :
RI. :
RXO.OHMM :
CALI.CM :
DEN.GM/CC :
SP.MV :
~A
# ...
  151.2500    89.5110     4.8860     4.1950     5.0730    26.1280     2.3580   -17.6970 
  151.3750    89.6580     4.8710     4.1890     4.9510    26.1420     2.3560   -17.7720 
  151.5000    90.4730     4.8660     4.1840     4.9330    25.9710     2.3510   -17.8750 
  151.6250    94.0350     4.8600     4.1710     4.8660    25.6470     2.3470   -17.9180 
  151.7500    97.8540     4.8300     4.1420     4.8640    25.3490     2.3450   -17.9670 
  151.8750    99.9470     4.7620     4.0900     4.9420    25.1980     2.3460   -18.0120 
  152.0000   100.9540     4.6690     4.0210     4.9960    25.2640     2.3510   -18.0110 
  152.1250   101.5990     4.6020     3.9620     4.9210    25.5060     2.3610   -18.0380 
  152.2500   100.9680     4.6040     3.9440     4.7580    25.7730     2.3710   -18.0670 
  152.3750   100.2200     4.6810     3.9790     4.5830    25.9550     2.3740   -18.0700 
  152.5000   100.7940     4.8000     4.0560     4.4480    25.9650     2.3660   -18.0930 
  152.6250   100.6760     4.9060     4.1380     4.6720    25.7810     2.3540   -18.1270 
  152.7500    98.3450     4.9600     4.1870     5.0210    25.5980     2.3480   -18.1640 
  152.8750    94.4830     4.9620     4.1920     4.9980    25.3680     2.3450   -18.2520 
  153.0000    92.0200     4.9430     4.1650     4.7230    25.0350     2.3390   -18.3270 
  153.1250    91.0290     4.9620     4.1550     4.6370    24.7620     2.3310   -18.3660 
  153.2500    90.0080     5.0410     4.1920     4.7460    24.5230     2.3300   -18.4500 
  153.3750    91.1200     5.1620     4.2690     5.0090    24.3020     2.3400   -18.5030 
  153.5000    95.3380     5.2740     4.3490     5.1930    24.1300     2.3550   -18.5000 
  153.6250    99.5400     5.3330     4.3820     5.2130    24.1030     2.3650   -18.5160 
  153.7500    99.7020     5.4390     4.3770     5.1540    24.1690     2.3680   -18.4890 
  153.8750    97.4580     5.7610     4.3770     5.0480    24.2620     2.3640   -18.4490 
  154.0000    96.1510     6.3810     4.4370     5.0280    24.3270     2.3540   -18.4420 
  154.1250    95.6710     7.1900     4.6220     5.3800    24.2900     2.3440   -18.4130 
  154.2500    94.5890     7.8210     4.9220     5.9990    24.1710     2.3400   -18.3730 
  154.3750    91.5100     8.0990     5.3250     6.5900    24.0350     2.3440   -18.3550 
  154.5000    86.2450     8.1660     5.8030     7.1570    23.9680     2.3510   -18.3340 
  154.6250    81.8060     8.3190     6.3150     7.3830    23.9600     2.3590   -18.3180 
  154.7500    81.1540     8.6640     6.8010     7.4950    23.9610     2.3640   -18.3200 
  154.8750    84.0120     9.1020     7.2190     7.9950    23.9970     2.3630   -18.2720 
  155.0000    87.4490     9.4960     7.5540     8.6100    24.1310     2.3540   -18.2210 
  155.1250    87.0710     9.7650     7.7770     8.8520    24.4620     2.3380   -18.1880 
  155.2500    83.6950     9.8190     7.8500     8.6760    24.7760     2.3250   -18.1090 
  155.3750    82.1990     9.5250     7.6910     8.6710    24.8840     2.3250   -18.0390 
  155.5000    85.5290     8.8180     7.2480     8.6230    24.5800     2.3390   -17.9970 
  155.6250    91.9980     7.8240     6.5850     8.0710    23.8450     2.3590   -17.9090 
  155.7500    97.2620     6.9510     5.9660     7.3600    23.2440     2.3700   -17.8330 
  155.8750    98.4160     6.5130     5.5950     6.5140    23.2160     2.3650   -17.7940 
  156.0000    94.2860     6.6640     5.5950     5.9070    23.8470     2.3440   -17.7250 
  156.1250    89.6230     7.4110     6.0410     6.4300    24.7320     2.3140   -17.6870 
  156.2500    89.0830     8.3550     6.7380     8.3430    25.4220     2.2840   -17.6800 
  156.3750    92.3490     9.0800     7.4270    10.7710    25.7870     2.2630   -17.6550 
  156.5000    97.9940     9.2090     7.7790    11.5460    25.9110     2.2540   -17.6540 
  156.6250   102.1220     8.5550     7.5220     9.6840    25.8820     2.2610   -17.6910 
  156.7500   102.1810     7.5660     6.9100     8.1990    25.9220     2.2750   -17.7280 
  156.8750    99.6460     6.6130     6.2270     8.0320    26.0740     2.2890   -17.7880 
  157.0000    97.4920     6.1350     5.6800     7.4360    26.2100     2.2950   -17.8700 
  157.1250    95.8720     5.8180     5.3870     6.1660    26.2460     2.2950   -17.9180 
  157.2500    92.8330     5.7200     5.2970     5.5230    26.2350     2.2970   -17.9990 
  157.3750    91.6170     5.7900     5.3610     5.3980    26.2200     2.3010   -18.0990 
  157.5000    93.4200     5.9550     5.5140     5.5010    26.2170     2.3050   -18.1590 
  157.6250    94.6090     6.1030     5.6510     5.6810    26.2120     2.3080   -18.2650 
  157.7500    94.6680     6.1160     5.6630     5.7580    26.1960     2.3100   -18.3460 
  157.8750    96.1690     5.9410     5.5000     5.5820    26.1750     2.3100   -18.4050 
  158.0000    97.8520     5.6110     5.1950     5.0090    26.1550     2.3070   -18.5210 
  158.1250    96.5600     5.2330     4.8460     4.2950    26.1600     2.3020   -18.6360 
  158.2500    92.3470     4.9310     4.5660     4.1190    26.1150     2.2990   -18.7420 
  158.3750    88.9450     4.7640     4.4110     4.3230    26.0320     2.3050   -18.9080 
  158.5000    92.1300     4.7460     4.3940     4.4680    26.0040     2.3180   -19.0970 
  158.6250   102.0340     4.8680     4.5080     4.5160    25.8820     2.3270   -19.2930 
  158.7500   109.0310     5.0530     4.6790     4.6750    25.6020     2.3240   -19.5650 
  158.8750   106.8460     5.2420     4.8540     4.9290    25.3260     2.3180   -19.8600 
  159.0000    98.8150     5.3780     4.9800     5.2190    25.1850     2.3140   -20.1490 
  159.1250    93.4810     5.3920     4.9930     5.4230    25.1340     2.3140   -20.4920 
  159.2500    89.8050     5.2990     4.9070     5.5740    25.1180     2.3150   -20.8130 
  159.3750    85.6620     5.1750     4.7920     5.7340    25.1280     2.3140   -21.1110 
  159.5000    83.0360     5.1810     4.7980     6.2660    25.1550     2.3110   -21.4460 
  159.6250    85.5050     5.6430     5.2250     7.6020    25.1450     2.3020   -21.7560 
  159.7500    88.7020     6.8390     6.3320    10.3670    25.2100     2.2890   -22.0760 
  159.8750    85.4210     9.2200     8.5370    15.9560    25.5540     2.2690   -22.4040 
  160.0000    75.3170    13.4190    12.4250    29.0450    26.2180     2.2410   -22.7110 
  160.1250    65.0640    26.3960    19.0310    50.6570    26.6780     2.2070   -23.0420 
  160.2500    59.5880    35.7730    27.5400    62.2930    26.8980     2.1800   -23.3720 
  160.3750    58.3070    42.9420    35.4490    57.0610    26.9560     2.1640   -23.6610 
  160.5000    59.3930    45.4340    39.6870    48.8450    26.9390     2.1570   -23.9340 
  160.6250    62.5950    43.8530    39.6170    43.3250    26.8670     2.1500   -24.1870 
  160.7500    66.2090    41.9970    38.4310    39.8450    26.6800     2.1350   -24.3660 
  160.8750    68.2730    41.4660    37.7600    37.8860    26.2520     2.1090   -24.5400 
  161.0000    68.5850    42.4590    38.1000    36.7310    25.5510     2.0810   -24.7060 
  161.1250    68.1960    44.4800    38.9010    37.4240    25.1720     2.0570   -24.7780 
  161.2500    68.4650    46.3020    38.6670    40.0600    25.0470     2.0330   -24.8570 
  161.3750    69.1860    46.9520    36.8050    42.2160    25.0230     2.0030   -24.9530 
  161.5000    69.0690    45.9250    33.9450    41.6950    24.9940     2.0010   -24.9950 
  161.6250    67.4820    43.4060    31.7650    37.1690    24.9640     2.0790   -25.0490 
  161.7500    66.8500    40.6710    31.1350    32.7750    24.9520     2.1830   -25.1270 
  161.8750    67.4570    38.6270    31.7950    29.9930    24.9490     2.2470   -25.1550 
  162.0000    65.8900    37.8020    33.0290    29.6790    24.9490     2.2680   -25.1800 
  162.1250    62.6170    38.5870    34.3280    31.8540    24.9490     2.2750   -25.2210 
  162.2500    63.6070    41.0350    35.8440    33.2460    24.9550     2.2770   -25.2430 
  162.3750    65.9570    45.3770    37.8260    36.7800    24.9720     2.2680   -25.2650 
