~V
VERS. 2.00: Ver 2.00
~W
STRT.M 52.0000:
STOP.M 254.0000:
STEP.M 0.1250:
NULL. -999.2500:
UWI. F10213:
~C
DEPT.M :
DEN.GM/CC :
GR.API :
RML.OHMM :
RI. :
RXO.OHMM :
CALI.CM :
SP.MV :
~A
# ...
   74.5000     2.1460    62.1740     9.0890     6.9160    14.3590    26.3590   -52.9110 
   74.6250     2.1330    60.9710     9.0370     6.8920    14.1180    27.1060   -53.3140 
   74.7500     2.1280    59.2160     8.9570     6.8470    13.7550    27.7420   -53.6380 
   74.8750     2.1280    60.8710     8.8920     6.8050    13.5270    28.2950   -53.8190 
   75.0000     2.1270    66.0720     8.8650     6.7900    13.6550    28.7650   -53.8820 
   75.1250     2.1190    68.3930     8.8920     6.8160    13.9810    29.1740   -53.8010 
   75.2500     2.1010    65.6110     8.9520     6.8710    14.7310    29.5320   -53.6070 
   75.3750     2.0840    60.6210     9.0200     6.9380    15.6280    29.7790   -53.3400 
   75.5000     2.0830    57.9060     9.0640     6.9930    15.9050    29.7210   -53.0090 
   75.6250     2.1130    58.1480     9.0470     7.0080    15.4720    29.4250   -52.6080 
   75.7500     2.1530    59.0690     8.9750     6.9870    15.0220    29.1720   -52.1480 
   75.8750     2.1770    59.6520     8.8700     6.9380    14.7670    29.3020   -51.6750 
   76.0000     2.1740    59.9420     8.7650     6.8820    14.4010    29.8090   -51.1900 
   76.1250     2.1570    60.1470     8.6910     6.8390    14.2560    30.3800   -50.7400 
   76.2500     2.1440    59.7170     8.6530     6.8210    14.3450    30.8040   -50.3080 
   76.3750     2.1390    59.1520     8.6520     6.8390    14.3040    31.0580   -49.9130 
   76.5000     2.1350    58.8700     8.6960     6.9020    14.0120    31.0160   -49.5420 
   76.6250     2.1300    58.0030     8.7990     7.0270    13.9670    30.6330   -49.1730 
   76.7500     2.1270    56.2980     8.9330     7.1950    14.2600    30.2040   -48.7670 
   76.8750     2.1240    56.8150     9.0760     7.3840    14.7610    30.1000   -48.2700 
   77.0000     2.1110    60.6030     9.2200     7.5760    15.1650    30.6170   -47.6440 
   77.1250     2.0790    63.3440     9.3970     7.7730    15.1190    31.2500   -46.7890 
   77.2500     2.0440    61.4110     9.6330     7.9810    14.8790    31.1830   -45.6820 
   77.3750     2.0260    58.2070     9.8900     8.1760    15.0430    30.4620   -44.2580 
   77.5000     2.0300    58.0200    10.0490     8.2770    15.5050    29.8750   -42.4930 
   77.6250     2.0470    60.7260     9.8840     8.1150    15.5950    29.7360   -40.3440 
   77.7500     2.0670    63.5910     9.3340     7.6510    15.1090    29.5170   -37.9520 
   77.8750     2.0980    67.5630     8.4540     6.9310    13.3290    28.9630   -35.4990 
   78.0000     2.1470    75.7060     7.4300     6.0960    10.2160    28.1150   -33.1360 
   78.1250     2.2140    85.6230     6.6370     5.3980     7.7310    27.4740   -31.0670 
   78.2500     2.2770    92.7350     6.4330     5.0460     7.0150    27.5180   -29.3790 
   78.3750     2.3150    95.5720     7.1700     5.2260     7.1930    27.8090   -28.1860 
   78.5000     2.3330    93.1010     9.1800     6.1600     8.2140    27.5480   -27.5760 
   78.6250     2.3740    84.5960    12.9730     8.3720    12.3680    26.5140   -27.7240 
   78.7500     2.4550    72.8120    18.1430    11.9720    23.1980    25.6330   -28.4940 
   78.8750     2.5570    62.6930    23.5440    16.5910    40.8360    25.1190   -29.7770 
   79.0000     2.6290    57.2850    26.6120    20.3680    55.4490    24.7580   -31.4820 
   79.1250     2.6210    57.8080    24.2850    20.0330    47.2050    24.3830   -33.5280 
   79.2500     2.5530    61.7910    19.1000    16.7650    31.8540    24.0760   -35.7420 
   79.3750     2.4470    65.5940    14.1230    12.9960    19.4540    24.0000   -38.0160 
   79.5000     2.3280    65.9640    10.7640    10.0710    14.3090    24.2880   -40.2590 
   79.6250     2.2400    64.2850     9.1830     8.3270    13.0870    24.9230   -42.4010 
   79.7500     2.1920    64.3330     8.6090     7.3640    12.9590    25.4850   -44.4240 
   79.8750     2.1750    65.9530     8.6410     6.9750    13.1260    25.7400   -46.2600 
   80.0000     2.1710    66.6380     8.9480     6.9650    13.4020    26.0020   -47.8580 
   80.1250     2.1680    65.7130     9.2540     7.1460    13.9470    26.4530   -49.1390 
   80.2500     2.1640    63.2280     9.4200     7.3200    14.2360    26.8950   -50.1740 
   80.3750     2.1590    58.4590     9.4380     7.4170    14.4270    27.0510   -51.0160 
   80.5000     2.1530    53.5230     9.3520     7.4290    14.8550    26.9440   -51.6840 
   80.6250     2.1480    53.4030     9.2180     7.3700    15.3290    26.8220   -52.1270 
   80.7500     2.1450    56.7390     9.0990     7.2870    15.3880    26.8640   -52.3920 
   80.8750     2.1440    58.9520     9.0270     7.2080    14.7860    26.9560   -52.5110 
   81.0000     2.1450    57.8620     9.0010     7.1410    14.2710    26.9390   -52.5150 
   81.1250     2.1490    56.5960     9.0060     7.0810    14.3830    26.7900   -52.4320 
   81.2500     2.1520    57.0870     9.0160     7.0220    14.5020    26.6630   -52.3010 
   81.3750     2.1550    59.6020     9.0250     6.9630    14.4890    26.5690   -52.1240 
   81.5000     2.1590    61.4160     9.0380     6.9090    14.1970    26.4680   -51.9410 
   81.6250     2.1670    59.3520     9.0720     6.8720    14.1450    26.3660   -51.7840 
   81.7500     2.1730    56.3810     9.1340     6.8570    14.4150    26.5140   -51.6140 
   81.8750     2.1740    55.5930     9.2160     6.8630    14.8120    26.8500   -51.4450 
   82.0000     2.1720    56.9030     9.2980     6.8770    14.7970    27.0780   -51.2760 
   82.1250     2.1710    57.2040     9.3400     6.8830    14.6960    27.0880   -51.1060 
   82.2500     2.1710    57.9450     9.3230     6.8660    14.8770    27.2680   -50.9280 
   82.3750     2.1690    60.1310     9.2520     6.8270    15.1750    27.7250   -50.7170 
   82.5000     2.1620    62.0410     9.1720     6.7850    15.1570    28.0630   -50.4030 
   82.6250     2.1540    61.3910     9.1670     6.7880    14.9690    27.8870   -49.9100 
   82.7500     2.1540    58.6780     9.2600     6.8550    15.0810    27.6040   -49.2800 
   82.8750     2.1620    56.3580     9.4340     6.9830    15.3480    27.4540   -48.5030 
   83.0000     2.1680    56.3690     9.6540     7.1600    15.6390    27.2590   -47.5580 
   83.1250     2.1640    59.3150     9.8890     7.3680    15.9050    27.0920   -46.3880 
   83.2500     2.1480    62.5760    10.1100     7.5820    15.9930    27.0660   -45.0070 
   83.3750     2.1280    65.6760    10.2780     7.7660    15.5570    27.1310   -43.3930 
   83.5000     2.1140    67.3470    10.3280     7.8590    14.7880    26.6940   -41.5400 
   83.6250     2.1180    65.8430    10.1380     7.7530    14.2030    25.7790   -39.4410 
   83.7500     2.1390    63.7880     9.7020     7.4380    13.3220    25.1010   -37.1830 
   83.8750     2.1730    66.8110     9.0600     6.9430    11.5040    24.7270   -34.8740 
   84.0000     2.2150    75.6530     8.3000     6.3390     9.4580    24.5080   -32.6540 
   84.1250     2.2680    82.7320     7.5680     5.7360     7.9390    24.5230   -30.7160 
   84.2500     2.3160    85.1160     7.0150     5.2420     7.4490    24.7820   -29.1320 
   84.3750     2.3400    86.4020     6.7490     4.9350     7.1950    25.0450   -28.0010 
   84.5000     2.3320    90.7610     6.8300     4.8600     6.7200    25.1600   -27.3990 
   84.6250     2.3020    92.6650     7.3060     5.0770     6.6380    25.1420   -27.4110 
   84.7500     2.2650    87.5780     8.0270     5.5210     7.6090    24.9840   -27.8690 
   84.8750     2.2280    79.2800     8.8450     6.1250     9.5480    24.6190   -28.6100 
   85.0000     2.2040    73.8920     9.5740     6.7770    10.9800    24.1660   -29.4430 
   85.1250     2.2010    74.1970     9.9960     7.3050    11.6250    23.9490   -30.1470 
   85.2500     2.2030    76.0320    10.0740     7.6010    11.9350    24.0680   -30.5940 
   85.3750     2.1910    78.7670     9.8380     7.6220    12.7030    24.4530   -30.7390 
   85.5000     2.1690    83.0650     9.3890     7.4020    13.1960    24.6450   -30.6150 
   85.6250     2.1630    87.3450     8.8590     7.0200    12.4340    24.3840   -30.2500 
