~V
VERS. 2.00: Ver 2.00
~W
STRT.M 63.0000:
STOP.M 280.0000:
STEP.M 0.1250:
NULL. -999.2500:
UWI. F10220:
~C
DEPT.M :
SP.MV :
DEN.GM/CC :
GR.API :
RML.OHMM :
RI. :
RXO.OHMM :
CALI.CM :
~A
# ...
   74.2500   -22.5090     2.2610    74.6260     8.4810     6.3390     8.2570    26.1450 
   74.3750   -23.4910     2.2100    74.0810     8.3140     6.2300     8.4520    26.5770 
   74.5000   -24.4000     2.1770    78.5280     8.2990     6.1740     7.8630    26.5340 
   74.6250   -25.2670     2.1680    83.1880     8.5120     6.2340     7.2060    25.9400 
   74.7500   -26.1250     2.1740    81.3660     8.9640     6.4480     7.3550    25.5360 
   74.8750   -26.9630     2.1750    74.9440     9.5060     6.7490     8.5350    25.4990 
   75.0000   -27.7450     2.1690    68.0600    10.0040     7.0630     9.7980    25.6570 
   75.1250   -28.4580     2.1570    62.6170    10.3450     7.3150    10.4600    25.7620 
   75.2500   -29.1190     2.1450    62.6820    10.4320     7.4180    10.6650    25.6140 
   75.3750   -29.7810     2.1410    66.7320    10.3330     7.3850    10.8100    25.3100 
   75.5000   -30.4340     2.1530    69.6610    10.1300     7.2530    10.9140    25.1670 
   75.6250   -31.0260     2.1750    69.0820     9.8970     7.0770    10.9550    25.2750 
   75.7500   -31.5310     2.1890    67.7160     9.6720     6.8970    10.8000    25.5200 
   75.8750   -31.9560     2.1910    68.1270     9.4760     6.7340    10.5880    25.7870 
   76.0000   -32.3220     2.1870    69.1470     9.3660     6.6180    10.6380    26.0880 
   76.1250   -32.6360     2.1860    68.8700     9.4480     6.6070    11.1460    26.4390 
   76.2500   -32.8780     2.1940    66.7960     9.8830     6.8060    11.4500    26.7040 
   76.3750   -33.0110     2.2060    64.2820    10.6290     7.2180    11.7630    26.8540 
   76.5000   -33.0290     2.2190    63.7470    11.5500     7.7980    12.6230    26.8950 
   76.6250   -32.9280     2.2360    63.7310    12.3730     8.4050    14.9260    26.6760 
   76.7500   -32.6650     2.2520    61.3530    12.6380     8.7580    19.0130    26.1830 
   76.8750   -32.2920     2.2540    60.4960    12.2330     8.7040    19.8950    25.9230 
   77.0000   -31.8140     2.2350    62.1650    11.3170     8.2700    15.2290    25.8990 
   77.1250   -31.2360     2.2080    63.8260    10.2470     7.6390    12.0430    25.9580 
   77.2500   -30.5270     2.1850    65.2490     9.4000     7.0450    11.3380    26.0410 
   77.3750   -29.7310     2.1610    68.3990     8.8890     6.6180    11.1880    26.2110 
   77.5000   -28.8060     2.1350    70.9020     8.7010     6.3940    10.9280    26.4240 
   77.6250   -27.7310     2.1160    68.5380     8.7850     6.3680    10.5640    26.4410 
   77.7500   -26.4920     2.1170    64.5440     9.1380     6.5630     9.9120    26.1420 
   77.8750   -25.1000     2.1300    63.3470     9.6650     6.9280     9.8410    25.9600 
   78.0000   -23.5570     2.1490    64.5660    10.2440     7.4020    10.3370    25.8960 
   78.1250   -21.8770     2.1840    67.6260    10.6730     7.8600    11.0450    25.7330 
   78.2500   -20.1120     2.2520    71.7050    10.6320     8.0670    10.8710    25.4340 
   78.3750   -18.3720     2.3270    75.8460    10.0800     7.9080     9.2630    25.1760 
   78.5000   -16.7560     2.3650    80.2350     9.1650     7.4080     7.3020    25.0630 
   78.6250   -15.3200     2.3500    84.6760     8.1720     6.7280     6.1110    25.0400 
   78.7500   -14.1310     2.3210    90.3640     7.3810     6.0690     5.8380    25.0560 
   78.8750   -13.1830     2.3130    98.7410     6.8320     5.5330     5.6890    25.0840 
   79.0000   -12.5100     2.3240   108.2380     6.4690     5.1320     5.4990    25.0940 
   79.1250   -12.1630     2.3410   113.4350     6.1950     4.8290     5.1930    25.0740 
   79.2500   -12.1830     2.3580   109.1280     5.9270     4.5780     4.9580    25.0840 
   79.3750   -12.4500     2.3710   103.9430     5.6740     4.3560     4.7930    25.1510 
   79.5000   -12.9590     2.3800   103.5730     5.5440     4.2070     4.7250    25.2410 
   79.6250   -13.7180     2.3830   105.6940     5.6700     4.2090     4.7600    25.2900 
   79.7500   -14.7560     2.3830   104.8580     6.2430     4.4810     4.9530    25.2690 
   79.8750   -16.0280     2.3840    99.9310     7.2570     5.0340     5.6890    25.2430 
   80.0000   -17.5150     2.3810    93.5630     8.6510     5.8620     7.5710    25.3530 
   80.1250   -19.1250     2.3600    86.0250    10.1890     6.8670    10.9260    25.6530 
   80.2500   -20.7880     2.3050    75.8420    11.3750     7.7940    12.5280    26.1090 
   80.3750   -22.4260     2.2400    66.8870    11.9000     8.3860    11.5460    26.5910 
   80.5000   -23.9690     2.1940    62.6070    11.7760     8.5590    10.6340    26.9040 
   80.6250   -25.3860     2.1730    61.8020    11.2860     8.4190    10.4250    27.0650 
   80.7500   -26.6430     2.1620    60.1060    10.8130     8.1690    10.2370    27.2060 
   80.8750   -27.7410     2.1500    59.1250    10.5540     7.9840    10.0580    27.3990 
   81.0000   -28.6610     2.1410    61.7400    10.4980     7.8980     9.9130    27.5130 
   81.1250   -29.4560     2.1450    65.4530    10.5680     7.8840     9.7940    27.4320 
   81.2500   -30.1650     2.1640    65.7560    10.6950     7.9100    10.0480    27.2560 
   81.3750   -30.8310     2.1840    62.7300    10.8140     7.9440    10.6000    27.1390 
   81.5000   -31.4430     2.1950    59.5130    10.8900     7.9660    11.3090    27.1170 
   81.6250   -31.9810     2.1960    59.3270    10.9150     7.9640    11.7720    27.1550 
   81.7500   -32.4230     2.1900    62.1990    10.9010     7.9340    11.8330    27.3810 
   81.8750   -32.7770     2.1780    63.6860    10.8810     7.8890    11.7560    27.8520 
   82.0000   -33.0570     2.1580    62.1190    10.8760     7.8380    11.7760    28.5330 
   82.1250   -33.2740     2.1320    59.4840    10.8990     7.7920    11.9270    29.1650 
   82.2500   -33.3940     2.1130    58.7160    10.9430     7.7570    11.9930    29.4010 
   82.3750   -33.4260     2.1110    58.8620    10.9760     7.7250    11.9450    29.1940 
   82.5000   -33.4070     2.1200    58.0640    10.9680     7.6830    11.8940    28.9340 
   82.6250   -33.3400     2.1230    55.0940    10.8940     7.6220    11.8590    28.8890 
   82.7500   -33.1930     2.1140    53.5460    10.7470     7.5340    11.6570    28.8190 
   82.8750   -32.9360     2.1090    57.0430    10.5860     7.4370    10.9100    28.3190 
   83.0000   -32.5510     2.1220    65.5790    10.5050     7.3720    10.1730    27.3900 
   83.1250   -32.0020     2.1500    72.4370    10.6200     7.4020    10.2410    26.4120 
   83.2500   -31.2550     2.1800    70.0490    11.1020     7.6420    11.2300    25.8520 
   83.3750   -30.3780     2.2120    63.9160    11.9010     8.1020    12.4330    25.5510 
   83.5000   -29.3670     2.2520    61.5430    12.8700     8.7300    13.6200    25.2850 
   83.6250   -28.2530     2.3010    66.2970    13.7280     9.3740    15.3570    25.0800 
   83.7500   -27.0910     2.3370    74.0170    14.0400     9.7550    16.5990    24.9870 
   83.8750   -25.9180     2.3360    77.6600    13.6990     9.7290    16.1790    24.9630 
   84.0000   -24.7170     2.2960    75.3440    12.8170     9.3020    13.3430    24.9620 
   84.1250   -23.4970     2.2440    69.1890    11.6700     8.6140    11.1090    24.9840 
   84.2500   -22.2460     2.2150    64.4830    10.5290     7.8370    10.3290    25.0500 
   84.3750   -20.9570     2.2100    66.3230     9.5290     7.1070     9.4540    25.1250 
   84.5000   -19.6830     2.2200    74.9020     8.7310     6.4890     7.8880    25.1350 
   84.6250   -18.4670     2.2410    84.6600     8.1870     6.0300     6.4710    25.0490 
   84.7500   -17.3280     2.2630    88.8000     7.9740     5.7910     5.8750    24.9420 
   84.8750   -16.3300     2.2730    87.9330     8.0120     5.7320     5.8450    24.8830 
   85.0000   -15.4960     2.2660    84.4900     8.2020     5.8090     6.2160    24.8240 
   85.1250   -14.8340     2.2490    80.7370     8.4080     5.9480     6.8220    24.7350 
   85.2500   -14.3830     2.2360    82.8480     8.5160     6.0650     7.1290    24.6550 
   85.3750   -14.1160     2.2310    88.9670     8.5600     6.1370     6.7950    24.5880 
