~V
VERS. 2.00: Ver 2.00
~W
STRT.M 60.0000:
STOP.M 271.0000:
STEP.M 0.1250:
NULL. -999.2500:
UWI. F10237:
~C
DEPT.M :
GR.API :
RML.OHMM :
RI. :
RXO.OHMM :
CALI.CM :
DEN.GM/CC :
SP.MV :
~A
# ...
  206.2500    81.9800    11.2690     9.1170    10.7980    23.5540     2.4010   -14.2950 
  206.3750    76.6080    11.6710     9.4420    11.2090    23.4770     2.4250   -14.1460 
  206.5000    73.3360    11.7420     9.5000    11.4030    23.3700     2.4490   -13.8770 
  206.6250    72.1650    11.3410     9.1760    10.5330    23.3110     2.4500   -13.4940 
  206.7500    73.0830    10.6560     8.6210     8.9730    23.4550     2.4340   -13.0930 
  206.8750    77.4960     9.8980     8.0080     7.9830    23.8480     2.4140   -12.6160 
  207.0000    84.7890     9.2640     7.4960     7.6970    24.3460     2.3990   -12.1070 
  207.1250    87.3200     8.9540     7.2440     7.9790    24.7850     2.3890   -11.6230 
  207.2500    84.7450     9.0040     7.2850     8.4540    24.9840     2.3800   -11.1030 
  207.3750    80.2090     9.4200     7.6210     8.9560    24.9960     2.3720   -10.6440 
  207.5000    76.0140    10.1480     8.2100     9.3850    24.8760     2.3760   -10.2540 
  207.6250    73.0970    11.1400     9.0130    10.7010    24.7140     2.4010    -9.8370 
  207.7500    72.4680    12.3150     9.9630    12.9140    24.5590     2.4370    -9.4330 
  207.8750    74.2350    13.6430    11.0380    14.7530    24.4500     2.4700    -9.0230 
  208.0000    76.5200    15.0040    12.1400    15.2770    24.3560     2.4940    -8.5300 
  208.1250    77.8360    15.9740    12.9240    15.8360    24.3200     2.5110    -8.0160 
  208.2500    81.2450    16.0940    13.0210    19.3420    24.3420     2.5230    -7.4430 
  208.3750    87.4570    15.0900    12.2090    21.7960    24.4570     2.5130    -6.7880 
  208.5000    91.0260    13.1530    10.6420    16.2270    24.6620     2.4640    -6.1280 
  208.6250    83.0040    10.5370     8.8150     9.1290    24.8130     2.3850    -5.4450 
  208.7500    69.2030     7.5880     7.2390     6.2370    24.8840     2.3270    -4.7710 
  208.8750    59.9760     6.3980     6.1010     5.2880    24.9110     2.3190    -4.1730 
  209.0000    58.4420     5.8190     5.4350     5.0220    24.9050     2.3500    -3.6250 
  209.1250    62.2860     5.7760     5.2560     4.9640    24.9240     2.3910    -3.1460 
  209.2500    66.9470     5.9950     5.3770     5.0800    24.9360     2.4160    -2.8270 
  209.3750    69.6430     6.3100     5.6720     5.2790    24.9600     2.4300    -2.5560 
  209.5000    69.7750     6.5950     6.0110     5.6550    24.9250     2.4380    -2.3400 
  209.6250    69.6270     6.7460     6.2630     5.8700    24.8990     2.4400    -2.2910 
  209.7500    69.9530     6.7540     6.3640     5.8120    24.9240     2.4360    -2.2420 
  209.8750    70.9740     6.6330     6.3040     5.6720    24.9410     2.4320    -2.2280 
  210.0000    72.6920     6.4180     6.1110     5.6700    24.8820     2.4310    -2.3090 
  210.1250    75.2440     6.1520     5.8270     5.5200    24.7680     2.4300    -2.3950 
  210.2500    76.5820     5.8910     5.5260     5.2650    24.7030     2.4220    -2.5040 
  210.3750    75.5010     5.6710     5.2510     5.0610    24.7160     2.4090    -2.6620 
  210.5000    74.7030     5.5080     5.0280     4.8990    24.7350     2.3950    -2.7910 
  210.6250    75.7130     5.4180     4.8790     4.7940    24.7280     2.3810    -2.9530 
  210.7500    76.1650     5.4010     4.7980     4.8130    24.7360     2.3650    -3.1880 
  210.8750    74.8400     5.4880     4.8030     5.0310    24.7580     2.3480    -3.4020 
  211.0000    72.4070     5.7220     4.9220     5.3600    24.7700     2.3400    -3.6390 
  211.1250    73.5750     6.1790     5.2210     5.4420    24.7730     2.3420    -3.8860 
  211.2500    75.7700     6.8400     5.7000     5.9210    24.7860     2.3470    -4.0910 
  211.3750    74.9120     7.6730     6.3450     7.1040    24.8180     2.3470    -4.3300 
  211.5000    71.2360     8.5960     7.1060     8.7080    24.8420     2.3440    -4.5790 
  211.6250    67.1080     9.4680     7.8870     9.6100    24.8500     2.3410    -4.6210 
  211.7500    66.2510    10.1800     8.5790    10.0660    24.8500     2.3380    -4.8240 
  211.8750    69.4950    10.6930     9.1270    10.6760    24.8490     2.3340    -5.0000 
  212.0000    74.7960    11.0430     9.5420    11.2610    24.8480     2.3330    -5.1480 
  212.1250    76.0040    11.3310     9.8880    11.3360    24.8460     2.3390    -5.2840 
  212.2500    71.2110    11.6620    10.2390    11.3130    24.8480     2.3510    -5.4250 
  212.3750    65.5130    12.0530    10.6050    11.8080    24.8490     2.3610    -5.5110 
  212.5000    64.7930    12.4590    10.9670    12.9800    24.8500     2.3670    -5.6020 
  212.6250    67.1730    12.7840    11.2720    13.8540    24.8500     2.3700    -5.7070 
  212.7500    68.3730    12.9650    11.4850    13.5870    24.8460     2.3740    -5.7380 
  212.8750    67.6580    12.9670    11.5770    12.4930    24.8300     2.3770    -5.8170 
  213.0000    69.8130    12.7810    11.5230    11.7750    24.7940     2.3740    -5.9190 
  213.1250    74.1750    12.3610    11.2600    11.8150    24.7760     2.3650    -5.9320 
  213.2500    75.7970    11.7240    10.7880    11.5330    24.7640     2.3600    -6.0000 
  213.3750    75.3640    10.8950    10.1120    11.0420    24.7460     2.3590    -6.0750 
  213.5000    75.7260     9.9660     9.2990     9.9210    24.7170     2.3600    -6.0530 
  213.6250    76.7160     9.1080     8.4910     8.5500    24.7010     2.3630    -6.0940 
  213.7500    75.4200     8.4710     7.8470     7.5360    24.6910     2.3680    -6.1610 
  213.8750    74.2180     8.1640     7.4810     7.1790    24.6930     2.3700    -6.2020 
  214.0000    77.1020     8.2680     7.4690     7.6950    24.7150     2.3670    -6.2790 
  214.1250    80.3120     8.9160     7.9360     8.6980    24.7550     2.3670    -6.3330 
  214.2500    78.9830    10.0440     8.8520     9.4340    24.7830     2.3770    -6.3640 
  214.3750    71.7180    11.5850    10.2120    10.6390    24.8010     2.3960    -6.4500 
  214.5000    64.0020    13.3560    11.9320    12.8680    24.8020     2.4120    -6.5590 
  214.6250    61.8160    14.9880    13.7680    15.6850    24.7830     2.4100    -6.6390 
  214.7500    63.6000    16.1250    15.3110    17.6760    24.7730     2.3870    -6.7450 
  214.8750    65.9530    16.5770    16.2500    18.0670    24.7810     2.3550    -6.8310 
  215.0000    67.1660    16.4030    16.4930    17.0350    24.8130     2.3270    -6.9220 
  215.1250    67.2260    15.8530    16.1570    15.2400    24.8770     2.3110    -7.1110 
  215.2500    66.6640    15.2560    15.6050    14.3500    24.9070     2.3030    -7.2270 
  215.3750    66.4060    14.6490    14.9340    13.4730    24.9150     2.3000    -7.3430 
  215.5000    65.6870    13.9070    14.0910    12.7890    24.9150     2.2950    -7.5140 
  215.6250    65.5050    12.8350    12.9440    12.8600    24.9100     2.2950    -7.6280 
  215.7500    69.3740    11.5530    11.6190    13.2220    24.8910     2.3060    -7.7870 
  215.8750    76.6870    10.3730    10.3760    12.2950    24.8460     2.3230    -7.9740 
  216.0000    82.1640     9.6930     9.5260     9.6010    24.7880     2.3370    -8.1060 
  216.1250    80.3700    10.0820     9.5010     6.9170    24.7690     2.3320    -8.2580 
  216.2500    74.8560    11.7250    10.4900     7.0110    24.7630     2.3100    -8.4980 
  216.3750    67.7360    14.8720    12.8080     9.9770    24.7440     2.2830    -8.7170 
  216.5000    60.1470    19.7180    16.8080    16.2300    24.6920     2.2660    -8.9630 
  216.6250    56.1390    26.4710    23.0240    22.0790    24.6400     2.2620    -9.2780 
  216.7500    57.8580    34.1580    30.6910    27.1170    24.6540     2.2660    -9.5470 
  216.8750    61.4990    41.4560    38.5170    32.6580    24.7350     2.2710    -9.8850 
  217.0000    62.5110    46.7380    44.7340    37.9940    24.8180     2.2750   -10.2690 
  217.1250    60.5660    48.2010    47.3210    43.8290    24.7700     2.2800   -10.5980 
  217.2500    58.5240    46.4620    46.5480    47.8820    24.6210     2.2820   -10.9490 
  217.3750    57.1880    42.7290    43.3180    44.2940    24.3800     2.2750   -11.2870 
