~V
VERS. 2.00: Ver 2.00
~W
STRT.M 56.0000:
STOP.M 281.0000:
STEP.M 0.1250:
NULL. -999.2500:
UWI. F10232:
~C
DEPT.M :
SP.MV :
GR.API :
RML.OHMM :
RI. :
RXO.OHMM :
CALI.CM :
DEN.GM/CC :
~A
# ...
  269.7500    -4.5800    55.4840    13.6170    12.7200    17.1420    23.4520     2.5130 
  269.8750    -4.5910    55.5370    13.6190    12.7320    16.6970    23.4300     2.5070 
  270.0000    -4.5990    55.5640    13.5940    12.7260    16.1390    23.4070     2.4990 
  270.1250    -4.5890    55.8200    13.5370    12.6980    15.8860    23.3980     2.4910 
  270.2500    -4.5880    56.7520    13.4450    12.6390    16.0270    23.4220     2.4840 
  270.3750    -4.6150    56.3630    13.3130    12.5340    16.3370    23.4850     2.4790 
  270.5000    -4.6500    53.9220    13.1470    12.3850    16.6520    23.5490     2.4790 
  270.6250    -4.6980    52.5250    12.9520    12.1950    16.8020    23.6050     2.4830 
  270.7500    -4.7290    54.8820    12.7380    11.9780    16.9390    23.6500     2.4910 
  270.8750    -4.7710    58.5590    12.5200    11.7510    16.9060    23.6910     2.4990 
  271.0000    -4.8060    59.6210    12.3180    11.5380    16.9970    23.7410     2.5070 
  271.1250    -4.8470    59.6210    12.1450    11.3510    16.6580    23.7890     2.5140 
  271.2500    -4.9020    59.6210    12.0080    11.1950    15.7910    23.8280     2.5180 
  271.3750    -4.9760    59.6210    11.9140    11.0780    15.1510    23.8470     2.5160 
  271.5000    -5.0640    59.6210    11.8590    10.9960    15.4230    23.8640     2.5090 
  271.6250    -5.1570    59.6210    11.8480    10.9550    16.0120    23.8970     2.4990 
  271.7500    -5.2560    59.6210    11.8890    10.9640    16.6940    23.9500     2.4910 
  271.8750    -5.3320    59.6210    12.0040    11.0530    17.1310    24.0280     2.4920 
  272.0000    -5.4130    59.6210    12.1880    11.2190    17.2690    24.0980     2.4990 
  272.1250    -5.4980    59.6210    12.4310    11.4560    17.2670    24.1330     2.5080 
  272.2500    -5.5610    59.6210    12.7060    11.7360    17.2300    24.1340     2.5160 
  272.3750    -5.5850    59.6210    12.9740    12.0160    17.3690    24.1090     2.5170 
  272.5000    -5.5830    59.6210    13.2000    12.2560    18.1170    24.0600     2.5110 
  272.6250    -5.5880    59.6210    13.3660    12.4350    18.9390    24.0020     2.4980 
  272.7500    -5.5790    59.6210    13.4700    12.5530    19.2540    23.9930     2.4790 
  272.8750    -5.5760    59.6210    13.5100    12.6060    18.9470    24.0290     2.4620 
  273.0000    -5.5550    59.6210    13.4950    12.6050    18.2860    24.0790     2.4540 
  273.1250    -5.5200    59.6210    13.4140    12.5430    17.8110    24.1160     2.4560 
  273.2500    -5.4830    59.6210    13.2600    12.4150    17.3190    24.1490     2.4660 
  273.3750    -5.4600    59.6210    13.0360    12.2210    16.6950    24.2010     2.4760 
  273.5000    -5.4450    59.6210    12.7890    12.0020    16.0190    24.2570     2.4820 
  273.6250    -5.4170    59.6210    12.5610    11.7910    15.3270    24.2830     2.4830 
  273.7500    -5.4120    59.6210    12.3830    11.6210    14.5960    24.2590     2.4830 
  273.8750    -5.4280    59.6210    12.2740    11.5170    13.8640    24.2220     2.4840 
  274.0000    -5.4550    59.6210    12.2120    11.4660    13.2630    24.1890     2.4860 
  274.1250    -5.4910    59.6210    12.1830    11.4570    12.8560    24.1750     2.4870 
  274.2500    -5.5340    59.6210    12.1790    11.4750    12.6540    24.1920     2.4830 
  274.3750    -5.5480    59.6210    12.1950    11.5070    12.7150    24.2330     2.4730 
  274.5000    -5.5510    59.6210    12.2200    11.5370    12.8030    24.2700     2.4620 
  274.6250    -5.5530    59.6210    12.2460    11.5610    12.5920    24.2740     2.4560 
  274.7500    -5.5210    59.6210    12.2640    11.5760    11.5570    24.2270     2.4570 
  274.8750    -5.4640    59.6210    12.2690    11.5820    10.4670    24.1310     2.4670 
  275.0000    -5.4130    59.6210    12.2650    11.5830     9.9490    24.0310     2.4810 
  275.1250    -5.3420    59.6210    12.2580    11.5840    10.3370    23.9520     2.4930 
  275.2500    -5.2570    59.6210    12.2500    11.5830    11.4560    23.9170     2.4990 
  275.3750    -5.2020    59.6210    12.2460    11.5820    13.0120    23.9410     2.4940 
  275.5000    -5.1420    59.6210    12.2440    11.5810    14.7440    24.0130     2.4820 
  275.6250    -5.0720    59.6210    12.2440    11.5790    16.8860    24.0830     2.4690 
  275.7500    -5.0390    59.6210    12.2430    11.5770    19.0380    24.1070     2.4600 
  275.8750    -5.0150    59.6210    12.2430    11.5750    21.1540    24.0410     2.4630 
  276.0000    -4.9800    59.6210    12.2440    11.5730    22.5980    23.9330     2.4740 
  276.1250    -4.9860    59.6210    12.2450    11.5710    23.3870    23.8490     2.4890 
  276.2500    -5.0310    59.6210    12.2450    11.5690    23.2430    23.8000     2.5030 
  276.3750    -5.0540    59.6210    12.2430    11.5670    22.6790    23.7840     2.5110 
  276.5000    -5.0770    59.6210    12.2400    11.5640    20.9760    23.7800     2.5110 
  276.6250    -5.1280    59.6210    12.2390    11.5610    18.2210    23.7940     2.5060 
  276.7500    -5.1590    59.6210    12.2400    11.5570    16.1850    23.8220     2.4950 
  276.8750    -5.1710    59.6210    12.2430    11.5540    15.8630    23.8500     2.4830 
  277.0000    -5.2140    59.6210    12.2440    11.5530    16.3640    23.8530     2.4700 
  277.1250    -5.2520    59.6210    12.2440    11.5530    16.9200    23.8340     2.4580 
  277.2500    -5.2550    59.6210    12.2440    11.5530    17.1470    23.8050     2.4530 
  277.3750    -5.3020    59.6210    12.2440    11.5530    17.1930    23.7500     2.4520 
  277.5000    -5.3790    59.6210    12.2440    11.5530    17.8320    23.6920     2.4520 
  277.6250    -5.4370    59.6210    12.2440    11.5530    18.6350    23.6600     2.4520 
  277.7500    -5.5240    59.6210    12.2440    11.5530    18.8390    23.6200     2.4540 
  277.8750    -5.6460    59.6210    12.2440    11.5530    18.2500    23.5060     2.4630 
  278.0000    -5.7560    59.6210    12.2440    11.5530    17.3310    23.3870     2.4820 
  278.1250    -5.8740    59.6210    12.2440    11.5530    16.1370    23.3290     2.5080 
  278.2500    -6.0070    59.6210    12.2440    11.5530    15.3650    23.3530     2.5310 
  278.3750    -6.1620    59.6210    12.2440    11.5530    14.9250    23.4450     2.5430 
  278.5000    -6.3600    59.6210    12.2440    11.5530    15.9220    23.5730     2.5400 
  278.6250    -6.6670    59.6210    12.2440    11.5530    17.8140    23.6970     2.5220 
  278.7500    -7.0050    59.6210    12.2440    11.5530    18.9900    23.7740     2.4990 
  278.8750    -7.3130    59.6210    12.2440    11.5530    19.0770    23.7330     2.4780 
  279.0000    -7.6240    59.6210    12.2440    11.5530    18.3780    23.4310     2.4610 
  279.1250    -7.9150    59.6210    12.2440    11.5530    16.5370    22.6640     2.4440 
  279.2500    -8.1980    59.6210    12.2440    11.5530    13.1110    21.3970     2.4210 
  279.3750    -8.4220    59.6210    12.2440    11.5530     8.8880    19.5720     2.3950 
  279.5000    -8.5350    59.6210    12.2440    11.5530     5.9300    17.7670     2.3700 
  279.6250    -8.5350    59.6210    12.2440    11.5530     4.8250    16.6230     2.3530 
  279.7500    -8.5350    59.6210    12.2440    11.5530     4.6000    16.2400     2.3440 
  279.8750  -999.2500    59.6210    12.2440    11.5530     4.6000    16.2350     2.3410 
  280.0000  -999.2500    59.6210    12.2440    11.5530     4.6010    16.2340     2.3400 
  280.1250  -999.2500    59.6210    12.2440    11.5530     4.6020    16.2330     2.3380 
  280.2500  -999.2500    59.6210    12.2440    11.5530     4.6020    16.2330     2.3360 
  280.3750  -999.2500    59.6210    12.2440    11.5530     4.6020    16.2330     2.3340 
  280.5000  -999.2500    59.6210    12.2440    11.5530     4.6010    16.2330     2.3330 
  280.6250  -999.2500    59.6210    12.2440    11.5530     4.6010    16.2330     2.3330 
  280.7500  -999.2500    59.6210    12.2440    11.5530     4.6010    16.2330     2.3330 
  280.8750  -999.2500    59.6210    12.2440    11.5530     4.6010    16.2330     2.3340 
