~V
VERS. 2.00: Ver 2.00
~W
STRT.M 50.0000:
STOP.M 278.0000:
STEP.M 0.1250:
NULL. -999.2500:
UWI. F10217:
~C
DEPT.M :
SP.MV :
DEN.GM/CC :
GR.API :
RML.OHMM :
RI. :
RXO.OHMM :
CALI.CM :
~A
# ...
   61.2500   -15.7410     2.0430    70.7430     1.5990     2.2630     6.6320    26.0160 
   61.3750   -22.4470     1.9380    69.9020     2.6820     3.4860     6.8440    25.4190 
   61.5000   -27.6370     1.9100    67.4990     3.5720     4.6710     7.8540    24.6090 
   61.6250   -31.0330     1.9600    65.9760     3.9420     5.5650     9.3290    24.0090 
   61.7500   -33.1480     2.0400    68.2370     4.2040     6.2300    10.2300    23.8330 
   61.8750   -34.4210     2.1170    73.2040     4.5050     6.7140    10.4830    23.9460 
   62.0000   -35.1620     2.1690    77.4530     4.8160     7.0060    10.4740    24.2030 
   62.1250   -35.4960     2.1890    79.4050     4.9600     7.0250    10.2850    24.5480 
   62.2500   -35.6110     2.1960    80.8060     4.8620     6.8180     9.6880    24.8500 
   62.3750   -35.5880     2.2000    83.9140     4.6460     6.4540     8.7100    25.0580 
   62.5000   -35.5350     2.2060    88.5820     4.4580     6.0340     7.3100    25.2370 
   62.6250   -35.4950     2.2160    93.2790     4.3550     5.6790     6.2120    25.3420 
   62.7500   -35.4920     2.2300    98.3660     4.2980     5.4510     5.7690    25.3720 
   62.8750   -35.5160     2.2430   104.5840     4.2450     5.3760     5.7330    25.3550 
   63.0000   -35.5770     2.2550   109.5410     4.2480     5.4500     5.8280    25.3400 
   63.1250   -35.6800     2.2630   106.8340     4.4440     5.6390     6.0140    25.2990 
   63.2500   -35.7600     2.2650   101.0150     4.8440     5.8330     6.0420    25.1680 
   63.3750   -35.8050     2.2630    99.2290     5.3270     5.9480     6.2650    24.9540 
   63.5000   -35.7850     2.2580   102.0840     5.6340     5.9220     6.7460    24.8210 
   63.6250   -35.7250     2.2540   105.0280     5.6070     5.7350     6.5540    24.9780 
   63.7500   -35.7090     2.2550   107.7080     5.4590     5.4850     5.7450    25.2370 
   63.8750   -35.7700     2.2570   110.6820     5.3490     5.2640     5.2000    25.4180 
   64.0000   -35.9070     2.2560   111.4810     5.3650     5.1440     5.1570    25.4760 
   64.1250   -36.1500     2.2480   106.0040     5.5580     5.1890     5.3250    25.4610 
   64.2500   -36.4780     2.2340    98.2940     5.8520     5.3600     5.5500    25.4170 
   64.3750   -36.8650     2.2180    93.5070     6.1480     5.6060     6.0890    25.3050 
   64.5000   -37.2680     2.2060    93.2760     6.3270     5.8520     7.1310    25.0630 
   64.6250   -37.6720     2.2040    95.4540     6.2730     5.9940     7.7890    24.7730 
   64.7500   -38.0310     2.2130    98.2620     6.0600     5.9930     7.0720    24.6590 
   64.8750   -38.3850     2.2280    99.7130     5.8110     5.8720     6.2680    24.6960 
   65.0000   -38.7450     2.2440    98.0930     5.6600     5.7190     6.0490    24.7690 
   65.1250   -39.0790     2.2540    94.3100     5.7250     5.6680     6.0850    24.8190 
   65.2500   -39.4010     2.2570    90.3300     5.9880     5.7800     6.0300    24.8150 
   65.3750   -39.7050     2.2540    87.4280     6.4090     6.0520     6.1330    24.7510 
   65.5000   -39.9960     2.2470    84.9240     6.8910     6.4200     6.9950    24.6740 
   65.6250   -40.2340     2.2360    83.5170     7.2620     6.7500     7.8730    24.7000 
   65.7500   -40.4230     2.2240    83.5590     7.4240     6.9240     7.7520    24.8350 
   65.8750   -40.5170     2.2120    84.0960     7.3720     6.8930     7.0750    25.0010 
   66.0000   -40.5150     2.2020    86.7530     7.1750     6.6890     6.7260    25.0980 
   66.1250   -40.4340     2.1970    90.8180     6.9050     6.3780     6.6810    25.1580 
   66.2500   -40.3290     2.1960    93.4520     6.6050     6.0400     6.7180    25.2680 
   66.3750   -40.2370     2.1960    94.8480     6.3010     5.6990     6.3360    25.3990 
   66.5000   -40.2100     2.1930    94.9650     6.0960     5.4120     6.2110    25.4450 
   66.6250   -40.2850     2.1810    94.5410     6.2520     5.3480     6.2620    25.4000 
   66.7500   -40.4450     2.1690    94.2550     6.9360     5.6600     6.1590    25.3450 
   66.8750   -40.7330     2.1760    94.0920     8.2860     6.4810     6.7090    25.2410 
   67.0000   -41.1500     2.2180    92.5280    10.3390     7.8690     9.5890    25.0400 
   67.1250   -41.6960     2.2970    84.1360    12.8010     9.6940    20.7660    24.8110 
   67.2500   -42.3030     2.3780    73.9570    14.5790    11.2650    32.4620    24.6010 
   67.3750   -42.9340     2.4190    67.5070    14.6870    11.8420    27.1280    24.3990 
   67.5000   -43.5480     2.3980    66.0140    13.2420    11.1990    15.3000    24.2420 
   67.6250   -44.1590     2.3250    65.2650    11.4510     9.8770    10.3430    24.1880 
   67.7500   -44.7200     2.2470    62.7820    10.2370     8.7200     8.7920    24.1430 
   67.8750   -45.2040     2.1900    62.9950     9.7000     8.0030     8.4160    24.0380 
   68.0000   -45.5810     2.1610    68.9550     9.6660     7.7180     8.3960    23.8990 
   68.1250   -45.8370     2.1590    77.9050     9.9000     7.7400     8.5000    23.8010 
   68.2500   -45.9930     2.1730    84.7510    10.1540     7.8450     8.5250    23.7430 
   68.3750   -46.0980     2.1940    88.6050    10.3240     7.9350     8.4820    23.6960 
   68.5000   -46.1490     2.2160    89.4530    10.3790     7.9610     8.4930    23.6650 
   68.6250   -46.1120     2.2290    86.2550    10.3210     7.9060     8.5580    23.6420 
   68.7500   -46.0570     2.2320    84.2460    10.2210     7.8030     8.6070    23.6180 
   68.8750   -45.9330     2.2260    84.7640    10.1420     7.6890     8.6800    23.5820 
   69.0000   -45.7640     2.2170    84.2780    10.1410     7.6070     8.7640    23.5640 
   69.1250   -45.5400     2.2080    80.3350    10.2680     7.6040     9.0300    23.6020 
   69.2500   -45.2970     2.1960    77.8280    10.4800     7.6690     9.3140    23.6900 
   69.3750   -45.0000     2.1810    78.5110    10.7150     7.7660     9.3600    23.8160 
   69.5000   -44.6470     2.1600    78.4360    10.8900     7.8490     9.1960    23.9150 
   69.6250   -44.2670     2.1360    75.1730    10.9110     7.8660     9.0140    23.9710 
   69.7500   -43.8350     2.1160    70.6770    10.7910     7.8170     8.8690    24.0060 
   69.8750   -43.3990     2.1060    67.3420    10.5840     7.7200     8.7880    24.0310 
   70.0000   -42.9500     2.1080    67.0480    10.3590     7.5990     8.6700    24.0440 
   70.1250   -42.5090     2.1210    68.1830    10.1700     7.4700     8.5460    24.0600 
   70.2500   -42.0900     2.1360    68.3070    10.0130     7.3370     8.4340    24.0950 
   70.3750   -41.7110     2.1480    67.4450     9.8690     7.1950     8.3590    24.1450 
   70.5000   -41.3820     2.1550    68.7420     9.7320     7.0500     8.2920    24.2220 
   70.6250   -41.0750     2.1590    72.7160     9.6190     6.9190     8.1940    24.3050 
   70.7500   -40.8050     2.1640    74.9680     9.5530     6.8250     8.0670    24.3550 
   70.8750   -40.5580     2.1680    75.0140     9.5390     6.7820     7.9950    24.3420 
   71.0000   -40.3260     2.1690    74.7830     9.5560     6.7820     8.0480    24.3140 
   71.1250   -40.1140     2.1590    76.7010     9.5680     6.7970     8.2490    24.3370 
   71.2500   -39.8920     2.1390    79.8070     9.5450     6.7900     8.2470    24.3740 
   71.3750   -39.6530     2.1130    81.4730     9.4850     6.7450     8.1690    24.4040 
   71.5000   -39.4470     2.0900    80.8810     9.4230     6.6760     8.1150    24.4180 
   71.6250   -39.2990     2.0790    79.5670     9.4740     6.6490     8.2050    24.4510 
   71.7500   -39.2120     2.0840    79.8250     9.7190     6.7260     8.2220    24.4780 
   71.8750   -39.1890     2.1070    79.8450    10.1770     6.9360     8.2940    24.4430 
   72.0000   -39.2520     2.1500    76.6850    10.7890     7.2740     8.4740    24.3750 
   72.1250   -39.3890     2.2110    70.7810    11.3870     7.6920     8.9020    24.3320 
   72.2500   -39.6150     2.2740    67.8710    11.7680     8.0660     9.3620    24.2750 
   72.3750   -39.9090     2.3180    69.0070    11.8260     8.2810     9.4150    24.1780 
