~V
VERS. 2.00: Ver 2.00
~W
STRT.M 50.0000:
STOP.M 258.0000:
STEP.M 0.1250:
NULL. -999.2500:
UWI. F10200:
~C
DEPT.M :
SP.MV :
GR.API :
RML.OHMM :
RI. :
RXO.OHMM :
CALI.CM :
DEN.GM/CC :
~A
# ...
  241.2500    -2.2250    56.7850     9.5510     8.0500     7.3740    23.3000     2.3190 
  241.3750    -2.1520    54.2620     9.3080     7.8710     6.3640    23.2440     2.3240 
  241.5000    -2.0880    53.2630     9.1190     7.7590     5.9680    23.2350     2.3340 
  241.6250    -2.0480    54.1990     9.0440     7.7400     6.1520    23.2860     2.3430 
  241.7500    -2.0070    54.6450     9.0800     7.7850     6.6150    23.3150     2.3480 
  241.8750    -1.9880    54.9930     9.1990     7.8640     7.1520    23.3070     2.3460 
  242.0000    -1.9930    56.1430     9.3530     7.9450     7.8130    23.2960     2.3350 
  242.1250    -1.9950    56.3600     9.4900     8.0060     8.2450    23.3710     2.3220 
  242.2500    -1.9780    55.9880     9.5960     8.0550     8.1690    23.5060     2.3150 
  242.3750    -1.9920    56.6880     9.6910     8.1160     8.0660    23.6120     2.3210 
  242.5000    -2.0100    56.8800     9.8190     8.2180     8.8450    23.6510     2.3400 
  242.6250    -1.9780    54.4350    10.0360     8.3940    11.0690    23.6720     2.3590 
  242.7500    -1.9360    53.5290    10.3370     8.6330    14.2530    23.7210     2.3670 
  242.8750    -1.8790    55.8150    10.6860     8.9080    17.1790    23.7750     2.3630 
  243.0000    -1.8000    58.7920    11.0190     9.1800    19.5680    23.8090     2.3560 
  243.1250    -1.7490    59.3420    11.2500     9.3860    20.4440    23.8040     2.3560 
  243.2500    -1.7200    57.2550    11.3650     9.5070    19.0670    23.7460     2.3650 
  243.3750    -1.6750    54.8030    11.3920     9.5450    16.4990    23.6800     2.3760 
  243.5000    -1.6340    53.7960    11.3820     9.5310    14.1220    23.6440     2.3850 
  243.6250    -1.6170    54.5640    11.3910     9.5040    13.3930    23.6230     2.3930 
  243.7500    -1.6270    54.8510    11.4380     9.5010    13.5000    23.5950     2.4050 
  243.8750    -1.6440    55.0070    11.5110     9.5330    13.2720    23.5840     2.4200 
  244.0000    -1.6550    57.1150    11.5840     9.5990    11.9620    23.5860     2.4310 
  244.1250    -1.6510    59.6130    11.6280     9.6860    10.9140    23.5920     2.4300 
  244.2500    -1.6270    60.4100    11.6430     9.7720    10.3900    23.6020     2.4190 
  244.3750    -1.6130    61.4600    11.6320     9.8350    10.0160    23.6320     2.4050 
  244.5000    -1.6110    63.7440    11.5860     9.8560     9.9060    23.6700     2.3960 
  244.6250    -1.6290    64.7120    11.4760     9.8150    10.3850    23.7800     2.3930 
  244.7500    -1.6110    62.8290    11.2980     9.7230    11.0220    23.9770     2.3900 
  244.8750    -1.6030    60.2130    11.0690     9.5910    11.1800    24.1670     2.3860 
  245.0000    -1.6040    59.0380    10.8310     9.4370    10.4000    24.1500     2.3810 
  245.1250    -1.6230    60.2950    10.6290     9.2730     9.5880    23.9190     2.3820 
  245.2500    -1.6330    61.7200    10.4600     9.1030     8.8850    23.7540     2.3900 
  245.3750    -1.6360    61.6790    10.2950     8.9230     7.9060    23.8050     2.4030 
  245.5000    -1.6380    59.7810    10.1070     8.7340     6.9570    23.9920     2.4180 
  245.6250    -1.6260    56.7350     9.8960     8.5580     6.7620    23.8830     2.4270 
  245.7500    -1.6370    54.3040     9.6970     8.4240     6.8840    23.6030     2.4260 
  245.8750    -1.6550    51.9230     9.5460     8.3590     7.1650    23.4770     2.4190 
  246.0000    -1.6640    50.0530     9.4660     8.3690     7.2740    23.5010     2.4140 
  246.1250    -1.6550    51.8490     9.4680     8.4490     7.4420    23.5300     2.4140 
  246.2500    -1.6870    57.0670     9.5170     8.5570     7.5530    23.5310     2.4100 
  246.3750    -1.7200    62.1080     9.5800     8.6660     7.5630    23.5880     2.3930 
  246.5000    -1.7520    62.0270     9.6380     8.7630     7.6660    23.7750     2.3650 
  246.6250    -1.7950    59.1940     9.6930     8.8420     8.0370    23.9860     2.3400 
  246.7500    -1.8380    59.5480     9.7680     8.9170     8.4270    23.9230     2.3330 
  246.8750    -1.8620    61.4520     9.8790     8.9990     9.0320    23.7240     2.3490 
  247.0000    -1.8840    61.0940    10.0290     9.0910     9.8420    23.6040     2.3810 
  247.1250    -1.9260    58.2820    10.1980     9.1900    10.3610    23.6380     2.4120 
  247.2500    -1.9510    57.4540    10.3500     9.2830    10.1660    23.7100     2.4340 
  247.3750    -1.9750    57.8260    10.4580     9.3610     9.9770    23.7540     2.4500 
  247.5000    -1.9990    57.8260    10.5230     9.4290    10.6150    23.7390     2.4660 
  247.6250    -2.0210    57.8260    10.5800     9.5120    11.4740    23.6770     2.4820 
  247.7500    -2.0530    57.8260    10.7070     9.6580    11.8730    23.6400     2.4880 
  247.8750    -2.1120    57.8260    10.9930     9.9260    12.8890    23.6260     2.4790 
  248.0000    -2.2090    57.8260    11.5040    10.3690    14.6120    23.6500     2.4590 
  248.1250    -2.3130    57.8260    12.2880    11.0470    16.3290    23.6790     2.4400 
  248.2500    -2.3970    57.8260    13.2210    11.8890    16.8780    23.6660     2.4340 
  248.3750    -2.4890    57.8260    14.1700    12.8030    15.7690    23.6210     2.4460 
  248.5000    -2.5860    57.8260    14.9860    13.6690    14.6840    23.5600     2.4710 
  248.6250    -2.6940    57.8260    15.5160    14.3370    15.1670    23.5440     2.4960 
  248.7500    -2.8010    57.8260    15.7920    14.7810    16.8000    23.5320     2.5120 
  248.8750    -2.9010    57.8260    15.8780    15.0190    18.4240    23.5220     2.5180 
  249.0000    -2.9790    57.8260    15.8480    15.0950    19.8870    23.5260     2.5160 
  249.1250    -3.0460    57.8260    15.7350    15.0180    19.7610    23.5910     2.5070 
  249.2500    -3.1210    57.8260    15.5460    14.8240    19.5100    23.6330     2.4940 
  249.3750    -3.1890    57.8260    15.2690    14.5280    18.6530    23.6650     2.4820 
  249.5000    -3.2500    57.8260    14.9290    14.1760    17.2820    23.6770     2.4740 
  249.6250    -3.3120    57.8260    14.6220    13.8700    16.1960    23.6930     2.4730 
  249.7500    -3.3640    57.8260    14.4590    13.7120    15.8280    23.7340     2.4780 
  249.8750    -3.4200    57.8260    14.5170    13.7740    16.3550    23.7530     2.4840 
  250.0000    -3.4620    57.8260    14.8200    14.0800    17.5750    23.7320     2.4890 
  250.1250    -3.4760    57.8260    15.3670    14.6380    20.5960    23.7170     2.4900 
  250.2500    -3.5160    57.8260    16.0380    15.3350    23.9900    23.7100     2.4860 
  250.3750    -3.5730    57.8260    16.7360    16.0820    26.0700    23.7030     2.4800 
  250.5000    -3.6560    57.8260    17.3640    16.7830    27.9940    23.6860     2.4750 
  250.6250    -3.7260    57.8260    17.8220    17.3250    29.2040    23.6690     2.4770 
  250.7500    -3.7920    57.8260    18.1100    17.6800    29.9640    23.6550     2.4850 
  250.8750    -3.8560    57.8260    18.2600    17.8490    29.4970    23.6480     2.4960 
  251.0000    -3.9310    57.8260    18.3280    17.8830    30.5160    23.6490     2.5060 
  251.1250    -4.0550    57.8260    18.3620    17.8560    32.0160    23.6450     2.5140 
  251.2500    -4.1500    57.8260    18.3930    17.8480    32.5560    23.6470     2.5190 
  251.3750    -4.2250    57.8260    18.4200    17.8770    29.4480    23.6620     2.5200 
  251.5000    -4.2890    57.8260    18.4380    17.9310    23.7750    23.6920     2.5170 
  251.6250    -4.3620    57.8260    18.4470    17.9800    19.1490    23.6960     2.5120 
  251.7500    -4.4380    57.8260    18.4530    18.0070    18.7780    23.6750     2.5080 
  251.8750    -4.4910    57.8260    18.4580    18.0140    21.6160    23.6460     2.5080 
  252.0000    -4.5470    57.8260    18.4570    18.0100    27.9360    23.6210     2.5100 
  252.1250    -4.5550    57.8260    18.4470    18.0040    31.5570    23.6050     2.5040 
  252.2500    -4.5880    57.8260    18.4340    18.0000    30.9810    23.5810     2.4910 
  252.3750    -4.6330    57.8260    18.4220    17.9980    28.0450    23.5580     2.4740 
