~V
VERS. 2.00: Ver 2.00
~W
STRT.M 48.0000:
STOP.M 276.0000:
STEP.M 0.1250:
NULL. -999.2500:
UWI. F10244:
~C
DEPT.M :
GR.API :
RML.OHMM :
RI. :
RXO.OHMM :
CALI.CM :
DEN.GM/CC :
SP.MV :
~A
# ...
   93.0000    92.5510     6.8740     5.7690     6.7990    24.9630     2.3240    -4.8510 
   93.1250    92.9600     6.8970     5.7740     6.6050    24.8840     2.3320    -4.6790 
   93.2500    92.4730     6.9660     5.8350     6.5750    24.6890     2.3370    -4.6010 
   93.3750    91.1440     7.0160     5.9000     6.8320    24.5770     2.3370    -4.6450 
   93.5000    92.7870     7.0210     5.9330     6.9260    24.7460     2.3320    -4.6980 
   93.6250    96.4570     7.0110     5.9460     6.8740    25.0120     2.3200    -4.7500 
   93.7500   100.7970     7.0570     5.9960     7.0380    25.1440     2.3050    -4.8430 
   93.8750   102.0730     7.2570     6.1690     7.2520    25.0930     2.2970    -5.0180 
   94.0000    98.6820     7.6120     6.4720     7.8100    24.9600     2.3020    -5.2620 
   94.1250    92.5480     8.0500     6.8520     9.1420    24.6040     2.3190    -5.5600 
   94.2500    86.7480     8.4240     7.1940    12.1480    24.0250     2.3420    -5.8820 
   94.3750    84.1010     8.5180     7.3120    11.3210    23.6460     2.3570    -6.2060 
   94.5000    84.4870     8.3230     7.1740     8.9730    23.7030     2.3560    -6.5260 
   94.6250    88.0770     7.9460     6.8550     7.4600    24.0770     2.3400    -6.8100 
   94.7500    91.8790     7.5680     6.4950     7.2430    24.5270     2.3100    -7.0500 
   94.8750    89.8240     7.3960     6.2650     7.3750    24.7370     2.2760    -7.2270 
   95.0000    84.7280     7.5070     6.2590     7.4350    24.5540     2.2460    -7.3920 
   95.1250    81.2640     7.9400     6.5280     7.5680    24.0120     2.2250    -7.5330 
   95.2500    79.3910     8.6930     7.0740     8.1170    23.4440     2.2160    -7.6870 
   95.3750    76.1890     9.7070     7.8540     8.7620    23.1410     2.2180    -7.8960 
   95.5000    73.6740    10.6990     8.6620     9.3300    23.0530     2.2240    -8.1300 
   95.6250    73.7160    11.3410     9.2620     9.7090    23.0720     2.2320    -8.4000 
   95.7500    72.9780    11.3730     9.4220     9.8600    23.0610     2.2380    -8.6290 
   95.8750    69.8170    10.7310     9.0050     9.8720    22.9870     2.2430    -8.8990 
   96.0000    69.9640     9.8760     8.3270     9.8270    22.9040     2.2480    -9.1170 
   96.1250    75.7100     9.2130     7.7230     9.5890    22.8870     2.2540    -9.3280 
   96.2500    81.0640     9.0570     7.5170     9.4940    22.9550     2.2660    -9.4750 
   96.3750    77.9550     9.8070     8.1210    10.7760    23.1980     2.2950    -9.6040 
   96.5000    71.2870    11.6170     9.6500    15.5940    23.6130     2.3400    -9.7250 
   96.6250    68.0580    14.5850    12.1800    26.7380    24.0710     2.3920    -9.8760 
   96.7500    69.2610    18.1120    15.4030    42.8590    24.4640     2.4260   -10.0790 
   96.8750    70.1190    20.3230    17.9410    59.5330    24.5380     2.4150   -10.3050 
   97.0000    66.6750    20.0930    18.3450    59.4130    24.2910     2.3650   -10.5470 
   97.1250    61.9310    17.8340    16.6430    37.9520    23.7160     2.2950   -10.7820 
   97.2500    59.9750    14.9690    14.0900    19.9440    23.1780     2.2310   -11.0300 
   97.3750    59.5880    12.8520    11.9280    12.7560    23.0300     2.1900   -11.2560 
   97.5000    58.1040    11.6190    10.4710    11.0700    23.0930     2.1640   -11.4450 
   97.6250    57.6160    11.0360     9.6430    13.4480    23.2240     2.1490   -11.5920 
   97.7500    61.0750    10.8210     9.2450    21.5320    23.3030     2.1410   -11.7150 
   97.8750    66.4300    10.7180     9.0620    21.7800    23.2480     2.1410   -11.8030 
   98.0000    67.9620    10.5520     8.8930    14.3710    23.0720     2.1440   -11.8320 
   98.1250    65.2720    10.3170     8.7030    10.3050    22.8860     2.1480   -11.8420 
   98.2500    61.8440    10.0760     8.5220     9.4900    22.7830     2.1480   -11.8200 
   98.3750    62.8870     9.9150     8.4120     9.7450    22.7340     2.1460   -11.8160 
   98.5000    66.6280     9.8450     8.3820     9.9790    22.6670     2.1460   -11.8400 
   98.6250    69.8270     9.8400     8.4110    10.0740    22.5910     2.1510   -11.9060 
   98.7500    71.4450     9.8580     8.4550     9.9450    22.5320     2.1620   -11.9570 
   98.8750    72.8330     9.8630     8.4720     9.6630    22.5100     2.1750   -11.9790 
   99.0000    72.1530     9.8440     8.4560     9.5340    22.4890     2.1870   -12.0290 
   99.1250    68.9880     9.8120     8.4160     9.4720    22.4500     2.1930   -12.0550 
   99.2500    66.4000     9.7810     8.3690     9.3690    22.4060     2.1920   -12.0770 
   99.3750    65.7750     9.7710     8.3360     9.3710    22.3940     2.1900   -12.0510 
   99.5000    64.7170     9.7830     8.3290     9.4050    22.4010     2.1900   -12.0250 
   99.6250    63.7410     9.8150     8.3460     9.4840    22.4060     2.1940   -11.9570 
   99.7500    64.4430     9.8610     8.3850     9.4990    22.3920     2.1980   -11.8760 
   99.8750    66.4540     9.9220     8.4440     9.4800    22.4170     2.1960   -11.8010 
  100.0000    65.9170     9.9880     8.5100     9.4950    22.4490     2.1900   -11.7110 
  100.1250    64.2660    10.0440     8.5710     9.4310    22.4450     2.1830   -11.6080 
  100.2500    63.5830    10.0690     8.6100     9.1900    22.4090     2.1810   -11.4890 
  100.3750    63.5250    10.0320     8.6010     8.8360    22.3750     2.1840   -11.3700 
  100.5000    63.5950     9.9410     8.5420     8.5590    22.3350     2.1870   -11.2310 
  100.6250    63.4470     9.8150     8.4420     8.4220    22.2740     2.1860   -11.1110 
  100.7500    64.4430     9.6820     8.3210     8.3140    22.2100     2.1800   -11.0220 
  100.8750    66.8650     9.5570     8.1990     8.2710    22.1880     2.1690   -11.0100 
  101.0000    68.0840     9.4270     8.0770     8.4140    22.1950     2.1580   -10.9900 
  101.1250    67.3640     9.2620     7.9350     8.6300    22.2220     2.1490   -10.9820 
  101.2500    66.0900     9.0460     7.7570     8.7020    22.2490     2.1460   -10.9820 
  101.3750    68.3140     8.7980     7.5520     7.9580    22.2990     2.1510   -10.9960 
  101.5000    71.1940     8.5820     7.3730     7.4240    22.4030     2.1630   -11.0100 
  101.6250    71.5610     8.4560     7.2690     7.1450    22.5400     2.1760   -11.0180 
  101.7500    70.8650     8.4500     7.2690     7.3530    22.6370     2.1860   -11.0220 
  101.8750    69.5630     8.5750     7.3850     7.9410    22.6280     2.1890   -10.9560 
  102.0000    65.9240     8.7670     7.5640     8.4280    22.5920     2.1870   -10.9540 
  102.1250    60.7310     8.9700     7.7640     8.5350    22.6230     2.1840   -10.9580 
  102.2500    58.1800     9.1310     7.9380     8.3010    22.6600     2.1800   -11.0140 
  102.3750    61.4480     9.1960     8.0300     8.1450    22.5900     2.1770   -11.0600 
  102.5000    65.9960     9.1670     8.0280     8.2590    22.4340     2.1790   -11.1430 
  102.6250    68.2280     9.0600     7.9390     8.4380    22.3160     2.1860   -11.2190 
  102.7500    68.9630     8.9100     7.7950     8.7200    22.3170     2.1950   -11.3280 
  102.8750    70.6200     8.7770     7.6470     8.6940    22.4530     2.2020   -11.4310 
  103.0000    71.3300     8.7120     7.5500     8.5500    22.5830     2.2060   -11.5010 
  103.1250    69.8010     8.7480     7.5390     8.7720    22.5950     2.2100   -11.5780 
  103.2500    68.0540     8.8970     7.6350     9.1240    22.5060     2.2160   -11.6670 
  103.3750    67.8800     9.1690     7.8520     9.3230    22.4200     2.2200   -11.7630 
  103.5000    67.0400     9.5310     8.1600     9.3760    22.3950     2.2210   -11.8280 
  103.6250    65.6050     9.9660     8.5440     9.5660    22.4300     2.2170   -11.8560 
  103.7500    66.3720    10.4520     8.9790     9.9240    22.5300     2.2130   -11.8120 
  103.8750    67.6580    10.9290     9.4160    10.7320    22.6250     2.2130   -11.7230 
  104.0000    67.7790    11.2970     9.7680    12.3450    22.7100     2.2160   -11.6340 
  104.1250    67.8770    11.4550     9.9480    14.2060    22.7350     2.2220   -11.5280 
