~V
VERS. 2.00: Ver 2.00
~W
STRT.M 56.0000:
STOP.M 275.0000:
STEP.M 0.1250:
NULL. -999.2500:
UWI. F10253:
~C
DEPT.M :
GR.API :
RML.OHMM :
RI. :
RXO.OHMM :
CALI.CM :
DEN.GM/CC :
SP.MV :
~A
# ...
  101.0000    62.3970     8.9690     7.2230     8.1120    23.2690     2.1910   -12.7900 
  101.1250    61.5380     9.2600     7.5480     8.6900    23.1880     2.1920   -13.2000 
  101.2500    56.9870     9.3730     7.7350     9.1830    23.1110     2.1990   -13.5700 
  101.3750    52.0810     9.3410     7.7790     9.5360    23.1950     2.2060   -13.8350 
  101.5000    51.8700     9.2900     7.7680     9.7960    23.3260     2.2100   -13.9830 
  101.6250    55.5480     9.3070     7.7710     9.8090    23.3460     2.2090   -14.0590 
  101.7500    58.3410     9.4290     7.8320     9.6480    23.2480     2.2060   -14.0920 
  101.8750    58.2140     9.6340     7.9580     9.3060    23.0530     2.2010   -14.1180 
  102.0000    57.3960     9.8310     8.0960     9.3880    22.8610     2.1980   -14.1880 
  102.1250    55.1230     9.9620     8.2010     9.4510    22.7830     2.1950   -14.3030 
  102.2500    51.8470    10.0000     8.2440     9.4490    22.8280     2.1930   -14.4850 
  102.3750    48.5220     9.9480     8.2160     9.3440    22.9520     2.1920   -14.7420 
  102.5000    47.4320     9.8680     8.1580     9.1670    23.0400     2.1890   -15.0420 
  102.6250    50.2620     9.8050     8.1060     9.0330    23.0550     2.1860   -15.3420 
  102.7500    55.5790     9.7920     8.0900     9.0010    23.0220     2.1810   -15.6110 
  102.8750    57.9410     9.8470     8.1350     9.0380    22.9440     2.1760   -15.8240 
  103.0000    56.0070     9.9470     8.2230     9.0410    22.8190     2.1710   -15.9640 
  103.1250    54.3750    10.0540     8.3270     9.0010    22.6740     2.1710   -16.0120 
  103.2500    54.3430    10.1080     8.3980     8.9940    22.5820     2.1770   -15.9680 
  103.3750    53.8620    10.0250     8.3660     8.9670    22.5680     2.1880   -15.8350 
  103.5000    53.6130     9.7980     8.2170     8.8700    22.5820     2.2010   -15.6800 
  103.6250    54.6980     9.4580     7.9650     8.6240    22.5840     2.2110   -15.5570 
  103.7500    56.0990     9.0720     7.6600     8.2290    22.6020     2.2150   -15.4710 
  103.8750    55.6890     8.7420     7.3800     7.8870    22.6730     2.2110   -15.4380 
  104.0000    54.7520     8.5260     7.1810     7.7140    22.8330     2.2020   -15.4480 
  104.1250    54.0580     8.4430     7.0850     7.7160    23.0060     2.1890   -15.4810 
  104.2500    52.9810     8.4680     7.0820     7.8040    23.1020     2.1780   -15.5160 
  104.3750    52.2900     8.5560     7.1470     7.8930    23.1020     2.1710   -15.5740 
  104.5000    52.1210     8.6460     7.2300     7.9620    23.0030     2.1700   -15.6060 
  104.6250    51.6840     8.7100     7.3010     8.0310    22.8300     2.1750   -15.5800 
  104.7500    50.1530     8.7400     7.3470     8.1020    22.6290     2.1860   -15.5010 
  104.8750    49.8980     8.7290     7.3520     8.1070    22.4670     2.1990   -15.3480 
  105.0000    51.6130     8.6670     7.3080     8.0510    22.3430     2.2120   -15.1360 
  105.1250    52.9870     8.5290     7.1990     8.0290    22.3200     2.2210   -14.9300 
  105.2500    52.5170     8.2910     7.0080     7.9920    22.3900     2.2250   -14.7350 
  105.3750    51.5360     7.9640     6.7340     7.7620    22.5460     2.2270   -14.5080 
  105.5000    53.6920     7.6430     6.4490     7.4220    22.7770     2.2310   -14.2880 
  105.6250    58.2390     7.4350     6.2310     7.0290    23.0760     2.2370   -14.0900 
  105.7500    62.3870     7.4260     6.1520     6.6810    23.3660     2.2430   -13.9080 
  105.8750    62.8680     7.6810     6.2820     6.8190    23.4060     2.2410   -13.7700 
  106.0000    60.0800     8.1040     6.5720     7.3920    23.1980     2.2300   -13.6900 
  106.1250    56.4350     8.6020     6.9700     8.1910    22.9350     2.2080   -13.6100 
  106.2500    54.5570     9.0960     7.4150     8.8020    22.8040     2.1850   -13.5140 
  106.3750    54.4480     9.5550     7.8700     9.1440    22.8460     2.1760   -13.4220 
  106.5000    54.1730    10.0190     8.3350     9.4640    22.8690     2.1910   -13.3330 
  106.6250    53.6960    10.5260     8.8250    10.2090    22.8270     2.2310   -13.2200 
  106.7500    54.6110    11.0630     9.3310    11.6250    22.7390     2.2850   -13.1020 
  106.8750    55.4980    11.5100     9.7730    13.2430    22.6680     2.3250   -12.9550 
  107.0000    54.3120    11.7280    10.0390    14.1780    22.6250     2.3350   -12.7710 
  107.1250    52.9800    11.6200    10.0370    13.2570    22.5710     2.3150   -12.5730 
  107.2500    52.4950    11.1800     9.7340    11.1810    22.4960     2.2820   -12.3910 
  107.3750    52.3800    10.4660     9.1500     9.8740    22.4550     2.2540   -12.2480 
  107.5000    52.8250     9.6610     8.4450     9.0170    22.4290     2.2390   -12.1020 
  107.6250    54.4360     8.8720     7.7250     8.4680    22.4060     2.2360   -11.9570 
  107.7500    57.1900     8.1800     7.0730     7.9930    22.3810     2.2430   -11.8140 
  107.8750    60.2920     7.6870     6.5850     7.4980    22.4220     2.2540   -11.7000 
  108.0000    63.2890     7.4300     6.2940     7.0280    22.5280     2.2610   -11.6260 
  108.1250    65.0560     7.4450     6.2330     6.7390    22.6730     2.2590   -11.6120 
  108.2500    64.5070     7.7260     6.4040     6.8490    22.7900     2.2480   -11.6460 
  108.3750    61.4040     8.2270     6.7960     7.1320    22.7460     2.2300   -11.6910 
  108.5000    56.9730     8.7880     7.2900     7.3830    22.5860     2.2140   -11.7570 
  108.6250    52.7620     9.2770     7.7810     7.3390    22.3490     2.2040   -11.8650 
  108.7500    51.3930     9.5880     8.1630     7.2530    22.1270     2.2030   -12.0030 
  108.8750    54.1320     9.6290     8.3300     7.3860    22.0090     2.2080   -12.1460 
  109.0000    57.4910     9.4710     8.3030     7.6360    22.0580     2.2130   -12.2880 
  109.1250    58.5000     9.1880     8.1260     7.8420    22.1050     2.2160   -12.4130 
  109.2500    57.7220     8.8420     7.8510     7.9530    22.1200     2.2160   -12.5070 
  109.3750    56.8330     8.4540     7.5020     8.0230    22.1430     2.2160   -12.5730 
  109.5000    57.7340     8.0250     7.1030     7.9030    22.1560     2.2160   -12.6000 
  109.6250    61.0650     7.5690     6.6730     7.5750    22.1960     2.2160   -12.5850 
  109.7500    65.2660     7.1480     6.2620     7.1570    22.3140     2.2150   -12.5340 
  109.8750    66.7950     6.9020     5.9820     6.7730    22.5600     2.2120   -12.4670 
  110.0000    64.5510     6.9120     5.8970     6.4830    22.8300     2.2100   -12.4070 
  110.1250    60.9900     7.2040     6.0400     6.5770    22.9670     2.2070   -12.3790 
  110.2500    58.0930     7.7300     6.3910     7.2760    22.8380     2.2030   -12.3600 
  110.3750    55.4730     8.3570     6.8780     8.1980    22.5420     2.1970   -12.3740 
  110.5000    54.2840     8.9000     7.3550     8.7230    22.3460     2.1910   -12.4530 
  110.6250    55.2790     9.2580     7.7310     8.8900    22.3540     2.1880   -12.5860 
  110.7500    56.1480     9.4310     7.9710     8.9710    22.5280     2.1900   -12.7780 
  110.8750    52.9100     9.5530     8.1380     9.1820    22.7260     2.1950   -13.0230 
  111.0000    48.4080     9.8470     8.3970     9.9850    22.8830     2.2000   -13.2770 
  111.1250    47.5020    10.4620     8.8750    12.2600    22.9880     2.2030   -13.4940 
  111.2500    50.8500    11.4230     9.6270    16.8310    23.0530     2.2040   -13.6840 
  111.3750    52.0280    12.5940    10.6010    23.9640    23.1240     2.2090   -13.8620 
  111.5000    49.2880    13.6140    11.5320    31.6300    23.2800     2.2190   -14.0240 
  111.6250    48.0100    14.1580    12.1460    36.5650    23.5350     2.2290   -14.1500 
  111.7500    52.0100    14.0150    12.2190    35.8320    23.8050     2.2310   -14.2360 
  111.8750    56.6740    13.1390    11.6280    29.5860    23.8180     2.2170   -14.2910 
  112.0000    57.8250    11.9590    10.6950    22.3040    23.6220     2.1950   -14.3290 
  112.1250    58.1590    10.8160     9.7010    15.8010    23.3550     2.1760   -14.3640 
