~V
VERS. 2.00: Ver 2.00
~W
STRT.M 53.0000:
STOP.M 269.0000:
STEP.M 0.1250:
NULL. -999.2500:
UWI. F10224:
~C
DEPT.M :
DEN.GM/CC :
GR.API :
RML.OHMM :
RI. :
RXO.OHMM :
CALI.CM :
SP.MV :
~A
# ...
  142.8750     2.3640    97.3370     4.8270     4.3910     5.1550    24.2910   -12.8390 
  143.0000     2.3440    99.8940     4.8490     4.2980     5.0100    24.3330   -12.8140 
  143.1250     2.3270   101.5630     4.9450     4.2820     4.9950    24.3180   -12.8020 
  143.2500     2.3120   102.4740     5.0410     4.3040     5.0310    24.2760   -12.8090 
  143.3750     2.2880   102.0560     5.0940     4.3350     5.0380    24.2480   -12.8630 
  143.5000     2.2530    99.2300     5.0910     4.3490     5.0340    24.2330   -12.9040 
  143.6250     2.2250    96.1630     5.0390     4.3280     5.0640    24.1340   -12.9130 
  143.7500     2.2160    99.8690     4.9810     4.2890     5.0770    23.9680   -12.9080 
  143.8750     2.2230   107.1860     4.9630     4.2560     5.0240    23.9330   -12.8960 
  144.0000     2.2250   106.9420     5.0220     4.2580     4.9350    24.2900   -12.8850 
  144.1250     2.2130    99.5090     5.1760     4.3160     4.8870    24.6260   -12.9070 
  144.2500     2.2100    97.3360     5.3690     4.4100     4.9900    24.7350   -12.9890 
  144.3750     2.2320    99.0050     5.5430     4.5090     5.2730    24.5910   -13.0990 
  144.5000     2.2630    97.6150     5.6540     4.5770     5.6100    24.5350   -13.2410 
  144.6250     2.2650    94.4920     5.6800     4.5790     5.7040    24.6140   -13.4120 
  144.7500     2.2360    95.8380     5.6660     4.5310     5.4800    24.6260   -13.5740 
  144.8750     2.1940    98.1660     5.6480     4.4630     5.1770    24.7390   -13.7090 
  145.0000     2.1610    96.5610     5.6460     4.4060     5.0680    24.8580   -13.8250 
  145.1250     2.1520    93.8090     5.6510     4.3900     5.1780    24.9740   -13.9070 
  145.2500     2.1580    93.3570     5.6520     4.4080     5.2960    24.9110   -13.9480 
  145.3750     2.1710    96.1410     5.6470     4.4420     5.3200    24.6720   -13.9960 
  145.5000     2.1870    99.7060     5.6410     4.4690     5.2670    24.4620   -14.0620 
  145.6250     2.2110   101.1190     5.6420     4.4720     5.1890    24.3610   -14.1420 
  145.7500     2.2340   100.3880     5.6510     4.4580     5.1870    24.3200   -14.2220 
  145.8750     2.2530    98.1160     5.6620     4.4440     5.2750    24.2560   -14.2950 
  146.0000     2.2690    93.7680     5.6720     4.4460     5.3530    24.1760   -14.3540 
  146.1250     2.2920    90.7920     5.6880     4.4740     5.3860    24.1470   -14.4110 
  146.2500     2.3150    91.9730     5.7040     4.5140     5.4470    24.1580   -14.4630 
  146.3750     2.3290    93.4950     5.7050     4.5440     5.5440    24.1620   -14.5020 
  146.5000     2.3340    92.6820     5.6750     4.5480     5.5820    24.1720   -14.5450 
  146.6250     2.3310    91.1890     5.6070     4.5210     5.4200    24.2400   -14.6040 
  146.7500     2.3250    91.2800     5.5360     4.4850     5.2120    24.2720   -14.6770 
  146.8750     2.3200    91.1050     5.4950     4.4590     5.1470    24.2480   -14.7640 
  147.0000     2.3180    90.7200     5.4970     4.4530     5.2520    24.1550   -14.8640 
  147.1250     2.3220    90.7480     5.5260     4.4650     5.3610    24.0850   -14.9530 
  147.2500     2.3290    88.9050     5.5440     4.4770     5.3690    24.0460   -15.0240 
  147.3750     2.3320    88.2680     5.5330     4.4750     5.3170    24.0640   -15.0670 
  147.5000     2.3210    90.4740     5.4870     4.4490     5.2450    24.1460   -15.0920 
  147.6250     2.2950    90.4080     5.4040     4.3970     5.1780    24.3750   -15.1080 
  147.7500     2.2780    88.5910     5.2980     4.3280     5.0650    24.6410   -15.1510 
  147.8750     2.2750    88.6890     5.1740     4.2480     4.8770    24.7750   -15.2080 
  148.0000     2.2710    91.6930     5.0380     4.1620     4.6920    24.6500   -15.2650 
  148.1250     2.2450    93.8880     4.8990     4.0710     4.6450    24.5750   -15.3350 
  148.2500     2.2060    96.5890     4.7720     3.9800     4.6470    24.5110   -15.4150 
  148.3750     2.1690    98.2320     4.6720     3.8950     4.5760    24.5100   -15.4880 
  148.5000     2.1450    95.1810     4.6050     3.8220     4.4580    24.4910   -15.5380 
  148.6250     2.1480    91.7990     4.5650     3.7670     4.3940    24.3650   -15.5810 
  148.7500     2.1770    92.7660     4.5280     3.7240     4.3640    24.3750   -15.6110 
  148.8750     2.2180    94.7210     4.4770     3.6860     4.3260    24.5520   -15.6540 
  149.0000     2.2420    93.7840     4.4120     3.6470     4.2710    24.6740   -15.7290 
  149.1250     2.2390    91.7120     4.3530     3.6100     4.2070    24.5850   -15.8230 
  149.2500     2.2390    92.1070     4.3220     3.5870     4.1360    24.2240   -15.9250 
  149.3750     2.2550    94.4950     4.3320     3.5890     4.0990    24.0430   -16.0350 
  149.5000     2.2720    97.0010     4.3860     3.6220     4.1670    24.0260   -16.1580 
  149.6250     2.2730    95.7840     4.4780     3.6860     4.3090    24.1030   -16.2660 
  149.7500     2.2780    91.9680     4.5720     3.7590     4.4010    24.4270   -16.3320 
  149.8750     2.3030    90.7070     4.6440     3.8280     4.4150    24.5640   -16.3570 
  150.0000     2.3430    93.8090     4.6830     3.8800     4.4240    24.3520   -16.3590 
  150.1250     2.3720    93.6640     4.7010     3.9110     4.4930    24.0470   -16.3560 
  150.2500     2.3850    88.6690     4.7270     3.9270     4.5500    23.8780   -16.3530 
  150.3750     2.3900    87.5500     4.7640     3.9290     4.5610    23.8530   -16.3850 
  150.5000     2.3950    93.4970     4.7910     3.9150     4.5620    23.8660   -16.4490 
  150.6250     2.3980    96.4490     4.7760     3.8780     4.5750    23.8830   -16.5420 
  150.7500     2.3930    92.0180     4.7390     3.8350     4.5760    23.9970   -16.6450 
  150.8750     2.3820    86.3810     4.7420     3.8230     4.5370    24.2660   -16.7410 
  151.0000     2.3700    82.9000     4.8740     3.8900     4.4670    24.2560   -16.8140 
  151.1250     2.3540    80.9550     5.2430     4.1060     4.5380    24.0570   -16.8710 
  151.2500     2.3300    85.0120     5.8100     4.4620     5.0210    23.9460   -16.9190 
  151.3750     2.3120    94.6120     6.4790     4.9190     6.1080    23.9420   -16.9320 
  151.5000     2.3170   101.3110     7.0920     5.3910     7.6480    23.9480   -16.9230 
  151.6250     2.3450   100.1790     7.4250     5.7260     8.5550    23.9560   -16.9150 
  151.7500     2.3700    96.5440     7.4480     5.8540     8.2380    23.9720   -16.9400 
  151.8750     2.3770    91.5650     7.2550     5.7990     7.1790    24.0190   -16.9930 
  152.0000     2.3700    84.6740     7.0280     5.6640     6.1060    24.1370   -17.0590 
  152.1250     2.3520    79.6800     6.9580     5.5850     5.4660    24.4590   -17.1340 
  152.2500     2.3300    79.8370     7.0760     5.6170     5.3360    24.7650   -17.1820 
  152.3750     2.3190    81.2770     7.3170     5.7400     6.1660    24.8510   -17.2160 
  152.5000     2.3270    81.7060     7.5510     5.8840     7.9240    24.5360   -17.2590 
  152.6250     2.3450    84.3860     7.6260     5.9520     8.9200    24.2240   -17.3200 
  152.7500     2.3510    91.3940     7.5660     5.9350     8.2750    24.0930   -17.4000 
  152.8750     2.3400   100.0750     7.4880     5.8860     6.9390    24.0400   -17.4870 
  153.0000     2.3250   103.5160     7.5450     5.8970     6.1320    23.9960   -17.5970 
  153.1250     2.3190   101.4930     7.9070     6.0930     6.3200    23.9330   -17.7060 
  153.2500     2.3170    99.0520     8.5490     6.4950     7.1320    23.8830   -17.8570 
  153.3750     2.3170    95.1890     9.3840     7.0710     8.2170    23.8800   -18.0280 
  153.5000     2.3160    88.5120    10.2610     7.7310     8.8560    23.9310   -18.1720 
  153.6250     2.3160    82.7160    10.9830     8.3350     9.2150    24.0340   -18.2540 
  153.7500     2.3150    80.8370    11.4560     8.7870    10.0690    24.0770   -18.2910 
  153.8750     2.3140    80.5830    11.6790     9.0620    10.9800    24.0460   -18.3130 
  154.0000     2.3130    80.7650    11.7270     9.1950    11.1520    24.0130   -18.3270 
