~V
VERS. 2.00: Ver 2.00
~W
STRT.M 56.0000:
STOP.M 275.0000:
STEP.M 0.1250:
NULL. -999.2500:
UWI. F10253:
~C
DEPT.M :
GR.API :
RML.OHMM :
RI. :
RXO.OHMM :
CALI.CM :
DEN.GM/CC :
SP.MV :
~A
# ...
  112.2500    60.0880     9.9300     8.8560    11.9290    23.1450     2.1670   -14.4100 
  112.3750    62.0200     9.4140     8.2870    10.7860    22.9830     2.1710   -14.4710 
  112.5000    62.5910     9.1500     7.9390    10.2200    22.8840     2.1810   -14.5120 
  112.6250    61.7680     9.0560     7.7620     9.6750    22.8130     2.1910   -14.5730 
  112.7500    60.1920     9.0650     7.7060     9.2880    22.7910     2.1970   -14.6570 
  112.8750    60.2120     9.1370     7.7370     9.1550    22.8670     2.1960   -14.7420 
  113.0000    60.1600     9.2350     7.8080     9.0580    23.0030     2.1890   -14.8110 
  113.1250    57.4510     9.3390     7.8940     8.9430    23.0510     2.1790   -14.8720 
  113.2500    53.1410     9.4250     7.9730     8.8510    22.9880     2.1690   -14.9230 
  113.3750    50.9100     9.4630     8.0190     8.6650    22.7950     2.1640   -14.9510 
  113.5000    51.1170     9.4570     8.0290     8.5020    22.5530     2.1640   -14.9790 
  113.6250    51.9700     9.4220     8.0090     8.3810    22.3470     2.1670   -14.9710 
  113.7500    52.1560     9.3830     7.9750     8.3080    22.2450     2.1710   -14.9200 
  113.8750    51.6610     9.3670     7.9480     8.3180    22.2180     2.1740   -14.8760 
  114.0000    51.9340     9.3820     7.9400     8.4180    22.2230     2.1790   -14.8690 
  114.1250    53.8180     9.4250     7.9520     8.6150    22.2360     2.1860   -14.8990 
  114.2500    56.9260     9.4900     7.9840     8.8690    22.3040     2.1950   -14.9470 
  114.3750    58.1160     9.5680     8.0310     9.1170    22.5060     2.2040   -15.0230 
  114.5000    55.8140     9.6440     8.0800     9.3460    22.7440     2.2090   -15.1190 
  114.6250    52.7630     9.7000     8.1170     9.4200    22.9440     2.2080   -15.2480 
  114.7500    52.6090     9.7180     8.1290     9.3490    23.1030     2.2030   -15.3960 
  114.8750    54.5700     9.6760     8.1000     9.1490    23.1930     2.1970   -15.4920 
  115.0000    54.4040     9.5890     8.0370     8.9580    23.2080     2.1940   -15.5130 
  115.1250    53.2170     9.4760     7.9500     8.7930    23.1510     2.1940   -15.4880 
  115.2500    53.6240     9.3630     7.8560     8.6350    23.0970     2.1960   -15.4350 
  115.3750    55.0420     9.2740     7.7710     8.5120    23.0900     2.1970   -15.3140 
  115.5000    54.6610     9.1930     7.6900     8.4020    23.1050     2.1950   -15.1250 
  115.6250    53.1860     9.0790     7.5880     8.3140    23.1310     2.1910   -14.8680 
  115.7500    53.1520     8.8820     7.4310     8.2730    23.2030     2.1850   -14.5470 
  115.8750    55.1130     8.5640     7.1900     8.2860    23.4000     2.1830   -14.1560 
  116.0000    57.7910     8.1950     6.9090     8.2960    23.6470     2.1860   -13.7240 
  116.1250    59.6000     7.8770     6.6540     8.1790    23.7900     2.1950   -13.2380 
  116.2500    60.1730     7.7120     6.4990     7.8590    23.6880     2.2070   -12.7070 
  116.3750    61.1550     7.7670     6.5050     7.5710    23.3730     2.2170   -12.1410 
  116.5000    61.8030     7.9340     6.6110     7.7030    23.0690     2.2220   -11.5550 
  116.6250    62.0700     8.0790     6.7300     8.1770    22.8300     2.2260   -10.9400 
  116.7500    63.8040     8.0700     6.7600     8.4220    22.6430     2.2370   -10.2870 
  116.8750    68.7630     7.7930     6.5960     8.0770    22.4950     2.2630    -9.6170 
  117.0000    73.1610     7.3250     6.2680     7.2930    22.4840     2.2970    -8.9450 
  117.1250    74.9530     6.7790     5.8490     6.3640    22.5390     2.3270    -8.3010 
  117.2500    76.6410     6.2720     5.4270     5.6140    22.6020     2.3410    -7.7200 
  117.3750    80.1800     5.8980     5.0860     5.3040    22.6270     2.3370    -7.2130 
  117.5000    83.4520     5.6460     4.8380     5.0970    22.6170     2.3290    -6.7540 
  117.6250    84.9710     5.4880     4.6710     4.9130    22.5880     2.3250    -6.3640 
  117.7500    83.6650     5.3960     4.5680     4.7290    22.5820     2.3270    -6.0630 
  117.8750    82.0460     5.3610     4.5190     4.6850    22.5880     2.3300    -5.8770 
  118.0000    81.9350     5.3610     4.5040     4.7540    22.5970     2.3300    -5.7830 
  118.1250    83.8420     5.3780     4.5090     4.9310    22.6010     2.3290    -5.7490 
  118.2500    87.2910     5.3870     4.5150     5.1440    22.5990     2.3290    -5.7420 
  118.3750    89.5370     5.3600     4.4960     5.3080    22.5670     2.3330    -5.7570 
  118.5000    89.1340     5.2930     4.4460     5.2140    22.5180     2.3410    -5.7890 
  118.6250    88.0430     5.1990     4.3700     4.9280    22.4520     2.3490    -5.8310 
  118.7500    89.2780     5.1060     4.2870     4.6300    22.4010     2.3570    -5.8860 
  118.8750    89.6740     5.0610     4.2330     4.4920    22.4120     2.3640    -5.9840 
  119.0000    85.9870     5.0860     4.2300     4.5000    22.4500     2.3720    -6.1010 
  119.1250    83.4340     5.1880     4.2870     4.6300    22.4950     2.3780    -6.2360 
  119.2500    84.7520     5.3470     4.3960     4.8380    22.5320     2.3820    -6.3890 
  119.3750    85.4250     5.5250     4.5310     5.1360    22.5890     2.3770    -6.5790 
  119.5000    82.4540     5.6760     4.6550     5.3650    22.7110     2.3620    -6.8210 
  119.6250    79.6080     5.7790     4.7500     5.3720    22.9460     2.3400    -7.0900 
  119.7500    78.3700     5.8290     4.8080     5.2330    23.3070     2.3170    -7.3810 
  119.8750    77.3230     5.8330     4.8290     5.0460    23.6850     2.2980    -7.6590 
  120.0000    75.6440     5.8130     4.8300     5.0690    23.9260     2.2840    -7.8980 
  120.1250    75.0530     5.7880     4.8250     5.2110    23.9920     2.2740    -8.1230 
  120.2500    76.8220     5.7820     4.8300     5.3800    23.9870     2.2700    -8.3170 
  120.3750    80.5890     5.8280     4.8710     5.4490    23.9810     2.2740    -8.4630 
  120.5000    82.9540     5.9210     4.9420     5.5710    23.9910     2.2900    -8.5570 
  120.6250    81.7620     6.0290     5.0210     5.8920    24.0000     2.3140    -8.6370 
  120.7500    79.7800     6.0970     5.0710     6.4720    24.0060     2.3380    -8.6810 
  120.8750    80.4760     6.0460     5.0300     6.9230    24.0150     2.3500    -8.6800 
  121.0000    81.7130     5.8660     4.8900     6.6820    24.0290     2.3480    -8.6850 
  121.1250    81.7920     5.5950     4.6710     5.6090    24.0320     2.3380    -8.6630 
  121.2500    82.1460     5.3150     4.4290     4.7080    24.0180     2.3300    -8.6160 
  121.3750    83.2060     5.1370     4.2470     4.3770    23.9920     2.3330    -8.5730 
  121.5000    83.8920     5.1030     4.1670     4.3430    23.9880     2.3430    -8.5660 
  121.6250    84.2960     5.2090     4.1970     4.5350    23.9820     2.3540    -8.5910 
  121.7500    84.8150     5.4160     4.3210     4.8860    23.9660     2.3570    -8.6620 
  121.8750    83.7450     5.6760     4.5130     5.3420    23.9400     2.3460    -8.7590 
  122.0000    79.3020     5.9470     4.7360     5.6930    23.9190     2.3240    -8.8680 
  122.1250    72.5840     6.2350     4.9880     5.8960    23.8880     2.3000    -9.0000 
  122.2500    67.9840     6.5730     5.2860     6.1440    23.8250     2.2790    -9.1530 
  122.3750    67.6920     7.0230     5.6700     6.6040    23.6970     2.2690    -9.2820 
  122.5000    66.7020     7.5780     6.1370     7.3830    23.5230     2.2650    -9.3810 
  122.6250    61.2810     8.1800     6.6510     8.4350    23.3310     2.2600    -9.4610 
  122.7500    53.8000     8.7080     7.1260     9.5260    23.1170     2.2480    -9.5290 
  122.8750    50.5000     8.9420     7.3930    10.1330    22.8600     2.2280    -9.5540 
  123.0000    53.5760     8.8070     7.3740     9.3250    22.6150     2.2090    -9.5300 
  123.1250    60.3150     8.3280     7.0620     8.3690    22.4080     2.2010    -9.4560 
  123.2500    66.1220     7.6450     6.5480     7.6370    22.2850     2.2070    -9.3300 
  123.3750    70.2330     6.9890     5.9980     6.8360    22.3680     2.2240    -9.2150 
