~V
VERS. 2.00: Ver 2.00
~W
STRT.M 55.0000:
STOP.M 270.0000:
STEP.M 0.1250:
NULL. -999.2500:
UWI. F10235:
~C
DEPT.M :
GR.API :
RML.OHMM :
RI. :
RXO.OHMM :
CALI.CM :
DEN.GM/CC :
SP.MV :
~A
# ...
  100.0000    70.5310    10.8400     8.4280    10.8890    23.7880     2.1950   -12.0500 
  100.1250    71.7010    11.0790     8.6320    10.7520    23.7880     2.1740   -13.0580 
  100.2500    71.3000    11.2590     8.7780    10.7710    23.7880     2.1620   -13.9060 
  100.3750    72.7190    11.3940     8.8700    10.9120    23.7880     2.1610   -14.6160 
  100.5000    75.7540    11.4960     8.9250    11.0640    23.7880     2.1660   -15.2720 
  100.6250    74.9180    11.5680     8.9530    11.2630    23.7850     2.1730   -15.8540 
  100.7500    71.6670    11.6120     8.9650    11.5030    23.7600     2.1770   -16.3490 
  100.8750    70.4430    11.6280     8.9650    11.6870    23.6850     2.1770   -16.8090 
  101.0000    70.5220    11.6140     8.9540    11.8220    23.5950     2.1770   -17.2890 
  101.1250    69.2490    11.5510     8.9170    11.9540    23.6000     2.1800   -17.7950 
  101.2500    67.9840    11.4340     8.8410    11.9800    23.6990     2.1870   -18.2770 
  101.3750    66.7890    11.2640     8.7200    11.8690    23.7680     2.1970   -18.7190 
  101.5000    64.8930    11.0710     8.5720    11.6960    23.7880     2.2070   -19.0740 
  101.6250    63.9380    10.9120     8.4420    11.6600    23.7850     2.2160   -19.2590 
  101.7500    64.6050    10.8350     8.3750    11.7450    23.7730     2.2250   -19.3100 
  101.8750    65.7630    10.8570     8.3920    11.8170    23.7540     2.2310   -19.2670 
  102.0000    66.4570    10.9660     8.4930    11.9440    23.7510     2.2350   -19.1810 
  102.1250    66.1460    11.1370     8.6640    12.4140    23.7740     2.2320   -19.1720 
  102.2500    66.5990    11.3290     8.8610    12.6470    23.7890     2.2220   -19.2770 
  102.3750    68.0150    11.5330     9.0610    12.6290    23.7940     2.2110   -19.4490 
  102.5000    67.5730    11.7510     9.2600    12.5710    23.7970     2.2040   -19.6720 
  102.6250    64.1840    11.9710     9.4460    12.6940    23.8190     2.2040   -19.9600 
  102.7500    63.1100    12.1240     9.5830    13.0660    23.8670     2.2070   -20.2440 
  102.8750    65.7280    12.1060     9.5980    13.9130    23.9080     2.2060   -20.4430 
  103.0000    67.7970    11.8230     9.4080    14.2500    23.9240     2.2000   -20.4750 
  103.1250    68.1220    11.2160     8.9450    13.7260    23.9240     2.1930   -20.2110 
  103.2500    70.2150    10.4650     8.3470    12.1560    23.9240     2.1900   -19.6960 
  103.3750    73.5260     9.7620     7.7650    10.3350    23.9590     2.1950   -19.0330 
  103.5000    75.9010     9.2920     7.3340     8.6480    24.0540     2.2050   -18.3250 
  103.6250    77.2160     9.2230     7.1750     8.5280    24.1940     2.2130   -17.6560 
  103.7500    76.9500     9.4740     7.2580     9.9670    24.1360     2.2200   -17.0740 
  103.8750    73.7250     9.9220     7.5260    11.2080    23.9940     2.2250   -16.6260 
  104.0000    70.0590    10.4050     7.8800    11.4830    23.8900     2.2310   -16.3430 
  104.1250    70.6350    10.7500     8.2000    11.2860    23.8750     2.2380   -16.2600 
  104.2500    71.8580    10.9240     8.4180    10.9550    23.8890     2.2410   -16.3520 
  104.3750    69.9960    10.9700     8.5340    10.6490    23.8940     2.2380   -16.5980 
  104.5000    65.3520    10.9720     8.5950    10.8030    23.8760     2.2310   -16.8640 
  104.6250    64.5560    11.0120     8.6540    10.6720    23.8660     2.2210   -17.0560 
  104.7500    69.1000    11.1060     8.7340    10.2250    23.8610     2.2130   -17.1880 
  104.8750    72.9930    11.2240     8.8230    10.3450    23.8500     2.2080   -17.2740 
  105.0000    71.8970    11.3080     8.8890    11.5900    23.8210     2.2060   -17.3310 
  105.1250    67.4530    11.2440     8.8490    12.8290    23.8020     2.2080   -17.3730 
  105.2500    65.4970    10.9790     8.6500    12.9700    23.8080     2.2120   -17.3100 
  105.3750    67.5950    10.5010     8.2810    12.2880    23.8330     2.2200   -17.0680 
  105.5000    72.6310     9.8650     7.7790    11.2340    23.8420     2.2320   -16.6850 
  105.6250    79.7890     9.2000     7.2380     9.9670    23.8110     2.2460   -16.1580 
  105.7500    85.1280     8.6640     6.7770     8.6510    23.7450     2.2560   -15.5980 
  105.8750    86.3290     8.3650     6.4760     8.0930    23.6970     2.2580   -15.1010 
  106.0000    84.1130     8.3670     6.3860     8.1770    23.6960     2.2510   -14.7330 
  106.1250    80.5490     8.7280     6.5670     8.5150    23.7400     2.2350   -14.5650 
  106.2500    77.5940     9.3340     6.9660     9.1640    23.7570     2.2140   -14.6730 
  106.3750    74.5990    10.0560     7.5200    10.0160    23.7580     2.1930   -15.0770 
  106.5000    69.2270    10.7070     8.0990    10.6690    23.8110     2.1770   -15.7030 
  106.6250    63.1640    11.0270     8.4890    11.6550    23.9180     2.1700   -16.4900 
  106.7500    60.6930    10.9570     8.5780    12.3360    24.0050     2.1730   -17.2920 
  106.8750    63.9850    10.5570     8.3740    12.3730    24.0070     2.1840   -17.9910 
  107.0000    71.4680     9.9980     7.9970    11.7940    23.9380     2.1980   -18.5590 
  107.1250    78.4030     9.5220     7.6310    10.7540    23.8670     2.2060   -18.9690 
  107.2500    79.7270     9.2760     7.4060    10.0450    23.8190     2.2050   -19.1930 
  107.3750    74.9760     9.2900     7.3650    10.1620    23.7770     2.1970   -19.2830 
  107.5000    69.5120     9.5170     7.5030    10.8410    23.7190     2.1870   -19.3730 
  107.6250    68.5270     9.8770     7.7820    11.3580    23.6530     2.1780   -19.6040 
  107.7500    68.5720    10.2540     8.1090    11.6990    23.6060     2.1680   -19.9450 
  107.8750    66.7120    10.5930     8.4280    11.7300    23.5920     2.1560   -20.3310 
  108.0000    65.0740    10.8530     8.6990    11.7240    23.5920     2.1440   -20.6420 
  108.1250    64.7960    10.9510     8.8480    11.7660    23.6060     2.1370   -20.7610 
  108.2500    64.2130    10.8320     8.8130    11.7280    23.6390     2.1430   -20.7260 
  108.3750    64.2280    10.4370     8.5380    11.8030    23.6940     2.1660   -20.4850 
  108.5000    65.7570     9.7700     8.0210    11.2370    23.7810     2.2030   -19.9420 
  108.6250    69.9940     8.9230     7.3290     9.6230    23.8600     2.2430   -18.9780 
  108.7500    76.4190     8.1360     6.6630     8.0680    23.9200     2.2700   -17.7590 
  108.8750    82.5570     7.6210     6.1820     7.5710    23.9850     2.2810   -16.4830 
  109.0000    85.0120     7.5430     5.9950     7.4850    24.0730     2.2790   -15.3370 
  109.1250    81.1640     8.0580     6.2260     7.7390    24.1710     2.2690   -14.4920 
  109.2500    74.6830     8.9930     6.8130     9.1500    24.2360     2.2570   -13.9690 
  109.3750    68.4510    10.1170     7.6550    12.2710    24.2770     2.2430   -13.7480 
  109.5000    65.7260    11.1110     8.5310    13.5670    24.2920     2.2320   -13.7030 
  109.6250    69.8380    11.5840     9.0640    12.6140    24.2770     2.2430   -13.7480 
  109.7500    79.5390    11.5180     9.1170    11.6930    24.2410     2.2940   -13.8110 
  109.8750    97.4410    11.0680     8.7710    10.9420    24.1940     2.3870   -13.7840 
  110.0000   122.5660    10.5140     8.2620     9.9950    24.1470     2.4960   -13.5710 
  110.1250   142.5430    10.1610     7.8590     9.7400    24.1640     2.5710   -13.1770 
  110.2500   148.9260    10.0910     7.6740     9.8790    24.2440     2.5840   -12.7270 
  110.3750   143.2160    10.2510     7.7060     9.7260    24.3080     2.5400   -12.3300 
  110.5000   131.4230    10.5150     7.8960    10.4930    24.2330     2.4640   -12.2000 
  110.6250   115.1100    10.7140     8.1340    11.5480    24.1320     2.3850   -12.4800 
  110.7500    98.8490    10.7660     8.2990    11.9310    24.0620     2.3190   -13.0290 
  110.8750    87.0150    10.6800     8.3510    11.4950    24.0560     2.2660   -13.8210 
  111.0000    80.2720    10.5400     8.3270    11.5340    24.0450     2.2250   -14.8880 
  111.1250    75.0320    10.4770     8.3160    11.8150    24.0760     2.2000   -16.1370 
