~V
VERS. 2.00: Ver 2.00
~W
STRT.M 58.0000:
STOP.M 277.0000:
STEP.M 0.1250:
NULL. -999.2500:
UWI. F10219:
~C
DEPT.M :
SP.MV :
DEN.GM/CC :
GR.API :
RML.OHMM :
RI. :
RXO.OHMM :
CALI.CM :
~A
# ...
  238.0000   -14.6410     2.2980    56.9400    33.1880    31.8920    35.4550    26.8310 
  238.1250   -14.5130     2.3040    59.9750    31.9000    30.8690    33.4910    26.8300 
  238.2500   -14.3040     2.3090    62.1310    30.1050    29.2610    31.4110    26.7780 
  238.3750   -14.0480     2.3130    62.3060    28.1430    27.3490    29.2550    26.6820 
  238.5000   -13.7350     2.3160    61.0660    26.4190    25.5340    26.5270    26.5180 
  238.6250   -13.3880     2.3160    60.1400    25.1980    24.1030    23.4950    26.2520 
  238.7500   -13.0140     2.3090    60.5300    24.6560    23.2740    21.3040    25.9360 
  238.8750   -12.6280     2.2950    61.7650    24.7940    23.1090    20.9230    25.7000 
  239.0000   -12.2660     2.2810    63.4040    25.3890    23.4610    22.1570    25.5570 
  239.1250   -11.9460     2.2760    64.4850    26.2150    24.1550    24.0580    25.3940 
  239.2500   -11.7120     2.2780    63.5270    26.9890    24.9460    25.7510    25.2130 
  239.3750   -11.5180     2.2870    60.5670    27.4740    25.5790    26.7230    25.1850 
  239.5000   -11.3390     2.2970    57.8020    27.5930    25.9050    26.4880    25.3370 
  239.6250   -11.1580     2.3010    57.1980    27.3930    25.9110    25.7640    25.4380 
  239.7500   -11.0180     2.2990    58.9250    27.0040    25.6760    25.2660    25.4580 
  239.8750   -10.9020     2.2920    60.7090    26.5760    25.3290    25.2700    25.4970 
  240.0000   -10.8020     2.2810    60.2090    26.1860    24.9690    25.5020    25.5530 
  240.1250   -10.7140     2.2680    58.4250    25.8100    24.5970    25.9310    25.5990 
  240.2500   -10.6150     2.2590    58.2520    25.3740    24.1620    25.9800    25.6050 
  240.3750   -10.5120     2.2560    60.2530    24.8380    23.6270    24.9460    25.5340 
  240.5000   -10.4070     2.2620    61.9120    24.2660    23.0320    23.2090    25.3790 
  240.6250   -10.3370     2.2770    61.5330    23.7780    22.4820    21.4980    25.1800 
  240.7500   -10.2780     2.2990    59.2940    23.5110    22.1110    20.3080    25.0430 
  240.8750   -10.2640     2.3300    56.4610    23.4910    21.9830    19.5510    25.0170 
  241.0000   -10.2870     2.3710    54.5020    23.5680    22.0090    19.1940    25.0150 
  241.1250   -10.3460     2.4090    54.2370    23.5450    22.0290    19.2130    25.0130 
  241.2500   -10.4320     2.4130    55.1310    23.2350    21.8560    19.2630    25.0420 
  241.3750   -10.5630     2.3740    56.3570    22.6050    21.4030    18.9220    25.1670 
  241.5000   -10.7350     2.3260    58.0730    21.8390    20.7750    18.4610    25.3740 
  241.6250   -10.8840     2.2950    60.7890    21.1650    20.1490    18.2670    25.5900 
  241.7500   -10.9950     2.2870    62.6590    20.7890    19.7170    18.4620    25.7330 
  241.8750   -11.0860     2.2890    61.9300    20.7780    19.5880    19.0650    25.8040 
  242.0000   -11.1680     2.2910    60.4160    21.0220    19.7200    19.9200    25.8270 
  242.1250   -11.2190     2.2900    60.1680    21.3960    20.0280    20.5330    25.8110 
  242.2500   -11.2400     2.2830    61.3860    21.7790    20.4000    21.1020    25.7310 
  242.3750   -11.2190     2.2750    63.2090    22.1030    20.7390    21.9040    25.5920 
  242.5000   -11.1860     2.2670    64.5270    22.3710    21.0030    22.9020    25.5130 
  242.6250   -11.1470     2.2610    64.3800    22.6380    21.2130    23.6790    25.5710 
  242.7500   -11.1010     2.2590    62.5750    23.0230    21.4580    23.8240    25.6890 
  242.8750   -11.0170     2.2590    59.8560    23.6740    21.8760    23.4400    25.7730 
  243.0000   -10.9590     2.2580    56.9010    24.6870    22.5830    23.2000    25.8210 
  243.1250   -10.9470     2.2560    54.5610    26.0750    23.6340    23.9290    25.8580 
  243.2500   -10.9600     2.2560    54.2160    27.6880    24.9640    25.6670    25.9020 
  243.3750   -11.0270     2.2620    55.9350    29.1780    26.3150    27.6870    25.9570 
  243.5000   -11.1320     2.2790    58.4270    30.1260    27.3000    28.7410    26.0090 
  243.6250   -11.2800     2.3010    60.6770    30.2440    27.5980    28.3410    26.0080 
  243.7500   -11.4620     2.3140    62.0080    29.4730    27.0510    26.7690    25.8550 
  243.8750   -11.6810     2.3090    62.5880    28.1490    25.8710    24.8220    25.6230 
  244.0000   -11.8690     2.3000    63.3650    26.9080    24.6030    23.2470    25.4900 
  244.1250   -12.0270     2.2980    64.3820    26.2450    23.7180    22.4270    25.4230 
  244.2500   -12.1510     2.3090    64.8310    26.5220    23.6030    23.0670    25.3290 
  244.3750   -12.2160     2.3300    64.1020    27.7830    24.4000    25.2020    25.2000 
  244.5000   -12.2250     2.3620    61.9840    29.6870    25.9030    28.3820    25.1220 
  244.6250   -12.2130     2.4040    58.8470    31.8430    27.8210    32.0650    25.1380 
  244.7500   -12.1910     2.4330    56.2970    33.7500    29.7110    35.1850    25.2330 
  244.8750   -12.1590     2.4280    55.6000    34.9660    31.1080    35.7270    25.3500 
  245.0000   -12.1130     2.3950    56.0860    35.3440    31.7610    33.4820    25.4260 
  245.1250   -12.0330     2.3540    56.4270    34.9580    31.6520    30.5910    25.4250 
  245.2500   -11.9320     2.3160    56.2600    34.0960    30.9770    28.9900    25.2490 
  245.3750   -11.7900     2.2840    55.8700    33.1910    30.1100    28.8570    25.0420 
  245.5000   -11.6090     2.2600    55.5630    32.6580    29.4650    29.4490    25.1690 
  245.6250   -11.3810     2.2550    55.9490    32.7130    29.2910    30.6270    25.6130 
  245.7500   -11.1170     2.2710    57.3590    33.3870    29.6900    32.8090    26.0910 
  245.8750   -10.8040     2.3090    58.7530    34.4740    30.5490    36.2480    26.4010 
  246.0000   -10.4740     2.3630    58.0280    35.6130    31.5720    39.2330    26.4380 
  246.1250   -10.1310     2.4190    55.5310    36.5520    32.5310    40.1820    26.2370 
  246.2500    -9.8070     2.4660    53.9260    37.1150    33.2320    39.4370    25.8990 
  246.3750    -9.5200     2.5080    54.5120    37.1860    33.5160    38.2830    25.6320 
  246.5000    -9.2890     2.5530    55.8700    36.6730    33.2530    39.1740    25.4870 
  246.6250    -9.1000     2.5850    56.7010    35.4080    32.2680    42.7330    25.3140 
  246.7500    -8.9330     2.5630    57.1790    33.2680    30.4290    46.4610    25.0930 
  246.8750    -8.7980     2.4770    58.5190    30.4780    27.9080    45.3820    24.8720 
  247.0000    -8.6860     2.3680    61.1970    27.7210    25.2930    36.8010    24.6590 
  247.1250    -8.5900     2.2800    64.0440    25.7280    23.2140    27.1380    24.5360 
  247.2500    -8.4920     2.2400    65.5440    25.1970    22.3190    23.2610    24.6600 
  247.3750    -8.3980     2.2500    65.7010    26.3250    22.9120    27.5480    25.1170 
  247.5000    -8.2850     2.2960    65.8390    28.4610    24.6150    37.1090    25.6380 
  247.6250    -8.1840     2.3740    66.1220    30.5950    26.6780    48.5080    25.7990 
  247.7500    -8.1370     2.4740    65.9870    31.3000    27.8360    57.1640    25.5640 
  247.8750    -8.1340     2.5620    65.5370    29.5090    26.9040    53.6320    25.2750 
  248.0000    -8.1300     2.5930    65.0520    25.4860    23.7780    37.3340    25.0610 
  248.1250    -8.1470     2.5650    63.6700    20.3560    19.3240    23.6250    24.9200 
  248.2500    -8.1880     2.5230    60.1000    15.6290    14.9460    17.8200    24.8690 
  248.3750    -8.2330     2.4980    54.8000    12.2110    11.5990    14.7130    24.9130 
  248.5000    -8.2390     2.4750    49.9940    10.0450     9.3520    12.3940    24.9220 
  248.6250    -8.1770     2.4350    47.1600     8.8170     7.9820    10.3540    24.8670 
  248.7500    -8.0240     2.3870    46.5450     8.2190     7.2460     7.6810    24.8590 
  248.8750    -7.8120     2.3550    48.3100     8.0040     6.9360     5.7420    24.9560 
  249.0000    -7.5710     2.3480    51.7560     7.9710     6.8600     5.2030    25.0560 
  249.1250    -7.3060     2.3560    54.8250     8.0390     6.9230     5.2060    25.0760 
