~V
VERS. 2.00: Ver 2.00
~W
STRT.M 50.0000:
STOP.M 281.0000:
STEP.M 0.1250:
NULL. -999.2500:
UWI. F10234:
~C
DEPT.M :
DEN.GM/CC :
GR.API :
RML.OHMM :
RI. :
RXO.OHMM :
CALI.CM :
SP.MV :
~A
# ...
  106.2500     2.1680    56.4640    10.7860     8.9510    10.6880    24.3880    -8.5850 
  106.3750     2.1740    56.1160    10.3590     8.5630    10.4900    24.4020    -8.7800 
  106.5000     2.1800    56.0620    10.1550     8.2950     9.9860    24.4240    -8.9480 
  106.6250     2.1860    56.2000    10.1350     8.1760     9.9660    24.4600    -9.1370 
  106.7500     2.1870    55.2280    10.1570     8.1350    10.0220    24.5050    -9.2800 
  106.8750     2.1750    52.6550    10.1930     8.1420    10.0800    24.5550    -9.4330 
  107.0000     2.1460    50.4050    10.3000     8.2150    10.2610    24.6020    -9.6250 
  107.1250     2.1150    50.5000    10.5790     8.4160    10.5880    24.6220    -9.7660 
  107.2500     2.1070    51.7780    10.9940     8.7240    10.8760    24.6130    -9.8600 
  107.3750     2.1470    52.8110    11.4420     9.0740    11.0790    24.5820    -9.9500 
  107.5000     2.2310    52.8170    11.7660     9.3490    11.6860    24.5370    -9.9670 
  107.6250     2.3090    51.5460    11.7390     9.3730    12.4560    24.4890    -9.9750 
  107.7500     2.3330    50.0890    11.3830     9.1440    12.1100    24.4520    -9.9980 
  107.8750     2.3040    49.8380    10.8440     8.7560    10.8350    24.4390    -9.9750 
  108.0000     2.2530    50.4370    10.3190     8.3460    10.2380    24.4540    -9.9490 
  108.1250     2.2140    50.8510     9.9890     8.0510    10.3060    24.5020    -9.9380 
  108.2500     2.1940    51.0360     9.8670     7.9030    10.4740    24.5660    -9.9060 
  108.3750     2.1870    52.1230     9.8920     7.8800    10.7440    24.6300    -9.8600 
  108.5000     2.1840    51.5700     9.9520     7.9200    10.9050    24.6870    -9.8450 
  108.6250     2.1820    48.0180     9.9660     7.9550    11.0420    24.7280    -9.8330 
  108.7500     2.1780    45.0420     9.9430     7.9590    10.8920    24.7590    -9.8020 
  108.8750     2.1710    45.3210     9.9070     7.9330    10.7410    24.7800    -9.7670 
  109.0000     2.1610    47.5750     9.8680     7.8850    10.5430    24.7930    -9.7350 
  109.1250     2.1500    48.0720     9.8380     7.8330    10.4930    24.7990    -9.7400 
  109.2500     2.1410    47.5700     9.8270     7.7930    10.5460    24.8010    -9.7260 
  109.3750     2.1340    47.4140     9.8350     7.7750    10.5960    24.8020    -9.7400 
  109.5000     2.1320    47.6840     9.8540     7.7800    10.6130    24.8030    -9.7590 
  109.6250     2.1320    47.9460     9.8740     7.8020    10.7370    24.8040    -9.7020 
  109.7500     2.1350    48.1710     9.8850     7.8280    10.8660    24.8050    -9.6800 
  109.8750     2.1390    47.4380     9.8870     7.8570    10.8840    24.8040    -9.7000 
  110.0000     2.1390    45.3930     9.8880     7.8980    10.7660    24.8040    -9.6440 
  110.1250     2.1350    44.1490     9.8950     7.9590    10.6230    24.8050    -9.5150 
  110.2500     2.1270    44.8940     9.8940     8.0160    10.5510    24.7980    -9.4120 
  110.3750     2.1190    47.2100     9.8590     8.0270    10.4580    24.7690    -9.2480 
  110.5000     2.1150    49.3510     9.7520     7.9480    10.4640    24.7240    -9.0700 
  110.6250     2.1210    52.1940     9.4840     7.7170    10.4370    24.6640    -8.8870 
  110.7500     2.1370    55.8090     9.0320     7.3440     9.7130    24.5980    -8.6610 
  110.8750     2.1620    58.5640     8.4370     6.8690     8.2170    24.5310    -8.4030 
  111.0000     2.1870    60.9320     7.8260     6.3830     7.1300    24.4710    -8.1480 
  111.1250     2.2100    64.0520     7.4190     6.0330     6.7270    24.4260    -7.9440 
  111.2500     2.2290    66.5480     7.3260     5.8970     6.9110    24.3990    -7.8000 
  111.3750     2.2430    65.6700     7.5850     6.0180     7.4410    24.3930    -7.7210 
  111.5000     2.2470    61.7810     8.1480     6.3840     8.8360    24.3990    -7.6780 
  111.6250     2.2360    56.9470     8.8750     6.9380    10.1840    24.4180    -7.6430 
  111.7500     2.2120    52.4100     9.5430     7.5130    10.7020    24.4480    -7.5770 
  111.8750     2.1800    48.9030    10.0140     7.9750    10.2240    24.4870    -7.4980 
  112.0000     2.1490    47.5060    10.2320     8.2280     9.7960    24.5310    -7.4280 
  112.1250     2.1310    49.6700    10.1770     8.2120     9.8430    24.5800    -7.2940 
  112.2500     2.1230    52.6500     9.9300     8.0180     9.9410    24.6210    -7.0950 
  112.3750     2.1250    56.0140     9.5240     7.7030     9.8610    24.6400    -6.8420 
  112.5000     2.1300    58.8290     9.0150     7.3260     9.5990    24.6370    -6.5370 
  112.6250     2.1370    60.0590     8.5200     6.9550     9.1690    24.6110    -6.2290 
  112.7500     2.1480    62.1670     8.1760     6.6700     8.5680    24.5740    -5.9450 
  112.8750     2.1640    65.9910     8.0610     6.5330     8.1630    24.5330    -5.6880 
  113.0000     2.1890    69.5820     8.1810     6.5730     8.1810    24.4940    -5.5050 
  113.1250     2.2180    67.2880     8.4890     6.7970     8.7970    24.4700    -5.4060 
  113.2500     2.2400    61.8400     8.8430     7.1110     9.3200    24.4970    -5.3310 
  113.3750     2.2500    59.1000     9.1440     7.4350     9.6530    24.5890    -5.3440 
  113.5000     2.2470    58.4120     9.3350     7.6990     9.8890    24.7230    -5.3710 
  113.6250     2.2290    56.9590     9.4190     7.8620     9.8920    24.8770    -5.4170 
  113.7500     2.1970    54.7370     9.4650     7.9680     9.7180    25.0220    -5.4810 
  113.8750     2.1570    53.1600     9.4790     8.0430     9.4620    25.1160    -5.4670 
  114.0000     2.1230    54.4680     9.4080     8.0680     8.9990    25.1340    -5.3530 
  114.1250     2.1170    60.1980     9.1420     7.9600     8.5490    25.0550    -5.1730 
  114.2500     2.1450    67.0860     8.6730     7.6750     8.0210    24.8960    -4.9220 
  114.3750     2.1990    72.6480     8.0410     7.2140     7.1730    24.6860    -4.6220 
  114.5000     2.2540    77.5870     7.3510     6.6440     6.3150    24.4720    -4.3150 
  114.6250     2.2830    83.4740     6.7310     6.0750     5.8920    24.2840    -4.0540 
  114.7500     2.2950    88.8630     6.2340     5.5930     5.6440    24.1280    -3.8330 
  114.8750     2.3030    93.3520     5.8920     5.2440     5.4160    24.0160    -3.6900 
  115.0000     2.3060    96.6030     5.7300     5.0560     5.2430    23.9440    -3.6320 
  115.1250     2.2980    96.6970     5.7690     5.0540     5.2180    23.8910    -3.6030 
  115.2500     2.2830    93.6130     5.9240     5.1760     5.4840    23.8510    -3.6290 
  115.3750     2.2690    87.8320     6.1380     5.3740     6.2710    23.8240    -3.7050 
  115.5000     2.2600    81.7250     6.3650     5.5970     7.3920    23.8080    -3.8210 
  115.6250     2.2580    77.8670     6.5840     5.7960     7.0840    23.8000    -3.9470 
  115.7500     2.2520    76.0420     6.8180     5.9680     6.3590    23.7980    -4.1080 
  115.8750     2.2400    73.5750     7.0950     6.1310     6.1410    23.7970    -4.2910 
  116.0000     2.2230    70.8000     7.4040     6.2970     6.5680    23.8040    -4.4370 
  116.1250     2.2020    68.6820     7.6810     6.4460     7.7620    23.8400    -4.5670 
  116.2500     2.1770    65.3030     7.9510     6.5990     8.4500    23.9010    -4.7180 
  116.3750     2.1510    62.0520     8.3860     6.8550     8.7390    23.9810    -4.8320 
  116.5000     2.1300    62.6140     9.2650     7.3860     9.0850    24.0720    -4.9680 
  116.6250     2.1440    66.1560    11.0850     8.5360    10.1740    24.1630    -5.0960 
  116.7500     2.2110    65.2000    13.9240    10.4420    14.1080    24.2450    -5.2000 
  116.8750     2.3310    58.3600    17.5190    13.0630    25.6340    24.3100    -5.3540 
  117.0000     2.4740    51.6090    20.8580    15.8200    38.0090    24.3520    -5.5600 
  117.1250     2.5680    48.7100    21.7500    17.1150    37.9210    24.3670    -5.8140 
  117.2500     2.5830    49.1190    19.7660    16.2680    27.1170    24.3850    -6.1220 
  117.3750     2.5290    52.8910    16.1650    13.9560    17.4330    24.4150    -6.4670 
