~V
VERS. 2.00: Ver 2.00
~W
STRT.M 53.0000:
STOP.M 296.0000:
STEP.M 0.1250:
NULL. -999.2500:
UWI. F10258:
~C
DEPT.M :
GR.API :
RML.OHMM :
RI. :
RXO.OHMM :
CALI.CM :
DEN.GM/CC :
SP.MV :
~A
# ...
  289.2500    92.6550    15.9980    15.8260    18.5770    27.0240     2.4320   -10.0030 
  289.3750    92.6550    15.8910    15.7140    18.3620    27.0030     2.4320    -9.8510 
  289.5000    92.6550    15.8040    15.6170    17.4650    27.0930     2.4190    -9.7390 
  289.6250    92.6550    15.7290    15.5320    14.2220    27.2360     2.3820    -9.6860 
  289.7500    92.6550    15.6490    15.4460    13.9390    27.3910     2.3320    -9.6890 
  289.8750    92.6550    15.5540    15.3520    15.0640    27.3710     2.2870    -9.7430 
  290.0000    92.6550    15.4410    15.2500    16.0500    27.2040     2.2670    -9.8300 
  290.1250    92.6550    15.3010    15.1390    14.5840    26.8470     2.2900    -9.9170 
  290.2500    92.6550    15.1300    15.0120    13.9560    26.4870     2.3390    -9.9880 
  290.3750    92.6550    14.9200    14.8570    14.3270    26.1920     2.3930   -10.0350 
  290.5000    92.6550    14.6730    14.6810    14.3340    26.0370     2.4330   -10.0460 
  290.6250    92.6550    14.4150    14.5080    15.5380    26.0030     2.4500   -10.0220 
  290.7500    92.6550    14.1880    14.3670    17.4890    25.9720     2.4570    -9.9880 
  290.8750    92.6550    14.0300    14.2710    19.2860    25.9350     2.4620    -9.9550 
  291.0000    92.6550    13.9530    14.2200    20.2610    25.9390     2.4680    -9.9170 
  291.1250    92.6550    13.9450    14.2060    20.0040    25.9740     2.4670    -9.8860 
  291.2500    92.6550    13.9580    14.2030    18.9300    25.9950     2.4480    -9.8710 
  291.3750    92.6550    13.9670    14.2030    16.6360    25.9620     2.4100    -9.8810 
  291.5000    92.6550    13.9700    14.2030    16.7060    25.8360     2.3650    -9.9000 
  291.6250    92.6550    13.9690    14.2030    17.8670    25.6730     2.3320    -9.8810 
  291.7500    92.6550    13.9690    14.2030    18.2020    25.5970     2.3220    -9.8010 
  291.8750    92.6550    13.9690    14.2030    18.9300    25.6340     2.3340    -9.6630 
  292.0000    92.6550    13.9690    14.2030    20.5810    25.7240     2.3590    -9.4770 
  292.1250    92.6550    13.9690    14.2030    17.6240    25.8020     2.3870    -9.2910 
  292.2500    92.6550    13.9690    14.2030    14.2410    25.8840     2.4060    -9.0330 
  292.3750    92.6550    13.9690    14.2030    13.0500    25.9220     2.4140    -8.7660 
  292.5000    92.6550    13.9690    14.2030    13.5330    25.9460     2.4090    -8.4960 
  292.6250    92.6550    13.9690    14.2030    15.6920    26.0420     2.3970    -8.2360 
  292.7500    92.6550    13.9690    14.2030    16.3270    26.1720     2.3880    -8.0150 
  292.8750    92.6550    13.9690    14.2030    15.8500    26.2580     2.3860    -7.8280 
  293.0000    92.6550    13.9690    14.2030    17.2390    26.2150     2.3890    -7.6860 
  293.1250    92.6550    13.9690    14.2030    20.4220    26.1170     2.3920    -7.6000 
  293.2500    92.6550    13.9690    14.2030    23.2880    26.0930     2.3900    -7.5640 
  293.3750    92.6550    13.9690    14.2030    22.4210    26.1090     2.3850    -7.5580 
  293.5000    92.6550    13.9690    14.2030    19.9250    26.0830     2.3790    -7.5630 
  293.6250    92.6550    13.9690    14.2030    20.3950    26.0760     2.3720  -999.2500 
  293.7500    92.6550    13.9690    14.2030    20.8130    26.2180     2.3640  -999.2500 
  293.8750    92.6550    13.9690    14.2030    19.5290    26.5640     2.3550  -999.2500 
  294.0000    92.6550    13.9690    14.2030    19.0570    26.8500     2.3490  -999.2500 
  294.1250    92.6550    13.9690    14.2030    20.4480    26.9210     2.3440  -999.2500 
  294.2500    92.6550    13.9690    14.2030    20.8790    27.0260     2.3380  -999.2500 
  294.3750    92.6550    13.9690    14.2030    19.1970    27.5940     2.3280  -999.2500 
  294.5000    92.6550    13.9690    14.2030    19.0000    28.5250     2.3150  -999.2500 
  294.6250    92.6550    13.9690    14.2030    20.5910    29.2590     2.2970  -999.2500 
  294.7500    92.6550    13.9690    14.2030    19.5030    29.5520     2.2640  -999.2500 
  294.8750    92.6550    13.9690    14.2030    17.7000    29.8040     2.1970  -999.2500 
  295.0000    92.6550    13.9690    14.2030    16.0410    30.2550     2.0840  -999.2500 
  295.1250    92.6550    13.9690    14.2030    14.1680    30.6100     1.9240  -999.2500 
  295.2500    92.6550    13.9690    14.2030    11.1590    30.0600     1.7530  -999.2500 
  295.3750    92.6550    13.9690    14.2030     7.9960    28.2780     1.6020  -999.2500 
  295.5000    92.6550    13.9690    14.2030     5.8250    26.0820     1.4950  -999.2500 
  295.6250    92.6550    13.9690    14.2030     5.0140    24.8800     1.4410  -999.2500 
  295.7500    92.6550    13.9690    14.2030     4.9140    24.6450     1.4190  -999.2500 
  295.8750    92.6550    13.9690    14.2030     4.9110    24.6440     1.4120  -999.2500 
  296.0000    92.6550    13.9690    14.2030     4.9100    24.6430     1.4110  -999.2500 
