~V
VERS. 2.00: Ver 2.00
~W
STRT.M 40.0000:
STOP.M 276.0000:
STEP.M 0.1250:
NULL. -999.2500:
UWI. F10236:
~C
DEPT.M :
SP.MV :
GR.API :
RML.OHMM :
RI. :
RXO.OHMM :
CALI.CM :
DEN.GM/CC :
~A
# ...
  197.5000   -23.2570    66.7530    51.0670    48.0290    57.1530    24.7930     2.2670 
  197.6250   -23.1710    70.2430    48.7220    45.7940    52.8750    24.7910     2.2740 
  197.7500   -23.0730    71.5380    46.2340    43.4550    51.0470    24.8060     2.2810 
  197.8750   -22.9750    69.0500    43.5580    40.9520    49.8410    24.8450     2.2870 
  198.0000   -22.8830    66.9570    40.8260    38.3860    47.5140    24.8940     2.2920 
  198.1250   -22.7980    68.7410    38.4240    36.0900    43.5200    24.9120     2.3000 
  198.2500   -22.7140    71.0740    36.6760    34.3510    38.8600    24.8600     2.3120 
  198.3750   -22.6380    72.1090    35.7280    33.3190    36.3700    24.7680     2.3260 
  198.5000   -22.5630    71.6620    35.4060    32.8820    39.1510    24.6720     2.3390 
  198.6250   -22.5050    69.0380    35.1940    32.6400    43.1320    24.6280     2.3450 
  198.7500   -22.4550    65.6600    34.6000    32.1100    42.5890    24.6080     2.3420 
  198.8750   -22.4020    64.3940    33.6250    31.2020    40.4350    24.6160     2.3330 
  199.0000   -22.3480    68.4700    32.7180    30.2120    36.1130    24.6190     2.3270 
  199.1250   -22.2690    75.0000    32.7220    29.7970    32.6020    24.6090     2.3330 
  199.2500   -22.2000    77.1210    33.7350    30.1640    33.3270    24.6160     2.3410 
  199.3750   -22.1170    74.3840    35.0930    30.8950    39.6430    24.6380     2.3420 
  199.5000   -22.0340    71.3390    35.4640    30.9640    52.5570    24.6720     2.3350 
  199.6250   -21.9240    70.9120    33.3670    29.1410    57.5750    24.7370     2.3260 
  199.7500   -21.7860    71.0180    29.7760    26.1330    44.9670    24.8060     2.3250 
  199.8750   -21.6390    71.2940    26.5510    23.3130    26.8080    24.8870     2.3390 
  200.0000   -21.4830    73.0090    25.5710    22.0030    16.4290    24.9530     2.3710 
  200.1250   -21.3240    73.4780    28.9130    23.8440    19.2960    25.0130     2.4190 
  200.2500   -21.1340    70.0350    36.8230    29.4680    43.2720    24.9490     2.4780 
  200.3750   -20.9220    63.7190    49.4990    39.4890   113.0800    24.8480     2.5460 
  200.5000   -20.6820    57.5090    65.7100    55.4240   209.7840    24.8060     2.6120 
  200.6250   -20.4230    55.4660    80.6360    69.4850   166.1440    24.8210     2.6440 
  200.7500   -20.1620    55.9320    89.1670    78.2970   123.5400    24.8430     2.6330 
  200.8750   -19.8730    57.7380    90.5980    80.6450   100.4100    24.8570     2.5890 
  201.0000   -19.5690    59.4330    86.5210    77.5580    86.4170    24.8870     2.5360 
  201.1250   -19.2370    60.2220    75.9020    68.0670    72.6150    24.8780     2.5100 
  201.2500   -18.8810    59.9990    59.6670    53.3240    64.0270    24.8730     2.5180 
  201.3750   -18.5300    60.1670    41.5650    36.9900    50.2860    24.7710     2.5380 
  201.5000   -18.1810    60.5450    26.3700    23.5140    32.2100    24.5670     2.5510 
  201.6250   -17.8470    58.2450    16.9750    15.2870    13.1770    24.4680     2.5490 
  201.7500   -17.5150    55.3480    11.6850    10.5550     8.9700    24.8240     2.5310 
  201.8750   -17.2160    55.7480     9.1070     8.0440     7.9200    25.4180     2.4940 
  202.0000   -16.9410    57.8780     8.1350     7.2610     8.3020    25.9130     2.4480 
  202.1250   -16.7280    56.1180     8.0750     6.8690     8.6920    26.0190     2.4130 
  202.2500   -16.5640    52.1150     8.2420     6.8700     9.0710    25.6600     2.3880 
  202.3750   -16.4510    49.3800     8.3220     6.9920     9.0560    25.2010     2.3700 
  202.5000   -16.3770    49.2190     8.1810     7.0510     8.2200    24.9610     2.3670 
  202.6250   -16.3450    51.5650     7.8360     6.9660     7.5700    24.9220     2.3800 
  202.7500   -16.3390    54.2600     7.4390     6.7910     7.2480    24.9010     2.3920 
  202.8750   -16.3530    56.2610     7.0910     6.5900     7.3530    24.8490     2.3930 
  203.0000   -16.3750    58.2660     6.8660     6.4330     7.2220    24.7250     2.3930 
  203.1250   -16.4070    60.0950     6.7930     6.3700     6.8180    24.6630     2.4030 
  203.2500   -16.4380    59.7070     6.7470     6.3260     6.3450    24.6840     2.4200 
  203.3750   -16.4700    57.0830     6.5690     6.1630     5.9910    24.8040     2.4400 
  203.5000   -16.5010    55.1170     6.1340     5.7540     5.7630    24.9700     2.4580 
  203.6250   -16.5300    54.0960     5.4140     5.0550     6.2020    25.0780     2.4780 
  203.7500   -16.5280    52.5880     4.6260     4.2640     6.5760    24.9840     2.5070 
  203.8750   -16.4660    50.7720     3.9820     3.5660     6.2990    24.8530     2.5320 
  204.0000   -16.3290    49.8590     3.6340     3.0860     4.9660    24.8120     2.5220 
  204.1250   -16.1080    50.0410     3.6760     2.9080     4.4700    24.5940     2.4660 
  204.2500   -15.8580    50.9430     3.9870     2.9510     4.3180    24.1100     2.4020 
  204.3750   -15.6160    51.3490     4.4310     3.1360     4.3860    23.8200     2.3470 
  204.5000   -15.3870    51.6430     4.8280     3.3540     4.6870    23.8600     2.3050 
  204.6250   -15.2090    52.6130     4.9780     3.4860     4.8960    23.7040     2.2800 
  204.7500   -15.1110    53.5170     4.9380     3.5310     4.8190    23.4390     2.2620 
  204.8750   -15.1360    54.7940     4.8710     3.5600     4.7540    23.3780     2.2310 
  205.0000   -15.2930    57.3600     4.9560     3.6670     4.8610    23.6280     2.1850 
  205.1250   -15.6160    62.6660     5.3500     3.9490     5.2540    23.8220     2.1590 
  205.2500   -16.0310    68.3520     6.0250     4.4120     6.0810    23.7860     2.1760 
  205.3750   -16.5050    73.0270     6.9260     5.0450     7.4330    23.8530     2.2300 
  205.5000   -17.0190    77.4760     7.9710     5.8120     8.9730    24.0710     2.3000 
  205.6250   -17.5630    81.8000     9.1320     6.6970    10.4080    24.1880     2.3570 
  205.7500   -18.1100    83.1620    10.4320     7.6870    12.0110    24.1210     2.3920 
  205.8750   -18.6300    81.6350    11.9420     8.8100    14.1410    24.0290     2.4070 
  206.0000   -19.1160    80.1380    13.6590    10.0720    16.3400    24.1130     2.4140 
  206.1250   -19.5090    79.8340    15.3480    11.3570    18.7290    24.3560     2.4240 
  206.2500   -19.8140    79.0290    16.5200    12.3480    20.8150    24.5020     2.4350 
  206.3750   -20.0230    77.2790    16.6850    12.6670    21.7600    24.4050     2.4400 
  206.5000   -20.1520    76.7810    15.6600    12.1100    20.2890    24.1190     2.4350 
  206.6250   -20.1710    79.4540    13.7460    10.8070    16.1370    23.9760     2.4220 
  206.7500   -20.1260    84.1480    11.8480     9.3880    12.2080    24.0810     2.4070 
  206.8750   -20.0410    87.5740    10.4940     8.2370     9.6830    24.3810     2.3950 
  207.0000   -19.9240    86.5920     9.9030     7.5460     8.6820    24.6700     2.3870 
  207.1250   -19.8340    83.0680    10.1680     7.4430     8.7310    24.7110     2.3850 
  207.2500   -19.7890    80.9690    10.9760     7.7830    10.2720    24.5060     2.3860 
  207.3750   -19.7580    79.3940    12.0780     8.4510    12.7110    24.1190     2.3890 
  207.5000   -19.7090    77.5810    13.2000     9.2870    14.2270    23.6700     2.3920 
  207.6250   -19.6150    78.0270    14.0860    10.1090    14.2810    23.2800     2.3950 
  207.7500   -19.4540    79.8090    14.7180    10.8160    14.6030    22.9010     2.4010 
  207.8750   -19.2160    81.2520    15.1650    11.4040    14.6740    22.5550     2.4090 
  208.0000   -18.9070    81.9710    15.5410    11.9140    14.6510    22.2800     2.4200 
  208.1250   -18.4690    82.3570    16.0450    12.4300    14.5060    22.1060     2.4350 
  208.2500   -17.9140    80.7320    16.9100    13.0870    15.5680    22.0860     2.4520 
  208.3750   -17.2590    77.9680    18.3640    14.0480    17.0180    22.3110     2.4700 
  208.5000   -16.5370    76.8550    20.4450    15.4110    17.9420    22.7940     2.4890 
  208.6250   -15.7800    76.0010    22.5740    16.9360    18.6910    23.4180     2.5070 
