~V
VERS. 2.00: Ver 2.00
~W
STRT.M 50.0000:
STOP.M 258.0000:
STEP.M 0.1250:
NULL. -999.2500:
UWI. F10200:
~C
DEPT.M :
SP.MV :
GR.API :
RML.OHMM :
RI. :
RXO.OHMM :
CALI.CM :
DEN.GM/CC :
~A
# ...
   61.2500   -16.4990    94.8690     4.8550     5.1570     5.6380    23.9020     2.2350 
   61.3750   -16.7900    97.0390     4.8890     5.1660     5.8750    23.8520     2.2300 
   61.5000   -17.1180    93.9760     4.9190     5.1880     6.1910    23.8190     2.2320 
   61.6250   -17.4950    89.3430     5.0750     5.3310     6.2640    23.8270     2.2360 
   61.7500   -17.9230    87.3620     5.4930     5.7130     6.2030    23.7880     2.2420 
   61.8750   -18.3810    84.8930     6.2830     6.4390     6.3770    23.6390     2.2550 
   62.0000   -18.8300    79.8050     7.4480     7.5310     7.2230    23.3970     2.2840 
   62.1250   -19.2260    73.7920     8.8100     8.8550     9.3510    23.1460     2.3370 
   62.2500   -19.5700    70.3630     9.9450    10.0240    12.7050    23.1090     2.3920 
   62.3750   -19.8720    71.1870    10.4720    10.6650    17.4140    23.2430     2.4170 
   62.5000   -20.1230    74.2580    10.1680    10.5300    22.7710    23.3970     2.3930 
   62.6250   -20.3110    77.4440     9.1100     9.6050    23.0130    23.3330     2.3310 
   62.7500   -20.4100    80.3350     7.9280     8.4440    16.7060    23.1600     2.2690 
   62.8750   -20.4220    82.4390     7.0040     7.4240    11.0880    23.0100     2.2250 
   63.0000   -20.3710    83.7610     6.4750     6.7220     8.0560    22.9010     2.2020 
   63.1250   -20.2600    83.6470     6.3170     6.3720     6.9290    22.8030     2.1920 
   63.2500   -20.1330    82.3550     6.3040     6.1990     6.4510    22.7440     2.1850 
   63.3750   -19.9680    80.6870     6.2940     6.0800     6.3430    22.7290     2.1790 
   63.5000   -19.7600    81.1760     6.1940     5.9230     6.3810    22.7290     2.1790 
   63.6250   -19.5440    86.5660     5.9810     5.6890     6.1630    22.6980     2.1910 
   63.7500   -19.3670    92.2960     5.7500     5.4320     5.4950    22.5890     2.2170 
   63.8750   -19.2470    95.7840     5.6030     5.2260     5.0860    22.5140     2.2530 
   64.0000   -19.1980    95.5770     5.6370     5.1480     4.9280    22.4810     2.2880 
   64.1250   -19.3040    93.0810     5.9380     5.2790     4.9860    22.4460     2.3030 
   64.2500   -19.5030    89.8950     6.4270     5.5770     5.3170    22.4610     2.2860 
   64.3750   -19.7710    83.7340     6.9920     5.9760     5.9970    22.6490     2.2440 
   64.5000   -20.0640    72.9640     7.4870     6.3730     7.0060    23.0800     2.1940 
   64.6250   -20.3040    64.0100     7.7350     6.6340     7.6620    23.5660     2.1600 
   64.7500   -20.4570    63.7350     7.7420     6.7250     7.6120    23.8570     2.1550 
   64.8750   -20.5500    69.4760     7.6010     6.6900     7.3470    23.9780     2.1770 
   65.0000   -20.6020    74.8020     7.4670     6.6310     7.0590    24.0360     2.2090 
   65.1250   -20.6150    76.9730     7.5200     6.6760     6.8860    24.0420     2.2250 
   65.2500   -20.6460    77.8230     7.7770     6.8570     7.0890    23.9830     2.2200 
   65.3750   -20.7250    77.8650     8.1690     7.1410     7.5830    23.8810     2.2010 
   65.5000   -20.8840    77.7490     8.5800     7.4490     8.2260    23.7770     2.1810 
   65.6250   -21.1060    77.9780     8.8610     7.6700     8.8130    23.6580     2.1750 
   65.7500   -21.4330    76.5350     8.9660     7.7550     9.1610    23.4300     2.1810 
   65.8750   -21.8480    73.4990     8.9140     7.7030     9.2870    23.1010     2.1920 
   66.0000   -22.2930    69.4830     8.7600     7.5520     9.3470    22.7600     2.2010 
   66.1250   -22.7350    65.3710     8.5590     7.3460     9.2970    22.7350     2.2030 
   66.2500   -23.1030    62.9430     8.3470     7.1270     9.0870    22.8870     2.1970 
   66.3750   -23.3990    63.5210     8.1430     6.9200     8.8960    23.0340     2.1850 
   66.5000   -23.5920    67.2880     8.0020     6.7660     8.8400    23.1780     2.1680 
   66.6250   -23.7050    70.5330     8.1060     6.7880     8.9810    23.3070     2.1500 
   66.7500   -23.7480    69.5810     8.6170     7.0980     9.3780    23.4110     2.1380 
   66.8750   -23.6430    64.7620     9.6450     7.7920    10.0360    23.4850     2.1440 
   67.0000   -23.4100    60.6800    11.1440     8.8720    11.4850    23.5430     2.1790 
   67.1250   -23.0640    61.7410    12.8030    10.1810    14.3180    23.5480     2.2430 
   67.2500   -22.6450    64.4560    14.0490    11.3050    19.4650    23.4820     2.3150 
   67.3750   -22.1530    64.0670    14.4090    11.8500    26.2790    23.2770     2.3660 
   67.5000   -21.6330    61.4620    13.6810    11.5630    24.3360    23.0290     2.3730 
   67.6250   -21.1180    61.8170    12.0560    10.4590    14.3910    22.7980     2.3350 
   67.7500   -20.6020    64.9920    10.3380     9.1440     9.9470    22.6410     2.2850 
   67.8750   -20.1460    68.1300     9.0120     8.0160     8.6910    22.4830     2.2400 
   68.0000   -19.7690    69.5870     8.2450     7.2580     8.3710    22.3370     2.2100 
   68.1250   -19.4440    71.1740     8.0060     6.9120     8.1910    22.2330     2.1940 
   68.2500   -19.1690    72.9970     8.0110     6.8040     8.0310    22.1640     2.1860 
   68.3750   -18.9540    73.4830     8.1100     6.8300     7.9480    22.0780     2.1830 
   68.5000   -18.8090    72.8860     8.2080     6.9080     7.9340    21.9540     2.1820 
   68.6250   -18.7460    72.8110     8.2570     6.9820     8.0300    21.8440     2.1840 
   68.7500   -18.7620    73.2410     8.2640     7.0290     8.1300    21.7960     2.1890 
   68.8750   -18.8330    72.0050     8.2550     7.0520     8.2390    21.8620     2.1960 
   69.0000   -18.9220    68.5330     8.2550     7.0630     8.3420    22.0950     2.2030 
   69.1250   -19.0120    64.9640     8.2830     7.0700     8.4490    22.3840     2.2040 
   69.2500   -19.0990    64.5720     8.3220     7.0710     8.7260    22.7460     2.1970 
   69.3750   -19.1650    66.6350     8.3370     7.0500     9.2500    23.0230     2.1800 
   69.5000   -19.2020    69.2960     8.2920     6.9850     9.7370    23.1980     2.1600 
   69.6250   -19.2160    71.5470     8.1500     6.8590     9.0630    23.3520     2.1430 
   69.7500   -19.1970    74.3330     7.9560     6.6980     8.4980    23.3990     2.1340 
   69.8750   -19.1580    75.9760     7.7950     6.5590     8.2490    23.3810     2.1340 
   70.0000   -19.1210    73.3990     7.7980     6.5270     8.2060    23.3610     2.1390 
   70.1250   -19.1020    69.3620     8.1710     6.7510     8.2890    23.3420     2.1510 
   70.2500   -19.1240    67.4960     8.9220     7.2590     8.6070    23.2880     2.1740 
   70.3750   -19.2150    65.2630     9.9480     8.0070     9.4150    23.2370     2.2170 
   70.5000   -19.3910    60.4470    10.9930     8.8410    10.7370    23.2270     2.2800 
   70.6250   -19.6590    55.6960    11.6200     9.4520    13.0590    23.2150     2.3340 
   70.7500   -19.9950    55.9540    11.6000     9.6170    16.3010    23.1000     2.3470 
   70.8750   -20.3710    58.2320    10.9310     9.2650    17.6370    23.0050     2.3130 
   71.0000   -20.7410    57.7750     9.8710     8.5380    13.8390    22.9630     2.2540 
   71.1250   -21.0820    54.0340     8.8680     7.7430    10.4940    22.8940     2.2040 
   71.2500   -21.3990    52.4430     8.2040     7.1370     9.2200    22.8340     2.1770 
   71.3750   -21.6910    53.9430     7.9110     6.7870     8.9160    22.7500     2.1690 
   71.5000   -21.9490    55.5310     7.8790     6.6490     9.0380    22.6750     2.1680 
   71.6250   -22.1590    55.7600     7.9460     6.6350     9.4380    22.6530     2.1620 
   71.7500   -22.3150    54.8260     7.9690     6.6270    10.0340    22.8470     2.1510 
   71.8750   -22.4310    52.8970     7.9150     6.5850    10.5280    23.1890     2.1410 
   72.0000   -22.5540    50.7790     7.8060     6.5050    10.3550    23.5290     2.1350 
   72.1250   -22.6830    51.1770     7.6830     6.4080     9.7350    23.7950     2.1340 
   72.2500   -22.7540    53.9950     7.5790     6.3180     8.9320    23.9580     2.1360 
   72.3750   -22.7270    56.6520     7.5060     6.2440     8.5520    23.9760     2.1360 
