~V
VERS. 2.00: Ver 2.00
~W
STRT.M 50.0000:
STOP.M 284.0000:
STEP.M 0.1250:
NULL. -999.2500:
UWI. F10254:
~C
DEPT.M :
GR.API :
RML.OHMM :
RI. :
RXO.OHMM :
CALI.CM :
DEN.GM/CC :
SP.MV :
~A
# ...
  263.7500    47.2150     7.2980     7.1580     7.8470    24.9120     2.4690     1.9810 
  263.8750    48.6570     7.1210     7.0040     7.7210    24.9410     2.4620     2.1420 
  264.0000    50.2500     7.0100     6.8820     7.5720    25.0080     2.4580     2.3030 
  264.1250    49.1030     6.9720     6.8160     7.5030    25.0710     2.4540     2.4870 
  264.2500    47.0010     6.9600     6.7790     7.7840    25.1360     2.4510     2.6780 
  264.3750    46.0810     6.9530     6.7550     8.3590    25.2130     2.4520     2.8240 
  264.5000    46.3940     6.9480     6.7380     8.4930    25.2610     2.4610     2.9420 
  264.6250    47.5950     6.9680     6.7460     7.8780    25.2620     2.4800     2.9940 
  264.7500    48.7440     7.0320     6.7940     7.4900    25.2380     2.5010     2.9870 
  264.8750    49.4190     7.1450     6.8900     7.6930    25.2180     2.5190     2.9710 
  265.0000    49.1370     7.2990     7.0300     7.9100    25.2130     2.5290     2.9350 
  265.1250    48.5310     7.4680     7.1870     8.1270    25.2100     2.5280     2.8730 
  265.2500    48.2410     7.5970     7.3100     8.4540    25.1810     2.5220     2.7980 
  265.3750    49.0130     7.6320     7.3450     8.4430    25.1540     2.5130     2.7580 
  265.5000    51.2160     7.5390     7.2610     8.2330    25.1420     2.5040     2.7400 
  265.6250    53.5370     7.3060     7.0390     7.8260    25.1370     2.4930     2.7480 
  265.7500    54.5550     6.9930     6.7330     7.5870    25.1240     2.4830     2.7980 
  265.8750    53.9660     6.6450     6.3780     7.2680    25.1000     2.4750     2.8490 
  266.0000    52.1140     6.2830     5.9980     6.8260    25.0820     2.4670     2.8760 
  266.1250    50.9140     5.9040     5.5980     6.5040    25.0660     2.4580     2.9040 
  266.2500    52.6100     5.5130     5.1910     6.2080    25.0430     2.4440     2.8960 
  266.3750    56.3300     5.1380     4.8090     6.0420    25.0210     2.4260     2.8440 
  266.5000    58.9060     4.8350     4.4960     5.7400    25.0100     2.4060     2.7530 
  266.6250    59.5580     4.7140     4.3410     5.2150    25.0110     2.3930     2.6290 
  266.7500    60.5210     4.8260     4.3820     5.1150    25.0300     2.3890     2.5020 
  266.8750    63.0470     5.2000     4.6480     5.5490    25.0920     2.3910     2.3850 
  267.0000    68.8740     5.8130     5.1390     6.3710    25.1830     2.3930     2.2710 
  267.1250    80.3130     6.5800     5.8240     7.5270    25.2470     2.3900     2.1730 
  267.2500    93.6800     7.3010     6.5400     8.7880    25.2690     2.3840     2.1240 
  267.3750   103.3460     7.8190     7.1350     9.0230    25.2730     2.3770     2.1150 
  267.5000   105.7810     8.0720     7.5080     8.6310    25.2730     2.3750     2.1410 
  267.6250   101.3070     8.0900     7.6290     8.7210    25.2730     2.3790     2.2020 
  267.7500    95.4360     8.0180     7.6090     9.1730    25.2730     2.3860     2.2770 
  267.8750    91.7710     7.9170     7.5110     9.2960    25.2690     2.3930     2.3380 
  268.0000    91.3680     7.8090     7.3730     8.9720    25.2570     2.3960     2.4080 
  268.1250    93.2100     7.6990     7.2150     8.6860    25.2330     2.3940     2.4690 
  268.2500    94.7330     7.6040     7.0630     8.5680    25.2270     2.3880     2.5180 
  268.3750    94.3160     7.5560     6.9480     8.4460    25.2440     2.3810     2.5720 
  268.5000    92.7620     7.5870     6.9040     8.3340    25.2560     2.3750     2.6220 
  268.6250    93.4380     7.7040     6.9530     8.4450    25.2440     2.3740     2.6500 
  268.7500    96.2560     7.8360     7.0410     8.6230    25.2310     2.3750     2.6710 
  268.8750    99.2910     7.8990     7.0980     8.9170    25.2440     2.3760     2.7610 
  269.0000   102.3350     7.8150     7.0500     9.0820    25.2610     2.3740     2.9350 
  269.1250   103.9020     7.5200     6.8300     8.4420    25.2670     2.3660     3.1580 
  269.2500   102.6770     7.0990     6.4920     7.7900    25.2650     2.3600     3.3910 
  269.3750    99.9980     6.6510     6.1120     7.0140    25.2640     2.3600     3.6040 
  269.5000    97.7170     6.2710     5.7660     6.2970    25.2640     2.3680     3.8080 
  269.6250    95.4290     6.0290     5.5190     6.0720    25.2640     2.3810     4.0340 
  269.7500    91.8500     5.8960     5.3620     6.0540    25.2640     2.3920     4.2380 
  269.8750    89.8170     5.8310     5.2730     5.9870    25.2640     2.3980     4.3920 
  270.0000    91.9200     5.7950     5.2240     5.8570    25.2640     2.3990     4.4850 
  270.1250    94.6740     5.7650     5.2000     5.7180    25.2640     2.3970     4.5320 
  270.2500    94.2520     5.7450     5.1920     5.6160    25.2640     2.3940     4.5730 
  270.3750    91.7950     5.7430     5.2010     5.6250    25.2640     2.3910     4.6280 
  270.5000    89.3950     5.7610     5.2230     5.7950    25.2640     2.3870     4.7000 
  270.6250    86.4120     5.7840     5.2460     5.8820    25.2640     2.3840     4.7990 
  270.7500    83.6470     5.7900     5.2500     5.9260    25.2640     2.3810     4.9440 
  270.8750    84.4870     5.7680     5.2300     5.8950    25.2640     2.3780     5.0840 
  271.0000    88.0750     5.7220     5.1850     5.7860    25.2640     2.3740     5.1950 
  271.1250    89.7730     5.6690     5.1290     5.7000    25.2640     2.3680     5.2550 
  271.2500    89.2150     5.6250     5.0770     5.7040    25.2640     2.3630     5.2990 
  271.3750    88.7710     5.6020     5.0390     5.7130    25.2640     2.3600     5.3580 
  271.5000    88.7420     5.5980     5.0180     5.7100    25.2640     2.3610     5.4290 
  271.6250    88.4020     5.6100     5.0120     5.6390    25.2560     2.3620     5.4330 
  271.7500    88.5490     5.6230     5.0130     5.5720    25.2370     2.3610     5.3740 
  271.8750    89.8640     5.6290     5.0130     5.5630    25.2200     2.3580     5.2760 
  272.0000    90.7520     5.6280     5.0110     5.6110    25.2230     2.3560     5.1560 
  272.1250    88.8750     5.6210     5.0110     5.6820    25.2490     2.3580     5.0550 
  272.2500    86.5860     5.6160     5.0170     5.6730    25.2530     2.3620     4.9310 
  272.3750    85.4950     5.6160     5.0340     5.6180    25.1970     2.3680     4.7830 
  272.5000    85.0740     5.6240     5.0610     5.6010    25.0630     2.3750     4.6410 
  272.6250    84.3490     5.6400     5.0950     5.6480    24.9200     2.3820     4.5650 
  272.7500    85.3620     5.6590     5.1300     5.7320    24.9200     2.3900     4.5080 
  272.8750    87.8630     5.6760     5.1630     5.7910    24.9390     2.3980     4.4700 
  273.0000    88.5880     5.6880     5.1920     5.8020    24.9430     2.4040     4.4520 
  273.1250    85.6530     5.6930     5.2190     5.8340    24.9910     2.4070     4.4300 
  273.2500    82.6180     5.6930     5.2410     5.9260    25.1040     2.4050     4.4100 
  273.3750    81.4080     5.6850     5.2540     5.9780    25.2170     2.4020     4.3760 
  273.5000    81.7840     5.6590     5.2500     6.0030    25.2670     2.4000     4.3220 
  273.6250    82.6980     5.6070     5.2250     6.0110    25.2690     2.3990     4.2360 
  273.7500    82.6980     5.5450     5.1910     5.9290    25.2700     2.3980     4.1270 
  273.8750    82.6980     5.4920     5.1600     5.7870    25.2710     2.3950     4.0180 
  274.0000    82.6980     5.4650     5.1440     5.7150    25.2720     2.3900     3.9250 
  274.1250    82.6980     5.4720     5.1510     5.7080    25.2710     2.3840     3.8470 
  274.2500    82.6980     5.4950     5.1690     5.8180    25.2680     2.3800     3.7910 
  274.3750    82.6980     5.5170     5.1900     5.9070    25.2650     2.3750     3.7610 
  274.5000    82.6980     5.5270     5.2060     5.7860    25.2640     2.3700     3.7230 
  274.6250    82.6980     5.5210     5.2160     5.7350    25.2640     2.3650     3.6400 
  274.7500    82.6980     5.5110     5.2270     5.8020    25.2640     2.3630     3.5510 
  274.8750    82.6980     5.5050     5.2460     5.9300    25.2600     2.3640     3.4460 
