~V
VERS. 2.00: Ver 2.00
~W
STRT.M 40.0000:
STOP.M 276.0000:
STEP.M 0.1250:
NULL. -999.2500:
UWI. F10236:
~C
DEPT.M :
SP.MV :
GR.API :
RML.OHMM :
RI. :
RXO.OHMM :
CALI.CM :
DEN.GM/CC :
~A
# ...
  152.5000    -9.8020    94.1870     5.2570     3.5160     5.6400    25.1470     2.3150 
  152.6250    -9.8500    91.6770     5.3720     3.6520     5.2570    25.2460     2.3210 
  152.7500    -9.8980    88.9650     5.4700     3.7730     5.1440    25.2230     2.3240 
  152.8750    -9.9330    89.1410     5.5330     3.8550     5.3950    25.0510     2.3250 
  153.0000    -9.9520    90.6270     5.5310     3.8790     5.9650    24.8820     2.3290 
  153.1250    -9.9460    92.0790     5.4340     3.8380     5.9570    24.8900     2.3280 
  153.2500    -9.9330    92.8550     5.2880     3.7660     5.3700    25.0560     2.3170 
  153.3750    -9.9110    93.3400     5.1540     3.6940     4.9190    25.2280     2.3020 
  153.5000    -9.8830    95.7650     5.0980     3.6540     4.8530    25.2260     2.2940 
  153.6250    -9.8630    96.1260     5.1600     3.6700     4.9610    25.1120     2.2930 
  153.7500    -9.8490    92.7710     5.2810     3.7250     5.0700    25.1280     2.2970 
  153.8750    -9.8390    89.0630     5.3780     3.7880     5.1650    25.4220     2.3020 
  154.0000    -9.8450    90.3110     5.3800     3.8190     5.2380    25.7920     2.3060 
  154.1250    -9.8750    98.0280     5.2410     3.7680     5.3270    25.8780     2.3070 
  154.2500    -9.9080   105.0900     5.0240     3.6520     5.7120    25.5980     2.3100 
  154.3750    -9.9730   108.3750     4.8010     3.5100     6.3200    25.3270     2.3170 
  154.5000   -10.0570   106.4820     4.6370     3.3940     5.5930    25.2550     2.3270 
  154.6250   -10.1510   100.4530     4.5800     3.3480     4.8410    25.3630     2.3320 
  154.7500   -10.2570    97.3460     4.6120     3.3690     4.9290    25.3870     2.3330 
  154.8750   -10.3770    96.8070     4.7200     3.4440     5.9010    25.2390     2.3320 
  155.0000   -10.4880    94.8420     4.9010     3.5680     6.4540    24.9530     2.3300 
  155.1250   -10.6110    90.1160     5.1830     3.7600     6.2860    24.7830     2.3290 
  155.2500   -10.7340    86.8720     5.5690     4.0280     5.6500    24.7430     2.3280 
  155.3750   -10.8440    85.6130     6.0550     4.3730     5.8000    24.8130     2.3240 
  155.5000   -10.9380    82.8840     6.6030     4.7730     6.8000    24.9190     2.3170 
  155.6250   -11.0320    80.6520     7.1260     5.1750     8.0810    24.9680     2.3090 
  155.7500   -11.0950    81.9190     7.5540     5.5320     8.3910    24.9720     2.3030 
  155.8750   -11.1450    83.7190     7.8720     5.8280     8.2310    24.9500     2.2990 
  156.0000   -11.1800    84.6060     8.1480     6.0930     8.3040    24.8970     2.2950 
  156.1250   -11.2020    85.8750     8.5610     6.4250     8.8890    24.8640     2.2880 
  156.2500   -11.2120    85.6390     9.2530     6.9250     9.7560    24.8370     2.2790 
  156.3750   -11.2180    82.3160    10.3020     7.6590    10.6740    24.8070     2.2680 
  156.5000   -11.2150    79.0530    11.6930     8.6450    11.6920    24.7720     2.2550 
  156.6250   -11.2020    78.3320    13.3290     9.8660    14.2230    24.8320     2.2400 
  156.7500   -11.1950    76.9060    14.9290    11.1440    17.5320    24.9880     2.2240 
  156.8750   -11.1840    73.9720    16.2190    12.2770    18.3410    25.1270     2.2120 
  157.0000   -11.1640    72.5790    16.9680    13.0610    16.6300    25.1200     2.2100 
  157.1250   -11.1500    75.2250    17.0090    13.3110    15.7850    25.1690     2.2170 
  157.2500   -11.1410    78.4920    16.6230    13.1910    15.6990    25.3540     2.2240 
  157.3750   -11.1380    80.4990    16.1280    12.9200    14.5410    25.5250     2.2290 
  157.5000   -11.1370    81.3190    15.8720    12.7530    12.9680    25.5560     2.2350 
  157.6250   -11.1630    80.5520    16.2590    12.9860    13.3010    25.4990     2.2510 
  157.7500   -11.1970    78.1890    17.3910    13.7330    14.9640    25.4730     2.2700 
  157.8750   -11.2460    74.6240    19.3370    15.0970    18.4950    25.4890     2.2770 
  158.0000   -11.3310    70.6920    22.0320    17.1120    24.2760    25.5480     2.2680 
  158.1250   -11.4170    67.5650    25.1920    19.7040    27.3070    25.6490     2.2470 
  158.2500   -11.5100    66.4420    28.1400    22.3640    26.8410    25.7170     2.2280 
  158.3750   -11.6120    67.2130    30.3080    24.5940    25.5920    25.7090     2.2150 
  158.5000   -11.7380    67.4660    31.3650    26.0100    26.1000    25.6910     2.2050 
  158.6250   -11.8430    64.4630    31.1920    26.3630    27.4280    25.7100     2.2010 
  158.7500   -11.9600    61.2580    30.3530    26.0220    28.2400    25.7260     2.2010 
  158.8750   -12.0580    61.2620    29.2920    25.3310    26.8430    25.6770     2.2000 
  159.0000   -12.1450    63.8990    28.4010    24.6330    24.9500    25.6020     2.1990 
  159.1250   -12.2210    67.3650    28.0640    24.2770    24.3290    25.5520     2.1980 
  159.2500   -12.3240    70.2030    28.3050    24.3600    24.8040    25.5610     2.1970 
  159.3750   -12.4180    71.3450    29.0170    24.8620    26.3840    25.6140     2.1930 
  159.5000   -12.4970    70.4350    29.9990    25.6580    28.1480    25.6800     2.1860 
  159.6250   -12.5800    68.9460    31.1100    26.6470    29.2150    25.7300     2.1820 
  159.7500   -12.6610    69.4830    32.3810    27.8030    29.2580    25.7550     2.1840 
  159.8750   -12.7590    70.8800    34.0170    29.2490    29.4830    25.7510     2.1900 
  160.0000   -12.8610    69.2410    36.2780    31.1710    31.0950    25.7490     2.1950 
  160.1250   -12.9720    63.7850    39.4650    33.8570    34.5160    25.7610     2.1940 
  160.2500   -13.0650    59.0870    43.2100    37.0950    38.5620    25.7460     2.1920 
  160.3750   -13.1570    58.4030    46.8370    40.3710    40.5700    25.6890     2.1930 
  160.5000   -13.2560    61.1160    49.4560    42.9150    41.1430    25.6420     2.1970 
  160.6250   -13.3360    63.4920    50.0900    43.8240    43.5300    25.5800     2.2040 
  160.7500   -13.3950    64.2800    49.0850    43.2900    45.7540    25.3260     2.2110 
  160.8750   -13.4410    64.0260    47.1430    41.8390    40.1700    24.7140     2.2200 
  161.0000   -13.4800    63.5740    45.1720    40.2050    28.0900    23.9830     2.2320 
  161.1250   -13.5130    64.3280    44.0700    39.1210    24.1560    23.5050     2.2380 
  161.2500   -13.5460    65.3160    44.0500    38.8270    23.7280    23.4520     2.2370 
  161.3750   -13.5650    65.1940    45.0670    39.3700    24.9550    23.7230     2.2350 
  161.5000   -13.5690    63.8970    46.7450    40.5520    28.1680    24.2260     2.2370 
  161.6250   -13.5770    62.4390    48.2070    41.7600    33.5200    24.7950     2.2430 
  161.7500   -13.5810    61.5980    48.5800    42.2290    39.9030    25.2320     2.2470 
  161.8750   -13.5850    61.5050    47.5240    41.6040    43.5100    25.4290     2.2440 
  162.0000   -13.5860    62.8980    45.2770    40.0140    43.7460    25.4710     2.2360 
  162.1250   -13.5820    66.7060    42.5390    37.9720    39.6960    25.4150     2.2330 
  162.2500   -13.5540    70.4200    40.2270    36.2110    35.3880    25.3050     2.2340 
  162.3750   -13.5360    71.7580    38.7690    35.1030    34.1250    25.1790     2.2350 
  162.5000   -13.5110    71.1730    38.2060    34.7330    34.2920    25.0500     2.2330 
  162.6250   -13.5010    69.9020    38.3620    35.0120    33.6070    24.7960     2.2310 
  162.7500   -13.4790    69.3530    38.7640    35.5500    32.2140    24.4590     2.2320 
  162.8750   -13.4570    69.8450    39.1350    36.0880    29.6930    24.1770     2.2320 
  163.0000   -13.4170    70.3670    39.1990    36.3680    27.1000    23.9470     2.2290 
  163.1250   -13.3740    70.1390    38.2720    35.7840    27.0810    23.9750     2.2250 
  163.2500   -13.3090    70.8050    35.8560    33.8400    28.3990    24.2860     2.2280 
  163.3750   -13.2450    73.5140    31.8160    30.3390    28.8820    24.6570     2.2400 
  163.5000   -13.1710    75.6430    26.7430    25.7790    26.3870    24.8320     2.2580 
  163.6250   -13.0990    75.5660    21.8530    21.2670    19.4590    24.7130     2.2840 
