~V
VERS. 2.00: Ver 2.00
~W
STRT.M 56.0000:
STOP.M 284.0000:
STEP.M 0.1250:
NULL. -999.2500:
UWI. F10233:
~C
DEPT.M :
GR.API :
RML.OHMM :
RI. :
RXO.OHMM :
CALI.CM :
DEN.GM/CC :
SP.MV :
~A
# ...
  112.2500    74.4030     8.0760     5.9310     7.7750    23.5350     2.2150   -13.5250 
  112.3750    72.0400     8.2880     6.0990     7.4820    23.5390     2.2220   -13.1650 
  112.5000    69.9280     8.5080     6.3050     7.1760    23.5630     2.2370   -12.7960 
  112.6250    68.5900     8.7100     6.5240     8.1390    23.5850     2.2600   -12.4550 
  112.7500    69.4110     8.9240     6.7590     9.2970    23.5300     2.2800   -12.1340 
  112.8750    74.0070     9.1860     7.0320     9.3340    23.4620     2.2870   -11.7610 
  113.0000    77.8140     9.4840     7.3350     8.5570    23.4730     2.2770   -11.3190 
  113.1250    75.7400     9.6870     7.5740     7.9850    23.6560     2.2580   -10.8610 
  113.2500    72.9170     9.6370     7.6230     8.0430    23.9630     2.2400   -10.3550 
  113.3750    75.4740     9.2380     7.4000     8.2260    24.1940     2.2250    -9.7790 
  113.5000    80.9980     8.5260     6.9170     7.6760    24.2320     2.2180    -9.2260 
  113.6250    84.2690     7.6800     6.2870     6.0640    24.1020     2.2300    -8.7800 
  113.7500    86.3460     6.9380     5.6870     5.6890    24.0050     2.2600    -8.4080 
  113.8750    88.8240     6.3940     5.2030     5.8430    24.0470     2.2960    -8.0770 
  114.0000    91.9300     6.0540     4.8580     5.8400    24.1710     2.3210    -7.8220 
  114.1250    93.6730     5.8810     4.6550     5.4090    24.2740     2.3280    -7.6410 
  114.2500    94.5070     5.7780     4.5300     5.1800    24.2850     2.3280    -7.5630 
  114.3750    96.0270     5.7000     4.4470     4.9840    24.2150     2.3280    -7.6320 
  114.5000    96.7840     5.6320     4.3880     4.7600    24.0430     2.3240    -7.7610 
  114.6250    95.9530     5.5760     4.3610     4.8320    23.7990     2.3170    -7.9450 
  114.7500    94.6030     5.5370     4.3740     5.0860    23.6080     2.3130    -8.1730 
  114.8750    95.3340     5.5460     4.4430     5.1660    23.5390     2.3130    -8.4210 
  115.0000    98.3480     5.6620     4.5880     5.0980    23.5230     2.3180    -8.7750 
  115.1250    98.9620     5.9630     4.8450     5.1160    23.4920     2.3220    -9.2370 
  115.2500    95.6310     6.4240     5.1930     5.4360    23.4310     2.3240    -9.6690 
  115.3750    90.2440     6.9710     5.5920     6.0970    23.3490     2.3200   -10.1650 
  115.5000    85.8650     7.4740     5.9640     7.2910    23.2590     2.3030   -10.7530 
  115.6250    81.7710     7.7430     6.1830     7.1470    23.2240     2.2760   -11.2740 
  115.7500    77.2120     7.7400     6.2110     7.0190    23.2150     2.2510   -11.7750 
  115.8750    75.2790     7.5120     6.0710     6.7830    23.2340     2.2360   -12.2980 
  116.0000    77.7090     7.1660     5.8320     6.4880    23.3470     2.2270   -12.7300 
  116.1250    81.4390     6.8260     5.5780     6.3100    23.6430     2.2190   -13.0720 
  116.2500    81.6320     6.5900     5.3780     6.3170    23.9670     2.2170   -13.4450 
  116.3750    77.3350     6.5610     5.3040     6.2490    24.1260     2.2280   -13.7300 
  116.5000    72.0650     6.9050     5.4640     6.1400    24.1470     2.2550   -13.9090 
  116.6250    68.8120     7.9450     6.0940     6.8030    24.1580     2.3090   -14.1130 
  116.7500    66.9280     9.7190     7.2740     8.2320    24.2560     2.3900   -14.3120 
  116.8750    66.0480    12.1270     9.0310    11.5570    24.3560     2.4790   -14.4780 
  117.0000    65.7980    14.6920    11.1330    19.6140    24.3450     2.5240   -14.6410 
  117.1250    64.6110    16.1940    12.7290    28.9750    24.2430     2.4580   -14.8440 
  117.2500    62.3700    15.8760    13.0010    25.0840    24.0850     2.3350   -15.0870 
  117.3750    61.1160    14.0070    11.9270    14.7530    23.9220     2.2280   -15.3530 
  117.5000    62.4440    11.6520    10.2320     9.6010    23.7890     2.1710   -15.6360 
  117.6250    65.5040     9.9110     8.7640     8.4690    23.7130     2.1610   -15.9540 
  117.7500    68.3160     8.9990     7.8250     8.2200    23.7300     2.1680   -16.2560 
  117.8750    69.9590     8.7590     7.3890     8.0970    23.7570     2.1770   -16.5310 
  118.0000    70.5970     8.9080     7.3040     8.0670    23.7340     2.1810   -16.8450 
  118.1250    70.9730     9.1600     7.3870     8.0710    23.6780     2.1780   -17.2070 
  118.2500    69.9350     9.3210     7.4610     8.0190    23.6030     2.1720   -17.5140 
  118.3750    68.3060     9.3590     7.4790     7.9930    23.5390     2.1690   -17.7790 
  118.5000    67.7470     9.3090     7.4500     8.1040    23.5740     2.1700   -18.0230 
  118.6250    69.6100     9.2310     7.4060     8.1160    23.7220     2.1770   -18.2250 
  118.7500    71.8450     9.1760     7.3740     8.1700    23.8390     2.1860   -18.4360 
  118.8750    73.5860     9.1590     7.3560     8.2710    23.8680     2.1910   -18.6600 
  119.0000    73.1350     9.1750     7.3460     8.4500    23.8640     2.1910   -18.8170 
  119.1250    69.5090     9.2070     7.3410     8.6930    23.8790     2.1810   -18.8970 
  119.2500    65.2110     9.2430     7.3410     8.7820    23.9190     2.1660   -18.9640 
  119.3750    62.8790     9.2840     7.3380     8.5750    23.9540     2.1520   -19.0040 
  119.5000    62.7250     9.3200     7.3210     8.3590    23.9620     2.1450   -18.9940 
  119.6250    63.5870     9.3310     7.2800     8.3070    23.9430     2.1450   -18.9400 
  119.7500    64.1140     9.3040     7.2240     8.2490    23.9180     2.1470   -18.8450 
  119.8750    64.6050     9.2340     7.1630     8.2190    23.9530     2.1510   -18.7230 
  120.0000    65.9600     9.1310     7.1110     8.1490    23.9900     2.1550   -18.5800 
  120.1250    66.5300     9.0150     7.0720     8.1390    23.9990     2.1590   -18.3520 
  120.2500    66.2980     8.9070     7.0330     8.1440    24.0010     2.1630   -18.0850 
  120.3750    66.9620     8.8280     6.9920     8.0920    24.0000     2.1630   -17.8460 
  120.5000    69.2860     8.7960     6.9600     8.0210    23.9510     2.1630   -17.6280 
  120.6250    71.5920     8.8290     6.9610     7.9410    23.8180     2.1670   -17.3360 
  120.7500    72.1860     8.8930     7.0010     7.8250    23.6240     2.1820   -17.0270 
  120.8750    70.9580     8.9530     7.0700     7.6060    23.3310     2.2070   -16.7120 
  121.0000    68.3200     8.9800     7.1340     7.3910    23.0300     2.2300   -16.3770 
  121.1250    66.1940     8.9510     7.1430     7.5090    22.9240     2.2220   -16.0810 
  121.2500    65.8270     8.8930     7.0970     7.7170    23.0290     2.1900   -15.7790 
  121.3750    66.1830     8.8360     7.0180     7.6910    23.3440     2.1570   -15.3900 
  121.5000    67.3960     8.7870     6.9320     7.6530    23.8340     2.1410   -14.9310 
  121.6250    70.1110     8.6870     6.8160     7.7840    24.1960     2.1450   -14.4850 
  121.7500    72.4960     8.4380     6.6060     7.9360    24.3280     2.1630   -13.9510 
  121.8750    73.9520     7.9640     6.2380     7.8240    24.4380     2.1920   -13.2840 
  122.0000    77.6170     7.2600     5.7010     7.2140    24.6390     2.2280   -12.5870 
  122.1250    85.9210     6.4310     5.0650     6.0410    24.7890     2.2590   -11.8780 
  122.2500    92.5240     5.7010     4.4820     5.0860    24.8050     2.2750   -11.1680 
  122.3750    93.3790     5.2350     4.0690     4.7250    24.7560     2.2730   -10.5460 
  122.5000    91.8360     5.1480     3.9100     4.6220    24.7330     2.2540   -10.0360 
  122.6250    94.8410     5.5610     4.1110     4.7910    24.7620     2.2470    -9.6090 
  122.7500    97.1340     6.3420     4.6150     5.2110    24.7460     2.2810    -9.3280 
  122.8750    92.3840     7.3030     5.3340     5.7680    24.4990     2.3560    -9.2260 
  123.0000    83.0650     8.1260     6.0690     6.1820    24.0250     2.4370    -9.1880 
  123.1250    79.3080     8.3460     6.4570     6.2550    23.4480     2.4520    -9.1760 
  123.2500    82.5680     7.9410     6.3540     6.0120    22.8910     2.4120    -9.1820 
  123.3750    89.1690     7.1450     5.8470     5.4750    22.4900     2.3700    -9.1380 
