~V
VERS. 2.00: Ver 2.00
~W
STRT.M 52.0000:
STOP.M 254.0000:
STEP.M 0.1250:
NULL. -999.2500:
UWI. F10213:
~C
DEPT.M :
DEN.GM/CC :
GR.API :
RML.OHMM :
RI. :
RXO.OHMM :
CALI.CM :
SP.MV :
~A
# ...
  108.2500     2.2040    63.1780    10.9850     9.2590    10.9360    21.2850   -40.4910 
  108.3750     2.1990    65.2170    10.9680     9.2000    10.6480    21.2380   -40.4100 
  108.5000     2.1960    67.9490    11.0640     9.2190    10.3910    21.2760   -40.3500 
  108.6250     2.2010    68.9900    11.2770     9.3270    10.0110    21.3040   -40.4010 
  108.7500     2.2070    68.4250    11.5140     9.4660     9.7950    21.2740   -40.5580 
  108.8750     2.2080    66.3200    11.6770     9.5700    10.1470    21.2040   -40.7930 
  109.0000     2.2020    64.4610    11.6870     9.5790    10.8790    21.1710   -41.0640 
  109.1250     2.1950    63.2910    11.5010     9.4460    11.0960    21.1760   -41.3120 
  109.2500     2.1930    61.2970    11.2130     9.2220    11.0420    21.1780   -41.5710 
  109.3750     2.1960    59.7890    10.9170     8.9610    10.8990    21.1610   -41.7750 
  109.5000     2.2010    58.9980    10.7180     8.7400    10.8090    21.1480   -41.8700 
  109.6250     2.2040    58.8550    10.7580     8.6780    10.7880    21.1370   -41.8090 
  109.7500     2.2100    58.3930    11.0650     8.8260    10.8230    21.1210   -41.5500 
  109.8750     2.2220    59.0050    11.6190     9.1970    10.9610    21.1000   -41.1890 
  110.0000     2.2360    61.8500    12.3170     9.7420    11.2920    21.0550   -40.7470 
  110.1250     2.2510    64.8450    12.9180    10.3140    11.9290    20.9570   -40.2310 
  110.2500     2.2650    66.2290    13.1850    10.7030    12.4130    20.8460   -39.6480 
  110.3750     2.2660    66.1780    13.0170    10.7790    11.7880    20.7690   -39.0330 
  110.5000     2.2410    64.2800    12.5230    10.5590    10.3180    20.6550   -38.3240 
  110.6250     2.1930    61.5210    11.9750    10.1860     9.5930    20.3840   -37.3780 
  110.7500     2.1560    59.5310    11.5780     9.8360     9.5180    20.0550   -36.2090 
  110.8750     2.1450    59.4660    11.3090     9.5280     9.6760    19.7930   -34.7060 
  111.0000     2.1550    63.0000    10.9870     9.1680     9.7100    19.6680   -32.8430 
  111.1250     2.1750    69.3170    10.3240     8.5710     9.3830    19.6330   -30.6010 
  111.2500     2.2030    76.7830     9.3140     7.7360     8.6600    19.6580   -28.1590 
  111.3750     2.2420    85.2520     8.1530     6.7910     7.5880    19.7980   -25.6240 
  111.5000     2.2860    93.4820     7.1580     5.9440     6.4770    20.0930   -23.1690 
  111.6250     2.3150    95.7180     6.7160     5.4560     5.9810    20.6920   -20.9260 
  111.7500     2.3260    94.6380     6.8620     5.3750     6.0460    21.3610   -18.9270 
  111.8750     2.3300    94.7740     7.5050     5.6920     6.7200    22.0680   -17.2530 
  112.0000     2.3450    92.2490     8.4140     6.3090     8.1370    22.7030   -15.9850 
  112.1250     2.3860    83.8520     9.1240     6.9600    10.7430    23.1500   -15.1890 
  112.2500     2.4400    81.2760     9.2160     7.2540    12.2900    23.3450   -14.7090 
  112.3750     2.4750    89.3480     8.5820     7.0020     9.8760    23.4350   -14.4180 
  112.5000     2.4670   100.9150     7.5080     6.3350     7.0490    23.5370   -14.2150 
  112.6250     2.4180   108.6370     6.5140     5.6030     6.0000    23.6320   -14.0840 
  112.7500     2.3600   113.3030     5.9110     5.0830     5.5900    23.6380   -14.0140 
  112.8750     2.3140   112.1970     5.7410     4.8520     5.5600    23.5310   -14.0300 
  113.0000     2.2950   106.6030     5.8960     4.8810     5.7920    23.4160   -14.0930 
  113.1250     2.3070   103.6990     6.1820     5.0680     6.0830    23.4240   -14.1510 
  113.2500     2.3290   107.5190     6.3870     5.2410     6.0870    23.4750   -14.1690 
  113.3750     2.3440   113.1960     6.4230     5.3100     5.9250    23.5150   -14.1970 
  113.5000     2.3440   115.3360     6.2860     5.2450     5.6870    23.5230   -14.2150 
  113.6250     2.3340   111.5350     6.0350     5.0670     5.6480    23.5030   -14.2210 
  113.7500     2.3210   105.7020     5.7810     4.8620     5.6610    23.4810   -14.2150 
  113.8750     2.3040   101.1600     5.5750     4.6780     5.4850    23.5080   -14.1860 
  114.0000     2.2870    99.2660     5.4290     4.5370     5.2510    23.6250   -14.1360 
  114.1250     2.2800   100.9750     5.3470     4.4510     5.2000    23.7670   -14.1510 
  114.2500     2.2910   105.0090     5.3320     4.4180     5.2670    23.8560   -14.2240 
  114.3750     2.3140   106.3010     5.4110     4.4590     5.3000    23.8460   -14.2970 
  114.5000     2.3400   102.4960     5.6000     4.5900     5.3680    23.8360   -14.3920 
  114.6250     2.3550    98.6630     5.8680     4.8090     5.5420    23.7620   -14.5100 
  114.7500     2.3660   101.0110     6.1200     5.0430     5.9630    23.5310   -14.6330 
  114.8750     2.3810   106.1140     6.2710     5.2200     6.6180    23.1950   -14.7480 
  115.0000     2.4040   108.8980     6.2680     5.2830     7.0970    22.9430   -14.8860 
  115.1250     2.4200   108.9110     6.1060     5.2030     6.4470    22.8410   -15.0250 
  115.2500     2.4120   108.8330     5.8810     5.0510     5.7230    22.8780   -15.1370 
  115.3750     2.3890   109.6750     5.6570     4.8810     5.4000    22.9380   -15.2390 
  115.5000     2.3750   110.9370     5.4670     4.7290     5.4340    22.9120   -15.3500 
  115.6250     2.3830   111.7820     5.3230     4.6090     5.5150    22.8240   -15.5070 
  115.7500     2.4000   110.7780     5.2050     4.5080     5.4450    22.7600   -15.6860 
  115.8750     2.4130   106.8440     5.1010     4.4160     5.2200    22.6870   -15.8920 
  116.0000     2.4160   103.2720     5.0190     4.3300     5.0540    22.6280   -16.1380 
  116.1250     2.4120   106.4090     4.9860     4.2680     5.0450    22.6280   -16.3860 
  116.2500     2.4050   114.1280     5.0020     4.2360     5.1180    22.6220   -16.6870 
  116.3750     2.4000   119.8300     5.0560     4.2280     5.1910    22.5850   -17.0750 
  116.5000     2.3990   118.2800     5.1130     4.2240     5.2010    22.5280   -17.5050 
  116.6250     2.4010   113.8570     5.1120     4.1880     5.1460    22.4870   -18.0020 
  116.7500     2.4040   111.4720     5.0320     4.1040     5.1120    22.4310   -18.6370 
  116.8750     2.4070   112.0830     4.9270     4.0080     5.1130    22.3420   -19.4920 
  117.0000     2.4090   114.9480     4.9530     3.9930     5.1510    22.2420   -20.5570 
  117.1250     2.4060   116.8410     5.3820     4.2350     5.2850    22.1320   -21.9970 
  117.2500     2.3940   116.1140     6.3070     4.8150     5.6450    21.9960   -23.7760 
  117.3750     2.3770   110.1010     7.7280     5.7940     6.6920    21.6790   -25.8800 
  117.5000     2.3590    97.0640     9.4610     7.1480     9.2730    21.0760   -28.2590 
  117.6250     2.3320    83.0680    10.9770     8.6330    14.0730    20.5880   -30.6780 
  117.7500     2.2860    75.7250    11.7360     9.7420    16.3510    20.6230   -32.8430 
  117.8750     2.2290    75.6670    11.6080    10.1810    15.3250    21.0700   -34.5500 
  118.0000     2.1830    78.5700    10.9950    10.0770    14.2260    21.7180   -35.6870 
  118.1250     2.1660    80.6070    10.6230     9.8840    13.9830    22.2580   -35.9420 
  118.2500     2.1660    81.4060    10.8660     9.9960    14.0290    22.6870   -35.3850 
  118.3750     2.1740    80.4640    11.6660    10.4920    14.4950    23.1320   -33.9860 
  118.5000     2.1860    77.8580    12.6260    11.1730    15.5840    23.7710   -31.8300 
  118.6250     2.2030    74.5790    12.9870    11.4810    16.7480    24.4100   -29.0950 
  118.7500     2.2310    72.4450    12.3420    11.0090    16.5650    24.7360   -26.2270 
  118.8750     2.2700    72.4390    10.7950     9.7770    14.1080    24.8600   -23.4310 
  119.0000     2.3070    74.1950     8.9160     8.2250    10.2800    24.9180   -20.9050 
  119.1250     2.3210    76.9000     7.5310     6.9870     7.3630    24.9430   -18.8600 
  119.2500     2.3250    80.4210     7.0950     6.3860     6.4860    24.9330   -17.2300 
  119.3750     2.3380    81.2360     7.9030     6.6070     6.7800    24.9030   -16.0080 
