~V
VERS. 2.00: Ver 2.00
~W
STRT.M 53.0000:
STOP.M 286.0000:
STEP.M 0.1250:
NULL. -999.2500:
UWI. F10262:
~C
DEPT.M :
DEN.GM/CC :
GR.API :
RML.OHMM :
RI. :
RXO.OHMM :
CALI.CM :
SP.MV :
~A
# ...
  188.0000     2.2860    78.6650    59.8060    52.1400    55.0490    25.0650   -19.6010 
  188.1250     2.2940    83.8540    64.3510    56.0810    52.3960    25.1260   -19.8770 
  188.2500     2.2920    84.9190    70.5450    61.4470    51.9050    25.1110   -20.0740 
  188.3750     2.2820    80.0640    78.3710    68.3190    63.7170    25.1140   -20.2010 
  188.5000     2.2680    72.9570    86.8260    75.8980    77.0920    25.1420   -20.2910 
  188.6250     2.2520    66.5110    94.7330    83.2510    84.1390    25.1870   -20.3030 
  188.7500     2.2370    65.3110   100.6240    89.1610    84.6580    25.2700   -20.3060 
  188.8750     2.2310    69.7730   102.6810    92.0150    86.3870    25.3560   -20.2830 
  189.0000     2.2370    73.7170   101.5010    92.0390    88.4300    25.3110   -20.2080 
  189.1250     2.2540    74.3730    98.3120    90.0630    90.6920    25.1140   -20.1700 
  189.2500     2.2730    72.7200    94.7520    87.4040    85.4050    24.9100   -20.1290 
  189.3750     2.2780    73.6670    92.7020    85.7270    73.6720    24.9860   -20.0970 
  189.5000     2.2650    76.0240    93.0580    86.0710    72.2130    25.2650   -20.0860 
  189.6250     2.2370    76.3270    96.0560    88.8380    78.1320    25.5420   -20.0850 
  189.7500     2.2060    73.7840   101.0480    93.6060    83.8040    25.6060   -20.1350 
  189.8750     2.1840    69.8750   106.0050    98.7290    87.9920    25.4490   -20.1930 
  190.0000     2.1750    65.3760   108.2110   101.7420    92.3650    25.2730   -20.2450 
  190.1250     2.1790    60.9400   106.1040   101.0530    91.0900    25.1660   -20.2970 
  190.2500     2.1910    61.0700   100.0300    96.5760    86.5590    25.0920   -20.3180 
  190.3750     2.2070    66.9710    92.1980    89.8280    79.7460    25.0060   -20.3870 
  190.5000     2.2200    72.0150    85.6470    83.6480    74.4170    24.9190   -20.4920 
  190.6250     2.2290    73.8770    82.0240    79.7680    73.2750    24.8420   -20.6110 
  190.7500     2.2360    73.7680    82.1490    79.1960    69.8130    24.7590   -20.7090 
  190.8750     2.2430    74.5020    86.7770    82.8400    64.9900    24.7260   -20.8000 
  191.0000     2.2470    75.1560    94.5470    89.5580    69.7110    24.7420   -20.9410 
  191.1250     2.2460    73.0760   103.9360    98.0000    83.6030    24.7670   -21.1220 
  191.2500     2.2370    69.1330   112.7620   106.1980    97.1590    24.7670   -21.3310 
  191.3750     2.2250    68.1420   118.4130   111.7460    99.1560    24.7540   -21.5660 
  191.5000     2.2120    69.6280   120.9920   114.4750    95.4600    24.7150   -21.7740 
  191.6250     2.2030    69.5480   122.0580   115.5440    92.1970    24.6590   -21.9450 
  191.7500     2.2020    68.7760   123.7210   116.7840    91.8720    24.6740   -22.1370 
  191.8750     2.2190    70.9620   127.6420   119.8470    91.0290    24.6600   -22.2830 
  192.0000     2.2560    72.3290   132.9660   124.2660    98.6700    24.5960   -22.4020 
  192.1250     2.3080    69.5810   137.7950   128.5370   116.9030    24.4460   -22.4670 
  192.2500     2.3580    65.3140   139.8510   130.7140   127.6200    24.2280   -22.4480 
  192.3750     2.3790    62.3940   137.0400   128.8200   117.5690    24.0670   -22.3930 
  192.5000     2.3650    61.5580   130.7940   123.7450   103.5160    24.0290   -22.2830 
  192.6250     2.3240    63.0560   123.1290   117.0440    93.4640    24.1060   -22.1600 
  192.7500     2.2760    65.2200   116.1800   110.6100    86.6370    24.1800   -22.0510 
  192.8750     2.2460    66.6830   111.9280   106.4060    78.8640    24.2080   -21.9340 
  193.0000     2.2380    67.9330   110.4810   104.8010    73.3910    24.2010   -21.8810 
  193.1250     2.2450    70.8840   111.5610   105.6630    71.8270    24.2080   -21.8410 
  193.2500     2.2550    74.9660   114.5220   108.4760    75.0980    24.3200   -21.8320 
  193.3750     2.2570    75.5220   118.3510   112.4260    81.0270    24.5470   -21.8680 
  193.5000     2.2490    72.1890   121.5530   116.0980    82.3710    24.7420   -21.8680 
  193.6250     2.2380    66.1200   123.1100   118.4490    80.6590    24.8170   -21.8820 
  193.7500     2.2280    61.1870   122.4660   118.7830    85.2340    24.8210   -21.8380 
  193.8750     2.2240    61.8140   119.1740   116.4650    90.0200    24.8000   -21.7600 
  194.0000     2.2230    65.5660   113.8270   111.9840    88.8940    24.7810   -21.6970 
  194.1250     2.2240    67.4020   106.8120   105.6750    84.9560    24.7530   -21.6260 
  194.2500     2.2280    64.5770    98.8340    98.1620    82.1910    24.7370   -21.5750 
  194.3750     2.2390    64.0680    91.3230    90.6860    79.4330    24.7340   -21.5190 
  194.5000     2.2560    68.2460    85.9360    84.8750    72.9230    24.7450   -21.4630 
  194.6250     2.2740    70.9750    84.1280    82.1780    65.4080    24.7770   -21.4520 
  194.7500     2.2840    69.3300    87.1010    83.8440    63.6810    24.8450   -21.4660 
  194.8750     2.2750    69.4520    96.7820    91.8230    70.8510    24.8810   -21.4530 
  195.0000     2.2480    71.5140   112.3450   105.4620    84.6580    24.8530   -21.3470 
  195.1250     2.2130    69.2500   131.7000   122.9450   104.2360    24.7790   -21.1390 
  195.2500     2.1820    62.2810   148.7130   138.9370   126.0970    24.7430   -20.9530 
  195.3750     2.1670    60.1850   151.1180   142.8440   136.9830    24.7860   -20.7210 
  195.5000     2.1670    63.9910   137.9690   132.8290   132.9190    24.7740   -20.4520 
  195.6250     2.1790    67.3480   117.3780   114.7470   116.1020    24.7330   -20.1470 
  195.7500     2.1980    68.2780    99.0770    97.1820    87.2920    24.6940   -19.7570 
  195.8750     2.2160    68.7110    89.6450    87.0720    69.2130    24.6470   -19.4390 
  196.0000     2.2250    67.5840    88.5840    84.9650    64.5390    24.6020   -19.2230 
  196.1250     2.2230    63.2740    94.8080    90.1930    74.6010    24.5810   -19.1020 
  196.2500     2.2130    58.6450   106.3480   101.0370    96.5760    24.6180   -18.9940 
  196.3750     2.2040    58.1200   119.3480   114.1250   108.7240    24.6680   -18.8360 
  196.5000     2.2000    60.0110   127.6380   123.5800   108.0380    24.6880   -18.7860 
  196.6250     2.1980    61.6650   127.0030   125.0790   102.0580    24.6470   -18.7680 
  196.7500     2.1940    63.1320   117.3230   117.6910    96.7100    24.5520   -18.7740 
  196.8750     2.1920    64.1540   101.9190   103.6800    93.7020    24.5440   -18.7950 
  197.0000     2.1960    63.6880    85.9070    88.1890    88.7530    24.5710   -18.7040 
  197.1250     2.2120    63.8570    71.5370    73.8070    74.1970    24.6230   -18.6170 
  197.2500     2.2360    67.4840    60.1080    62.0990    55.4740    24.7000   -18.5600 
  197.3750     2.2620    73.5600    52.8760    54.4010    41.8430    24.8300   -18.5370 
  197.5000     2.2800    74.6840    49.3390    50.2380    37.4260    24.9460   -18.4990 
  197.6250     2.2850    69.5530    49.1950    49.3480    37.4930    24.9760   -18.4470 
  197.7500     2.2780    63.7320    51.7980    51.2240    41.5630    24.9790   -18.4260 
  197.8750     2.2650    60.6850    56.2490    55.2240    48.6490    24.9860   -18.4400 
  198.0000     2.2560    59.8560    60.6610    59.5900    59.3310    24.8680   -18.4930 
  198.1250     2.2550    62.5790    63.5020    62.7770    70.8020    24.4750   -18.5920 
  198.2500     2.2570    70.3550    63.9330    63.7470    70.0590    24.1850   -18.6700 
  198.3750     2.2530    78.0780    62.4080    62.6060    56.5010    24.4110   -18.7420 
  198.5000     2.2370    78.9530    61.1170    61.3200    50.1530    24.9800   -18.8470 
  198.6250     2.2130    74.3060    61.6350    61.3970    49.8750    25.4000   -18.9430 
  198.7500     2.1900    68.6920    64.8390    63.7810    54.0880    25.4960   -19.0850 
  198.8750     2.1810    65.2490    70.9990    68.9620    62.6570    25.3940   -19.1800 
  199.0000     2.1850    64.8710    78.1830    75.3780    75.0170    25.3370   -19.2800 
  199.1250     2.1980    65.6110    84.0660    81.0000    83.0640    25.2440   -19.3950 
