~V
VERS. 2.00: Ver 2.00
~W
STRT.M 60.0000:
STOP.M 276.0000:
STEP.M 0.1250:
NULL. -999.2500:
UWI. F10216:
~C
DEPT.M :
DEN.GM/CC :
GR.API :
RML.OHMM :
RI. :
RXO.OHMM :
CALI.CM :
SP.MV :
~A
# ...
  116.2500     2.1650    68.6700    14.7740    11.4560    12.2550    22.7380   -15.7630 
  116.3750     2.1360    67.6990    12.5830     9.7580    11.2950    22.6690   -15.8780 
  116.5000     2.1260    68.1310    11.5410     8.6970    10.9000    22.9190   -15.9500 
  116.6250     2.1250    68.5180    11.3220     8.2170    10.5790    23.2260   -15.9780 
  116.7500     2.1260    67.2300    11.4380     8.0660    10.7450    23.3790   -15.9760 
  116.8750     2.1280    65.4000    11.6820     8.1160    11.0240    23.4210   -15.9460 
  117.0000     2.1340    65.7520    11.9510     8.2710    11.1210    23.4230   -15.9160 
  117.1250     2.1460    66.8340    12.1830     8.4670    11.0650    23.4320   -15.8740 
  117.2500     2.1620    65.8510    12.3460     8.6500    11.1180    23.4380   -15.8350 
  117.3750     2.1740    63.0340    12.4000     8.7730    11.3860    23.4550   -15.7870 
  117.5000     2.1770    60.5150    12.3120     8.7960    11.6810    23.4560   -15.7540 
  117.6250     2.1670    59.7920    12.0600     8.6820    11.6690    23.4480   -15.7050 
  117.7500     2.1520    59.8840    11.7200     8.4750    11.0410    23.4290   -15.6670 
  117.8750     2.1390    61.2120    11.3790     8.2350    10.2380    23.3930   -15.6300 
  118.0000     2.1310    63.2090    11.1330     8.0320     9.9350    23.3220   -15.5990 
  118.1250     2.1300    64.2570    11.0680     7.9320    10.0960    23.2620   -15.5610 
  118.2500     2.1300    62.7070    11.1360     7.9190    10.3290    23.2240   -15.5240 
  118.3750     2.1280    58.8210    11.2680     7.9570    10.6160    23.2360   -15.4950 
  118.5000     2.1220    56.9870    11.3900     7.9950    10.8290    23.2520   -15.4670 
  118.6250     2.1180    60.5230    11.4460     7.9900    10.7640    23.2620   -15.4570 
  118.7500     2.1210    64.5820    11.4500     7.9490    10.5480    23.1740   -15.4200 
  118.8750     2.1300    66.7800    11.4230     7.8910    10.3840    23.1340   -15.3690 
  119.0000     2.1400    68.1090    11.3790     7.8300    10.4270    23.1510   -15.2750 
  119.1250     2.1440    68.0920    11.3030     7.7590    10.5180    23.2380   -15.1610 
  119.2500     2.1400    65.9130    11.1670     7.6570    10.5580    23.3340   -15.0260 
  119.3750     2.1320    64.2030    10.9300     7.5050    10.4720    23.4070   -14.8540 
  119.5000     2.1230    65.6630    10.5820     7.3000    10.2290    23.4290   -14.6550 
  119.6250     2.1160    66.7110    10.2290     7.0950    10.1530    23.3890   -14.4050 
  119.7500     2.1140    65.7000    10.1200     7.0130    10.2650    23.3340   -14.1560 
  119.8750     2.1300    64.1070    10.5500     7.2060    10.5120    23.3110   -13.8880 
  120.0000     2.1810    62.7830    11.7840     7.8380    11.2120    23.3400   -13.6380 
  120.1250     2.2860    63.5430    14.0010     9.1270    13.2770    23.4060   -13.3770 
  120.2500     2.4130    64.5350    16.5960    10.8700    18.6370    23.5610   -13.1150 
  120.3750     2.5070    63.8320    18.5860    12.5590    27.5620    23.8650   -12.8720 
  120.5000     2.5250    62.3730    18.7750    13.3210    34.5060    24.2060   -12.6280 
  120.6250     2.4750    67.9690    16.3900    12.2870    30.6450    24.2680   -12.4260 
  120.7500     2.4050    79.2690    12.9620    10.2500    19.5910    24.1400   -12.2450 
  120.8750     2.3430    87.5670     9.8570     8.1240    10.6860    23.9620   -12.1050 
  121.0000     2.2990    88.4530     7.7320     6.4510     7.3480    23.8900   -11.9780 
  121.1250     2.2810    85.5930     6.6930     5.4360     6.5210    24.0020   -11.8810 
  121.2500     2.2750    83.7090     6.2740     4.8770     6.2350    24.2090   -11.8110 
  121.3750     2.2740    83.9880     6.1990     4.6370     5.8840    24.4190   -11.7650 
  121.5000     2.2770    86.3580     6.2530     4.5820     5.6990    24.5930   -11.7610 
  121.6250     2.2830    90.5220     6.3040     4.6120     5.6550    24.6880   -11.7690 
  121.7500     2.2920    92.0700     6.3390     4.6680     5.7640    24.7400   -11.8020 
  121.8750     2.2990    90.6590     6.3930     4.7480     5.9510    24.7410   -11.8490 
  122.0000     2.2980    88.0630     6.5040     4.8560     5.9300    24.6670   -11.9350 
  122.1250     2.2840    84.3670     6.7060     5.0140     5.8700    24.5220   -12.0640 
  122.2500     2.2660    79.2250     6.9780     5.2180     6.1380    24.3310   -12.2230 
  122.3750     2.2490    74.1570     7.2850     5.4560     6.5930    24.0460   -12.4050 
  122.5000     2.2370    70.2790     7.5850     5.7040     7.1930    23.6090   -12.6030 
  122.6250     2.2250    68.6650     7.8480     5.9370     7.6640    23.2470   -12.8050 
  122.7500     2.2020    68.5730     8.0970     6.1530     7.8290    23.1710   -12.9830 
  122.8750     2.1720    69.0580     8.3660     6.3650     7.9460    23.3140   -13.1420 
  123.0000     2.1490    69.0530     8.6510     6.5730     8.0800    23.4290   -13.2590 
  123.1250     2.1570    67.1830     8.8630     6.7290     8.4760    23.4190   -13.3170 
  123.2500     2.1970    64.2990     8.8840     6.7620     9.2210    23.3900   -13.3150 
  123.3750     2.2490    62.9910     8.6330     6.6140     9.7440    23.4130   -13.2620 
  123.5000     2.2910    66.6760     8.1280     6.2800     9.5300    23.4740   -13.1520 
  123.6250     2.3070    72.2740     7.5080     5.8200     7.6690    23.6390   -13.0390 
  123.7500     2.3040    74.3900     6.9740     5.3680     6.6000    23.9070   -12.9300 
  123.8750     2.2930    75.4770     6.6210     5.0020     6.3480    24.1890   -12.8440 
  124.0000     2.2780    78.1480     6.4570     4.7570     6.2440    24.3350   -12.7940 
  124.1250     2.2630    78.9360     6.4220     4.6390     5.8900    24.3660   -12.8180 
  124.2500     2.2500    76.0570     6.4120     4.5890     5.7910    24.3600   -12.9120 
  124.3750     2.2440    72.2090     6.4190     4.5860     6.0040    24.3280   -13.0700 
  124.5000     2.2440    70.3070     6.5150     4.6460     6.4560    24.2360   -13.3100 
  124.6250     2.2490    70.4270     6.8570     4.8440     6.5250    24.0950   -13.5940 
  124.7500     2.2550    70.8160     7.5020     5.2180     6.2470    23.9860   -13.9190 
  124.8750     2.2580    69.2350     8.4560     5.7890     6.5670    23.8930   -14.2570 
  125.0000     2.2520    65.1590     9.6060     6.5240     8.1640    23.6510   -14.5880 
  125.1250     2.2330    62.4670    10.6700     7.2890     9.6080    23.2820   -14.8800 
  125.2500     2.2080    63.0560    11.3650     7.8860    10.1070    22.9650   -15.1330 
  125.3750     2.1820    65.3660    11.5730     8.1960    10.1620    22.7470   -15.3350 
  125.5000     2.1600    67.5190    11.3900     8.2240    10.2350    22.7320   -15.4640 
  125.6250     2.1460    65.9450    11.0850     8.0910    10.1450    22.8310   -15.5640 
  125.7500     2.1450    60.3700    10.9290     7.9870    10.1370    22.9920   -15.6120 
  125.8750     2.1560    54.6940    10.9850     7.9830    10.3900    23.0220   -15.6320 
  126.0000     2.1720    54.1490    11.1940     8.0740    10.4590    22.9240   -15.6320 
  126.1250     2.1820    58.3710    11.4430     8.2140    10.2840    22.8410   -15.6230 
  126.2500     2.1810    63.0290    11.6270     8.3370    10.3060    22.9130   -15.5990 
  126.3750     2.1700    67.1020    11.7090     8.4070    10.2580    22.9830   -15.5760 
  126.5000     2.1560    68.1000    11.6990     8.4160     9.9400    23.0220   -15.5490 
  126.6250     2.1420    64.1750    11.6350     8.3810     9.5670    23.0640   -15.4950 
  126.7500     2.1300    61.4000    11.5610     8.3340     9.5820    23.1340   -15.4220 
  126.8750     2.1190    63.0970    11.4740     8.2770     9.6990    23.2200   -15.3220 
  127.0000     2.1090    66.9390    11.3490     8.2010     9.7880    23.2540   -15.1920 
  127.1250     2.1060    68.1870    11.1360     8.0740     9.9020    23.2190   -15.0370 
  127.2500     2.1100    65.7380    10.8440     7.8920     9.8650    23.1490   -14.8940 
  127.3750     2.1230    62.7080    10.5250     7.6770     9.6660    23.1070   -14.7560 
