~V
VERS. 2.00: Ver 2.00
~W
STRT.M 50.0000:
STOP.M 258.0000:
STEP.M 0.1250:
NULL. -999.2500:
UWI. F10200:
~C
DEPT.M :
SP.MV :
GR.API :
RML.OHMM :
RI. :
RXO.OHMM :
CALI.CM :
DEN.GM/CC :
~A
# ...
   72.5000   -22.5900    56.8130     7.4630     6.1870     8.4560    23.9450     2.1320 
   72.6250   -22.3330    55.5800     7.4450     6.1440     8.4220    23.8080     2.1280 
   72.7500   -21.9990    57.0800     7.4350     6.1080     8.3340    23.5560     2.1270 
   72.8750   -21.6200    60.9210     7.4240     6.0740     8.3830    23.1740     2.1280 
   73.0000   -21.2060    61.4120     7.4130     6.0450     8.6960    22.8400     2.1290 
   73.1250   -20.7860    59.0990     7.4300     6.0380     9.1050    22.8110     2.1260 
   73.2500   -20.3880    58.0990     7.5110     6.0770     9.3020    22.9470     2.1180 
   73.3750   -20.0330    58.3810     7.6870     6.1850     8.9280    23.0940     2.1090 
   73.5000   -19.7240    58.3340     7.9630     6.3750     8.5250    23.1640     2.1050 
   73.6250   -19.4900    59.5640     8.2940     6.6270     8.3900    23.1630     2.1170 
   73.7500   -19.3180    61.9850     8.5720     6.8690     8.5700    23.1930     2.1460 
   73.8750   -19.1820    62.2860     8.7090     7.0290     9.0100    23.1890     2.1820 
   74.0000   -19.0560    60.4390     8.6530     7.0520     9.7050    23.1370     2.2090 
   74.1250   -18.8970    61.0530     8.3950     6.9040    10.2760    23.1160     2.2100 
   74.2500   -18.6950    63.4690     8.0590     6.6630     9.9060    23.1980     2.1920 
   74.3750   -18.4390    64.4150     7.7520     6.4050     9.0210    23.3970     2.1710 
   74.5000   -18.1240    62.0790     7.5520     6.1970     8.5820    23.6170     2.1610 
   74.6250   -17.6930    60.2790     7.5000     6.0890     8.4710    23.6850     2.1670 
   74.7500   -17.1640    62.5760     7.5340     6.0550     8.1420    23.5840     2.1780 
   74.8750   -16.5360    67.0370     7.5900     6.0590     7.7310    23.4700     2.1830 
   75.0000   -15.8040    69.0740     7.6120     6.0630     7.7630    23.3980     2.1790 
   75.1250   -14.9720    67.8030     7.5620     6.0340     8.0620    23.3630     2.1720 
   75.2500   -14.1090    70.2970     7.4600     5.9740     7.9370    23.4360     2.1740 
   75.3750   -13.2810    77.6060     7.3350     5.9000     7.4580    23.6110     2.1850 
   75.5000   -12.5390    82.5360     7.2160     5.8320     6.9620    23.6310     2.2010 
   75.6250   -11.9480    82.4850     7.1290     5.7960     6.8980    23.5930     2.2120 
   75.7500   -11.4800    82.1900     7.0840     5.8010     7.0190    23.4760     2.2170 
   75.8750   -11.1270    82.5820     7.0940     5.8550     6.9990    23.3730     2.2180 
   76.0000   -10.8930    81.6670     7.1700     5.9630     7.0020    23.2750     2.2170 
   76.1250   -10.7850    79.9290     7.3200     6.1200     6.9490    23.2250     2.2120 
   76.2500   -10.7180    76.9570     7.4870     6.2820     7.1420    23.1750     2.2030 
   76.3750   -10.6240    72.5040     7.5950     6.3890     7.4200    23.0370     2.1920 
   76.5000   -10.4460    69.6820     7.5640     6.3790     7.5790    22.8330     2.1830 
   76.6250   -10.1400    74.2980     7.3190     6.1830     7.4750    22.6570     2.1880 
   76.7500    -9.7560    81.9800     6.9180     5.8440     7.0710    22.6570     2.2050 
   76.8750    -9.3380    87.2120     6.4390     5.4230     6.2810    22.8310     2.2340 
   77.0000    -8.9160    88.7280     5.9800     5.0030     5.4780    23.0670     2.2670 
   77.1250    -8.5300    89.7060     5.6660     4.6860     5.2930    23.3010     2.2950 
   77.2500    -8.2370    92.3610     5.5850     4.5400     5.3160    23.3980     2.3120 
   77.3750    -8.0750    93.2300     5.8730     4.6540     5.4180    23.4240     2.3190 
   77.5000    -8.0820    89.3730     6.7060     5.1440     5.7580    23.4670     2.3190 
   77.6250    -8.2980    82.7640     8.3740     6.2320     6.9360    23.5050     2.3280 
   77.7500    -8.6900    76.6530    10.7330     7.8790     9.3790    23.5430     2.3600 
   77.8750    -9.2270    69.8450    13.4400     9.9170    13.5370    23.5530     2.4200 
   78.0000    -9.8690    61.2890    15.8450    11.9340    20.1440    23.5070     2.4880 
   78.1250   -10.6050    56.6490    16.8850    13.1520    28.1570    23.4270     2.5120 
   78.2500   -11.3820    57.3790    16.2520    13.1380    26.5470    23.3020     2.4710 
   78.3750   -12.1570    60.7400    14.2390    11.9360    17.4030    23.1090     2.3860 
   78.5000   -12.8780    62.2450    11.7270    10.1400    11.2560    22.9140     2.2960 
   78.6250   -13.5030    60.4300     9.7430     8.5290     9.6430    22.8640     2.2300 
   78.7500   -14.0310    57.8900     8.5740     7.4210     9.1670    23.0490     2.1910 
   78.8750   -14.4520    55.1760     8.1390     6.8320     8.8720    23.4540     2.1730 
   79.0000   -14.7680    54.2900     8.2690     6.6950     8.6070    23.9080     2.1690 
   79.1250   -14.9590    55.7160     8.8670     6.9870     8.6180    24.0700     2.1690 
   79.2500   -15.0810    56.0190     9.7160     7.5490     9.5320    23.7990     2.1730 
   79.3750   -15.1590    54.3470    10.6320     8.2490    12.1060    23.4770     2.1870 
   79.5000   -15.2240    51.9370    11.3810     8.9050    16.4020    23.8980     2.2120 
   79.6250   -15.2880    50.5220    11.6430     9.2510    24.0300    24.9100     2.2340 
   79.7500   -15.3420    49.3610    11.3790     9.1910    32.6570    25.1660     2.2380 
   79.8750   -15.4060    48.4760    10.6910     8.7510    26.9960    24.2600     2.2210 
   80.0000   -15.5130    49.6950     9.8280     8.0900    14.4450    23.2480     2.1940 
   80.1250   -15.6970    52.1980     9.1040     7.4450     9.7660    22.7950     2.1740 
   80.2500   -15.9300    54.9430     8.6580     6.9660     8.8790    22.7230     2.1690 
   80.3750   -16.1890    57.2600     8.4860     6.6910     9.1150    22.8080     2.1710 
   80.5000   -16.4500    58.7960     8.5210     6.5980     9.3670    23.0260     2.1700 
   80.6250   -16.7000    57.9560     8.7020     6.6600     9.2440    23.3340     2.1570 
   80.7500   -16.9350    56.3120     8.9580     6.8120     9.2170    23.7570     2.1380 
   80.8750   -17.1460    55.2920     9.2620     7.0240     9.3470    24.1020     2.1320 
   81.0000   -17.3440    55.5110     9.5720     7.2580     9.6660    24.1960     2.1550 
   81.1250   -17.5000    56.9300     9.7980     7.4480    10.1710    24.0510     2.2190 
   81.2500   -17.6110    56.4780     9.8790     7.5420    10.8250    23.9510     2.2940 
   81.3750   -17.6910    54.0560     9.7930     7.5140    11.4950    23.9630     2.3400 
   81.5000   -17.7410    52.6640     9.5760     7.3720    10.6040    24.0860     2.3300 
   81.6250   -17.7650    54.3390     9.3120     7.1610    10.1320    24.2340     2.2730 
   81.7500   -17.7660    56.5080     9.0890     6.9540     9.8440    24.3750     2.2070 
   81.8750   -17.7230    56.1510     8.9410     6.7890     9.7250    24.5320     2.1510 
   82.0000   -17.6080    54.6210     8.8620     6.6820     9.5110    24.6380     2.1120 
   82.1250   -17.4130    53.6760     8.8350     6.6350     9.3890    24.5310     2.0930 
   82.2500   -17.1600    53.6310     8.8240     6.6280     9.3300    24.2620     2.0920 
   82.3750   -16.8520    54.1850     8.8170     6.6460     9.2970    23.9610     2.1040 
   82.5000   -16.5070    55.2550     8.8010     6.6750     9.1660    23.6760     2.1220 
   82.6250   -16.1160    56.8400     8.7510     6.6920     9.1980    23.4210     2.1380 
   82.7500   -15.6920    58.0430     8.6550     6.6810     9.3760    23.3010     2.1480 
   82.8750   -15.2330    57.6770     8.5150     6.6350     9.4350    23.2770     2.1520 
   83.0000   -14.7420    57.0110     8.3510     6.5640     9.2960    23.2820     2.1530 
   83.1250   -14.1870    57.4120     8.1950     6.4830     8.8670    23.3010     2.1570 
   83.2500   -13.5780    57.2390     8.0670     6.4120     8.2610    23.3530     2.1670 
   83.3750   -12.9000    56.5970     7.9600     6.3490     7.7190    23.4260     2.1830 
   83.5000   -12.1350    58.0970     7.8480     6.2820     7.8950    23.4860     2.1990 
   83.6250   -11.2740    62.4030     7.6850     6.1830     7.6160    23.5580     2.2110 
