~V
VERS. 2.00: Ver 2.00
~W
STRT.M 56.0000:
STOP.M 281.0000:
STEP.M 0.1250:
NULL. -999.2500:
UWI. F10232:
~C
DEPT.M :
SP.MV :
GR.API :
RML.OHMM :
RI. :
RXO.OHMM :
CALI.CM :
DEN.GM/CC :
~A
# ...
  123.5000    -6.0660    69.2170     6.0740     5.2180     5.4400    23.6180     2.2720 
  123.6250    -5.8450    74.1000     5.8630     5.0910     5.3540    24.0130     2.2750 
  123.7500    -5.6200    83.1020     5.5400     4.8500     5.1470    24.2470     2.2900 
  123.8750    -5.4040    88.9410     5.1710     4.5380     4.8250    24.2900     2.3170 
  124.0000    -5.1880    88.9580     4.8310     4.2280     4.5520    24.2740     2.3470 
  124.1250    -4.9880    85.7610     4.5600     3.9640     4.3910    24.2660     2.3750 
  124.2500    -4.8450    82.1150     4.3850     3.7760     4.3260    24.2980     2.3950 
  124.3750    -4.7800    79.9960     4.3510     3.7080     4.3480    24.3480     2.4040 
  124.5000    -4.7480    81.7750     4.4760     3.7750     4.4350    24.3770     2.4040 
  124.6250    -4.7320    85.8040     4.7990     4.0080     4.6340    24.3630     2.3950 
  124.7500    -4.7280    85.0570     5.3410     4.4330     4.9920    24.2960     2.3820 
  124.8750    -4.7160    77.1000     6.0660     5.0460     5.6980    24.2010     2.3740 
  125.0000    -4.7160    69.5110     6.7810     5.7030     6.7800    24.1270     2.3790 
  125.1250    -4.7110    64.2410     7.2770     6.2340     8.0170    24.1160     2.3980 
  125.2500    -4.6870    61.5480     7.3770     6.4700     8.9370    24.1890     2.4250 
  125.3750    -4.6400    61.9830     6.9550     6.2520     8.9200    24.3180     2.4420 
  125.5000    -4.5910    64.8600     6.2400     5.7270     7.5430    24.4200     2.4400 
  125.6250    -4.5570    67.3210     5.4730     5.0860     5.7080    24.4740     2.4250 
  125.7500    -4.5440    68.9280     4.8610     4.5160     4.8100    24.4870     2.4100 
  125.8750    -4.5690    72.3240     4.5360     4.1590     4.7020    24.4750     2.4080 
  126.0000    -4.6270    77.6580     4.4290     3.9970     4.7710    24.4450     2.4150 
  126.1250    -4.7190    80.7780     4.4800     4.0000     4.8090    24.4070     2.4220 
  126.2500    -4.8330    78.4740     4.6370     4.1270     4.8440    24.3740     2.4240 
  126.3750    -4.9600    73.5360     4.8830     4.3530     4.9100    24.3740     2.4150 
  126.5000    -5.1100    70.7230     5.1800     4.6300     5.0980    24.4060     2.3960 
  126.6250    -5.2580    69.5150     5.4790     4.9120     5.4390    24.4350     2.3680 
  126.7500    -5.3820    66.3980     5.6980     5.1290     5.8150    24.4120     2.3340 
  126.8750    -5.4450    62.1350     5.7120     5.1750     6.0370    24.3300     2.3060 
  127.0000    -5.4660    60.7750     5.5070     5.0280     5.9750    24.2580     2.2950 
  127.1250    -5.4670    64.1120     5.1240     4.7090     5.5490    24.2400     2.3060 
  127.2500    -5.4640    69.3500     4.6620     4.2950     4.9090    24.2600     2.3350 
  127.3750    -5.4920    72.2100     4.2860     3.9140     4.4170    24.2930     2.3710 
  127.5000    -5.5540    74.4050     4.1190     3.6800     4.3020    24.3030     2.4020 
  127.6250    -5.6810    77.0410     4.2450     3.6700     4.4750    24.2960     2.4240 
  127.7500    -5.8980    78.9540     4.6990     3.9230     5.1000    24.2800     2.4360 
  127.8750    -6.2590    77.3370     5.4860     4.4730     6.2610    24.2510     2.4420 
  128.0000    -6.7310    71.3650     6.4290     5.2040     7.7240    24.1960     2.4390 
  128.1250    -7.2880    62.6660     7.3590     6.0060     9.0300    24.1140     2.4210 
  128.2500    -7.8930    55.3120     8.1140     6.7510     9.3320    24.0210     2.3890 
  128.3750    -8.5150    54.7080     8.5590     7.3030     8.1900    23.9410     2.3520 
  128.5000    -9.1170    58.0530     8.7980     7.6770     7.5430    23.8920     2.3250 
  128.6250    -9.6710    60.5440     8.9570     7.9410     7.5750    23.8730     2.3100 
  128.7500   -10.1450    60.2170     9.1380     8.1690     7.8950    23.8680     2.3030 
  128.8750   -10.5180    57.5640     9.3570     8.3850     8.1180    23.8680     2.2920 
  129.0000   -10.8040    55.1970     9.5460     8.5580     8.1160    23.8680     2.2750 
  129.1250   -11.0150    53.9510     9.6560     8.6490     7.9890    23.8680     2.2550 
  129.2500   -11.1950    53.5880     9.6840     8.6540     7.9120    23.8680     2.2380 
  129.3750   -11.3190    53.7770     9.6610     8.6060     7.9330    23.8690     2.2260 
  129.5000   -11.4050    53.1970     9.6330     8.5570     7.9890    23.8700     2.2140 
  129.6250   -11.4590    50.9080     9.6100     8.5230     8.0460    23.8750     2.1980 
  129.7500   -11.4960    49.7960     9.6080     8.5140     8.0820    23.8920     2.1820 
  129.8750   -11.5060    53.7840     9.6900     8.5710     8.1270    23.9230     2.1740 
  130.0000   -11.5030    60.0520     9.9250     8.7420     8.3320    23.9640     2.1780 
  130.1250   -11.4900    64.7240    10.3560     9.0690     9.0120    24.0010     2.1990 
  130.2500   -11.4470    65.7140    10.9500     9.5480    10.9230    24.0060     2.2310 
  130.3750   -11.4060    62.2850    11.5600    10.0920    14.5470    23.9930     2.2610 
  130.5000   -11.3840    57.4510    11.9710    10.5280    18.8440    24.0160     2.2750 
  130.6250   -11.3860    54.2170    12.0230    10.7080    22.0920    24.1270     2.2660 
  130.7500   -11.4110    53.7670    11.6660    10.5520    21.4460    24.3520     2.2390 
  130.8750   -11.4660    55.2540    10.9650    10.0650    16.1600    24.6920     2.2080 
  131.0000   -11.5120    57.7160    10.1970     9.4630    11.3840    25.0500     2.1860 
  131.1250   -11.5380    59.3690     9.5450     8.9050     9.2410    25.3420     2.1750 
  131.2500   -11.5340    59.6990     9.1100     8.4960     8.6040    25.4890     2.1730 
  131.3750   -11.4930    60.1670     8.9520     8.3070     8.5140    25.4050     2.1760 
  131.5000   -11.4270    60.2360     9.0050     8.2970     8.5100    25.1600     2.1810 
  131.6250   -11.3400    58.8510     9.2460     8.4520     8.7020    24.8350     2.1890 
  131.7500   -11.2390    57.3480     9.6530     8.7580     9.0400    24.5190     2.2030 
  131.8750   -11.1160    58.2800    10.1960     9.2030     9.3530    24.2920     2.2240 
  132.0000   -10.9830    57.5100    10.7520     9.6920     9.6870    24.1810     2.2480 
  132.1250   -10.8410    52.6280    11.1940    10.1260    10.1280    24.1820     2.2680 
  132.2500   -10.7080    46.7860    11.4040    10.4030    10.6350    24.2540     2.2780 
  132.3750   -10.5810    45.6920    11.4080    10.4330    11.0650    24.3510     2.2720 
  132.5000   -10.4240    47.7750    11.2950    10.3140    11.2070    24.4430     2.2550 
  132.6250   -10.2320    50.4220    11.3290    10.2190    11.1900    24.5070     2.2330 
  132.7500    -9.9910    51.0820    11.9110    10.3740    11.5190    24.5550     2.2120 
  132.8750    -9.7040    47.9000    12.7350    11.0490    13.3630    24.6030     2.2060 
  133.0000    -9.3890    44.7430    14.0520    12.1740    17.1780    24.6330     2.2290 
  133.1250    -9.0470    46.7850    15.5040    13.5230    22.6920    24.6070     2.2870 
  133.2500    -8.6860    52.1700    16.5830    14.6950    28.3960    24.5140     2.3740 
  133.3750    -8.3250    52.6020    16.6500    15.0950    30.5910    24.4100     2.4600 
  133.5000    -7.9920    49.8420    15.7400    14.5920    27.3880    24.3630     2.5070 
  133.6250    -7.6860    49.1690    14.1830    13.3750    22.1300    24.3560     2.4990 
  133.7500    -7.4230    51.3140    12.4960    11.8780    17.5350    24.3640     2.4530 
  133.8750    -7.2210    52.2320    11.1310    10.5350    15.2340    24.3700     2.4060 
  134.0000    -7.0670    52.2100    10.1230     9.4680    14.4180    24.3650     2.3770 
  134.1250    -6.9710    53.6270     9.3890     8.6500    13.2980    24.3360     2.3680 
  134.2500    -6.9320    56.7770     8.8610     8.0470    11.5690    24.2740     2.3730 
  134.3750    -6.9510    59.4780     8.5960     7.7070    10.7970    24.2150     2.3770 
  134.5000    -6.9930    59.1120     8.6460     7.6580    10.9700    24.2090     2.3750 
  134.6250    -7.0680    56.7590     9.0670     7.9530    11.9970    24.2540     2.3660 
