~V
VERS. 2.00: Ver 2.00
~W
STRT.M 56.0000:
STOP.M 281.0000:
STEP.M 0.1250:
NULL. -999.2500:
UWI. F10232:
~C
DEPT.M :
SP.MV :
GR.API :
RML.OHMM :
RI. :
RXO.OHMM :
CALI.CM :
DEN.GM/CC :
~A
   56.0000   118.1890  -999.2500  -999.2500  -999.2500  -999.2500  -999.2500  -999.2500 
   56.1250   117.8140  -999.2500  -999.2500  -999.2500  -999.2500  -999.2500  -999.2500 
   56.2500   117.4510  -999.2500  -999.2500  -999.2500  -999.2500  -999.2500  -999.2500 
   56.3750   117.1460  -999.2500  -999.2500  -999.2500  -999.2500  -999.2500  -999.2500 
   56.5000   116.9430  -999.2500  -999.2500  -999.2500  -999.2500  -999.2500  -999.2500 
   56.6250   116.8560  -999.2500  -999.2500  -999.2500  -999.2500  -999.2500  -999.2500 
   56.7500   116.8400  -999.2500  -999.2500  -999.2500  -999.2500  -999.2500  -999.2500 
   56.8750   116.8600  -999.2500  -999.2500  -999.2500  -999.2500  -999.2500  -999.2500 
   57.0000   116.9180  -999.2500  -999.2500  -999.2500  -999.2500  -999.2500  -999.2500 
   57.1250   117.0210     0.0000     0.0000     0.0000     0.0000     0.0000  -999.2500 
   57.2500   117.1660     0.0000     0.0000     0.0000     0.0000     0.0000  -999.2500 
   57.3750   117.3350     0.0000     0.0000     0.0000     0.0000     0.0000  -999.2500 
   57.5000   117.4970     0.0000     0.0000     0.0000     0.0000     0.0000  -999.2500 
   57.6250   117.6530     0.0000     0.0000     0.0000     0.0000     0.0000  -999.2500 
   57.7500   117.8370    39.6480     1.9130     0.5450     2.2040    25.2150  -999.2500 
   57.8750   118.0860    35.0830     1.7940     0.5230     2.2520    25.2150  -999.2500 
   58.0000   118.3780    31.3290     1.6670     0.5020     2.2810    25.2150  -999.2500 
   58.1250   118.7060    30.7870     1.5510     0.4830     2.3060    25.2150  -999.2500 
   58.2500   119.0620    32.8440     1.4650     0.4660     2.3280    25.2150  -999.2500 
   58.3750   119.4230    34.2120     1.4230     0.4520     2.3300    25.2180  -999.2500 
   58.5000   119.7590    33.5640     1.4150     0.4420     2.2090    25.2250  -999.2500 
   58.6250   120.0430    31.8260     1.4320     0.4370     1.9860    25.2390  -999.2500 
   58.7500   120.2330    30.2930     1.4640     0.4380     1.8060    25.2610  -999.2500 
   58.8750   120.2730    30.7090     1.4970     0.4460     1.7420    25.2910  -999.2500 
   59.0000   120.1790    32.2600     1.5260     0.4570     1.8080    25.3160  -999.2500 
   59.1250   119.9390    33.4160     1.5610     0.4700     1.8760    25.3340  -999.2500 
   59.2500   119.5530    32.6040     1.6190     0.4850     1.9090    25.3410  -999.2500 
   59.3750   119.0380    30.2700     1.7190     0.5020     1.8990    25.3440  -999.2500 
   59.5000   118.4630    29.4530     1.8440     0.5210     1.8590    25.3490  -999.2500 
   59.6250   117.8630    30.3900     1.9740     0.5400     1.8160    25.3590  -999.2500 
   59.7500   117.2880    31.5140     2.0920     0.5590     1.7910    25.3740  -999.2500 
   59.8750   116.7960    31.7650     2.1910     0.5770     1.7960    25.3930  -999.2500 
   60.0000   116.3910    31.9690     2.2810     0.5930     1.8050    25.4090  -999.2500 
   60.1250   116.0770    32.9530     2.3600     0.6070     1.8140    25.4180  -999.2500 
   60.2500   115.8570    34.0960     2.4210     0.6190     1.8320    25.4280     2.0210 
   60.3750   115.7220    34.5400     2.4550     0.6240     1.8610    25.4410     2.0210 
   60.5000   115.6300    33.2030     2.4550     0.6240     1.8870    25.4560     2.0220 
   60.6250   115.5630    31.1770     2.4010     0.6180     1.9140    25.4690     2.0230 
   60.7500   115.4890    30.3020     2.2740     0.6080     1.9530    25.4770     2.0250 
   60.8750   115.4020    30.7690     2.0870     0.5930     1.9980    25.4800     2.0270 
   61.0000   115.2910    31.4760     1.9430     0.5780     2.0360    25.4800     2.0300 
   61.1250   115.1660    32.9100     1.9340     0.5690     2.0600    25.4800     2.0320 
   61.2500   115.0410    35.4540     2.0690     0.5690     2.0640    25.4800     2.0330 
   61.3750   114.9430    36.6580     2.2560     0.5790     2.0500    25.4800     2.0340 
   61.5000   114.8770    34.9940     2.3390     0.5920     2.0180    25.4800     2.0360 
   61.6250   114.8630    32.8190     2.2110     0.5990     1.9850    25.4800     2.0410 
   61.7500   114.9150    32.9640     1.8820     0.5940     1.9600    25.4800     2.0490 
   61.8750   115.0020    35.3130     1.5220     0.5760     1.9260    25.4800     2.0610 
   62.0000   115.1100    36.9140     1.2720     0.5540     1.8850    25.4800     2.0720 
   62.1250   115.2290    36.7460     1.1340     0.5360     1.8470    25.4800     2.0830 
   62.2500   115.3190    35.2630     1.0730     0.5250     1.8170    25.4800     2.0920 
   62.3750   115.3400    33.6160     1.0700     0.5240     1.7950    25.4800     2.1000 
   62.5000   115.3160    32.5560     1.1120     0.5280     1.7680    25.4800     2.1040 
   62.6250   115.2330    33.0360     1.2050     0.5370     1.7390    25.4800     2.1020 
   62.7500   115.0790    35.7610     1.3500     0.5520     1.7100    25.4800     2.0920 
   62.8750   114.8170    40.8150     1.5230     0.5730     1.6750    25.4800     2.0790 
   63.0000   114.4280    44.6620     1.6580     0.5950     1.6450    25.4800     2.0690 
   63.1250   113.8600    44.7650     1.6970     0.6150     1.6140    25.4800     2.0640 
   63.2500   113.0800    42.3340     1.6080     0.6250     1.5740    25.4800     2.0630 
   63.3750   111.9380    41.0640     1.4180     0.6190     1.5060    25.4800     2.0630 
   63.5000   110.3480    41.9870     1.2170     0.5970     1.4040    25.4800     2.0620 
   63.6250   108.1580    43.6850     1.0330     0.5590     1.2770    25.4800     2.0630 
   63.7500   105.1370    45.7980     0.8510     0.5040     1.1530    25.4800     2.0750 
   63.8750   100.9060    45.9140     0.6510     0.4350     0.9870    25.4800     2.1080 
   64.0000    95.4650    44.6780     0.4500     0.3630     0.8430    25.4860     2.1650 
   64.1250    88.7130    44.8540     0.2860     0.3010     0.7380    25.5140     2.2420 
   64.2500    80.6140    47.5160     0.1890     0.2650     0.6700    25.6010     2.3150 
   64.3750    71.1090    50.9230     0.1820     0.2850     1.0780    25.7730     2.3410 
   64.5000    60.6570    54.6790     0.2720     0.3900     1.7850    25.9950     2.3170 
   64.6250    49.6610    60.4960     0.4990     0.6380     2.8870    26.1760     2.2700 
   64.7500    38.7320    67.4430     0.9170     1.0960     4.7640    26.1590     2.2280 
   64.8750    28.5250    72.6340     1.5910     1.8470     5.2610    25.8720     2.2120 
   65.0000    19.2810    75.7170     2.4220     2.7970     5.4770    25.5070     2.2200 
   65.1250    11.2080    78.8350     3.2620     3.8020     5.6800    25.2490     2.2430 
   65.2500     4.4430    83.0880     3.9060     4.6560     5.8240    25.1490     2.2640 
   65.3750    -0.7780    84.7370     4.1760     5.1520     5.9630    25.1440     2.2730 
   65.5000    -4.7570    82.2960     4.2540     5.3980     6.1230    25.1700     2.2720 
   65.6250    -7.7320    79.2890     4.3160     5.5370     6.2270    25.2280     2.2670 
   65.7500   -10.0640    78.3540     4.4520     5.6890     6.2710    25.3270     2.2610 
   65.8750   -12.0000    74.6160     4.7440     5.9980     6.3930    25.4380     2.2520 
   66.0000   -13.6990    67.5650     5.2510     6.5860     6.8760    25.4760     2.2470 
   66.1250   -15.2020    63.9920     6.0410     7.5540     8.1990    25.3680     2.2550 
   66.2500   -16.5470    65.6400     7.1140     8.8920    10.5120    25.0840     2.2870 
   66.3750   -17.7570    65.4760     8.3040    10.3670    13.7900    24.7100     2.3410 
   66.5000   -18.9030    61.3240     9.2280    11.4980    16.8650    24.4200     2.3920 
   66.6250   -19.9620    57.9010     9.4950    11.8430    17.9950    24.2920     2.4130 
   66.7500   -20.8990    58.4090     8.8570    11.1630    15.8480    24.2500     2.3900 
   66.8750   -21.6620    62.9130     7.4720     9.6050    11.3010    24.2230     2.3420 
   67.0000   -22.2990    71.3490     6.1030     7.9540     7.8010    24.2060     2.3050 
   67.1250   -22.8630    80.7670     5.1430     6.6800     6.0790    24.2200     2.2930 
