~V
VERS. 2.00: Ver 2.00
~W
STRT.M 60.0000:
STOP.M 271.0000:
STEP.M 0.1250:
NULL. -999.2500:
UWI. F10237:
~C
DEPT.M :
GR.API :
RML.OHMM :
RI. :
RXO.OHMM :
CALI.CM :
DEN.GM/CC :
SP.MV :
~A
# ...
  138.7500    77.3100    20.0570    18.0580    18.3820    24.1790     2.5050    -9.0160 
  138.8750    79.9870    18.6110    16.8400    15.5000    24.2120     2.5000    -8.8410 
  139.0000    79.2210    17.0580    15.4780    13.3800    24.2310     2.4920    -8.7210 
  139.1250    77.4000    15.8220    14.2970    12.4440    24.2620     2.4840    -8.6200 
  139.2500    77.1280    15.0780    13.4790    11.4890    24.2540     2.4740    -8.4910 
  139.3750    76.5180    14.8430    13.0890    11.2270    24.2450     2.4670    -8.3690 
  139.5000    73.4110    14.9910    13.0830    12.1210    24.2540     2.4630    -8.2880 
  139.6250    70.8920    15.2920    13.3210    13.5280    24.2350     2.4590    -8.2000 
  139.7500    71.2470    15.4330    13.5200    13.4160    24.2270     2.4540    -8.1120 
  139.8750    74.0030    15.2030    13.4690    12.5350    24.2640     2.4490    -8.0380 
  140.0000    78.7060    14.5280    13.0400    12.4850    24.3660     2.4430    -7.9360 
  140.1250    83.3870    13.5020    12.2130    12.4430    24.3920     2.4320    -7.7940 
  140.2500    85.4780    12.4280    11.2340    10.5680    24.3110     2.4190    -7.6600 
  140.3750    84.1590    11.4580    10.2820     9.2330    24.2200     2.4100    -7.5330 
  140.5000    80.8770    10.6100     9.4560     8.9920    24.1400     2.4030    -7.3930 
  140.6250    79.9760     9.8050     8.7660     9.1330    23.9780     2.3950    -7.2850 
  140.7500    82.5100     8.9620     8.1170     7.5810    23.8110     2.3840    -7.1490 
  140.8750    86.7840     8.0750     7.4430     6.8540    23.7850     2.3760    -6.9650 
  141.0000    91.5190     6.5340     6.7190     6.5010    23.8690     2.3680    -6.8310 
  141.1250    95.2200     5.8110     5.9980     5.8070    24.0950     2.3570    -6.7640 
  141.2500    98.8810     5.2190     5.3680     4.8310    24.4150     2.3470    -6.6560 
  141.3750   101.2400     4.7850     4.8810     4.2240    24.6470     2.3390    -6.5200 
  141.5000    98.3470     4.5240     4.5510     4.0090    24.7740     2.3320    -6.4250 
  141.6250    93.0580     4.4430     4.3830     3.9850    24.8150     2.3270    -6.3260 
  141.7500    91.4280     4.4590     4.3210     3.9770    24.8190     2.3250    -6.2310 
  141.8750    93.9310     4.5040     4.3240     3.9630    24.7990     2.3260    -6.1780 
  142.0000    95.0740     4.5280     4.3490     3.9880    24.7880     2.3300    -6.1290 
  142.1250    92.6180     4.5250     4.3590     4.0350    24.7970     2.3390    -6.0590 
  142.2500    93.8630     4.5260     4.3480     4.0380    24.8180     2.3530    -6.0220 
  142.3750    97.5670     4.5370     4.3200     4.0290    24.8280     2.3670    -5.9980 
  142.5000    97.3530     4.5390     4.2810     4.0900    24.8290     2.3770    -5.9790 
  142.6250    92.8120     4.4990     4.2320     4.1390    24.8200     2.3810    -5.9970 
  142.7500    91.4600     4.4340     4.1730     4.1010    24.7880     2.3850    -6.0090 
  142.8750    95.8340     4.3830     4.1130     4.0500    24.7200     2.3880    -5.9950 
  143.0000    98.2950     4.3710     4.0700     4.0350    24.6450     2.3890    -5.9760 
  143.1250    94.4940     4.4080     4.0700     4.0460    24.6230     2.3870    -6.0440 
  143.2500    91.6620     4.4720     4.1050     4.1040    24.6530     2.3820    -6.1110 
  143.3750    92.9470     4.5420     4.1600     4.2320    24.7070     2.3780    -6.1310 
  143.5000    95.5860     4.6020     4.2140     4.3600    24.7500     2.3760    -6.1280 
  143.6250    95.8840     4.6470     4.2480     4.4170    24.7730     2.3760    -6.1750 
  143.7500    97.7800     4.6830     4.2590     4.3910    24.7610     2.3740    -6.2360 
  143.8750   103.6280     4.7140     4.2510     4.3360    24.7320     2.3680    -6.2630 
  144.0000   108.2600     4.7410     4.2260     4.3000    24.7380     2.3620    -6.2900 
  144.1250   106.3360     4.7550     4.1870     4.2680    24.7520     2.3600    -6.3230 
  144.2500   101.1590     4.7430     4.1450     4.2350    24.7510     2.3610    -6.3790 
  144.3750    99.0740     4.7070     4.1110     4.2340    24.7430     2.3580    -6.4220 
  144.5000   101.4830     4.6670     4.0890     4.2510    24.7300     2.3510    -6.4510 
  144.6250   103.5730     4.6580     4.0840     4.2000    24.7230     2.3400    -6.4850 
  144.7500   103.2350     4.7090     4.0980     4.0980    24.6740     2.3290    -6.5360 
  144.8750   102.5400     4.8350     4.1360     4.0920    24.5840     2.3170    -6.5610 
  145.0000   101.5320     5.0260     4.2060     4.2920    24.4720     2.3070    -6.5390 
  145.1250    96.6310     5.2290     4.2990     4.4390    24.4190     2.3010    -6.5270 
  145.2500    89.3200     5.3800     4.3800     4.4800    24.3880     2.2990    -6.5280 
  145.3750    83.6260     5.4370     4.4180     4.4480    24.3850     2.3020    -6.5300 
  145.5000    81.4700     5.3920     4.4000     4.3660    24.4070     2.3110    -6.5360 
  145.6250    81.8550     5.2680     4.3280     4.2710    24.4340     2.3220    -6.5370 
  145.7500    86.6420     5.1220     4.2310     4.1500    24.4780     2.3330    -6.5160 
  145.8750    94.1690     4.9860     4.1310     4.0430    24.5160     2.3420    -6.5080 
  146.0000    98.7020     4.8790     4.0410     3.9890    24.5410     2.3490    -6.5420 
  146.1250    96.4900     4.8220     3.9750     4.0140    24.5360     2.3550    -6.5780 
  146.2500    92.0300     4.8090     3.9340     4.0150    24.5530     2.3580    -6.5950 
  146.3750    88.6430     4.8330     3.9150     4.0090    24.6110     2.3580    -6.6130 
  146.5000    86.6160     4.8660     3.9030     3.9950    24.6570     2.3570    -6.6300 
  146.6250    85.6630     4.8650     3.8870     3.9810    24.6720     2.3540    -6.6570 
  146.7500    85.0200     4.8200     3.8660     3.9520    24.6720     2.3530    -6.7430 
  146.8750    83.0000     4.7480     3.8440     3.9170    24.6720     2.3540    -6.8560 
  147.0000    81.0310     4.6820     3.8220     3.9030    24.6720     2.3570    -6.9290 
  147.1250    82.5280     4.6620     3.8010     3.9070    24.6720     2.3570    -6.9990 
  147.2500    87.2870     4.6750     3.7790     3.9050    24.6720     2.3530    -7.1100 
  147.3750    94.6120     4.6930     3.7590     3.8910    24.6720     2.3500    -7.2420 
  147.5000   101.3980     4.6940     3.7440     3.8610    24.6720     2.3500    -7.3280 
  147.6250   102.5320     4.6810     3.7370     3.8480    24.6690     2.3500    -7.3940 
  147.7500    99.6430     4.6720     3.7280     3.8240    24.6530     2.3500    -7.4550 
  147.8750    96.2690     4.6680     3.7110     3.8280    24.6220     2.3490    -7.4880 
  148.0000    96.1510     4.6610     3.6900     3.8360    24.6030     2.3480    -7.5450 
  148.1250    97.9660     4.6310     3.6740     3.8330    24.6120     2.3500    -7.6010 
  148.2500    96.8920     4.5790     3.6690     3.8050    24.6410     2.3530    -7.6260 
  148.3750    94.2820     4.5260     3.6710     3.7510    24.6640     2.3560    -7.6570 
  148.5000    93.6810     4.4930     3.6760     3.7270    24.6720     2.3560    -7.7250 
  148.6250    98.8980     4.4890     3.6800     3.7930    24.6720     2.3560    -7.7900 
  148.7500   103.5790     4.5030     3.6860     3.8780    24.6720     2.3550    -7.8830 
  148.8750   105.5410     4.5220     3.6880     3.8900    24.6720     2.3540    -7.9970 
  149.0000   107.9410     4.5260     3.6710     3.8110    24.6720     2.3540    -8.0600 
  149.1250   107.7040     4.4990     3.6240     3.7110    24.6720     2.3580    -8.1000 
  149.2500   104.6020     4.4350     3.5610     3.6550    24.6730     2.3650    -8.2090 
  149.3750   100.9350     4.3400     3.5040     3.6330    24.6770     2.3690    -8.3530 
  149.5000    98.1890     4.2380     3.4690     3.6020    24.6840     2.3700    -8.4600 
  149.6250    95.9270     4.1690     3.4560     3.5650    24.6770     2.3680    -8.5390 
  149.7500    94.4890     4.1380     3.4430     3.5520    24.6730     2.3650    -8.6500 
  149.8750    94.6650     4.1290     3.4130     3.5690    24.6690     2.3620    -8.8030 
