~V
VERS. 2.00: Ver 2.00
~W
STRT.M 30.0000:
STOP.M 271.0000:
STEP.M 0.1250:
NULL. -999.2500:
UWI. F10210:
~C
DEPT.M :
DEN.GM/CC :
GR.API :
RML.OHMM :
RI. :
RXO.OHMM :
CALI.CM :
SP.MV :
~A
# ...
  108.7500     2.0810    74.7900     9.2870     7.8570    10.6760    25.9120   -18.1990 
  108.8750     2.0750    76.1760     8.7640     7.5130    11.2310    26.3480   -17.4900 
  109.0000     2.1040    79.4460     8.3680     7.2270    10.9170    26.2520   -16.7630 
  109.1250     2.1500    85.8580     8.3050     7.1550    10.2450    25.9900   -16.0900 
  109.2500     2.1770    90.7710     8.5310     7.3140    10.3540    25.9360   -15.4690 
  109.3750     2.1850    91.5210     8.8850     7.6300    10.5960    25.8630   -14.8530 
  109.5000     2.1900    89.2070     9.1070     7.9200    10.2800    25.6950   -14.1580 
  109.6250     2.2080    85.8710     8.8690     7.8780    10.2010    25.6790   -13.2550 
  109.7500     2.2310    84.3430     8.2430     7.4410     8.5870    25.6730   -12.1930 
  109.8750     2.2520    87.7610     7.4650     6.7480     6.4080    25.6740   -11.0540 
  110.0000     2.2660    95.8280     6.7830     6.0310     5.0800    25.6430    -9.8870 
  110.1250     2.2730   103.3650     6.3660     5.4990     4.7180    25.4200    -8.7030 
  110.2500     2.2780   106.8370     6.1410     5.1640     4.6930    25.2070    -7.5320 
  110.3750     2.2790   106.9410     5.9890     4.9690     4.8520    25.0230    -6.4290 
  110.5000     2.2810   106.7330     5.7930     4.8230     5.0320    24.8630    -5.4820 
  110.6250     2.2930   107.1620     5.5460     4.6820     5.0080    24.8290    -4.8280 
  110.7500     2.3150   107.4980     5.4480     4.6330     4.9530    24.8240    -4.4600 
  110.8750     2.3440   106.8870     5.7600     4.8430     4.9410    24.8350    -4.3080 
  111.0000     2.3810   104.1270     6.7290     5.4870     5.1270    24.8420    -4.2690 
  111.1250     2.4290    97.3400     8.5750     6.7780     6.6380    24.8320    -4.2560 
  111.2500     2.4760    87.3940    10.8790     8.5260    10.8240    24.8280    -4.2330 
  111.3750     2.4960    77.2780    12.8820    10.2620    17.0580    24.8290    -4.2200 
  111.5000     2.4650    71.4750    13.5780    11.2000    18.8470    24.8350    -4.2160 
  111.6250     2.3870    75.4110    12.2880    10.6210    13.5870    24.8350    -4.2340 
  111.7500     2.3140    85.0080    10.1740     9.2200     8.6970    24.8310    -4.2500 
  111.8750     2.2730    93.3780     8.2450     7.7380     6.4360    24.8220    -4.2610 
  112.0000     2.2630    97.8290     6.9590     6.5980     6.0750    24.8320    -4.2600 
  112.1250     2.2650    98.6510     6.3700     5.9440     6.1070    24.8300    -4.2440 
  112.2500     2.2670   101.3050     6.1380     5.6000     5.8250    24.8340    -4.2270 
  112.3750     2.2740   106.0460     6.0690     5.4370     5.4880    24.8290    -4.1880 
  112.5000     2.2900   109.6200     6.0350     5.3540     5.2940    24.8230    -4.1270 
  112.6250     2.3100   110.6530     5.9920     5.2950     5.2510    24.7970    -4.0420 
  112.7500     2.3270   111.9630     5.9630     5.2470     5.2550    24.7300    -3.9660 
  112.8750     2.3350   114.8650     5.9730     5.2200     5.3210    24.7480    -3.9130 
  113.0000     2.3330   115.5860     6.0220     5.2270     5.4340    24.6680    -3.8910 
  113.1250     2.3250   112.3080     6.0910     5.2780     5.5560    24.6590    -3.8960 
  113.2500     2.3200   111.3240     6.1430     5.3520     5.5770    24.6590    -3.9010 
  113.3750     2.3190   111.9870     6.1530     5.4220     5.4980    24.6590    -3.9060 
  113.5000     2.3230   109.9850     6.1220     5.4690     5.4050    24.6660    -3.9110 
  113.6250     2.3260   105.8970     6.0880     5.4950     5.4510    24.7030    -3.8870 
  113.7500     2.3220   105.1220     6.1060     5.5380     5.6000    24.8160    -3.8290 
  113.8750     2.3120   108.7100     6.2100     5.6330     5.6560    24.8320    -3.7440 
  114.0000     2.3010   112.7410     6.3830     5.7910     5.7120    24.8400    -3.6380 
  114.1250     2.2980   113.3460     6.5530     5.9790     6.1730    24.8220    -3.5300 
  114.2500     2.3000   111.9590     6.6270     6.1070     6.7730    24.8230    -3.4370 
  114.3750     2.3040   110.7300     6.5430     6.1010     6.8370    24.8300    -3.3670 
  114.5000     2.3070   110.9090     6.3050     5.9300     6.1130    24.8340    -3.3100 
  114.6250     2.3110   111.6820     5.9740     5.6330     5.5100    24.8250    -3.3010 
  114.7500     2.3150   111.0660     5.6720     5.3310     5.1900    24.8150    -3.3350 
  114.8750     2.3160   110.5870     5.4760     5.0970     5.0040    24.8240    -3.3960 
  115.0000     2.3130   111.1880     5.4220     4.9650     4.8860    24.8080    -3.4940 
  115.1250     2.3160   111.1230     5.5130     4.9410     4.8870    24.6580    -3.6380 
  115.2500     2.3280   109.6460     5.6580     4.9820     4.8730    24.3370    -3.7880 
  115.3750     2.3450   109.0490     5.7970     5.0600     4.8550    24.1950    -3.9380 
  115.5000     2.3570   112.0930     5.8910     5.1430     4.8680    24.1620    -4.0820 
  115.6250     2.3560   113.8990     5.9190     5.1990     4.9040    24.1430    -4.2030 
  115.7500     2.3520   110.5940     5.8990     5.2170     4.8980    24.1350    -4.2990 
  115.8750     2.3490   105.7550     5.8600     5.2020     4.8500    24.1430    -4.3910 
  116.0000     2.3440   105.1930     5.8360     5.1760     4.8540    24.1500    -4.4740 
  116.1250     2.3320   110.3680     5.8750     5.1730     4.9100    24.1440    -4.5630 
  116.2500     2.3170   115.9560     5.9810     5.2150     4.9460    24.1020    -4.6920 
  116.3750     2.2950   117.3280     6.1330     5.3060     5.0130    24.0690    -4.8520 
  116.5000     2.2640   114.4070     6.2940     5.4350     5.1490    24.0610    -5.0620 
  116.6250     2.2310   110.9070     6.4120     5.5750     5.4280    24.0670    -5.3370 
  116.7500     2.2060   106.8930     6.4840     5.7000     5.7910    24.0630    -5.6640 
  116.8750     2.1990   100.3500     6.5650     5.8180     6.1880    24.0580    -6.0000 
  117.0000     2.2170    93.7650     6.7710     5.9880     6.4700    24.0460    -6.3020 
  117.1250     2.2640    92.4830     7.3750     6.3750     6.7800    24.0660    -6.5030 
  117.2500     2.3360    92.3720     8.5810     7.1260     7.3260    24.0670    -6.5870 
  117.3750     2.4240    89.2640    10.5670     8.4040     8.6120    24.0610    -6.5610 
  117.5000     2.5070    83.0620    13.3230    10.2910    11.1210    24.0540    -6.4380 
  117.6250     2.5500    77.0500    16.3920    12.6440    14.5910    24.0670    -6.2360 
  117.7500     2.5570    71.7210    18.6360    14.6910    17.2340    24.0690    -5.9900 
  117.8750     2.5410    66.7040    19.0300    15.5760    17.3410    24.0730    -5.7500 
  118.0000     2.5110    63.3730    17.3470    14.8830    14.0390    24.0560    -5.5550 
  118.1250     2.4690    66.2270    14.4170    12.9680     9.4610    24.0680    -5.4800 
  118.2500     2.4120    71.9870    11.6590    10.9150     7.4200    24.0710    -5.4940 
  118.3750     2.3500    74.4130     9.6160     9.2250     6.8920    24.0640    -5.6090 
  118.5000     2.2960    73.1040     8.4160     8.0810     6.7910    24.0550    -5.7940 
  118.6250     2.2710    73.8660     8.1310     7.6120     6.5000    24.0700    -6.0140 
  118.7500     2.2690    76.2290     8.4840     7.6810     6.5630    24.0650    -6.2410 
  118.8750     2.2830    77.7790     9.2600     8.1870     7.1480    24.0680    -6.4530 
  119.0000     2.3090    78.1880    10.1450     8.9360     8.1030    24.0670    -6.6200 
  119.1250     2.3390    77.9210    10.6480     9.5570     9.5190    24.0580    -6.7070 
  119.2500     2.3530    75.7080    10.4940     9.6910    10.3490    24.0560    -6.7760 
  119.3750     2.3450    73.3960     9.6960     9.2140     9.2810    24.0650    -6.8130 
  119.5000     2.3280    75.6930     8.6110     8.3350     7.0510    24.0670    -6.8110 
  119.6250     2.3260    81.2610     7.8240     7.5220     6.1850    24.0640    -6.7610 
  119.7500     2.3440    84.1890     7.7010     7.1490     6.1530    24.0640    -6.6500 
  119.8750     2.3820    82.6700     8.4720     7.4180     6.6090    24.0650    -6.4790 
