~V
VERS. 2.00: Ver 2.00
~W
STRT.M 57.0000:
STOP.M 274.0000:
STEP.M 0.1250:
NULL. -999.2500:
UWI. F10215:
~C
DEPT.M :
SP.MV :
DEN.GM/CC :
GR.API :
RML.OHMM :
RI. :
RXO.OHMM :
CALI.CM :
~A
# ...
  180.7500   -21.1250     2.2090    57.9100   214.1380   185.0940   156.5850    24.3180 
  180.8750   -21.1970     2.2030    56.7640   232.6370   201.6240   167.9880    24.3160 
  181.0000   -21.2660     2.1940    57.4960   244.7690   212.8390   175.6930    24.3370 
  181.1250   -21.3150     2.1830    59.3060   249.8380   217.8670   179.4720    24.4230 
  181.2500   -21.3790     2.1730    59.9280   250.2270   218.7640   190.7380    24.4860 
  181.3750   -21.4440     2.1680    59.4190   246.8660   216.4290   205.0210    24.3740 
  181.5000   -21.5110     2.1710    58.6560   240.7900   211.7490   210.9810    24.0300 
  181.6250   -21.5730     2.1780    57.7910   233.3690   205.8620   205.0960    23.3620 
  181.7500   -21.6340     2.1850    56.7750   225.9610   200.0780   184.8700    22.8320 
  181.8750   -21.7050     2.1900    55.7840   218.4410   194.5370   158.2990    22.6170 
  182.0000   -21.7570     2.1900    54.8600   209.6310   188.3970   151.5170    22.6850 
  182.1250   -21.8310     2.1850    54.1230   197.6320   179.9020   156.6980    22.8860 
  182.2500   -21.8710     2.1740    53.8830   182.9240   168.8960   166.6200    23.1530 
  182.3750   -21.9060     2.1570    54.6460   167.3140   156.5190   148.4180    23.4930 
  182.5000   -21.9170     2.1350    55.2720   153.3820   144.8940   113.4130    23.8400 
  182.6250   -21.9080     2.1150    54.7650   144.1630   136.8620    88.5720    23.9970 
  182.7500   -21.8750     2.1070    55.6360   139.9800   133.1980    84.5550    23.8610 
  182.8750   -21.8330     2.1140    57.4020   140.5040   133.9180    98.9000    23.6660 
  183.0000   -21.7900     2.1330    57.5630   144.5610   138.2070   117.5630    23.5490 
  183.1250   -21.7210     2.1550    55.8660   149.8410   144.2460   138.5170    23.6330 
  183.2500   -21.6750     2.1730    56.0450   152.5890   148.4510   151.5510    23.8410 
  183.3750   -21.6250     2.1850    58.2400   150.1030   147.8510   149.6780    24.0800 
  183.5000   -21.6030     2.1940    60.5580   142.0360   141.4140   138.9380    24.2040 
  183.6250   -21.5790     2.2040    62.2660   131.1640   131.0150   139.2900    24.1670 
  183.7500   -21.5510     2.2140    61.9420   122.5130   121.5670   115.4730    24.2260 
  183.8750   -21.5290     2.2170    59.9160   119.5300   116.5880    84.3250    24.2770 
  184.0000   -21.5310     2.2110    58.1010   124.6210   118.7530    83.0110    24.2560 
  184.1250   -21.5710     2.1970    57.3180   140.8200   131.4900   117.0210    24.2580 
  184.2500   -21.6170     2.1810    57.1860   166.5310   153.7220   172.5210    24.3610 
  184.3750   -21.6810     2.1690    57.3050   199.6010   183.6190   218.9820    24.4780 
  184.5000   -21.7460     2.1630    57.0510   234.7480   216.2740   236.0190    24.4970 
  184.6250   -21.8350     2.1630    55.9710   262.4480   242.7110   229.8450    24.3080 
  184.7500   -21.9330     2.1650    56.5390   279.1140   258.8640   217.7030    24.0370 
  184.8750   -22.0440     2.1680    58.8410   287.2240   266.4380   195.7790    23.7540 
  185.0000   -22.1440     2.1690    59.7010   291.5040   269.7500   179.8110    23.5890 
  185.1250   -22.2280     2.1680    56.2500   294.6520   271.6450   173.5460    23.5830 
  185.2500   -22.2970     2.1670    51.4950   296.8940   272.6540   201.8010    23.7830 
  185.3750   -22.3570     2.1690    51.4150   297.1620   271.9020   230.9660    24.0900 
  185.5000   -22.4140     2.1750    57.3020   293.9550   268.1820   244.5280    24.2920 
  185.6250   -22.4570     2.1830    61.6490   285.3950   260.0160   251.7930    24.3420 
  185.7500   -22.5090     2.1910    59.5550   273.0520   248.7140   288.9910    24.3120 
  185.8750   -22.5340     2.1970    55.4520   259.3370   236.2230   327.8420    24.2980 
  186.0000   -22.5500     2.2010    55.7500   247.0960   224.8630   369.4720    24.2450 
  186.1250   -22.5700     2.2020    58.1740   239.4780   217.3130   380.7780    24.2700 
  186.2500   -22.5990     2.2000    58.9090   237.0770   214.2880   371.1080    24.2680 
  186.3750   -22.6060     2.1960    58.9480   239.9430   216.0660   348.7370    24.2400 
  186.5000   -22.5940     2.1910    60.8980   247.2910   222.1820   316.9760    24.2360 
  186.6250   -22.5560     2.1890    62.5540   257.6140   231.5840   321.8150    24.2230 
  186.7500   -22.5150     2.1890    60.7730   267.4750   241.2540   392.5820    24.1910 
  186.8750   -22.4790     2.1870    58.3970   273.3420   248.0530   523.8500    24.1530 
  187.0000   -22.4370     2.1820    59.5710   271.7280   248.6240   536.9230    24.1670 
  187.1250   -22.4020     2.1720    62.6100   260.0220   239.9370   391.8590    24.1920 
  187.2500   -22.3460     2.1640    62.2300   242.6830   225.3820   327.4560    24.2360 
  187.3750   -22.3170     2.1620    59.7690   224.2940   208.9690   303.6340    24.2140 
  187.5000   -22.2980     2.1660    59.6520   208.3650   194.2590   266.9260    24.1370 
  187.6250   -22.3150     2.1750    61.8250   196.4210   183.2540   220.2140    24.0470 
  187.7500   -22.2980     2.1890    61.2840   186.2070   174.2450   232.0840    24.0360 
  187.8750   -22.2870     2.2090    58.1490   175.3000   165.0300   255.6640    24.0640 
  188.0000   -22.2560     2.2310    56.2940   162.0540   153.9060   233.9550    24.0710 
  188.1250   -22.2160     2.2470    57.7560   146.3810   140.4470   172.4780    24.0430 
  188.2500   -22.1560     2.2520    59.9370   130.5960   126.4920   136.0970    23.9510 
  188.3750   -22.0790     2.2480    62.9430   116.7620   113.8540   124.0640    23.9270 
  188.5000   -21.9650     2.2420    66.9640   106.2470   103.9310   124.9710    23.9560 
  188.6250   -21.8520     2.2400    68.5540    99.9240    97.8010   118.0210    24.0200 
  188.7500   -21.7430     2.2380    66.8500    96.4960    94.4590   113.0660    24.0770 
  188.8750   -21.6470     2.2330    64.5130    95.1170    93.1040   104.2600    24.1280 
  189.0000   -21.5570     2.2220    63.0470    95.1340    93.0460    98.8460    24.1910 
  189.1250   -21.4720     2.2100    62.2250    96.2360    93.9360   100.0290    24.2160 
  189.2500   -21.4090     2.2000    62.3320    97.9020    95.3000   102.6550    24.1970 
  189.3750   -21.3590     2.1930    63.5310    99.7670    96.8060   100.6500    24.1560 
  189.5000   -21.3270     2.1880    64.6180   101.3890    98.0430    99.3140    24.1680 
  189.6250   -21.2940     2.1850    64.7000   102.0710    98.3470   102.3170    24.1930 
  189.7500   -21.2790     2.1890    62.4870   101.5370    97.4480   105.7150    24.2380 
  189.8750   -21.2590     2.1990    58.8360    99.8910    95.4040   101.5900    24.2530 
  190.0000   -21.2550     2.2110    57.5700    97.7920    92.7840    90.3680    24.2620 
  190.1250   -21.2400     2.2160    61.5040    96.5390    90.7370    82.5950    24.2880 
  190.2500   -21.2250     2.2140    65.5660    97.0760    90.1880    79.2970    24.3230 
  190.3750   -21.1970     2.2070    66.5930    99.7910    91.5720    78.9360    24.3590 
  190.5000   -21.1830     2.1990    65.8470   104.3780    94.6930    85.8260    24.3730 
  190.6250   -21.1430     2.1960    65.2410   109.7680    98.6630    95.5460    24.4120 
  190.7500   -21.0860     2.1940    63.9760   114.2460   101.9450   101.9090    24.4870 
  190.8750   -21.0210     2.1930    61.6180   116.7340   103.5360   100.8430    24.5870 
  191.0000   -20.9470     2.1920    59.0630   117.1500   103.2350    97.3790    24.6200 
  191.1250   -20.8690     2.1930    57.6940   116.8000   101.9760    91.2060    24.6190 
  191.2500   -20.7800     2.1990    57.6720   117.9830   101.7320    87.0680    24.5800 
  191.3750   -20.6900     2.2080    58.8320   122.4360   104.0600    82.5350    24.5120 
  191.5000   -20.5940     2.2170    61.4050   131.2450   110.0050    79.5720    24.5120 
  191.6250   -20.5240     2.2200    63.7840   145.0920   120.2730    95.0420    24.5110 
  191.7500   -20.4390     2.2160    63.3680   161.3700   132.7850   129.0780    24.5820 
  191.8750   -20.3540     2.2070    59.6870   176.5250   144.7880   164.5850    24.5860 
