~V
VERS. 2.00: Ver 2.00
~W
STRT.M 20.0000:
STOP.M 256.0000:
STEP.M 0.1250:
NULL. -999.2500:
UWI. F10201:
~C
DEPT.M :
DEN.GM/CC :
GR.API :
RML.OHMM :
RI. :
RXO.OHMM :
CALI.CM :
SP.MV :
~A
# ...
  245.0000     2.4690    64.8660    11.1570     9.3320    12.6080    24.3910    -9.0190 
  245.1250     2.4500    65.3560    11.7460     9.8000    12.4170    24.3620    -9.0890 
  245.2500     2.4270    64.7220    12.1760    10.2410    12.4180    24.3330    -9.1430 
  245.3750     2.4120    62.5430    12.3660    10.5630    11.1910    24.3330    -9.1640 
  245.5000     2.4110    62.9290    12.3600    10.7290    10.1510    24.3450    -9.1850 
  245.6250     2.4210    63.8190    12.1990    10.7450     9.8110    24.3490    -9.2020 
  245.7500     2.4320    63.8190    11.9560    10.6730     9.9180    24.3370    -9.2090 
  245.8750     2.4350    63.8190    11.7490    10.6210    10.0270    24.3100    -9.1920 
  246.0000     2.4330    63.8190    11.6950    10.6840    10.1260    24.3000    -9.1420 
  246.1250     2.4300    63.8190    11.8890    10.9140    11.0160    24.3500    -9.0860 
  246.2500     2.4320    63.8190    12.3740    11.3300    12.3940    24.4180    -9.0430 
  246.3750     2.4480    63.8190    13.1170    11.9200    13.2410    24.4610    -9.0540 
  246.5000     2.4770    63.8190    13.8870    12.5650    14.3670    24.4550    -9.0760 
  246.6250     2.5140    63.8190    14.4720    13.1370    16.2820    24.4240    -9.0810 
  246.7500     2.5520    63.8190    14.7140    13.5060    18.2620    24.3840    -9.0850 
  246.8750     2.5770    63.8190    14.5150    13.5270    20.0560    24.3670    -9.1030 
  247.0000     2.5830    63.8190    14.0620    13.2690    20.1100    24.3690    -9.1330 
  247.1250     2.5700    63.8190    13.5320    12.8470    18.4390    24.3880    -9.1500 
  247.2500     2.5450    63.8190    13.0780    12.4100    17.9570    24.4060    -9.1510 
  247.3750     2.5120    63.8190    12.7960    12.0930    19.1190    24.4240    -9.1280 
  247.5000     2.4830    63.8190    12.6310    11.9070    18.0220    24.4440    -9.1140 
  247.6250     2.4630    63.8190    12.5120    11.7970    15.5000    24.4710    -9.1180 
  247.7500     2.4590    63.8190    12.3690    11.6750    13.5320    24.4810    -9.1440 
  247.8750     2.4710    63.8190    12.1670    11.4740    12.4240    24.4700    -9.1270 
  248.0000     2.4900    63.8190    11.9410    11.2330    12.0730    24.4560    -9.0880 
  248.1250     2.5070    63.8190    11.7300    11.0140    12.5560    24.4520    -9.0820 
  248.2500     2.5160    63.8190    11.5710    10.8560    13.7690    24.4570    -9.0880 
  248.3750     2.5190    63.8190    11.5100    10.7710    14.7840    24.4360    -9.0800 
  248.5000     2.5190    63.8190    11.5360    10.7210    14.8750    24.3730    -9.0840 
  248.6250     2.5190    63.8190    11.6080    10.6820    16.0770    24.2920    -9.0930 
  248.7500     2.5170    63.8190    11.6580    10.6490    18.2340    24.2250    -9.0810 
  248.8750     2.5120    63.8190    11.6250    10.6330    16.3290    24.2350    -9.0670 
  249.0000     2.5060    63.8190    11.5400    10.6300    14.0810    24.2960    -9.0100 
  249.1250     2.5030    63.8190    11.4550    10.6320    12.3250    24.3790    -8.9080 
  249.2500     2.5040    63.8190    11.4210    10.6340    11.3540    24.4390    -8.7990 
  249.3750     2.5080    63.8190    11.4510    10.6370    11.3240    24.4460    -8.6810 
  249.5000     2.5140    63.8190    11.5000    10.6420    12.4310    24.4360    -8.5240 
  249.6250     2.5200    63.8190    11.5390    10.6500    15.0300    24.4310    -8.3850 
  249.7500     2.5250    63.8190    11.5610    10.6560    20.0770    24.4310    -8.2670 
  249.8750     2.5270    63.8190    11.5670    10.6550    26.6570    24.4480    -8.1600 
  250.0000     2.5250    63.8190    11.5610    10.6470    30.2230    24.4670    -8.1110 
  250.1250     2.5180    63.8190    11.5420    10.6370    25.2120    24.4800    -8.0850 
  250.2500     2.5090    63.8190    11.5100    10.6330    18.7840    24.4840    -8.0280 
  250.3750     2.4990    63.8190    11.4720    10.6400    16.4590    24.4860    -7.9480 
  250.5000     2.4900    63.8190    11.4410    10.6530    15.2190    24.4880    -7.9020 
  250.6250     2.4850    63.8190    11.4240    10.6680    13.5690    24.4920    -7.8520 
  250.7500     2.4830    63.8190    11.4170    10.6750    12.0350    24.5020    -7.8130 
  250.8750     2.4830    63.8190    11.4160    10.6700    11.4000    24.5230    -7.8070 
  251.0000     2.4830    63.8190    11.4160    10.6600    11.2900    24.5440    -7.7790 
  251.1250     2.4790    63.8190    11.4150    10.6490    11.1280    24.5580    -7.7600 
  251.2500     2.4710    63.8190    11.4120    10.6410    10.7150    24.5610    -7.8000 
  251.3750     2.4570    63.8190    11.4100    10.6380    10.9410    24.5440    -7.8930 
  251.5000     2.4430    63.8190    11.4090    10.6370    12.5090    24.5200    -7.9520 
  251.6250     2.4300    63.8190    11.4090    10.6370    14.9050    24.4870    -8.0070 
  251.7500     2.4180    63.8190    11.4090    10.6370    17.7590    24.4660    -8.0610 
  251.8750     2.4040    63.8190    11.4090    10.6370    18.5060    24.4600    -8.0870 
  252.0000     2.3900    63.8190    11.4090    10.6370    16.3430    24.4440    -8.1250 
  252.1250     2.3780    63.8190    11.4090    10.6370    12.8880    24.3840    -8.1310 
  252.2500     2.3690    63.8190    11.4090    10.6370    11.2950    24.2480    -8.0780 
  252.3750     2.3630    63.8190    11.4090    10.6370    10.8500    24.0660    -7.9840 
  252.5000     2.3540    63.8190    11.4090    10.6370    10.2530    23.8900    -7.9190 
  252.6250     2.3380    63.8190    11.4090    10.6370     9.6010    23.6360    -7.8410 
  252.7500     2.3150    63.8190    11.4090    10.6370     9.1840    23.1660    -7.7660 
  252.8750     2.2910    63.8190    11.4090    10.6370     8.7780    22.4230    -7.7190 
  253.0000     2.2740    63.8190    11.4090    10.6370     8.4080    21.8070    -7.6860 
  253.1250     2.2630    63.8190    11.4090    10.6370     8.0690    21.5250    -7.6910 
  253.2500     2.2580    63.8190    11.4090    10.6370     7.9190    21.4620    -7.7040 
  253.3750     2.2560    63.8190    11.4090    10.6370     7.9160    21.4590  -999.2500 
  253.5000     2.2540    63.8190    11.4090    10.6370     7.9210    21.4590  -999.2500 
  253.6250     2.2520    63.8190    11.4090    10.6370     7.9230    21.4590  -999.2500 
  253.7500     2.2490    63.8190    11.4090    10.6370     7.9200    21.4590  -999.2500 
  253.8750     2.2450    63.8190    11.4090    10.6370     7.9190    21.4590  -999.2500 
  254.0000     2.2420    63.8190    11.4090    10.6370     7.9210    21.4590  -999.2500 
  254.1250     2.2400    63.8190    11.4090    10.6370     7.9250    21.4580  -999.2500 
  254.2500     2.2410    63.8190    11.4090    10.6370     7.9230    21.4550  -999.2500 
  254.3750     2.2430    63.8190    11.4090    10.6370     7.9240    21.4540  -999.2500 
  254.5000     2.2450    63.8190    11.4090    10.6370     7.9260    21.4510  -999.2500 
  254.6250     2.2470    63.8190    11.4090    10.6370     7.9290    21.4500  -999.2500 
  254.7500     2.2480    63.8190    11.4090    10.6370     7.9270    21.4490  -999.2500 
  254.8750     2.2490    63.8190    11.4090    10.6370     7.9220    21.4490  -999.2500 
  255.0000  -999.2500    63.8190    11.4090    10.6370     7.9210    21.4490  -999.2500 
  255.1250  -999.2500    63.8190    11.4090    10.6370     7.9200    21.4490  -999.2500 
  255.2500  -999.2500    63.8190    11.4090    10.6370     7.9170    21.4490  -999.2500 
  255.3750  -999.2500    63.8190    11.4090    10.6370     7.9200    21.4490  -999.2500 
  255.5000  -999.2500    63.8190    11.4090    10.6370     7.9220    21.4490  -999.2500 
  255.6250  -999.2500    63.8190    11.4090    10.6370     7.9190    21.4490  -999.2500 
  255.7500  -999.2500    63.8190    11.4090    10.6370     7.9180    21.4470  -999.2500 
  255.8750  -999.2500    63.8190    11.4090    10.6370     7.9140    21.4410  -999.2500 
  256.0000  -999.2500    63.8190    11.4090    10.6370     7.9150    21.4330  -999.2500 
