~V
VERS. 2.00: Ver 2.00
~W
STRT.M 53.0000:
STOP.M 282.0000:
STEP.M 0.1250:
NULL. -999.2500:
UWI. F10240:
~C
DEPT.M :
GR.API :
RML.OHMM :
RI. :
RXO.OHMM :
CALI.CM :
DEN.GM/CC :
SP.MV :
~A
# ...
  143.0000    82.5150     6.2730     5.0130     5.8590    25.1840     2.2630   -14.2710 
  143.1250    80.1970     6.1880     4.8990     5.6520    25.1990     2.2560   -14.2330 
  143.2500    78.3740     6.1880     4.8380     5.5030    25.2110     2.2480   -14.2320 
  143.3750    77.9300     6.2510     4.8240     5.5660    25.1680     2.2440   -14.2520 
  143.5000    78.3990     6.3340     4.8320     5.8070    25.1280     2.2460   -14.2490 
  143.6250    79.4000     6.3900     4.8310     5.9350    25.1210     2.2540   -14.2400 
  143.7500    80.1700     6.3970     4.8020     5.8080    25.1720     2.2670   -14.2270 
  143.8750    79.6480     6.3570     4.7390     5.6040    25.2390     2.2770   -14.2040 
  144.0000    78.2270     6.2830     4.6480     5.5620    25.2940     2.2810   -14.1450 
  144.1250    78.6410     6.2030     4.5510     5.5640    25.3130     2.2810   -14.0640 
  144.2500    80.6960     6.1250     4.4580     5.6000    25.3410     2.2850   -13.9600 
  144.3750    81.8560     6.0550     4.3760     5.5730    25.3500     2.2940   -13.8260 
  144.5000    81.4530     5.9980     4.3120     5.3900    25.3660     2.3070   -13.7210 
  144.6250    80.2590     5.9670     4.2660     5.3110    25.3890     2.3160   -13.6220 
  144.7500    79.7480     5.9750     4.2450     5.3160    25.4400     2.3150   -13.5140 
  144.8750    79.3820     6.0320     4.2540     5.4090    25.4480     2.3080   -13.4300 
  145.0000    79.0650     6.1370     4.2960     5.4670    25.4420     2.3010   -13.4150 
  145.1250    81.2030     6.2610     4.3580     5.4920    25.4060     2.2990   -13.3910 
  145.2500    83.3360     6.3780     4.4260     5.5350    25.3930     2.3020   -13.3490 
  145.3750    81.5530     6.4670     4.4860     5.6070    25.3910     2.3060   -13.3400 
  145.5000    77.8170     6.5070     4.5200     5.6410    25.3940     2.3060   -13.3540 
  145.6250    77.9930     6.5050     4.5250     5.6570    25.3820     2.3020   -13.3680 
  145.7500    79.3840     6.4790     4.5020     5.6670    25.3590     2.3000   -13.3820 
  145.8750    77.4780     6.4500     4.4620     5.6510    25.3440     2.3050   -13.3890 
  146.0000    75.7660     6.4480     4.4200     5.6050    25.3280     2.3200   -13.3990 
  146.1250    77.5510     6.4860     4.3950     5.5730    25.3150     2.3380   -13.4200 
  146.2500    80.3370     6.5620     4.3930     5.5950    25.3050     2.3520   -13.4330 
  146.3750    82.8330     6.6630     4.4130     5.6880    25.3050     2.3580   -13.4450 
  146.5000    86.7700     6.7590     4.4470     5.7730    25.3030     2.3540   -13.4680 
  146.6250    90.8450     6.8220     4.4840     5.8610    25.3040     2.3460   -13.5040 
  146.7500    92.4780     6.8440     4.5180     5.8820    25.3030     2.3410   -13.5440 
  146.8750    90.5300     6.8420     4.5480     5.8190    25.3060     2.3400   -13.5680 
  147.0000    85.7520     6.8530     4.5770     5.7440    25.3050     2.3450   -13.5840 
  147.1250    82.5120     6.8930     4.6020     5.7310    25.3040     2.3550   -13.6080 
  147.2500    81.5920     6.9490     4.6190     5.7650    25.3030     2.3660   -13.6420 
  147.3750    81.9180     6.9940     4.6190     5.8060    25.3100     2.3710   -13.6790 
  147.5000    83.2880     6.9930     4.5990     5.7900    25.3040     2.3640   -13.6960 
  147.6250    86.3890     6.9570     4.5680     5.6760    25.3050     2.3480   -13.6890 
  147.7500    89.5460     6.9130     4.5380     5.5940    25.3030     2.3290   -13.6810 
  147.8750    90.5300     6.8880     4.5180     5.6140    25.3140     2.3120   -13.6980 
  148.0000    89.2400     6.8980     4.5110     5.6630    25.3030     2.3000   -13.7170 
  148.1250    86.7310     6.9240     4.5110     5.7020    25.2970     2.2920   -13.7260 
  148.2500    83.5440     6.9430     4.5090     5.7390    25.2760     2.2890   -13.7450 
  148.3750    82.5120     6.9410     4.5030     5.7330    25.2670     2.2940   -13.7420 
  148.5000    86.5350     6.9180     4.4930     5.6520    25.2620     2.3100   -13.7020 
  148.6250    91.9910     6.9000     4.4870     5.5530    25.2610     2.3280   -13.6660 
  148.7500    93.9150     6.8990     4.4870     5.5690    25.2450     2.3390   -13.6340 
  148.8750    90.2120     6.9130     4.4920     5.6440    25.2100     2.3400   -13.6140 
  149.0000    83.7140     6.9140     4.4900     5.6340    25.1880     2.3330   -13.5800 
  149.1250    79.5040     6.8730     4.4680     5.5640    25.1560     2.3230   -13.5390 
  149.2500    78.6110     6.7810     4.4140     5.4740    25.1180     2.3130   -13.5070 
  149.3750    79.3270     6.6490     4.3280     5.3450    25.0850     2.3020   -13.4750 
  149.5000    78.8000     6.4990     4.2250     5.1880    25.0870     2.2930   -13.4450 
  149.6250    77.7810     6.3560     4.1300     5.0540    25.0830     2.2890   -13.4300 
  149.7500    76.8020     6.2350     4.0540     4.9420    25.0790     2.2910   -13.4280 
  149.8750    76.1930     6.1420     4.0010     4.8430    25.0490     2.2990   -13.3960 
  150.0000    77.4860     6.0830     3.9730     4.8270    25.0220     2.3090   -13.3660 
  150.1250    80.4310     6.0490     3.9640     4.8360    25.0140     2.3160   -13.3270 
  150.2500    82.9550     6.0360     3.9680     4.8420    25.0390     2.3190   -13.2600 
  150.3750    83.2370     6.0330     3.9790     4.8480    25.0360     2.3170   -13.2200 
  150.5000    84.2500     6.0320     3.9910     4.9050    25.0730     2.3130   -13.2240 
  150.6250    85.3060     6.0320     3.9990     5.0210    25.0880     2.3110   -13.1960 
  150.7500    83.3540     6.0290     4.0060     5.0530    25.0950     2.3130   -13.1420 
  150.8750    79.6960     6.0170     4.0080     5.0200    25.0710     2.3190   -13.1110 
  151.0000    79.1470     5.9800     3.9930     4.9230    25.0530     2.3320   -13.0950 
  151.1250    79.2360     5.9110     3.9530     4.8040    25.1070     2.3440   -13.0780 
  151.2500    77.2100     5.8090     3.8860     4.7010    25.1950     2.3520   -13.0620 
  151.3750    75.1820     5.6830     3.7980     4.5990    25.2400     2.3520   -13.0390 
  151.5000    76.7540     5.5420     3.6940     4.4320    25.2490     2.3430   -13.0280 
  151.6250    79.6580     5.3890     3.5820     4.4280    25.2670     2.3310   -13.0490 
  151.7500    82.1940     5.2220     3.4640     4.5240    25.2390     2.3170   -13.0690 
  151.8750    82.5300     5.0540     3.3510     4.5130    25.1680     2.3050   -13.0760 
  152.0000    80.5950     4.9460     3.2790     4.2290    25.0880     2.2910   -13.0900 
  152.1250    79.3160     4.9730     3.2870     4.1750    25.1680     2.2770   -13.1070 
  152.2500    78.7500     5.1930     3.4080     4.3300    25.2320     2.2710   -13.1380 
  152.3750    78.4430     5.6210     3.6530     4.8320    25.2720     2.2770   -13.1930 
  152.5000    78.2940     6.2130     4.0090     5.7680    25.2780     2.2990   -13.2480 
  152.6250    77.6890     6.7970     4.3900     6.8140    25.2980     2.3260   -13.2910 
  152.7500    77.1470     7.2200     4.7140     7.2340    25.3060     2.3490   -13.3710 
  152.8750    78.6780     7.3730     4.9050     6.9570    25.3040     2.3640   -13.4630 
  153.0000    83.1030     7.2290     4.9130     6.6840    25.3010     2.3670   -13.5070 
  153.1250    85.0920     6.9670     4.8170     6.5300    25.3060     2.3610   -13.5670 
  153.2500    83.3410     6.7250     4.6900     6.2690    25.3080     2.3510   -13.6630 
  153.3750    80.5000     6.5990     4.5980     5.7500    25.2770     2.3430   -13.7440 
  153.5000    77.6040     6.6400     4.5930     5.7100    25.2330     2.3480   -13.7830 
  153.6250    74.8580     6.7580     4.6490     6.2790    25.1780     2.3650   -13.8360 
  153.7500    74.7540     6.8600     4.7230     7.0600    25.1340     2.3890   -13.9040 
  153.8750    77.6200     6.8830     4.7770     7.0260    25.0460     2.4050   -13.9710 
  154.0000    80.4110     6.8430     4.8010     7.5390    25.0090     2.3960   -14.0480 
  154.1250    81.6470     6.8290     4.8300     7.4680    24.9860     2.3760   -14.1330 
