~V
VERS. 2.00: Ver 2.00
~W
STRT.M 52.0000:
STOP.M 271.0000:
STEP.M 0.1250:
NULL. -999.2500:
UWI. F10212:
~C
DEPT.M :
GR.API :
RML.OHMM :
RI. :
RXO.OHMM :
CALI.CM :
SP.MV :
DEN.GM/CC :
~A
# ...
  142.0000    91.1280     6.9650     4.6120     5.4450    24.2660    -4.1560     2.3280 
  142.1250    91.6810     6.9450     4.5910     5.4590    24.2700    -4.2020     2.3210 
  142.2500    93.1460     6.9350     4.5770     5.4370    24.2540    -4.2510     2.3190 
  142.3750    91.2770     6.9400     4.5720     5.3770    24.2350    -4.3090     2.3210 
  142.5000    86.6760     6.9540     4.5720     5.3750    24.2330    -4.3640     2.3240 
  142.6250    86.3530     6.9650     4.5710     5.4700    24.2570    -4.3820     2.3260 
  142.7500    90.3730     6.9560     4.5640     5.5360    24.2720    -4.3820     2.3270 
  142.8750    94.2830     6.9200     4.5460     5.5260    24.3170    -4.3820     2.3250 
  143.0000    95.0090     6.8680     4.5180     5.4740    24.3710    -4.3820     2.3190 
  143.1250    92.4410     6.8360     4.4950     5.4260    24.4280    -4.3670     2.3100 
  143.2500    90.9520     6.8520     4.4930     5.4250    24.4650    -4.3000     2.3020 
  143.3750    93.4170     6.9210     4.5200     5.4460    24.4100    -4.1730     2.2960 
  143.5000    97.3000     7.0260     4.5750     5.5020    24.2370    -4.0160     2.2880 
  143.6250    96.7800     7.1360     4.6490     5.6360    24.0350    -3.8990     2.2840 
  143.7500    92.7950     7.2230     4.7210     5.7680    24.1050    -3.8450     2.2860 
  143.8750    89.5860     7.2810     4.7770     5.7840    24.2260    -3.8150     2.2950 
  144.0000    89.7640     7.3060     4.8110     5.7210    24.2910    -3.7720     2.3060 
  144.1250    92.7520     7.2950     4.8170     5.6930    24.3210    -3.7140     2.3140 
  144.2500    92.2430     7.2610     4.8050     5.7210    24.3300    -3.6870     2.3210 
  144.3750    86.3970     7.2100     4.7800     5.7130    24.3050    -3.7280     2.3270 
  144.5000    80.8740     7.1470     4.7450     5.6670    24.2370    -3.8270     2.3290 
  144.6250    82.3200     7.0690     4.6940     5.6140    24.1440    -3.9660     2.3220 
  144.7500    86.3900     6.9790     4.6320     5.5760    24.0930    -4.1020     2.3070 
  144.8750    87.4350     6.8850     4.5610     5.5080    24.0360    -4.2240     2.2880 
  145.0000    87.4900     6.7990     4.4890     5.3510    23.9420    -4.3270     2.2740 
  145.1250    89.9230     6.7400     4.4270     5.2170    23.9820    -4.3930     2.2720 
  145.2500    91.0050     6.7030     4.3760     5.1570    24.1990    -4.4400     2.2790 
  145.3750    90.3670     6.6730     4.3350     5.1630    24.4610    -4.4650     2.2870 
  145.5000    92.2200     6.6290     4.2990     5.1850    24.5980    -4.4860     2.2890 
  145.6250    99.4920     6.5560     4.2580     5.1920    24.5860    -4.5030     2.2850 
  145.7500   104.7170     6.4640     4.2130     5.1480    24.4660    -4.4830     2.2790 
  145.8750   103.1500     6.3770     4.1680     5.0430    24.2640    -4.4130     2.2790 
  146.0000    97.9240     6.3190     4.1350     4.9710    24.0880    -4.3090     2.2900 
  146.1250    93.3580     6.3140     4.1250     4.9650    24.1010    -4.2180     2.3080 
  146.2500    89.1830     6.3480     4.1390     4.9930    24.1710    -4.1230     2.3260 
  146.3750    85.8830     6.3970     4.1680     5.0400    24.2670    -4.0150     2.3410 
  146.5000    84.8830     6.4360     4.2000     5.0870    24.3840    -3.8760     2.3520 
  146.6250    84.4020     6.4370     4.2200     5.1290    24.3700    -3.6700     2.3530 
  146.7500    83.2240     6.3990     4.2190     5.1690    24.2800    -3.4390     2.3440 
  146.8750    82.5820     6.3270     4.1940     5.2050    24.2810    -3.2680     2.3290 
  147.0000    83.7530     6.2350     4.1500     5.2400    24.4010    -3.1980     2.3180 
  147.1250    87.4590     6.1370     4.0950     5.1710    24.4840    -3.1770     2.3170 
  147.2500    93.1030     6.0490     4.0420     5.0460    24.5270    -3.1650     2.3200 
  147.3750    98.4740     5.9830     3.9980     4.9340    24.5470    -3.1660     2.3220 
  147.5000    98.9990     5.9440     3.9700     4.8920    24.5390    -3.1800     2.3200 
  147.6250    94.6850     5.9340     3.9610     4.8710    24.5310    -3.2460     2.3190 
  147.7500    91.8420     5.9390     3.9640     4.8390    24.5640    -3.3750     2.3210 
  147.8750    90.8170     5.9430     3.9700     4.8370    24.6170    -3.5190     2.3220 
  148.0000    90.7210     5.9360     3.9700     4.8690    24.6500    -3.6320     2.3190 
  148.1250    90.7420     5.9030     3.9530     4.8790    24.6460    -3.7200     2.3100 
  148.2500    89.4840     5.8490     3.9220     4.8390    24.6340    -3.7930     2.3010 
  148.3750    86.8630     5.7840     3.8820     4.7850    24.6280    -3.8620     2.2980 
  148.5000    84.5410     5.7220     3.8430     4.7410    24.6310    -3.9370     2.3020 
  148.6250    86.4890     5.6830     3.8180     4.7290    24.6230    -4.0180     2.3090 
  148.7500    90.7700     5.6790     3.8170     4.7680    24.5860    -4.1200     2.3120 
  148.8750    93.7990     5.7160     3.8430     4.8800    24.5180    -4.2220     2.3100 
  149.0000    92.6330     5.7890     3.8930     5.0460    24.4560    -4.3090     2.3050 
  149.1250    89.8610     5.8910     3.9650     5.1450    24.4670    -4.3880     2.2990 
  149.2500    92.2910     6.0010     4.0460     5.0700    24.5400    -4.4800     2.2940 
  149.3750    98.4060     6.1020     4.1300     5.0060    24.6570    -4.5670     2.2940 
  149.5000    99.6940     6.1830     4.2060     4.9980    24.7630    -4.6510     2.3000 
  149.6250    95.6230     6.2290     4.2640     5.0680    24.8280    -4.7360     2.3080 
  149.7500    95.0570     6.2390     4.3000     5.1620    24.8560    -4.7820     2.3130 
  149.8750    97.2700     6.2170     4.3150     5.1920    24.8620    -4.7960     2.3130 
  150.0000    96.0710     6.1790     4.3170     5.0830    24.8620    -4.8100     2.3070 
  150.1250    92.7650     6.1590     4.3220     4.9900    24.8570    -4.8640     2.2980 
  150.2500    94.0060     6.1780     4.3410     4.9840    24.7940    -4.9740     2.2860 
  150.3750    97.0070     6.2310     4.3750     5.0410    24.6040    -5.1210     2.2720 
  150.5000    97.7770     6.2900     4.4140     5.1540    24.3020    -5.2610     2.2620 
  150.6250    97.9820     6.3040     4.4280     5.3800    24.0380    -5.3310     2.2600 
  150.7500    98.2390     6.2510     4.3960     5.3730    23.8900    -5.3380     2.2670 
  150.8750    97.8470     6.1480     4.3200     5.1670    23.9240    -5.3440     2.2800 
  151.0000    96.1440     6.0340     4.2210     4.9270    24.1710    -5.3770     2.2900 
  151.1250    93.1760     5.9660     4.1370     4.8430    24.5000    -5.4410     2.2870 
  151.2500    91.9580     5.9780     4.1010     4.9100    24.6420    -5.5240     2.2750 
  151.3750    93.9600     6.1120     4.1440     5.1630    24.6640    -5.6340     2.2640 
  151.5000    96.1250     6.4240     4.3050     5.5160    24.6500    -5.7740     2.2550 
  151.6250    91.5170     6.9980     4.6490     5.8380    24.5800    -5.9780     2.2460 
  151.7500    85.3130     7.7910     5.1570     6.3070    24.3780    -6.2530     2.2340 
  151.8750    84.9450     8.7340     5.8020     7.2460    24.0250    -6.5460     2.2240 
  152.0000    88.5810     9.7090     6.5230     9.0160    23.6840    -6.8050     2.2200 
  152.1250    88.8530    10.5470     7.2180     9.6540    23.5610    -6.9720     2.2280 
  152.2500    87.9490    11.1670     7.8060     9.7490    23.6420    -7.0400     2.2400 
  152.3750    88.2320    11.5690     8.2520     9.2550    23.9200    -7.0220     2.2480 
  152.5000    86.8780    11.8200     8.5690     9.9600    24.3270    -6.9270     2.2470 
  152.6250    82.2870    12.0060     8.7990    11.4620    24.6750    -6.7720     2.2350 
  152.7500    80.3660    12.2070     9.0100    13.0830    24.7710    -6.6040     2.2230 
  152.8750    81.7250    12.4460     9.2290    12.2450    24.6920    -6.4450     2.2200 
  153.0000    82.4440    12.7020     9.4530    11.3530    24.5020    -6.3110     2.2290 
  153.1250    80.7440    12.8960     9.6320    12.3280    24.3460    -6.1780     2.2400 
