~V
VERS. 2.00: Ver 2.00
~W
STRT.M 52.0000:
STOP.M 254.0000:
STEP.M 0.1250:
NULL. -999.2500:
UWI. F10213:
~C
DEPT.M :
DEN.GM/CC :
GR.API :
RML.OHMM :
RI. :
RXO.OHMM :
CALI.CM :
SP.MV :
~A
# ...
  142.0000     2.3200    94.2310     6.2680     4.6180     6.2110    22.1640   -13.0610 
  142.1250     2.3190    94.2330     6.2450     4.6240     6.6410    22.2160   -12.8190 
  142.2500     2.3200    95.2450     6.2200     4.6230     6.9340    22.3910   -12.5850 
  142.3750     2.3240    96.5090     6.2060     4.6190     6.6490    22.5800   -12.3700 
  142.5000     2.3290    95.1180     6.2150     4.6210     6.0940    22.6270   -12.2010 
  142.6250     2.3370    89.7070     6.2520     4.6400     6.1070    22.5210   -12.0910 
  142.7500     2.3420    86.1100     6.2990     4.6690     6.3910    22.3290   -11.9960 
  142.8750     2.3390    86.9330     6.3330     4.6960     6.5950    22.0120   -11.8970 
  143.0000     2.3230    89.7800     6.3250     4.7020     6.5470    21.7400   -11.7610 
  143.1250     2.3010    89.0770     6.2510     4.6660     6.3220    21.9330   -11.5750 
  143.2500     2.2830    84.3760     6.1290     4.5960     5.9920    22.4310   -11.4200 
  143.3750     2.2740    80.3280     5.9900     4.5110     5.7530    22.9130   -11.2820 
  143.5000     2.2650    80.9110     5.8760     4.4350     5.6650    23.2290   -11.1330 
  143.6250     2.2580    87.3260     5.8350     4.3980     5.6240    23.3260   -10.9820 
  143.7500     2.2590    94.4560     5.8640     4.4070     5.5640    23.3160   -10.8490 
  143.8750     2.2680    99.3370     5.9400     4.4520     5.4990    23.2430   -10.7390 
  144.0000     2.2770   100.1970     6.0200     4.5130     5.5180    23.1610   -10.6450 
  144.1250     2.2840    96.2070     6.0460     4.5560     5.6080    23.1490   -10.5880 
  144.2500     2.2940    92.4770     5.9980     4.5610     5.6460    23.2810   -10.5620 
  144.3750     2.3040    92.7820     5.8880     4.5250     5.5870    23.5370   -10.5730 
  144.5000     2.3080    96.4180     5.7500     4.4590     5.4520    23.7790   -10.6320 
  144.6250     2.3010    97.1430     5.6340     4.3880     5.3620    23.7210   -10.7330 
  144.7500     2.2840    95.2480     5.5680     4.3360     5.4450    23.3830   -10.8490 
  144.8750     2.2610    95.8260     5.5510     4.3100     5.7400    22.8970   -11.0020 
  145.0000     2.2460    98.4290     5.5620     4.3060     6.0440    22.4300   -11.1880 
  145.1250     2.2520   101.3520     5.5720     4.3120     6.0110    22.2150   -11.3750 
  145.2500     2.2680   104.8430     5.5630     4.3130     5.7410    22.3740   -11.4780 
  145.3750     2.2800   108.1280     5.5380     4.3050     5.4610    22.7840   -11.4520 
  145.5000     2.2870   107.3850     5.5050     4.2900     5.3180    23.1620   -11.3340 
  145.6250     2.2970    97.3980     5.4770     4.2770     5.2550    23.2370   -11.1910 
  145.7500     2.3140    86.9520     5.4540     4.2700     5.2500    23.1070   -11.0560 
  145.8750     2.3280    83.9530     5.4330     4.2680     5.2570    22.7530   -10.9080 
  146.0000     2.3290    87.6950     5.4060     4.2640     5.3070    22.0740   -10.6990 
  146.1250     2.3200    92.6690     5.3640     4.2540     5.4270    20.8470   -10.4400 
  146.2500     2.3100    94.4770     5.3070     4.2340     5.6150    19.4360   -10.2510 
  146.3750     2.3030    95.3620     5.2370     4.2040     5.7760    18.2130   -10.1710 
  146.5000     2.2970    95.4430     5.1630     4.1690     5.7490    17.2010   -10.1140 
  146.6250     2.2890    91.5640     5.1020     4.1350     5.6420    16.3900   -10.0050 
  146.7500     2.2810    86.2610     5.0620     4.1120     5.5190    15.9110    -9.9000 
  146.8750     2.2710    84.2520     5.0470     4.1020     5.4540    15.7180    -9.8450 
  147.0000     2.2550    88.4610     5.0490     4.1080     5.4800    15.6530    -9.8630 
  147.1250     2.2370    93.6720     5.0550     4.1280     5.5500    15.6020    -9.9010 
  147.2500     2.2250    94.6360     5.0470     4.1490     5.6490    15.6870    -9.8910 
  147.3750     2.2200    93.8240     5.0170     4.1620     5.6850    15.9960    -9.8430 
  147.5000     2.2080    96.0760     4.9630     4.1600     5.4380    16.7080    -9.8140 
  147.6250     2.1760    99.3270     4.9030     4.1470     5.2440    17.9560    -9.8160 
  147.7500     2.1360    97.7210     4.8620     4.1330     5.2460    18.9680    -9.8270 
  147.8750     2.1070    94.2060     4.8570     4.1310     5.4860    19.2120    -9.8560 
  148.0000     2.0970    93.5870     4.8950     4.1470     5.8480    18.9730    -9.9430 
  148.1250     2.0940    98.1990     4.9760     4.1820     6.1160    18.6840   -10.1120 
  148.2500     2.0900   101.1640     5.0770     4.2240     5.9690    18.5830   -10.3210 
  148.3750     2.0860   100.6600     5.1800     4.2620     5.8830    18.6770   -10.5300 
  148.5000     2.0890    98.9410     5.2660     4.2890     6.0060    18.9140   -10.7600 
  148.6250     2.1020    98.4620     5.2990     4.2880     6.3300    19.1470   -11.0110 
  148.7500     2.1190    97.3950     5.2670     4.2550     6.4850    19.4680   -11.2300 
  148.8750     2.1360    95.1290     5.2040     4.2050     6.5720    19.8940   -11.3720 
  149.0000     2.1510    92.9650     5.2250     4.2030     6.7550    20.3980   -11.4680 
  149.1250     2.1650    90.9640     5.5830     4.4100     6.7700    20.9310   -11.5340 
  149.2500     2.1700    88.6190     6.4490     4.9560     6.8290    21.6710   -11.5870 
  149.3750     2.1560    87.4630     7.9580     5.9810     7.6860    22.6560   -11.6500 
  149.5000     2.1240    88.0980    10.1220     7.5930    10.5600    23.6910   -11.7000 
  149.6250     2.0920    87.9940    12.7320     9.8330    16.9120    24.3550   -11.7550 
  149.7500     2.0830    86.0890    15.0840    12.2040    20.3720    24.5840   -11.8680 
  149.8750     2.1020    83.8180    16.5220    14.0790    18.9240    24.5180   -12.0320 
  150.0000     2.1400    80.7800    16.7880    15.0020    17.8590    24.2710   -12.1700 
  150.1250     2.1800    79.7570    16.1370    14.9120    17.0680    23.9110   -12.2570 
  150.2500     2.2020    82.2000    15.2340    14.3510    16.1610    23.7030   -12.3200 
  150.3750     2.2030    84.9160    14.2500    13.5370    14.9450    23.6520   -12.3600 
  150.5000     2.1980    83.7800    13.1240    12.4990    14.0550    23.6490   -12.3600 
  150.6250     2.2100    79.7530    11.8290    11.2520    12.9090    23.5990   -12.2970 
  150.7500     2.2340    78.3140    10.6360    10.0470    11.0020    23.5970   -12.1340 
  150.8750     2.2540    81.0570     9.8280     9.1300     9.0510    23.6870   -11.9020 
  151.0000     2.2630    85.0640     9.5720     8.6510     7.9010    23.9260   -11.6640 
  151.1250     2.2630    88.3670     9.9290     8.7140     8.6220    24.3320   -11.4470 
  151.2500     2.2620    91.3920    10.6200     9.1540    11.2430    24.7570   -11.2580 
  151.3750     2.2590    90.8690    11.4180     9.8300    14.6130    25.1000   -11.1140 
  151.5000     2.2550    85.3580    12.1890    10.6130    15.0770    25.2750   -11.0600 
  151.6250     2.2540    80.2110    13.0690    11.5150    13.2770    25.3240   -11.0810 
  151.7500     2.2560    83.1640    14.3990    12.7110    12.5170    25.3400   -11.1970 
  151.8750     2.2570    91.9910    16.4910    14.4670    14.5320    25.3610   -11.3950 
  152.0000     2.2540    97.7090    19.4470    16.9860    18.7880    25.3800   -11.5910 
  152.1250     2.2410    96.8270    22.8470    20.1660    25.2880    25.4000   -11.7630 
  152.2500     2.2240    91.7380    25.2720    22.8570    30.3870    25.4240   -11.9660 
  152.3750     2.2120    85.0610    25.3100    23.6500    33.8720    25.4350   -12.1730 
  152.5000     2.2130    79.4510    22.7420    22.0220    34.2910    25.4260   -12.3230 
  152.6250     2.2300    77.2280    19.0570    18.9990    29.8000    25.3380   -12.4270 
  152.7500     2.2490    78.1300    16.1400    16.3060    21.7940    25.1400   -12.5150 
  152.8750     2.2600    78.6980    14.5660    14.5540    14.6980    24.9350   -12.5950 
  153.0000     2.2580    76.4060    14.2730    13.8340    11.9780    24.8930   -12.6590 
  153.1250     2.2450    72.0570    14.9290    14.0430    13.4830    25.0450   -12.7360 
