~V
VERS. 2.00: Ver 2.00
~W
STRT.M 54.0000:
STOP.M 277.0000:
STEP.M 0.1250:
NULL. -999.2500:
UWI. F10247:
~C
DEPT.M :
GR.API :
RML.OHMM :
RI. :
RXO.OHMM :
CALI.CM :
DEN.GM/CC :
SP.MV :
~A
# ...
  110.2500    57.8290    11.1320     8.0020    10.5940    24.1670     2.1400   -25.3860 
  110.3750    58.9190    10.6090     7.6870    10.2710    24.1740     2.1400   -25.3770 
  110.5000    63.1020     9.9920     7.2630     9.7260    24.2720     2.1490   -25.3130 
  110.6250    67.5150     9.4510     6.8440     8.8570    24.3940     2.1610   -25.2130 
  110.7500    69.6940     9.1620     6.5580     7.8190    24.3500     2.1650   -25.1280 
  110.8750    71.0950     9.1320     6.4380     7.6540    24.1560     2.1570   -25.0770 
  111.0000    71.2510     9.3220     6.4850     8.2470    23.9640     2.1420   -25.0620 
  111.1250    67.7190     9.6490     6.6600     8.9380    24.0230     2.1280   -25.0570 
  111.2500    62.0430    10.0030     6.9040     8.3460    24.2170     2.1220   -25.0790 
  111.3750    60.0630    10.2850     7.1300     7.3770    24.3700     2.1200   -25.1070 
  111.5000    62.7260    10.4480     7.2940     7.6020    24.3670     2.1190   -25.1350 
  111.6250    66.2170    10.4860     7.3800     8.8650    24.2870     2.1210   -25.1500 
  111.7500    68.0040    10.4090     7.3930     9.8310    24.1930     2.1270   -25.1110 
  111.8750    68.2600    10.2760     7.3710     9.8900    24.1150     2.1360   -25.0230 
  112.0000    66.2650    10.1250     7.3400     9.5410    24.0830     2.1420   -24.8900 
  112.1250    62.6680     9.9870     7.3220     9.2290    24.0790     2.1420   -24.7740 
  112.2500    60.8330     9.8900     7.3420     9.0330    24.0740     2.1360   -24.6420 
  112.3750    61.5070     9.8310     7.3950     9.0980    24.0620     2.1280   -24.5130 
  112.5000    62.2270     9.8110     7.4630     9.1810    24.0620     2.1200   -24.3700 
  112.6250    61.5220     9.8280     7.5250     9.1020    24.0580     2.1170   -24.2330 
  112.7500    59.9470     9.8760     7.5700     8.9060    24.0300     2.1180   -24.0930 
  112.8750    60.4320     9.9120     7.5940     8.6970    24.0030     2.1200   -23.9170 
  113.0000    62.7110     9.8610     7.5660     8.4690    24.0040     2.1220   -23.6850 
  113.1250    65.3210     9.6100     7.4240     8.3160    24.0320     2.1250   -23.3620 
  113.2500    68.1660     8.9740     7.0340     7.9690    24.0430     2.1380   -22.9660 
  113.3750    71.6270     7.9970     6.3990     7.4100    23.9770     2.1670   -22.5240 
  113.5000    77.3980     6.8660     5.6100     6.5650    23.8590     2.2170   -22.0960 
  113.6250    85.7000     5.8930     4.8510     5.5790    23.8400     2.2790   -21.7110 
  113.7500    93.5460     5.4700     4.3750     4.8970    23.9970     2.3260   -21.4500 
  113.8750    97.1210     5.6730     4.2830     4.5330    24.1340     2.3370   -21.3550 
  114.0000    94.9480     6.5130     4.6230     4.9770    24.1590     2.3100   -21.4510 
  114.1250    88.0660     7.8960     5.3840     7.1560    24.1310     2.2600   -21.7370 
  114.2500    77.8860     9.5130     6.4670    11.6670    24.1060     2.1970   -22.1790 
  114.3750    69.1130    10.7490     7.4860    15.2170    24.1270     2.1460   -22.7090 
  114.5000    64.2530    11.1740     8.0860    12.4850    24.1290     2.1150   -23.2610 
  114.6250    62.8460    10.7960     8.1240     9.2220    24.0590     2.1040   -23.8020 
  114.7500    64.3860    10.0160     7.7430     8.1080    23.9400     2.1050   -24.2650 
  114.8750    65.9890     9.3680     7.3200     8.4530    23.7780     2.1060   -24.6300 
  115.0000    65.7080     9.1270     7.0770     9.1370    23.6680     2.1000   -24.8540 
  115.1250    64.3770     9.5530     7.1980     9.6790    23.6720     2.0950   -24.9580 
  115.2500    63.3180    11.3140     8.0500    10.5130    23.9240     2.1160   -24.9520 
  115.3750    61.7780    14.8660     9.9470    12.2900    24.1820     2.1850   -24.9010 
  115.5000    59.6730    20.6690    13.3580    16.9410    24.4560     2.3130   -24.8130 
  115.6250    58.6880    28.5210    18.5310    26.6390    24.6890     2.4760   -24.7040 
  115.7500    58.8770    35.8010    24.3520    57.0160    24.7330     2.5800   -24.6050 
  115.8750    59.8050    37.6330    27.1530    92.7020    24.6980     2.5690   -24.5460 
  116.0000    61.9230    32.2090    24.7550    74.8300    24.5790     2.4720   -24.5560 
  116.1250    63.7360    23.3570    19.2080    34.8250    24.4080     2.3440   -24.6200 
  116.2500    65.2440    16.3730    14.1720    15.3360    24.1490     2.2360   -24.7610 
  116.3750    66.7500    12.2730    10.8070    10.9020    23.8740     2.1680   -24.9390 
  116.5000    66.8400    10.3570     8.8750     9.7020    23.6520     2.1380   -25.1480 
  116.6250    64.6090     9.7820     7.9430     9.4530    23.5280     2.1310   -25.3730 
  116.7500    62.2000     9.9280     7.7070     9.5390    23.5790     2.1330   -25.5540 
  116.8750    62.8060    10.1970     7.7440     9.6620    23.6730     2.1330   -25.6890 
  117.0000    66.6130    10.3490     7.8410     9.5100    23.7610     2.1320   -25.7550 
  117.1250    71.1060    10.3320     7.8890     9.2450    23.7500     2.1280   -25.7900 
  117.2500    72.7950    10.2250     7.8790     9.1780    23.7330     2.1250   -25.7920 
  117.3750    71.2390    10.1510     7.8580     9.1910    23.8340     2.1230   -25.8040 
  117.5000    68.7060    10.1640     7.8510     9.3670    23.9490     2.1240   -25.8240 
  117.6250    66.7000    10.2700     7.8680     9.6920    24.0170     2.1270   -25.8540 
  117.7500    65.3080    10.4420     7.8980    10.0290    24.0440     2.1310   -25.9170 
  117.8750    63.4020    10.6030     7.9160    10.2600    24.0760     2.1340   -25.9830 
  118.0000    61.6030    10.7020     7.9100    10.4270    24.0950     2.1360   -26.0540 
  118.1250    60.8300    10.7210     7.8770    10.4510    24.1000     2.1340   -26.0940 
  118.2500    61.1250    10.6700     7.8230    10.3810    24.1400     2.1290   -26.0900 
  118.3750    60.1070    10.5960     7.7590    10.3090    24.1980     2.1230   -26.0370 
  118.5000    58.3620    10.5240     7.6900    10.2850    24.2060     2.1180   -25.9520 
  118.6250    59.5580    10.4710     7.6140    10.3260    24.0990     2.1160   -25.8460 
  118.7500    64.7790    10.4440     7.5320    10.3040    23.8770     2.1180   -25.7060 
  118.8750    68.7090    10.4340     7.4530    10.1380    23.7600     2.1260   -25.5660 
  119.0000    68.6730    10.4370     7.3850     9.8540    23.9740     2.1380   -25.4170 
  119.1250    67.7940    10.4540     7.3380     9.7910    24.1520     2.1490   -25.2860 
  119.2500    69.7890    10.4920     7.3240     9.8930    24.0980     2.1550   -25.1830 
  119.3750    71.9870    10.5570     7.3440     9.8080    24.0160     2.1530   -25.0950 
  119.5000    72.4160    10.6480     7.3940     9.7660    24.0070     2.1470   -25.0390 
  119.6250    71.0440    10.7510     7.4640    10.0110    24.0290     2.1390   -24.9950 
  119.7500    67.2600    10.8350     7.5370    10.6390    24.0250     2.1280   -24.9670 
  119.8750    62.2090    10.8820     7.5950    10.7930    24.0130     2.1140   -24.8990 
  120.0000    59.3290    10.8920     7.6330    10.6170    24.0270     2.1020   -24.8170 
  120.1250    60.5320    10.8830     7.6580    10.4040    24.0610     2.0970   -24.6800 
  120.2500    61.4200    10.8730     7.6900    10.3260    23.9820     2.1050   -24.5080 
  120.3750    60.3430    10.8770     7.7460    10.2890    23.8010     2.1210   -24.2850 
  120.5000    61.1220    10.9230     7.8350    10.4030    23.7150     2.1350   -24.0100 
  120.6250    66.1760    11.0370     7.9550    10.7560    23.7630     2.1390   -23.6750 
  120.7500    68.8830    11.2060     8.0960    11.2090    23.8590     2.1320   -23.2930 
  120.8750    65.7590    11.3140     8.2090    11.3380    23.8800     2.1180   -22.8770 
  121.0000    61.3420    11.2130     8.2160    11.2870    23.8580     2.1090   -22.4290 
  121.1250    60.2200    10.8000     8.0360    11.2460    23.7910     2.1150   -21.9500 
  121.2500    63.4520    10.0810     7.6230    10.9160    23.6810     2.1450   -21.4240 
  121.3750    69.0090     9.3040     7.1070     9.8080    23.5530     2.1880   -20.8920 
