~V
VERS. 2.00: Ver 2.00
~W
STRT.M 50.0000:
STOP.M 258.0000:
STEP.M 0.1250:
NULL. -999.2500:
UWI. F10200:
~C
DEPT.M :
SP.MV :
GR.API :
RML.OHMM :
RI. :
RXO.OHMM :
CALI.CM :
DEN.GM/CC :
~A
# ...
  230.0000   -11.4480    63.5380    27.3070    26.5130    31.7390    23.7210     2.3840 
  230.1250   -11.1370    63.8760    26.8750    26.2460    30.9060    23.7140     2.3970 
  230.2500   -10.8490    64.9680    26.3520    25.8320    30.5420    23.6940     2.4060 
  230.3750   -10.5490    65.7260    25.8850    25.3970    29.9720    23.6730     2.4100 
  230.5000   -10.2590    65.9330    25.5040    24.9870    29.0830    23.6560     2.4070 
  230.6250    -9.9800    65.3560    25.1240    24.5660    29.0210    23.6540     2.3950 
  230.7500    -9.6660    62.6050    24.6510    24.0900    29.7130    23.6770     2.3760 
  230.8750    -9.3420    59.6790    24.0860    23.5710    28.7290    23.7140     2.3550 
  231.0000    -9.0330    61.4310    23.5300    23.0860    26.5460    23.6790     2.3350 
  231.1250    -8.7300    67.1900    23.2110    22.8000    25.1540    23.5770     2.3190 
  231.2500    -8.3990    69.9200    23.2460    22.8050    24.6830    23.5060     2.3080 
  231.3750    -8.0740    67.9270    23.6530    23.1340    25.2610    23.4260     2.3030 
  231.5000    -7.7520    64.6130    24.3280    23.7340    25.5260    23.2920     2.3070 
  231.6250    -7.4120    61.9040    25.0800    24.4720    26.4530    23.1660     2.3230 
  231.7500    -7.1060    59.3930    25.7050    25.1400    27.9890    23.2280     2.3430 
  231.8750    -6.8120    59.0260    26.1060    25.6100    29.8810    23.3930     2.3600 
  232.0000    -6.5370    63.2010    26.2520    25.8190    30.9180    23.4980     2.3670 
  232.1250    -6.2770    67.1790    26.1310    25.7330    30.6190    23.5080     2.3630 
  232.2500    -6.0710    65.4450    25.8620    25.4700    30.3950    23.4830     2.3570 
  232.3750    -5.9290    61.2200    25.5480    25.1360    30.6680    23.4600     2.3580 
  232.5000    -5.7970    60.2750    25.2750    24.8260    30.8780    23.4410     2.3660 
  232.6250    -5.6740    62.9160    25.0870    24.6000    30.0430    23.4100     2.3740 
  232.7500    -5.5820    63.2340    24.9560    24.4410    27.6800    23.3740     2.3750 
  232.8750    -5.4870    60.9300    24.8570    24.3280    27.1780    23.3780     2.3650 
  233.0000    -5.3420    59.5550    24.7730    24.2400    27.6620    23.4250     2.3490 
  233.1250    -5.1960    62.7860    24.7020    24.1630    27.0860    23.4830     2.3310 
  233.2500    -5.0080    67.2100    24.6180    24.0770    26.6110    23.5660     2.3170 
  233.3750    -4.7680    68.4950    24.4470    23.9280    27.0730    23.6310     2.3080 
  233.5000    -4.5230    65.1250    24.0810    23.6380    28.2970    23.6530     2.3050 
  233.6250    -4.2880    60.4210    23.3870    23.0900    32.6290    23.6520     2.3060 
  233.7500    -4.0230    58.0500    22.4080    22.2870    35.4330    23.6510     2.3070 
  233.8750    -3.7470    58.6950    21.2070    21.2440    33.1680    23.6480     2.3070 
  234.0000    -3.4820    60.7730    19.8590    19.9860    26.3010    23.6370     2.3080 
  234.1250    -3.2140    63.4950    18.3720    18.4900    21.5440    23.6130     2.3170 
  234.2500    -2.9650    66.8080    16.7510    16.7950    20.2680    23.5850     2.3360 
  234.3750    -2.7270    69.3830    15.0190    14.9630    19.9110    23.5300     2.3610 
  234.5000    -2.4910    68.8520    13.2870    13.1310    17.8550    23.4350     2.3800 
  234.6250    -2.2700    65.5460    11.7850    11.5460    13.6600    23.4250     2.3830 
  234.7500    -2.0720    63.1770    10.6550    10.3450     9.6400    23.4960     2.3770 
  234.8750    -1.9130    62.7130     9.9570     9.5790     8.2620    23.5380     2.3740 
  235.0000    -1.7890    62.7760     9.6540     9.2170     8.1040    23.4710     2.3830 
  235.1250    -1.6880    62.6880     9.6810     9.2040     8.4110    23.3210     2.3990 
  235.2500    -1.6280    61.8760     9.8520     9.3620     8.6960    23.2420     2.4100 
  235.3750    -1.5880    60.2050    10.0610     9.5840     8.8100    23.2490     2.4110 
  235.5000    -1.5670    57.3630    10.2390     9.7930     8.6170    23.2860     2.4040 
  235.6250    -1.5530    53.3930    10.3470     9.9360     8.4890    23.3000     2.4000 
  235.7500    -1.5510    50.7270    10.3980    10.0080     8.8090    23.3080     2.4060 
  235.8750    -1.5450    51.7160    10.3970    10.0100     9.3970    23.3100     2.4160 
  236.0000    -1.5440    55.6580    10.3570     9.9450    10.0510    23.3100     2.4230 
  236.1250    -1.5580    59.0050    10.3060     9.8200    10.4320    23.3100     2.4170 
  236.2500    -1.5610    60.7380    10.2820     9.6760    10.6070    23.3100     2.4030 
  236.3750    -1.5700    61.4160    10.3130     9.5550    10.5000    23.3100     2.3890 
  236.5000    -1.5740    60.7900    10.4180     9.4990    10.1150    23.3100     2.3820 
  236.6250    -1.5990    60.3400    10.6050     9.5510     9.6620    23.3100     2.3890 
  236.7500    -1.6160    61.8030    10.8270     9.6780    10.1610    23.3100     2.4040 
  236.8750    -1.6570    63.4460    11.0300     9.8270    11.2900    23.3100     2.4190 
  237.0000    -1.7100    62.1440    11.1540     9.9350    12.8200    23.3100     2.4250 
  237.1250    -1.7550    58.0860    11.1310     9.9340    14.3660    23.2960     2.4180 
  237.2500    -1.8070    54.7380    10.9930     9.8400    14.8230    23.2330     2.4040 
  237.3750    -1.8550    53.3120    10.8050     9.7020    12.5370    23.0920     2.3930 
  237.5000    -1.8870    52.2060    10.6470     9.5810     9.5290    22.9250     2.3960 
  237.6250    -1.9080    49.5350    10.6060     9.5370     8.4170    22.9250     2.4190 
  237.7500    -1.9270    48.2420    10.6770     9.5600     8.3270    23.0900     2.4510 
  237.8750    -1.9340    50.9420    10.8250     9.6190     8.6920    23.2970     2.4770 
  238.0000    -1.9260    56.0990    10.9930     9.6760     9.1590    23.4360     2.4860 
  238.1250    -1.9230    58.3270    11.1120     9.7000     9.7710    23.4370     2.4710 
  238.2500    -1.9310    57.3730    11.1680     9.7060    10.4340    23.3740     2.4480 
  238.3750    -1.9560    56.4940    11.1790     9.7220    10.7920    23.2990     2.4310 
  238.5000    -1.9920    57.2110    11.1860     9.7730    10.9280    23.2400     2.4290 
  238.6250    -2.0090    57.8350    11.2340     9.8770    11.0780    23.2020     2.4390 
  238.7500    -2.0420    57.2260    11.3190    10.0030    11.2020    23.1810     2.4500 
  238.8750    -2.0920    55.6640    11.4170    10.1170    11.2050    23.1900     2.4530 
  239.0000    -2.1630    55.5690    11.4870    10.1830    11.3230    23.2440     2.4460 
  239.1250    -2.2690    58.2440    11.4760    10.1610    11.2110    23.2510     2.4380 
  239.2500    -2.3820    60.7160    11.3790    10.0560    10.6600    23.2480     2.4370 
  239.3750    -2.4860    62.4680    11.2100     9.8840     9.8810    23.2470     2.4460 
  239.5000    -2.6030    65.0670    11.0060     9.6730     9.3380    23.2560     2.4570 
  239.6250    -2.7120    66.5980    10.8250     9.4710     9.3540    23.2720     2.4550 
  239.7500    -2.7910    64.1900    10.7060     9.3150     9.6920    23.2870     2.4360 
  239.8750    -2.8450    60.1970    10.6520     9.2180     9.9770    23.3070     2.4050 
  240.0000    -2.9010    59.3370    10.6400     9.1750    10.1300    23.3030     2.3740 
  240.1250    -2.9170    61.2050    10.6320     9.1660    10.2950    23.3100     2.3560 
  240.2500    -2.8860    61.6890    10.6000     9.1580    10.2690    23.3580     2.3520 
  240.3750    -2.8300    60.8370    10.5430     9.1300    10.1470    23.3650     2.3600 
  240.5000    -2.7400    59.6400    10.4720     9.0720    10.1760    23.3120     2.3690 
  240.6250    -2.6510    58.6640    10.3970     8.9770    10.2430    23.2230     2.3710 
  240.7500    -2.5860    57.8610    10.3090     8.8490    10.4060    23.1660     2.3640 
  240.8750    -2.5130    57.3370    10.1890     8.6870    10.4010    23.2080     2.3500 
  241.0000    -2.4080    57.5450    10.0250     8.4910     9.8590    23.2910     2.3330 
  241.1250    -2.2990    58.1300     9.8030     8.2680     8.6090    23.3410     2.3220 
