~V
VERS. 2.00: Ver 2.00
~W
STRT.M 50.0000:
STOP.M 274.0000:
STEP.M 0.1250:
NULL. -999.2500:
UWI. F10208:
~C
DEPT.M :
SP.MV :
DEN.GM/CC :
GR.API :
RML.OHMM :
RI. :
RXO.OHMM :
CALI.CM :
~A
# ...
  263.7500   -32.5980     2.4550    50.8610    22.5190    19.4970    38.0930    24.3530 
  263.8750   -32.6590     2.4550    50.1100    22.4870    19.4690    31.4000    24.4370 
  264.0000   -32.6800     2.4580    48.3230    22.4160    19.4080    29.8380    24.3990 
  264.1250   -32.6740     2.4610    48.3230    22.3580    19.3580    25.1560    24.8370 
  264.2500   -32.6890     2.4650    48.3230    22.3650    19.3640    21.8940    24.7200 
  264.3750   -32.8100     2.4710    48.3230    22.4540    19.4410    22.7110    24.0270 
  264.5000   -32.8630     2.4800    48.3230    22.5810    19.5510    26.1000    23.4670 
  264.6250   -32.7700     2.4910    48.3230    22.6150    19.5800    26.8460    23.2160 
  264.7500   -32.6400     2.4970    48.3230    22.4540    19.4410    25.1040    23.1930 
  264.8750   -32.6020     2.4930    48.3230    22.0580    19.0980    22.6980    23.3360 
  265.0000   -32.7320     2.4800    48.3230    21.4960    18.6120    19.7420    23.4530 
  265.1250   -32.9490     2.4640    48.3230    20.9530    18.1410    18.2960    23.5070 
  265.2500   -33.1770     2.4520    48.3230    20.5540    17.7950    17.1900    23.5870 
  265.3750   -33.2920     2.4470    48.3230    20.2890    17.5660    17.6070    23.6300 
  265.5000   -33.3210     2.4470    48.3230    20.0470    17.3570    20.1850    23.6550 
  265.6250   -33.3640     2.4500    48.3230    19.6840    17.0420    22.6890    23.7390 
  265.7500   -33.4280     2.4520    48.3230    19.2050    16.6280    21.7510    23.8840 
  265.8750   -33.5270     2.4480    48.3230    18.6990    16.1900    17.9780    23.9860 
  266.0000   -33.6110     2.4400    48.3230    18.2560    15.8060    15.5320    23.9860 
  266.1250   -33.6580     2.4340    48.3230    17.9250    15.5190    15.7500    24.0800 
  266.2500   -33.7020     2.4360    48.3230    17.6680    15.2970    15.9670    23.9790 
  266.3750   -33.7590     2.4480    48.3230    17.4650    15.1220    15.4800    23.8990 
  266.5000   -33.8760     2.4660    48.3230    17.3120    14.9880    14.7080    24.0960 
  266.6250   -34.0530     2.4810    48.3230    17.2160    14.9060    14.3240    24.0090 
  266.7500   -34.2640     2.4860    48.3230    17.1590    14.8560    14.0320    23.8130 
  266.8750   -34.4390     2.4810    48.3230    17.1130    14.8160    13.7450    23.6200 
  267.0000   -34.5320     2.4710    48.3230    17.0690    14.7780    14.0550    23.5630 
  267.1250   -34.5570     2.4600    48.3230    17.0510    14.7630    15.8840    23.5730 
  267.2500   -34.4960     2.4530    48.3230    17.0480    14.7600    21.3490    23.6610 
  267.3750   -34.4410     2.4500    48.3230    17.0340    14.7480    28.9760    23.8600 
  267.5000   -34.4010     2.4500    48.3230    16.9920    14.7120    32.6510    23.7160 
  267.6250   -34.3390     2.4500    48.3230    16.9410    14.6670    28.3030    23.6620 
  267.7500   -34.2640     2.4470    48.3230    16.9280    14.6560    20.3200    23.7260 
  267.8750   -34.1490     2.4390    48.3230    16.9860    14.7070    15.6820    23.7500 
  268.0000   -34.1020     2.4250    48.3230    17.1090    14.8130    14.2820    23.6760 
  268.1250   -34.1690     2.4130    48.3230    17.2300    14.9180    12.9850    23.6620 
  268.2500   -34.3130     2.4050    48.3230    17.2770    14.9580    11.0940    23.8600 
  268.3750   -34.4730     2.4170    48.3230    17.2410    14.9270    11.3190    23.9060 
  268.5000   -34.5690     2.4340    48.3230    17.1680    14.8640    12.8870    23.7380 
  268.6250   -34.6060     2.4470    48.3230    17.1240    14.8260    14.4390    23.3770 
  268.7500   -34.6360     2.4490    48.3230    17.1250    14.8260    15.2550    23.3130 
  268.8750   -34.6790     2.4400    48.3230    17.1460    14.8450    15.7380    23.4740 
  269.0000   -34.6850     2.4300    48.3230    17.1480    14.8470    15.7260    23.6070 
  269.1250   -34.6180     2.4250    48.3230    17.1050    14.8100    14.1500    23.6300 
  269.2500   -34.5140     2.4290    48.3230    17.0420    14.7550    12.3740    23.6270 
  269.3750   -34.4320     2.4420    48.3230    16.9840    14.7050    11.3430    23.6230 
  269.5000   -34.4070     2.4580    48.3230    16.9430    14.6700    11.3350    23.5790 
  269.6250   -34.4150     2.4730    48.3230    16.9220    14.6510    11.6460    23.6140 
  269.7500   -34.4410     2.4820    48.3230    16.9200    14.6490    11.7940    23.5880 
  269.8750   -34.4290     2.4840    48.3230    16.9310    14.6590    11.5180    23.5850 
  270.0000   -34.3770     2.4810    48.3230    16.9330    14.6610    11.6690    23.7010 
  270.1250   -34.3390     2.4790    48.3230    16.9330    14.6610    13.0660    23.8170 
  270.2500   -34.2760     2.4800    48.3230    16.9330    14.6610    20.2660    23.7750 
  270.3750   -34.2240     2.4840    48.3230    16.9330    14.6610    23.0610    23.7140 
  270.5000   -34.1970     2.4830    48.3230    16.9330    14.6610    25.1820    23.7190 
  270.6250   -34.1970     2.4750    48.3230    16.9330    14.6610    28.3720    23.8130 
  270.7500   -34.1970     2.4610    48.3230    16.9330    14.6610    30.2560    23.9210 
  270.8750  -999.2500     2.4460    48.3230    16.9330    14.6610    27.2790    23.9770 
  271.0000  -999.2500     2.4340    48.3230    16.9330    14.6610    25.7660    24.1430 
  271.1250  -999.2500     2.4240    48.3230    16.9330    14.6610    25.0860    24.3820 
  271.2500  -999.2500     2.4130    48.3230    16.9330    14.6610    21.8560    24.4570 
  271.3750  -999.2500     2.3970    48.3230    16.9330    14.6610    17.5820    24.4640 
  271.5000  -999.2500     2.3740    48.3230    16.9330    14.6610    13.6950    24.3940 
  271.6250  -999.2500     2.3440    48.3230    16.9330    14.6610    11.4340    24.0140 
  271.7500  -999.2500     2.3080    48.3230    16.9330    14.6610    10.4220    23.5530 
  271.8750  -999.2500     2.2700    48.3230    16.9330    14.6610    10.1410    23.4740 
  272.0000  -999.2500     2.2380    48.3230    16.9330    14.6610    10.1300    23.4580 
  272.1250  -999.2500     2.2170    48.3230    16.9330    14.6610    10.1270    23.4580 
  272.2500  -999.2500     2.2070    48.3230    16.9330    14.6610    10.1270    23.4580 
  272.3750  -999.2500     2.2060    48.3230    16.9330    14.6610    10.1250    23.4580 
  272.5000  -999.2500     2.2050    48.3230    16.9330    14.6610    10.1260    23.4580 
  272.6250  -999.2500     2.2020    48.3230    16.9330    14.6610    10.1260    23.4580 
  272.7500  -999.2500     2.1960    48.3230    16.9330    14.6610    10.1250    23.4580 
  272.8750  -999.2500     2.1890    48.3230    16.9330    14.6610    10.1260    23.4580 
  273.0000  -999.2500     2.1850    48.3230    16.9330    14.6610    10.1250    23.4580 
  273.1250  -999.2500     2.1840    48.3230    16.9330    14.6610    10.1250    23.4580 
  273.2500  -999.2500     2.1860    48.3230    16.9330    14.6610    10.1260    23.4580 
  273.3750  -999.2500     2.1900    48.3230    16.9330    14.6610    10.1260    23.4580 
  273.5000  -999.2500     2.1950    48.3230    16.9330    14.6610    10.1280    23.4580 
  273.6250  -999.2500     2.1980    48.3230    16.9330    14.6610    10.1270    23.4580 
  273.7500  -999.2500     2.1990    48.3230    16.9330    14.6610    10.1250    23.4580 
  273.8750  -999.2500     2.1980    48.3230    16.9330    14.6610    10.1250    23.4580 
  274.0000  -999.2500     2.1960    48.3230    16.9330    14.6610    10.1240    23.4580 
