~V
VERS. 2.00: Ver 2.00
~W
STRT.M 20.0000:
STOP.M 256.0000:
STEP.M 0.1250:
NULL. -999.2500:
UWI. F10201:
~C
DEPT.M :
DEN.GM/CC :
GR.API :
RML.OHMM :
RI. :
RXO.OHMM :
CALI.CM :
SP.MV :
~A
# ...
   98.7500     2.2030    65.5440     8.5540     7.4300    10.6630    25.2630   -23.8730 
   98.8750     2.2100    65.3440     8.5660     7.4310    10.5700    25.2350   -23.6670 
   99.0000     2.2170    64.7260     8.5610     7.4350    10.5930    25.2130   -23.4640 
   99.1250     2.2200    65.3050     8.5440     7.4420    10.5520    25.2110   -23.3000 
   99.2500     2.2210    64.7790     8.5270     7.4530    10.4770    25.2170   -23.1730 
   99.3750     2.2190    63.5910     8.5140     7.4630    10.4780    25.2130   -23.0510 
   99.5000     2.2170    63.8080     8.5020     7.4690    10.5610    25.2100   -22.9260 
   99.6250     2.2160    65.6100     8.4870     7.4720    10.5540    25.2290   -22.8890 
   99.7500     2.2150    65.6470     8.4710     7.4770    10.4630    25.2730   -22.8430 
   99.8750     2.2130    63.9470     8.4660     7.4900    10.3520    25.3170   -22.7740 
  100.0000     2.2100    62.5260     8.4840     7.5160    10.3520    25.3410   -22.7290 
  100.1250     2.2070    62.9240     8.5300     7.5570    10.4180    25.3530   -22.6440 
  100.2500     2.2040    63.4960     8.5850     7.6070    10.4490    25.3620   -22.5210 
  100.3750     2.2030    63.0030     8.6230     7.6520    10.4310    25.3590   -22.3850 
  100.5000     2.2030    62.1720     8.6090     7.6690    10.5190    25.3430   -22.2090 
  100.6250     2.2040    64.1900     8.4710     7.5950    10.5590    25.3250   -21.9510 
  100.7500     2.2100    67.5920     8.1840     7.3980    10.3090    25.3580   -21.6630 
  100.8750     2.2230    68.0510     7.7580     7.0710     9.7250    25.4260   -21.3240 
  101.0000     2.2420    65.5440     7.2710     6.6630     8.9920    25.5080   -20.9570 
  101.1250     2.2650    65.6360     6.8720     6.2840     8.4230    25.5850   -20.6330 
  101.2500     2.2830    69.5230     6.6750     6.0370     7.5310    25.6360   -20.3490 
  101.3750     2.2900    72.6690     6.7330     5.9800     7.1080    25.6320   -20.1430 
  101.5000     2.2830    70.7570     7.0360     6.1230     7.5760    25.5680   -20.0590 
  101.6250     2.2660    65.3820     7.5140     6.4460     8.5080    25.4880   -20.0480 
  101.7500     2.2460    61.1230     7.9990     6.8300     9.4710    25.4690   -20.0890 
  101.8750     2.2270    59.7870     8.3720     7.1860     9.8510    25.4930   -20.2030 
  102.0000     2.2140    59.1680     8.5800     7.4530     9.8250    25.5240   -20.3690 
  102.1250     2.2090    57.0270     8.6370     7.6070     9.7200    25.5230   -20.5400 
  102.2500     2.2090    56.8540     8.6500     7.7030     9.6690    25.4780   -20.7040 
  102.3750     2.2120    59.3780     8.6740     7.7800     9.6390    25.4070   -20.8460 
  102.5000     2.2160    62.1180     8.7240     7.8540     9.6310    25.3820   -20.9110 
  102.6250     2.2170    61.5320     8.7920     7.9190     9.7910    25.4570   -20.9540 
  102.7500     2.2160    60.9040     8.8580     7.9630    10.0470    25.5200   -20.9900 
  102.8750     2.2140    61.7670     8.9050     7.9810    10.2410    25.5600   -21.0220 
  103.0000     2.2110    61.5650     8.9140     7.9700    10.4190    25.6080   -20.9960 
  103.1250     2.2070    60.0600     8.8430     7.9090    10.4170    25.7190   -20.9240 
  103.2500     2.2040    59.5910     8.6590     7.7730    10.3640    25.8350   -20.8060 
  103.3750     2.2030    61.1590     8.3140     7.5160    10.1680    25.8480   -20.5870 
  103.5000     2.2090    63.2870     7.7990     7.1160     9.7770    25.7530   -20.3480 
  103.6250     2.2230    65.8780     7.1830     6.6030     9.1900    25.6740   -20.1350 
  103.7500     2.2430    69.0810     6.6360     6.1120     8.3460    25.6870   -19.9380 
  103.8750     2.2630    71.8860     6.2920     5.7540     7.2510    25.7400   -19.7960 
  104.0000     2.2750    74.2270     6.2370     5.6110     6.4890    25.7650   -19.7790 
  104.1250     2.2760    74.1430     6.5260     5.7550     7.8170    25.7250   -19.8500 
  104.2500     2.2680    70.4600     7.0180     6.1060     9.6280    25.6620   -20.0070 
  104.3750     2.2560    65.4050     7.5640     6.5640    10.6440    25.5960   -20.2510 
  104.5000     2.2430    61.5200     8.0000     6.9950    10.7970    25.5480   -20.5160 
  104.6250     2.2330    57.6310     8.1670     7.2400    10.7660    25.5530   -20.7500 
  104.7500     2.2280    54.9740     8.1140     7.2830    10.4700    25.5570   -20.9190 
  104.8750     2.2280    55.3870     7.9450     7.1850     9.9880    25.5470   -20.9870 
  105.0000     2.2320    57.8490     7.7750     7.0380     9.5290    25.5270   -20.9430 
  105.1250     2.2370    59.8650     7.6900     6.9320     9.2090    25.5060   -20.7870 
  105.2500     2.2400    62.0720     7.6940     6.8930     9.6920    25.5040   -20.5540 
  105.3750     2.2400    65.6880     7.7780     6.9250     9.6520    25.5040   -20.3180 
  105.5000     2.2390    68.4330     7.9230     7.0170     9.4960    25.4720   -20.0630 
  105.6250     2.2400    68.9930     8.1010     7.1530     9.4830    25.3900   -19.7920 
  105.7500     2.2430    68.1190     8.2800     7.3050     9.6300    25.3030   -19.5520 
  105.8750     2.2460    66.0750     8.4420     7.4590     9.9590    25.2420   -19.3130 
  106.0000     2.2470    64.1040     8.5750     7.6020    10.3360    25.2160   -19.0730 
  106.1250     2.2440    62.6350     8.6520     7.7100    10.5610    25.2320   -18.8700 
  106.2500     2.2370    61.0590     8.6440     7.7640    10.6370    25.2440   -18.6300 
  106.3750     2.2290    60.4060     8.5020     7.7290    10.6590    25.2340   -18.3440 
  106.5000     2.2220    61.2320     8.1690     7.5600    10.6080    25.2160   -18.0590 
  106.6250     2.2220    60.2810     7.6100     7.2030    10.4970    25.1920   -17.7010 
  106.7500     2.2300    57.1190     6.9740     6.7420    10.0070    25.1810   -17.3010 
  106.8750     2.2420    57.0370     6.4330     6.2980     8.7790    25.1880   -16.9290 
  107.0000     2.2550    62.7490     6.1560     6.0140     7.1020    25.2060   -16.5500 
  107.1250     2.2620    68.7830     6.2930     6.0490     6.1720    25.1750   -16.1540 
  107.2500     2.2630    69.8520     6.7230     6.3670     6.3950    25.0480   -15.8110 
  107.3750     2.2610    68.5720     7.2420     6.8410     7.7230    24.8870   -15.4350 
  107.5000     2.2600    67.1050     7.5400     7.2170     9.9020    24.7840   -14.9990 
  107.6250     2.2660    66.7820     7.2180     7.1000    10.8520    24.7450   -14.5710 
  107.7500     2.2790    72.5280     6.3840     6.4750     9.7350    24.7460   -14.1040 
  107.8750     2.2960    83.3420     5.3580     5.5670     7.3910    24.8070   -13.6280 
  108.0000     2.3140    93.1760     4.9810     4.6810     5.5770    24.9090   -13.1910 
  108.1250     2.3280    99.2570     4.4490     4.0760     4.1420    25.0290   -12.8270 
  108.2500     2.3350   103.0990     4.3080     3.7760     3.9720    25.0650   -12.5400 
  108.3750     2.3310   102.7260     4.5080     3.7700     4.4270    25.0570   -12.3720 
  108.5000     2.3150    95.5400     5.0040     4.0350     4.9950    25.0420   -12.3660 
  108.6250     2.2870    84.5570     5.8600     4.6210     6.0050    25.0360   -12.4560 
  108.7500     2.2570    74.5590     7.1740     5.5620     7.6190    25.0240   -12.5910 
  108.8750     2.2400    67.0460     9.2370     7.0480     9.9800    25.0230   -12.7220 
  109.0000     2.2550    64.2010    12.4660     9.4290    13.8040    25.0200   -12.7550 
  109.1250     2.3220    66.3130    17.6040    13.5180    22.4770    25.0140   -12.6610 
  109.2500     2.4290    68.0340    24.3170    19.3360    40.2390    24.9880   -12.4770 
  109.3750     2.5470    68.0300    30.9120    25.7790    59.5050    24.9600   -12.2160 
  109.5000     2.6390    68.2910    33.3990    29.5810    65.4830    24.9430   -11.8390 
  109.6250     2.6630    68.8350    27.9900    26.6050    56.1250    24.9480   -11.4460 
  109.7500     2.6270    69.4400    19.8200    20.0810    39.1760    24.9820   -11.1120 
  109.8750     2.5560    73.2490    13.0990    13.8190    21.3750    25.0560   -10.7910 
