~V
VERS. 2.00: Ver 2.00
~W
STRT.M 50.0000:
STOP.M 271.0000:
STEP.M 0.1250:
NULL. -999.2500:
UWI. F10251:
~C
DEPT.M :
DEN.GM/CC :
GR.API :
RML.OHMM :
RI. :
RXO.OHMM :
CALI.CM :
SP.MV :
~A
# ...
  162.5000     2.2490    69.4930   101.3290    94.1490    92.2570    22.5310    -9.0420 
  162.6250     2.2540    67.1840    99.8770    92.4270    86.6960    22.4920    -9.0840 
  162.7500     2.2560    65.4080   101.4640    93.3350    83.1820    22.4220    -9.0720 
  162.8750     2.2520    66.8560   106.4430    97.3550    83.8530    22.3710    -9.0500 
  163.0000     2.2410    69.3370   114.8750   104.6710    87.6160    22.2920    -9.0950 
  163.1250     2.2260    68.3010   127.0450   115.6040    92.4060    22.3490    -9.1770 
  163.2500     2.2150    65.2340   141.8190   128.9870    94.5490    22.6520    -9.1980 
  163.3750     2.2100    62.8830   158.4650   144.0240    95.6960    23.0690    -9.1740 
  163.5000     2.2100    61.7960   176.1300   159.9540   102.2750    23.3910    -9.1850 
  163.6250     2.2080    60.1830   193.2570   175.6280   112.9470    23.6930    -9.1820 
  163.7500     2.2030    58.2380   207.2390   189.0580   122.5080    23.8900    -9.1360 
  163.8750     2.1990    58.2010   214.5510   197.4240   127.9020    23.9130    -9.1130 
  164.0000     2.2000    59.5150   212.3090   198.0210   124.7850    23.7830    -9.1350 
  164.1250     2.2070    59.6230   199.7430   189.1270   115.4770    23.5850    -9.0750 
  164.2500     2.2170    59.7990   182.9060   175.1290   106.0350    23.3770    -8.9390 
  164.3750     2.2270    62.5430   166.2170   159.8910   101.0480    23.2170    -8.8670 
  164.5000     2.2350    67.1860   152.2350   146.3030   100.1270    23.1410    -8.8470 
  164.6250     2.2420    70.4200   142.0540   136.0820    97.3660    23.1200    -8.6740 
  164.7500     2.2470    70.2830   134.3960   128.5060    92.0320    23.1070    -8.5100 
  164.8750     2.2480    68.2350   128.4200   122.8500    86.3690    23.0950    -8.4430 
  165.0000     2.2460    65.6140   123.6440   118.4860    87.8940    23.1050    -8.3140 
  165.1250     2.2390    64.2130   120.4990   115.4400    90.6400    23.2160    -8.1020 
  165.2500     2.2320    64.9760   119.7640   114.2460    90.9560    23.4180    -7.9380 
  165.3750     2.2260    66.1520   122.7180   116.2060    89.1430    23.6030    -7.8520 
  165.5000     2.2210    66.6390   130.4900   122.6530    90.9600    23.7000    -7.7450 
  165.6250     2.2160    65.8030   144.3420   135.0130   102.5000    23.7190    -7.6520 
  165.7500     2.2100    64.2340   162.0300   151.2250   122.4630    23.7460    -7.6280 
  165.8750     2.2040    62.8360   180.0010   168.0750   142.9540    23.7500    -7.6050 
  166.0000     2.1990    62.6840   193.0020   180.8930   147.1360    23.7050    -7.5540 
  166.1250     2.2000    63.1930   195.2360   184.2620   137.7900    23.6520    -7.5400 
  166.2500     2.2020    61.4410   189.6090   179.9870   126.9060    23.6830    -7.6060 
  166.3750     2.2050    58.9000   180.7890   171.8730   133.1130    23.7890    -7.6070 
  166.5000     2.2080    59.5410   172.2900   163.4840   140.3990    23.9530    -7.5160 
  166.6250     2.2120    62.8580   164.5010   156.0270   138.6490    24.1280    -7.5300 
  166.7500     2.2180    64.5350   155.5780   148.1290   137.2050    24.2620    -7.5340 
  166.8750     2.2260    64.3180   144.6380   138.6720   135.3850    24.3340    -7.4280 
  167.0000     2.2340    65.1260   132.6180   127.9940   125.1420    24.4000    -7.3010 
  167.1250     2.2410    66.8370   122.2770   118.2570   104.5090    24.3850    -7.2690 
  167.2500     2.2460    65.7920   115.4410   111.4630    84.1100    24.3750    -7.2030 
  167.3750     2.2490    61.4510   112.5050   108.4280    79.4200    24.3450    -7.0770 
  167.5000     2.2520    57.4310   112.6300   108.7080    85.9600    24.2540    -6.9760 
  167.6250     2.2560    57.2220   114.1280   110.8320   100.7270    24.1380    -6.8720 
  167.7500     2.2550    58.4990   114.6960   112.2520   102.8680    24.0940    -6.7040 
  167.8750     2.2510    58.6580   113.0520   111.3670    94.4260    24.0920    -6.5170 
  168.0000     2.2470    58.6640   109.0770   107.7290    86.8660    24.0930    -6.3950 
  168.1250     2.2500    60.2180   104.0050   102.2720    85.8650    24.0670    -6.2600 
  168.2500     2.2540    61.8530   100.0140    97.3720    84.6930    24.0270    -6.0640 
  168.3750     2.2530    60.9900    98.5780    94.6810    84.6600    23.9600    -5.8640 
  168.5000     2.2450    58.4130   100.6490    95.2410    83.0220    23.9180    -5.7590 
  168.6250     2.2280    56.7530   107.3250   100.1020    79.3360    23.9800    -5.6330 
  168.7500     2.2020    57.6280   117.5740   108.3400    86.2420    24.1450    -5.4560 
  168.8750     2.1700    60.8800   130.1150   118.8500   105.5780    24.4650    -5.3560 
  169.0000     2.1360    63.6820   142.7520   129.7440   127.7880    24.9700    -5.3180 
  169.1250     2.1070    63.1310   151.9140   138.0410   124.3300    25.6580    -5.2650 
  169.2500     2.0950    60.3190   155.7300   142.0360    97.9630    26.1890    -5.2070 
  169.3750     2.1090    58.6490   153.8040   141.1740    83.3690    26.1250    -5.2040 
  169.5000     2.1470    60.4300   147.3170   136.1910    97.6640    25.5570    -5.2370 
  169.6250     2.1910    62.7810   138.2140   128.5460   115.6770    24.9530    -5.2450 
  169.7500     2.2200    63.8620   129.0950   120.5230   116.0040    24.5740    -5.2910 
  169.8750     2.2330    65.1060   121.2240   113.3090   102.7660    24.3710    -5.4100 
  170.0000     2.2340    66.8880   114.8650   107.3320    95.2520    24.3180    -5.5400 
  170.1250     2.2270    65.8790   109.1520   102.1040    95.5790    24.3710    -5.5740 
  170.2500     2.2160    62.4610   102.3760    96.2270   103.0430    24.3330    -5.6460 
  170.3750     2.2080    60.0300    93.7110    88.8220   102.6880    24.1810    -5.8250 
  170.5000     2.2070    60.2530    83.8310    80.1840    90.4840    24.0060    -5.9170 
  170.6250     2.2100    62.1020    75.1210    72.1400    76.1630    23.8520    -5.9700 
  170.7500     2.2090    64.9090    69.4570    66.4770    64.9740    23.7630    -6.1480 
  170.8750     2.2090    67.8800    67.5650    64.0540    57.9050    23.6760    -6.3080 
  171.0000     2.2150    68.7700    69.1170    64.8060    52.3760    23.4990    -6.3370 
  171.1250     2.2270    67.0370    72.9510    67.9480    58.8330    23.0690    -6.3690 
  171.2500     2.2380    65.2160    76.6570    71.3220    71.1820    22.6140    -6.4460 
  171.3750     2.2440    64.4480    78.8800    73.5530    72.5650    22.3760    -6.5190 
  171.5000     2.2460    64.6510    79.6390    74.3910    60.7070    22.3150    -6.5490 
  171.6250     2.2440    65.2960    80.8090    75.1830    49.7370    22.2880    -6.5580 
  171.7500     2.2400    65.5490    84.6810    77.9840    45.4120    22.2580    -6.5640 
  171.8750     2.2370    64.7960    92.5050    84.0810    45.0730    22.2640    -6.5230 
  172.0000     2.2340    62.9750   103.9600    93.4460    47.9300    22.2540    -6.4740 
  172.1250     2.2320    61.5880   116.1350   103.8310    60.6580    22.1900    -6.4710 
  172.2500     2.2360    60.5770   123.9150   110.8950    73.5640    22.1150    -6.5130 
  172.3750     2.2470    60.6240   123.8770   111.5490    70.1260    22.0340    -6.4820 
  172.5000     2.2660    63.6320   116.4250   105.5900    59.4260    21.9740    -6.4610 
  172.6250     2.2910    70.2250   105.8530    96.0000    52.2460    22.0100    -6.5490 
  172.7500     2.3130    76.9470    97.6640    87.7220    50.5340    21.9810    -6.5730 
  172.8750     2.3190    79.4270    94.4030    83.3380    50.7100    21.8560    -6.5650 
  173.0000     2.3010    76.5960    97.1130    84.0700    46.6010    21.7330    -6.6180 
  173.1250     2.2610    71.6990   106.8680    91.1380    46.9420    21.6580    -6.7210 
  173.2500     2.2160    68.5360   121.3340   102.7670    54.0250    21.5610    -6.7570 
  173.3750     2.1750    66.1240   136.8810   116.2020    53.9850    21.3810    -6.7390 
  173.5000     2.1470    61.8490   146.9610   126.3910    42.5140    21.0780    -6.7260 
  173.6250     2.1430    57.7290   142.0360   125.5670    33.5090    20.7390    -6.6850 
