~V
VERS. 2.00: Ver 2.00
~W
STRT.M 50.0000:
STOP.M 273.0000:
STEP.M 0.1250:
NULL. -999.2500:
UWI. F10249:
~C
DEPT.M :
DEN.GM/CC :
GR.API :
RML.OHMM :
RI. :
RXO.OHMM :
CALI.CM :
SP.MV :
~A
# ...
   95.0000     2.3540   100.1970     6.7000     5.5260     6.2050    23.9650    -6.1340 
   95.1250     2.3760    97.0170     7.0010     5.7500     9.1650    24.0030    -6.2500 
   95.2500     2.3810    93.2810     7.2800     5.9720    11.5000    23.9400    -6.3650 
   95.3750     2.3670    88.6160     7.4620     6.1230     9.1740    23.7910    -6.4670 
   95.5000     2.3390    83.2790     7.5000     6.1600     6.6460    23.7290    -6.6480 
   95.6250     2.3100    80.8890     7.3730     6.0570     6.2390    23.8820    -6.8430 
   95.7500     2.2910    82.3130     7.1590     5.8680     6.6340    24.1330    -6.9910 
   95.8750     2.2810    83.6150     6.9340     5.6530     6.7860    24.4080    -7.1670 
   96.0000     2.2760    81.8600     6.7940     5.4820     6.4010    24.5820    -7.4160 
   96.1250     2.2650    79.8070     6.9110     5.4430     6.0340    24.6180    -7.6830 
   96.2500     2.2470    80.2590     7.4180     5.6100     6.1090    24.5550    -7.9520 
   96.3750     2.2340    79.4970     8.4640     6.1020     7.0550    24.4110    -8.2750 
   96.5000     2.2500    75.4710    10.1280     7.0420     8.5140    24.2940    -8.6090 
   96.6250     2.3200    72.6460    12.3570     8.5870     9.9920    24.2790    -8.9440 
   96.7500     2.4190    72.7060    14.5960    10.5000    12.5080    24.2460    -9.2850 
   96.8750     2.5060    72.5320    16.1920    12.3000    18.4820    24.2100    -9.6170 
   97.0000     2.5370    70.1190    16.5810    13.2740    28.6380    24.3210    -9.9110 
   97.1250     2.4860    68.0150    15.4840    12.8200    25.2050    24.4720   -10.1900 
   97.2500     2.3920    68.9940    13.6950    11.5680    15.7780    24.5340   -10.4600 
   97.3750     2.2980    72.1980    11.9130    10.1610    11.1030    24.5480   -10.6580 
   97.5000     2.2340    74.3940    10.6130     9.0210     9.8020    24.5560   -10.8060 
   97.6250     2.2090    72.1550    10.0150     8.3640     9.6380    24.5610   -10.9440 
   97.7500     2.2050    67.8700     9.8610     8.0720     9.5360    24.5590   -11.0470 
   97.8750     2.2060    63.6010     9.9420     8.0230     9.3790    24.5210   -11.1070 
   98.0000     2.2050    61.5810    10.0780     8.0860     9.1000    24.3890   -11.1290 
   98.1250     2.1970    64.6020    10.1450     8.1550     8.7990    24.1460   -11.0520 
   98.2500     2.1860    68.9710    10.1190     8.1860     8.6480    24.0370   -10.9170 
   98.3750     2.1730    70.7740    10.0170     8.1760     8.7940    24.0900   -10.7960 
   98.5000     2.1630    70.0020     9.8680     8.1350     8.8950    24.2100   -10.6530 
   98.6250     2.1590    68.0120     9.7030     8.0780     8.9890    24.2720   -10.4340 
   98.7500     2.1610    66.7030     9.5500     8.0190     9.1770    24.3160   -10.2600 
   98.8750     2.1660    66.3780     9.4240     7.9660     9.3100    24.3720   -10.1330 
   99.0000     2.1740    67.6660     9.3440     7.9290     9.3230    24.4100    -9.9740 
   99.1250     2.1790    68.1120     9.3350     7.9280     9.2410    24.4480    -9.8270 
   99.2500     2.1790    68.6880     9.3830     7.9730     9.2080    24.5060    -9.7360 
   99.3750     2.1750    70.9940     9.4390     8.0460     9.1630    24.5300    -9.6600 
   99.5000     2.1710    72.3130     9.4200     8.0910     9.1630    24.4700    -9.5740 
   99.6250     2.1780    71.3930     9.1860     7.9890     9.3570    24.4560    -9.4820 
   99.7500     2.2040    72.8610     8.7240     7.6860     9.5750    24.5740    -9.3580 
   99.8750     2.2460    77.5530     8.0860     7.1990     9.3080    24.7190    -9.2200 
  100.0000     2.2970    81.8430     7.3960     6.6200     8.3090    24.8660    -9.0850 
  100.1250     2.3390    84.2710     6.8290     6.0920     6.7750    24.9110    -8.9520 
  100.2500     2.3630    85.1560     6.4690     5.7040     5.9690    24.8690    -8.8350 
  100.3750     2.3690    83.5880     6.3370     5.4880     5.7620    24.7380    -8.7740 
  100.5000     2.3630    81.2610     6.4080     5.4420     5.9510    24.5660    -8.8060 
  100.6250     2.3500    82.1010     6.6630     5.5680     6.2550    24.4390    -8.9120 
  100.7500     2.3340    83.7620     7.0330     5.8110     6.5210    24.3950    -9.0950 
  100.8750     2.3110    81.7880     7.4930     6.1480     6.9850    24.3490    -9.3730 
  101.0000     2.2840    76.6340     8.0130     6.5520     7.8920    24.2510    -9.7390 
  101.1250     2.2580    72.2850     8.5500     6.9930     8.5520    24.0950   -10.1710 
  101.2500     2.2400    70.7440     9.0460     7.4140     9.2470    23.9410   -10.6180 
  101.3750     2.2260    71.8300     9.4710     7.7690     9.5960    23.8060   -11.0470 
  101.5000     2.2090    74.1580     9.8310     8.0440     9.3930    23.6850   -11.3960 
  101.6250     2.1870    77.0650    10.1600     8.2620     9.1530    23.6260   -11.7280 
  101.7500     2.1720    79.4410    10.4830     8.4710     9.2680    23.6620   -12.0690 
  101.8750     2.1820    81.2280    10.7770     8.6730     9.5420    23.8310   -12.3390 
  102.0000     2.2200    82.5610    11.0100     8.8410    11.5160    24.0120   -12.5450 
  102.1250     2.2700    82.4690    11.2300     8.9620    15.1880    24.0110   -12.7560 
  102.2500     2.3110    79.9590    11.6360     9.1520    16.1840    24.0120   -12.9770 
  102.3750     2.3450    76.5480    12.4650     9.6110    13.2560    24.1060   -13.1640 
  102.5000     2.3920    73.8660    13.8620    10.5310    12.4770    24.2420   -13.3570 
  102.6250     2.4670    71.7850    15.7170    12.0470    16.9790    24.2790   -13.5860 
  102.7500     2.5410    68.9190    17.3450    13.7700    27.4980    24.3290   -13.8020 
  102.8750     2.5750    65.5020    17.9950    15.0010    39.3000    24.3940   -14.0080 
  103.0000     2.5450    63.2260    17.1730    14.9330    32.0520    24.3150   -14.2020 
  103.1250     2.4590    62.2420    14.9210    13.2750    17.0850    24.1390   -14.3440 
  103.2500     2.3680    63.3200    12.3380    11.1450    10.8080    24.0170   -14.4650 
  103.3750     2.2990    68.2770    10.2010     9.2850     8.8300    23.9670   -14.6290 
  103.5000     2.2600    74.5820     8.8900     8.0130     8.2060    23.9740   -14.7980 
  103.6250     2.2380    76.1960     8.4860     7.4420     8.6990    24.1200   -14.9320 
  103.7500     2.2180    73.0040     8.5760     7.3330     9.5290    24.2680   -15.0680 
  103.8750     2.1980    69.0040     8.8730     7.5070     9.5700    24.3530   -15.2430 
  104.0000     2.1860    66.5950     9.1460     7.7750     9.5210    24.4390   -15.4460 
  104.1250     2.1880    64.1870     9.2120     7.9590     9.8930    24.5260   -15.6430 
  104.2500     2.2030    61.7220     9.0770     7.9890    10.3020    24.5780   -15.8170 
  104.3750     2.2220    61.1650     8.8060     7.8780    10.0280    24.5960   -15.9350 
  104.5000     2.2370    64.8830     8.5000     7.6870     9.3880    24.6100   -16.0040 
  104.6250     2.2380    72.1470     8.2760     7.5020     9.2230    24.5630   -16.0520 
  104.7500     2.2310    75.8970     8.1750     7.3810     9.8590    24.4130   -16.0900 
  104.8750     2.2210    73.3660     8.1960     7.3400    10.2910    24.2200   -16.0660 
  105.0000     2.2140    68.4220     8.3040     7.3730    10.2520    23.9880   -15.9730 
  105.1250     2.2110    67.5460     8.4570     7.4540    10.0820    23.9140   -15.8950 
  105.2500     2.2090    70.7390     8.6060     7.5470     9.7750    23.9430   -15.8140 
  105.3750     2.2030    74.7440     8.7180     7.6300     9.4030    23.9820   -15.7140 
  105.5000     2.1930    74.7590     8.7590     7.6800     9.0830    23.9960   -15.6620 
  105.6250     2.1820    69.2400     8.6670     7.6460     9.2230    24.0360   -15.6930 
  105.7500     2.1780    64.7830     8.4450     7.5030     9.6400    24.1900   -15.7160 
  105.8750     2.1830    66.5110     8.1260     7.2550     9.7020    24.4180   -15.7280 
  106.0000     2.1960    71.8350     7.7890     6.9550     8.8370    24.5290   -15.7570 
  106.1250     2.2050    74.1290     7.5580     6.6930     7.5370    24.4690   -15.7840 
