~V
VERS. 2.00: Ver 2.00
~W
STRT.M 20.0000:
STOP.M 256.0000:
STEP.M 0.1250:
NULL. -999.2500:
UWI. F10201:
~C
DEPT.M :
DEN.GM/CC :
GR.API :
RML.OHMM :
RI. :
RXO.OHMM :
CALI.CM :
SP.MV :
~A
# ...
  155.0000     2.4200    88.0190     4.2410     4.2360     4.3150    23.8630   -19.3100 
  155.1250     2.4230    87.7100     4.0770     3.9920     4.3130    23.8780   -19.3620 
  155.2500     2.4200    91.7070     4.0570     3.8980     4.3280    23.8930   -19.4050 
  155.3750     2.4120    95.0790     4.1320     3.9000     4.3210    23.9050   -19.4560 
  155.5000     2.4010    92.8930     4.3000     3.9780     4.2840    23.9220   -19.5540 
  155.6250     2.3880    86.7340     4.6180     4.1780     4.3210    23.9300   -19.6590 
  155.7500     2.3740    84.5290     5.0770     4.5070     4.4260    23.9330   -19.7790 
  155.8750     2.3590    86.3650     5.6600     4.9620     4.8250    23.9330   -19.9630 
  156.0000     2.3420    88.0550     6.3440     5.5210     5.6150    23.9330   -20.1690 
  156.1250     2.3260    86.1820     7.2020     6.2130     7.2340    23.9330   -20.3640 
  156.2500     2.3170    82.9480     8.3930     7.1170     8.9760    23.9330   -20.6260 
  156.3750     2.3160    80.2360    10.2260     8.4470     9.7240    23.9360   -20.8840 
  156.5000     2.3160    77.2720    13.0800    10.5380    10.0800    23.9540   -21.0960 
  156.6250     2.3070    75.1170    17.5230    14.0010    14.6140    24.0130   -21.2800 
  156.7500     2.2850    72.1010    23.2780    18.7920    24.1490    24.0990   -21.4670 
  156.8750     2.2570    69.1790    29.5210    24.3860    35.3350    24.1840   -21.6000 
  157.0000     2.2320    67.5670    34.5960    29.4300    41.5250    24.2380   -21.6990 
  157.1250     2.2230    66.7730    36.4860    31.9650    38.0090    24.2630   -21.7920 
  157.2500     2.2250    66.1460    36.1280    32.2890    29.4460    24.3080   -21.8110 
  157.3750     2.2310    65.8920    35.0640    31.5480    25.4050    24.4170   -21.7990 
  157.5000     2.2330    68.0620    34.2480    30.6960    29.2600    24.5580   -21.7890 
  157.6250     2.2280    70.6630    33.7710    30.0450    36.3500    24.6750   -21.7340 
  157.7500     2.2220    71.6130    33.3690    29.5180    37.6850    24.7150   -21.6970 
  157.8750     2.2180    73.5320    33.1340    29.1830    31.8420    24.6920   -21.6880 
  158.0000     2.2180    76.5080    33.5100    29.3270    24.4460    24.6370   -21.6720 
  158.1250     2.2200    75.5800    35.4230    30.6760    23.3410    24.5800   -21.6800 
  158.2500     2.2210    69.4360    39.1720    33.5830    28.4810    24.5230   -21.7020 
  158.3750     2.2180    63.9460    44.7620    38.1850    38.2040    24.4520   -21.7480 
  158.5000     2.2120    61.7210    51.5850    44.0740    47.7060    24.3760   -21.8120 
  158.6250     2.2070    58.8310    58.1240    50.0550    51.4310    24.3410   -21.8940 
  158.7500     2.2050    56.3470    62.9730    54.7730    51.4350    24.3340   -21.9300 
  158.8750     2.2080    57.5090    65.9280    57.8060    51.1490    24.3380   -21.9660 
  159.0000     2.2140    60.9460    67.7830    59.6300    51.7960    24.3590   -22.0240 
  159.1250     2.2200    61.8610    69.5350    61.0940    53.3900    24.4270   -22.0360 
  159.2500     2.2250    61.4880    71.5560    62.7360    58.5510    24.5380   -22.0450 
  159.3750     2.2280    62.0470    73.6640    64.5180    65.2070    24.6500   -22.0490 
  159.5000     2.2270    62.7610    75.4030    66.1110    69.4010    24.7470   -22.0110 
  159.6250     2.2230    62.7000    75.8290    66.7420    63.4900    24.8000   -21.9510 
  159.7500     2.2180    60.9580    74.5030    65.9350    56.8690    24.8230   -21.9430 
  159.8750     2.2140    58.9590    71.4910    63.5880    54.6970    24.8250   -21.9170 
  160.0000     2.2150    60.0510    67.6410    60.2400    52.8730    24.8140   -21.8510 
  160.1250     2.2230    62.7760    64.5900    57.1470    47.8020    24.8040   -21.8040 
  160.2500     2.2340    62.7520    63.5760    55.5650    42.4440    24.8040   -21.7530 
  160.3750     2.2430    60.9000    65.2710    56.3040    42.9340    24.8180   -21.7020 
  160.5000     2.2480    61.2890    69.7680    59.6850    51.2390    24.8540   -21.6610 
  160.6250     2.2470    63.9360    76.5480    65.5580    66.5980    24.9200   -21.6160 
  160.7500     2.2400    64.2850    83.1940    71.9640    79.9510    24.9950   -21.5470 
  160.8750     2.2310    62.2900    87.1180    76.7530    84.2290    25.1120   -21.4650 
  161.0000     2.2220    59.6520    86.4960    78.0910    81.3720    25.2720   -21.3910 
  161.1250     2.2210    60.2070    81.2620    75.1200    76.1830    25.3870   -21.3380 
  161.2500     2.2290    62.5370    74.3340    69.9160    68.9990    25.4390   -21.2870 
  161.3750     2.2440    63.0020    67.2740    63.9560    61.2380    25.4640   -21.2270 
  161.5000     2.2600    63.2650    60.6800    58.0790    53.7650    25.4990   -21.2190 
  161.6250     2.2690    65.1950    54.4640    52.4490    49.9330    25.5330   -21.2650 
  161.7500     2.2660    64.7970    48.0830    46.6790    45.7520    25.5460   -21.2950 
  161.8750     2.2490    61.7340    41.2490    40.4580    39.3520    25.5410   -21.3850 
  162.0000     2.2270    61.4530    34.1420    33.8560    34.2170    25.5080   -21.5050 
  162.1250     2.2120    65.0610    27.5590    27.5620    31.7870    25.3740   -21.6280 
  162.2500     2.2150    67.2970    22.1820    22.2820    28.6510    25.1060   -21.8160 
  162.3750     2.2360    69.6280    18.3430    18.3730    21.5860    24.8000   -22.0260 
  162.5000     2.2660    73.9170    16.0550    15.8770    14.2290    24.5110   -22.1880 
  162.6250     2.2930    76.6950    15.3610    14.8590    13.3500    24.3360   -22.3510 
  162.7500     2.3100    77.1710    15.7960    14.9380    14.6150    24.2240   -22.5140 
  162.8750     2.3160    76.1560    17.0960    15.9480    16.2700    24.1850   -22.6120 
  163.0000     2.3170    72.2710    18.8520    17.6060    17.6720    24.1780   -22.6930 
  163.1250     2.3160    66.0820    20.3890    19.3610    18.9180    24.1780   -22.7710 
  163.2500     2.3150    62.6730    21.1590    20.5370    19.7240    24.1780   -22.7720 
  163.3750     2.3160    64.7490    20.9980    20.7980    20.1610    24.1750   -22.7460 
  163.5000     2.3180    69.7940    20.1220    20.2150    20.0520    24.1640   -22.7590 
  163.6250     2.3220    74.3860    18.9670    19.1400    18.8550    24.1550   -22.7250 
  163.7500     2.3270    77.4420    17.9710    18.0900    16.9390    24.1730   -22.6640 
  163.8750     2.3330    79.5520    17.2370    17.2620    15.5480    24.2060   -22.6260 
  164.0000     2.3360    79.3260    16.6660    16.6290    15.1820    24.2330   -22.5630 
  164.1250     2.3350    75.4910    16.0610    16.0180    15.6500    24.2710   -22.4890 
  164.2500     2.3290    74.3460    15.3430    15.2990    16.0640    24.3300   -22.4460 
  164.3750     2.3230    76.5770    14.6040    14.5190    15.4860    24.3950   -22.4350 
  164.5000     2.3200    77.6170    14.0400    13.8520    13.0990    24.4160   -22.4460 
  164.6250     2.3170    75.3980    13.9490    13.5810    11.0460    24.3610   -22.5050 
  164.7500     2.3130    75.0100    14.3510    13.7800    10.4140    24.3270   -22.6070 
  164.8750     2.3060    77.2750    15.1350    14.4030    11.7970    24.3180   -22.7550 
  165.0000     2.2980    78.2960    16.0300    15.2510    13.3230    24.3190   -22.9510 
  165.1250     2.2930    79.8750    16.5860    15.9230    13.4880    24.3190   -23.1430 
  165.2500     2.2950    83.0620    16.5930    16.1270    13.1860    24.3190   -23.3720 
  165.3750     2.3020    84.7200    16.1220    15.8440    12.5890    24.3190   -23.6420 
  165.5000     2.3140    84.4850    15.4740    15.3020    11.2990    24.3190   -23.8780 
  165.6250     2.3220    83.8570    15.0420    14.8630     9.9900    24.3180   -24.0780 
  165.7500     2.3230    82.6960    14.9920    14.7390     9.8240    24.3170   -24.2890 
  165.8750     2.3150    80.0270    15.3420    14.9940    10.4220    24.3220   -24.4740 
  166.0000     2.3020    76.9810    16.0290    15.6020    11.0730    24.3480   -24.6150 
  166.1250     2.2890    76.6050    16.9240    16.4780    11.9880    24.4100   -24.7740 
