~V
VERS. 2.00: Ver 2.00
~W
STRT.M 60.0000:
STOP.M 271.0000:
STEP.M 0.1250:
NULL. -999.2500:
UWI. F10205:
~C
DEPT.M :
DEN.GM/CC :
GR.API :
RML.OHMM :
RI. :
RXO.OHMM :
CALI.CM :
SP.MV :
~A
# ...
  116.2500     2.1920    92.5000     7.2950     5.9610     7.6050    23.3760   -16.4010 
  116.3750     2.1820    95.6440     7.4620     6.1350     8.0130    23.4100   -16.7350 
  116.5000     2.1720    96.0570     7.6090     6.3210     8.0990    23.4640   -17.1760 
  116.6250     2.1650    91.1530     7.7060     6.4800     8.1300    23.6820   -17.6460 
  116.7500     2.1650    85.5450     7.7540     6.5950     8.4900    23.9910   -18.1010 
  116.8750     2.1680    81.9870     7.7630     6.6620     8.5380    24.2790   -18.4680 
  117.0000     2.1700    80.0400     7.7500     6.6930     8.2650    24.4860   -18.7690 
  117.1250     2.1680    79.7090     7.7170     6.6890     8.1850    24.5760   -18.9340 
  117.2500     2.1630    80.6170     7.6490     6.6460     8.0690    24.5980   -18.8760 
  117.3750     2.1620    80.7590     7.5190     6.5430     8.1020    24.5710   -18.5520 
  117.5000     2.1710    79.4400     7.3080     6.3670     7.8760    24.4670   -17.9210 
  117.6250     2.1930    83.4780     7.0230     6.1180     7.2490    24.2710   -17.0550 
  117.7500     2.2170    93.3630     6.7270     5.8490     6.5700    24.1030   -16.0740 
  117.8750     2.2370   101.1220     6.4740     5.6070     6.2160    24.0410   -15.0790 
  118.0000     2.2470   101.7990     6.3030     5.4290     6.0980    24.1170   -14.0940 
  118.1250     2.2510    98.6920     6.2410     5.3470     6.1780    24.3060   -13.2150 
  118.2500     2.2520    98.0880     6.2530     5.3400     6.2640    24.4250   -12.4980 
  118.3750     2.2530    99.1860     6.3080     5.3910     6.4410    24.5010   -12.0230 
  118.5000     2.2520   100.9460     6.3810     5.4810     6.7240    24.5320   -11.8720 
  118.6250     2.2450   102.2330     6.4660     5.6030     6.6790    24.5500   -12.0570 
  118.7500     2.2330    98.7420     6.5620     5.7430     6.4620    24.6960   -12.4520 
  118.8750     2.2170    91.4750     6.6720     5.8900     6.5510    24.9890   -12.9570 
  119.0000     2.2010    85.9570     6.7820     6.0290     6.9550    25.1930   -13.5020 
  119.1250     2.1900    87.4910     6.8560     6.1250     7.5740    25.2260   -13.9720 
  119.2500     2.1840    91.4210     6.8570     6.1540     7.7950    25.1110   -14.3470 
  119.3750     2.1820    93.3890     6.7600     6.0940     7.6110    24.9200   -14.5710 
  119.5000     2.1860    93.6800     6.5690     5.9390     7.4270    24.8100   -14.6000 
  119.6250     2.1990    95.9220     6.3300     5.7090     7.2230    24.7940   -14.3810 
  119.7500     2.2240   100.2590     6.1590     5.4910     6.8100    24.7560   -13.9810 
  119.8750     2.2580   101.8780     6.1840     5.3840     6.4950    24.6740   -13.4570 
  120.0000     2.2880    97.9500     6.5320     5.4980     6.3250    24.6190   -12.9160 
  120.1250     2.2910    89.9200     7.3700     6.0050     6.5600    24.5880   -12.5300 
  120.2500     2.2610    81.0670     8.6170     6.9190     7.6810    24.6030   -12.3080 
  120.3750     2.2040    73.9550    10.1120     8.2030    10.3390    24.8070   -12.2570 
  120.5000     2.1430    70.1410    11.5440     9.6680    13.7790    25.3270   -12.3540 
  120.6250     2.1070    70.6990    12.4030    10.8720    16.6340    25.7330   -12.6330 
  120.7500     2.1070    73.4100    12.4930    11.4660    16.9670    25.5940   -13.0530 
  120.8750     2.1360    77.0930    11.9680    11.3670    14.7020    25.0010   -13.5870 
  121.0000     2.1790    79.7470    11.2280    10.7750    12.3360    24.5390   -14.1490 
  121.1250     2.2160    80.1510    10.6400    10.0560    10.9450    24.3590   -14.6160 
  121.2500     2.2380    80.0060    10.2640     9.5160    10.1400    24.2650   -15.0030 
  121.3750     2.2470    79.1480    10.0970     9.2400    10.1060    24.2000   -15.3270 
  121.5000     2.2480    78.1710    10.1350     9.1960    10.9260    24.1610   -15.6130 
  121.6250     2.2430    77.5170    10.2970     9.2990    11.3810    24.1270   -15.8590 
  121.7500     2.2380    76.7040    10.4280     9.4170    11.3390    24.1220   -16.0440 
  121.8750     2.2310    75.9540    10.4890     9.4890    11.0770    24.1910   -16.1780 
  122.0000     2.2230    74.9220    10.4760     9.4920    10.7750    24.3450   -16.3030 
  122.1250     2.2140    75.6550    10.3910     9.4200    10.5000    24.5510   -16.4180 
  122.2500     2.2040    76.9110    10.2620     9.3020    10.1700    24.7090   -16.4340 
  122.3750     2.2000    78.3150    10.1350     9.1710    11.2210    24.8660   -16.3280 
  122.5000     2.2090    80.4500    10.1120     9.0970    12.1700    25.0880   -16.0590 
  122.6250     2.2470    81.0380    10.4380     9.2460    11.5830    25.1300   -15.5970 
  122.7500     2.3150    78.7830    11.2870     9.7620    10.7980    24.9240   -14.9510 
  122.8750     2.4060    74.4510    12.8170    10.8040    10.9830    24.5130   -14.1320 
  123.0000     2.5030    70.1050    15.0840    12.4980    13.2090    24.0870   -13.1110 
  123.1250     2.5870    67.3730    18.0270    14.9580    17.7830    23.9230   -11.9700 
  123.2500     2.6480    64.0510    21.1120    17.8130    22.0970    23.8770   -10.8190 
  123.3750     2.6870    60.7020    23.7690    20.5810    24.4110    23.8470    -9.7140 
  123.5000     2.7040    58.7290    25.4500    22.6800    24.0860    23.8010    -8.6920 
  123.6250     2.6970    58.5390    25.6450    23.4740    25.3290    23.7530    -7.7660 
  123.7500     2.6730    58.8300    24.7340    23.1380    24.4020    23.7500    -6.9920 
  123.8750     2.6380    58.9560    23.1640    22.0100    22.8050    23.7570    -6.3740 
  124.0000     2.6050    59.6360    21.4450    20.5510    21.6340    23.7400    -5.9330 
  124.1250     2.5840    60.5610    20.0870    19.2380    18.7410    23.7830    -5.6070 
  124.2500     2.5740    61.1300    19.2920    18.3420    16.3230    23.8330    -5.3720 
  124.3750     2.5700    60.2820    19.0990    17.9650    15.3830    23.8510    -5.2150 
  124.5000     2.5710    57.2580    19.4310    18.0950    16.5470    23.8650    -5.0970 
  124.6250     2.5790    55.6630    20.1040    18.6860    16.8280    23.8790    -5.0480 
  124.7500     2.5990    57.7200    21.0660    19.5150    17.5010    23.8690    -5.0330 
  124.8750     2.6310    60.2950    22.4640    20.4290    16.9620    23.8460    -5.0500 
  125.0000     2.6710    59.2320    24.0450    21.2660    16.3270    23.7780    -5.0540 
  125.1250     2.7060    56.9650    24.9700    21.7850    16.6170    23.6580    -5.0770 
  125.2500     2.7210    57.1940    24.9500    21.8810    17.2920    23.5330    -5.1030 
  125.3750     2.7080    58.6020    24.2700    21.5290    18.0370    23.4790    -5.1110 
  125.5000     2.6670    59.0250    23.3420    20.8380    17.7410    23.6070    -5.1280 
  125.6250     2.6100    57.2580    22.4250    20.0340    15.9810    23.7200    -5.1120 
  125.7500     2.5610    55.0080    21.7480    19.3660    14.5850    23.7800    -5.0670 
  125.8750     2.5340    53.3330    21.3570    18.9280    15.1680    23.7750    -5.0030 
  126.0000     2.5320    52.8320    21.1600    18.6930    16.5220    23.6710    -4.9450 
  126.1250     2.5500    54.1670    20.9770    18.5450    17.1310    23.4750    -4.8610 
  126.2500     2.5690    55.8010    20.6600    18.3370    17.2060    23.3880    -4.7740 
  126.3750     2.5800    57.2800    20.1840    18.0080    16.3820    23.5060    -4.6910 
  126.5000     2.5770    59.1600    19.6340    17.5850    15.2370    23.6860    -4.6150 
  126.6250     2.5630    62.0030    19.2200    17.2050    14.3840    23.8010    -4.5910 
  126.7500     2.5540    64.6920    19.1260    17.0380    13.6800    23.8550    -4.6240 
  126.8750     2.5580    67.4580    19.4520    17.2060    13.2750    23.8760    -4.6900 
  127.0000     2.5790    69.4770    20.1760    17.7480    13.8680    23.7900    -4.7860 
  127.1250     2.6070    66.8210    21.1370    18.6030    14.8820    23.6260    -4.9140 
  127.2500     2.6220    62.5170    21.9940    19.4800    17.1040    23.5850    -4.9960 
  127.3750     2.6190    60.5390    22.4890    20.1160    20.3740    23.6790    -5.0700 
