~V
VERS. 2.00: Ver 2.00
~W
STRT.M 53.0000:
STOP.M 282.0000:
STEP.M 0.1250:
NULL. -999.2500:
UWI. F10240:
~C
DEPT.M :
GR.API :
RML.OHMM :
RI. :
RXO.OHMM :
CALI.CM :
DEN.GM/CC :
SP.MV :
~A
# ...
  210.5000    68.7970     8.4340     6.5980     6.5970    25.1070     2.3320   -11.9810 
  210.6250    69.8420     8.6370     6.8140     7.1490    25.0410     2.3440   -12.1020 
  210.7500    70.9790     8.7500     6.9590     7.5720    25.2520     2.3600   -12.2180 
  210.8750    73.6790     8.7160     6.9860     7.8250    25.4990     2.3740   -12.3310 
  211.0000    77.1370     8.5060     6.8600     8.0390    25.3790     2.3800   -12.4490 
  211.1250    77.8570     8.1980     6.6310     7.8540    25.2380     2.3810   -12.5450 
  211.2500    75.5980     7.8660     6.3510     7.4380    25.1360     2.3780   -12.6090 
  211.3750    73.6110     7.5710     6.0710     7.0050    25.0520     2.3710   -12.6190 
  211.5000    74.2600     7.3560     5.8330     6.6850    24.9990     2.3610   -12.5730 
  211.6250    74.8200     7.2070     5.6440     6.5870    24.9730     2.3480   -12.5520 
  211.7500    71.9630     7.1250     5.5060     6.5710    24.9670     2.3350   -12.5810 
  211.8750    67.2430     7.1070     5.4200     6.5480    24.9510     2.3190   -12.6380 
  212.0000    66.6710     7.1410     5.3830     6.6100    24.9190     2.3030   -12.6900 
  212.1250    69.4440     7.1930     5.3750     6.9280    24.8590     2.2890   -12.7450 
  212.2500    71.4190     7.2670     5.3960     7.3900    24.8230     2.2850   -12.8190 
  212.3750    71.3400     7.4140     5.4750     7.3540    24.7790     2.2910   -12.9440 
  212.5000    71.4550     7.7760     5.6920     7.8940    24.7710     2.2990   -13.1360 
  212.6250    72.8280     8.4680     6.1090     9.8850    24.7600     2.3020   -13.3350 
  212.7500    72.8240     9.5980     6.8060    12.8670    24.7520     2.2990   -13.5200 
  212.8750    71.4620    11.1900     7.8360    16.2090    24.7240     2.2980   -13.7080 
  213.0000    69.6260    13.2190     9.2510    18.4200    24.6860     2.3050   -13.8960 
  213.1250    67.3100    15.4500    10.9150    19.4310    24.6550     2.3190   -14.0770 
  213.2500    64.7930    17.6910    12.6890    19.1430    24.6100     2.3380   -14.2590 
  213.3750    63.2280    19.7310    14.3910    20.5050    24.5870     2.3560   -14.4350 
  213.5000    64.2480    21.2870    15.7680    24.3980    24.5760     2.3660   -14.5890 
  213.6250    64.2010    22.2390    16.7050    25.1910    24.5780     2.3610   -14.7100 
  213.7500    60.1120    22.4510    17.0890    22.2080    24.5770     2.3370   -14.7850 
  213.8750    54.9140    21.9550    16.9090    18.5820    24.5840     2.2980   -14.8260 
  214.0000    57.1930    21.1010    16.3540    17.1740    24.5950     2.2630   -14.8740 
  214.1250    64.9710    20.4720    15.8430    18.1320    24.6420     2.2450   -14.9280 
  214.2500    71.0480    20.3660    15.6090    20.9330    24.6970     2.2470   -14.9490 
  214.3750    70.8110    20.8640    15.7670    24.3770    24.7270     2.2580   -14.9250 
  214.5000    66.6180    21.8760    16.3630    24.2680    24.7340     2.2630   -14.8870 
  214.6250    63.9120    23.0080    17.1860    21.6140    24.7310     2.2560   -14.8610 
  214.7500    64.6640    24.0280    18.0580    21.5890    24.6930     2.2430   -14.8680 
  214.8750    68.1120    24.9270    18.9020    25.0630    24.6520     2.2270   -14.9080 
  215.0000    69.0290    25.9560    19.8150    29.0470    24.6880     2.2140   -14.9320 
  215.1250    66.4320    27.3340    20.9510    31.3520    24.7800     2.2080   -14.9380 
  215.2500    62.7440    29.1500    22.4160    33.6900    24.8220     2.2140   -14.9540 
  215.3750    59.5310    31.3540    24.2270    35.6990    24.8420     2.2310   -15.0000 
  215.5000    57.2080    33.7800    26.2980    38.9190    24.8390     2.2470   -15.0670 
  215.6250    56.1390    36.1350    28.3780    41.1700    24.8490     2.2540   -15.1410 
  215.7500    57.2000    38.1770    30.2680    43.9670    24.8440     2.2490   -15.2230 
  215.8750    59.8650    39.6310    31.7630    44.1240    24.8480     2.2360   -15.2940 
  216.0000    63.5720    40.0050    32.4970    43.3610    24.8390     2.2230   -15.3660 
  216.1250    65.6240    39.3290    32.4360    40.1150    24.8460     2.2110   -15.4650 
  216.2500    64.9030    37.9370    31.7520    36.5470    24.8330     2.2010   -15.5830 
  216.3750    64.2510    36.5610    30.9190    34.3160    24.8160     2.1990   -15.7040 
  216.5000    65.9860    36.3580    30.7590    34.0110    24.7720     2.2090   -15.8120 
  216.6250    66.6050    37.8350    31.7850    34.6950    24.7660     2.2240   -15.8930 
  216.7500    63.4830    40.9560    34.1940    38.6780    24.7590     2.2410   -15.9610 
  216.8750    58.5120    44.8290    37.5940    47.4620    24.7480     2.2600   -16.0460 
  217.0000    54.6140    46.9640    40.2930    60.5770    24.7450     2.2820   -16.1550 
  217.1250    52.4480    45.3560    40.2340    63.1950    24.7350     2.3020   -16.2270 
  217.2500    54.1820    40.0780    36.8550    52.6760    24.6800     2.3090   -16.2620 
  217.3750    60.3690    33.3920    31.6690    37.8370    24.6210     2.2970   -16.2790 
  217.5000    65.9700    28.2420    27.1090    25.3460    24.5880     2.2670   -16.2930 
  217.6250    66.8130    25.4930    24.2400    20.0510    24.5800     2.2350   -16.3590 
  217.7500    65.0100    24.8790    23.0700    20.6530    24.5710     2.2100   -16.4700 
  217.8750    62.7800    25.5890    23.1500    26.7560    24.5690     2.1980   -16.5910 
  218.0000    61.4430    26.5010    23.7480    38.0460    24.5680     2.2000   -16.7170 
  218.1250    61.8400    26.7950    24.0740    39.7260    24.5710     2.2130   -16.8750 
  218.2500    64.7870    26.6300    24.0490    33.0290    24.5580     2.2280   -17.0800 
  218.3750    67.7230    26.9180    24.2150    27.0680    24.5210     2.2360   -17.3370 
  218.5000    67.1040    29.3900    25.8400    28.3300    24.4750     2.2300   -17.6440 
  218.6250    63.0600    35.1620    30.0300    33.8100    24.4180     2.2110   -17.9600 
  218.7500    58.2360    45.5050    38.2510    44.9070    24.3340     2.1880   -18.2570 
  218.8750    56.5390    61.7240    52.1980    62.0420    24.2510     2.1670   -18.5280 
  219.0000    58.6030    85.8910    74.2110    80.8950    24.2190     2.1550   -18.7640 
  219.1250    58.8380   115.5800   101.6090    98.3240    24.2110     2.1510   -18.9710 
  219.2500    56.8180   145.7080   129.3180   107.4940    24.2040     2.1490   -19.1630 
  219.3750    55.3980   167.9380   150.0560   127.0960    24.2020     2.1480   -19.3340 
  219.5000    56.0130   173.0290   156.0090   161.0670    24.2320     2.1430   -19.4320 
  219.6250    56.3410   165.3440   150.1990   166.3230    24.2950     2.1340   -19.4480 
  219.7500    56.5150   151.4700   137.6290   149.9860    24.3370     2.1250   -19.4270 
  219.8750    57.6440   137.2150   123.4590   142.8600    24.3050     2.1220   -19.4210 
  220.0000    58.5690   126.3020   111.5860   131.4090    24.2900     2.1360   -19.4440 
  220.1250    58.3610   118.9760   102.9850   117.8840    24.3170     2.1620   -19.4700 
  220.2500    57.1470   114.8670    97.6670   105.4880    24.3750     2.1890   -19.4730 
  220.3750    54.9240   113.4520    95.2990   102.5800    24.4160     2.2020   -19.4340 
  220.5000    52.6870   114.6390    95.8710   114.8980    24.4660     2.1940   -19.3960 
  220.6250    52.2900   117.6940    98.5630   142.7310    24.4920     2.1810   -19.4100 
  220.7500    53.5050   122.2070   102.9370   216.8770    24.5090     2.1730   -19.4560 
  220.8750    54.9700   127.6450   108.4160   241.9350    24.5180     2.1730   -19.5080 
  221.0000    56.6100   133.6600   114.5240   174.3470    24.5250     2.1770   -19.5420 
  221.1250    57.6020   140.2170   121.0310   133.4620    24.5330     2.1790   -19.5510 
  221.2500    55.8780   147.4310   128.0030   137.7140    24.6100     2.1760   -19.5150 
  221.3750    53.1360   154.4440   134.8220   145.4840    24.7560     2.1730   -19.4420 
  221.5000    52.1420   157.3050   138.4370   142.9520    24.7910     2.1760   -19.3700 
  221.6250    52.3310   152.2140   135.7090   138.1060    24.7350     2.1860   -19.2830 
