~V
VERS. 2.00: Ver 2.00
~W
STRT.M 54.0000:
STOP.M 277.0000:
STEP.M 0.1250:
NULL. -999.2500:
UWI. F10247:
~C
DEPT.M :
GR.API :
RML.OHMM :
RI. :
RXO.OHMM :
CALI.CM :
DEN.GM/CC :
SP.MV :
~A
# ...
  211.5000    67.3780     6.4690     4.7970     5.5920    24.6060     2.2720   -12.0030 
  211.6250    71.6490     6.5470     4.8510     5.5880    24.4880     2.2970   -12.0590 
  211.7500    74.3960     6.6620     4.9220     5.5940    24.4590     2.3210   -12.1800 
  211.8750    78.0670     6.8480     5.0370     5.6850    24.4760     2.3450   -12.3220 
  212.0000    83.0110     7.0890     5.2010     5.9700    24.4790     2.3700   -12.5060 
  212.1250    86.1450     7.3500     5.4070     6.3940    24.4560     2.3940   -12.7200 
  212.2500    84.8140     7.6330     5.6390     6.7040    24.4490     2.4030   -12.9660 
  212.3750    81.4810     7.9780     5.8800     6.8290    24.4530     2.3920   -13.2340 
  212.5000    78.8680     8.4290     6.1370     7.2650    24.4800     2.3700   -13.4920 
  212.6250    77.8170     9.0220     6.4460     8.0200    24.5100     2.3460   -13.7540 
  212.7500    77.2700     9.8370     6.8880     8.8730    24.4730     2.3290   -13.9850 
  212.8750    77.9000    10.9170     7.5140     9.2800    24.3720     2.3230   -14.2130 
  213.0000    79.1950    12.3030     8.3570    10.1320    24.2340     2.3210   -14.4360 
  213.1250    79.5480    13.9260     9.3940    11.7380    24.1310     2.3160   -14.6350 
  213.2500    78.3850    15.5190    10.5100    13.1890    24.1300     2.3030   -14.8170 
  213.3750    78.1030    16.7100    11.4760    14.0520    24.1970     2.2880   -14.9780 
  213.5000    78.8420    17.2610    12.0950    14.4590    24.2690     2.2810   -15.1390 
  213.6250    77.3350    17.2120    12.2960    14.3490    24.3640     2.2860   -15.2780 
  213.7500    73.9970    16.8500    12.1520    14.7820    24.3520     2.3000   -15.4360 
  213.8750    70.3290    16.5410    11.9110    14.8300    24.2380     2.3100   -15.5870 
  214.0000    66.2700    16.3580    11.6730    15.5960    24.0780     2.3080   -15.7340 
  214.1250    62.2940    16.2490    11.4630    19.9370    23.9890     2.2980   -15.8840 
  214.2500    62.0210    16.2610    11.3410    22.8580    23.9620     2.2900   -16.0150 
  214.3750    66.4930    16.6510    11.4400    20.7880    24.0290     2.2930   -16.1630 
  214.5000    71.6810    17.8880    11.9890    15.8710    24.1390     2.3020   -16.3160 
  214.6250    72.3540    20.5870    13.3210    14.2200    24.2530     2.3080   -16.4780 
  214.7500    68.1590    25.8550    16.1950    20.2670    24.3570     2.2990   -16.6470 
  214.8750    63.4280    33.9360    21.0440    35.1050    24.4690     2.2770   -16.8340 
  215.0000    60.7430    45.0590    28.3680    51.0780    24.6090     2.2500   -17.0250 
  215.1250    59.4100    58.8550    38.2720    61.9200    24.7290     2.2260   -17.2370 
  215.2500    58.4640    73.9150    50.0610    78.9460    24.7280     2.2060   -17.4700 
  215.3750    58.2170    87.4560    61.3590   106.2320    24.7220     2.1870   -17.7020 
  215.5000    58.7830    97.1060    70.1220   134.9190    24.7880     2.1680   -17.9350 
  215.6250    58.8820   101.0880    74.8470   169.1130    24.7680     2.1540   -18.1610 
  215.7500    57.1100    97.7810    74.0990   202.9370    24.6350     2.1530   -18.3770 
  215.8750    54.9240    90.0760    69.5850   162.6050    24.6420     2.1630   -18.5800 
  216.0000    53.9420    81.3530    63.5040   104.9680    24.7840     2.1770   -18.7610 
  216.1250    55.1730    74.5180    58.1090    69.4920    24.8430     2.1900   -18.9140 
  216.2500    57.3080    71.3400    55.0760    61.9270    24.7990     2.1990   -19.0310 
  216.3750    58.7410    70.8290    54.1680    62.3900    24.7360     2.2070   -19.1350 
  216.5000    57.7300    71.6360    54.7000    68.3160    24.6690     2.2160   -19.2250 
  216.6250    55.3840    72.0910    55.5570    68.1010    24.5900     2.2250   -19.3190 
  216.7500    55.5070    70.7290    55.4850    66.7140    24.6110     2.2300   -19.3840 
  216.8750    58.0290    68.0660    54.3810    57.6850    24.6840     2.2330   -19.4510 
  217.0000    59.9080    65.1300    52.7570    49.8390    24.7310     2.2360   -19.5190 
  217.1250    57.8900    62.8330    51.2500    42.9870    24.6930     2.2400   -19.6140 
  217.2500    55.7870    61.8740    50.4780    37.3650    24.6800     2.2400   -19.7260 
  217.3750    57.0340    62.0670    50.5550    39.8800    24.7140     2.2370   -19.8500 
  217.5000    59.9130    63.2300    51.4750    47.4930    24.7660     2.2310   -19.9790 
  217.6250    60.8640    65.3480    53.2350    50.7350    24.7820     2.2220   -20.1170 
  217.7500    59.0470    68.8330    56.1280    52.9620    24.7630     2.2100   -20.2730 
  217.8750    57.0590    73.5350    60.0590    72.5700    24.7340     2.1980   -20.4290 
  218.0000    56.4330    79.0030    64.8030    87.2690    24.7280     2.1870   -20.5990 
  218.1250    57.8330    84.3140    69.7890    88.9580    24.7360     2.1770   -20.7660 
  218.2500    58.3420    87.9340    73.9100    77.5210    24.7530     2.1710   -20.9400 
  218.3750    56.8350    89.4180    76.4680    74.5160    24.7850     2.1680   -21.1210 
  218.5000    56.3000    89.3280    77.5060    76.4660    24.7990     2.1680   -21.2920 
  218.6250    58.3120    88.8850    77.7840    71.3450    24.7840     2.1700   -21.4700 
  218.7500    59.5780    89.2220    78.2850    65.0980    24.7330     2.1690   -21.6410 
  218.8750    56.9070    90.3810    79.3770    78.4170    24.6640     2.1630   -21.8280 
  219.0000    53.3670    91.9000    80.8820   144.1510    24.6370     2.1560   -22.0190 
  219.1250    53.8940    93.0260    82.2770   221.0830    24.6530     2.1530   -22.1920 
  219.2500    57.6820    92.7560    82.6910   180.3230    24.6910     2.1580   -22.3700 
  219.3750    57.6090    91.0870    81.8820   105.1020    24.7020     2.1670   -22.5170 
  219.5000    54.1160    88.6290    80.1560    96.5080    24.6910     2.1800   -22.6780 
  219.6250    53.7370    86.5190    78.3940   128.5640    24.6720     2.1930   -22.8110 
  219.7500    57.4810    86.3270    78.0190   154.9960    24.6810     2.2030   -22.9720 
  219.8750    58.2950    88.6160    79.7410   118.1800    24.6710     2.2070   -23.1080 
  220.0000    55.5610    93.8140    84.0370    99.5420    24.6840     2.2080   -23.2440 
  220.1250    53.1630   102.2110    91.2730    97.0660    24.7470     2.2070   -23.3930 
  220.2500    54.2370   114.1890   102.0530    99.1080    24.7550     2.2050   -23.5430 
  220.3750    56.2490   128.1800   115.1440   112.7750    24.7110     2.2000   -23.7020 
  220.5000    57.9530   142.3030   128.9490   123.3460    24.6550     2.1890   -23.8570 
  220.6250    59.6410   154.0860   141.2290   169.5970    24.6260     2.1720   -24.0240 
  220.7500    60.2790   160.0410   148.7680   567.0060    24.6300     2.1560   -24.1920 
  220.8750    58.7130   159.6560   150.7620   590.4120    24.6620     2.1490   -24.3510 
  221.0000    56.1850   153.3960   147.3110   420.6000    24.7070     2.1500   -24.4970 
  221.1250    55.8680   142.7730   139.4410   272.3490    24.7060     2.1560   -24.6060 
  221.2500    57.0410   129.7690   128.4830   240.4990    24.7000     2.1610   -24.7080 
  221.3750    55.8390   117.0840   116.9530   162.4950    24.7280     2.1620   -24.7900 
  221.5000    53.4680   106.2970   106.5110   114.6240    24.7670     2.1630   -24.8390 
  221.6250    53.7370    98.3800    98.3260    87.7660    24.7790     2.1660   -24.8640 
  221.7500    57.1100    94.6570    93.7410    76.9840    24.7690     2.1730   -24.8420 
  221.8750    61.1340    95.2090    92.9440    74.0940    24.7670     2.1830   -24.8190 
  222.0000    63.9600   100.5630    96.5550    78.5030    24.7630     2.1910   -24.7740 
  222.1250    63.9570   110.9130   104.9240    85.5350    24.7700     2.1930   -24.7560 
  222.2500    60.9360   126.4350   118.3240    95.2140    24.7680     2.1860   -24.6940 
  222.3750    58.7060   144.7120   134.4410   123.4430    24.7980     2.1750   -24.6540 
  222.5000    58.4970   163.1660   150.8590   173.2830    24.8170     2.1670   -24.6180 
  222.6250    58.5150   178.7620   164.8030   323.3980    24.7950     2.1670   -24.5940 
