~V
VERS. 2.00: Ver 2.00
~W
STRT.M 50.0000:
STOP.M 281.0000:
STEP.M 0.1250:
NULL. -999.2500:
UWI. F10222:
~C
DEPT.M :
GR.API :
RML.OHMM :
RI. :
RXO.OHMM :
CALI.CM :
DEN.GM/CC :
SP.MV :
~A
# ...
  218.7500    61.7070    87.8390    86.5930    59.3210    26.6350     2.1880   -26.5730 
  218.8750    62.8480    86.7680    85.3620    63.4400    26.5470     2.1850   -26.6440 
  219.0000    64.2930    85.6030    83.9480    66.1850    26.4240     2.1850   -26.7080 
  219.1250    63.5020    85.1510    83.0400    66.7310    26.3100     2.1860   -26.8070 
  219.2500    60.0920    86.5570    83.7510    67.6570    26.2510     2.1870   -26.8890 
  219.3750    57.7500    90.9150    87.1940    64.1200    26.1730     2.1870   -26.9860 
  219.5000    58.1660    98.8190    94.0780    57.6960    26.1650     2.1880   -27.1010 
  219.6250    59.0550   110.0790   104.5160    57.8640    26.4310     2.1930   -27.1990 
  219.7500    58.9250   121.4270   115.6780    78.4030    26.6390     2.1990   -27.3100 
  219.8750    58.9860   128.7190   123.9160   100.1150    26.6950     2.2020   -27.3930 
  220.0000    59.0070   128.4410   125.7850   105.3390    26.6430     2.2010   -27.4880 
  220.1250    58.3760   119.7780   119.5230   100.1440    26.5350     2.1980   -27.5570 
  220.2500    57.8670   108.1110   109.3220    92.6550    26.4680     2.1950   -27.6570 
  220.3750    55.6250    97.0840    98.6570    81.2050    26.4260     2.1940   -27.7060 
  220.5000    51.3890    88.5550    89.8320    70.8500    26.3980     2.1990   -27.7530 
  220.6250    52.9190    83.0630    83.8770    66.6080    26.3890     2.2130   -27.7950 
  220.7500    59.8040    79.3060    79.7400    70.0450    26.3900     2.2270   -27.8460 
  220.8750    63.5690    76.3910    76.5840    73.7990    26.3840     2.2360   -27.9150 
  221.0000    60.2280    73.5990    73.7070    72.3660    26.3540     2.2400   -27.9810 
  221.1250    55.0680    70.3990    70.5860    71.7580    26.2750     2.2380   -28.0760 
  221.2500    54.9100    66.8520    67.1670    67.2000    26.1890     2.2320   -28.1350 
  221.3750    58.7780    63.3720    63.7480    57.5800    26.1470     2.2250   -28.2340 
  221.5000    62.8900    60.5470    60.8300    49.3080    26.1630     2.2230   -28.3310 
  221.6250    64.7070    59.1890    59.1520    44.9890    26.1870     2.2240   -28.4510 
  221.7500    62.7100    59.4090    58.8740    44.0900    26.1840     2.2220   -28.5800 
  221.8750    58.2290    61.1020    59.9480    44.2700    26.1680     2.2210   -28.7040 
  222.0000    55.4130    63.8090    62.0060    45.5910    26.1420     2.2260   -28.8280 
  222.1250    56.2680    66.8560    64.4550    49.7330    26.1240     2.2330   -28.8850 
  222.2500    57.8190    69.7070    66.7420    53.6560    26.1480     2.2360   -28.9510 
  222.3750    58.7870    72.4740    68.8810    54.5730    26.1490     2.2350   -28.9620 
  222.5000    60.3390    75.7680    71.3680    51.0330    26.0550     2.2260   -28.9520 
  222.6250    62.7500    80.7910    75.2900    50.7490    25.9070     2.2050   -28.8830 
  222.7500    63.7720    87.9390    81.1250    54.9440    26.0190     2.1850   -28.7430 
  222.8750    64.4450    97.0120    88.7860    62.5940    26.2800     2.1770   -28.5480 
  223.0000    66.3070   106.7420    97.1710    74.8500    26.4450     2.1790   -28.3260 
  223.1250    68.5370   113.9780   103.5600    83.2480    26.5060     2.1830   -28.0850 
  223.2500    70.7810   116.3280   105.8520    85.8720    26.5070     2.1880   -27.7690 
  223.3750    70.6490   113.3160   103.4800    81.8420    26.3910     2.2000   -27.4380 
  223.5000    66.8130   106.6520    97.6320    72.4270    26.2190     2.2150   -27.0340 
  223.6250    61.6810    99.1800    90.5280    64.5090    26.0940     2.2270   -26.6210 
  223.7500    57.9730    93.2320    84.3740    61.0000    26.1870     2.2350   -26.1960 
  223.8750    55.9000    89.6690    80.1100    59.0040    26.2620     2.2400   -25.7760 
  224.0000    54.4330    88.6640    78.0450    57.5600    26.2740     2.2430   -25.3460 
  224.1250    55.1640    90.5620    78.5710    57.6350    26.2670     2.2460   -24.9270 
  224.2500    55.8020    95.0330    81.4270    61.0380    26.2950     2.2510   -24.5720 
  224.3750    54.4800   102.3430    86.8730    66.9580    26.4710     2.2580   -24.2170 
  224.5000    53.9000   112.6650    95.0770    73.4490    26.7470     2.2690   -23.9320 
  224.6250    56.4560   125.7820   105.9370    75.0070    26.8580     2.2830   -23.6400 
  224.7500    59.4150   139.0920   117.4070    69.2760    26.5800     2.3000   -23.3630 
  224.8750    60.3760   149.1040   126.9050    61.6600    25.8520     2.3260   -23.0900 
  225.0000    60.0180   152.3940   131.7560    59.1400    25.0600     2.3550   -22.8050 
  225.1250    59.5540   147.7050   130.2080    54.3560    24.9250     2.3620   -22.5280 
  225.2500    58.4780   140.3820   125.4700    60.9510    25.6620     2.3470   -22.1840 
  225.3750    58.4630   134.7090   120.8070    78.2730    26.4870     2.3410   -21.8530 
  225.5000    60.3150   132.4370   118.3630    89.2940    26.8120     2.3730   -21.4650 
  225.6250    61.8420   129.8250   116.2970    84.2930    26.4440     2.4520   -21.0640 
  225.7500    60.7570   118.2820   107.4690    80.5440    26.1440     2.5470   -20.6600 
  225.8750    57.6400    93.6450    86.7230    86.3530    26.0710     2.6220   -20.2430 
  226.0000    56.2680    62.5810    58.7390    85.6560    26.0450     2.6470   -19.8250 
  226.1250    59.0540    37.5500    35.6740    63.7100    25.8160     2.6330   -19.3790 
  226.2500    61.6570    21.5100    21.0650    30.0150    25.4170     2.6080   -19.0270 
  226.3750    61.3920    13.6940    12.9940    12.1350    25.1130     2.5650   -18.6890 
  226.5000    60.7140     9.6160     8.9040     6.9580    24.9830     2.5010   -18.4180 
  226.6250    62.3350     7.8170     7.2380     6.0390    24.9240     2.4430   -18.1930 
  226.7500    62.8800     7.2390     6.7030     6.3970    24.8920     2.4110   -17.9890 
  226.8750    60.1480     7.4000     6.8520     6.8520    24.9460     2.4020   -17.8630 
  227.0000    56.1260     7.8890     7.3050     6.9220    25.1170     2.4070   -17.7910 
  227.1250    53.2780     8.2870     7.6740     6.9010    25.2560     2.4140   -17.8010 
  227.2500    51.5580     8.3940     7.7730     6.7580    25.1900     2.4150   -17.7930 
  227.3750    50.0190     8.2430     7.6320     6.3290    25.0650     2.4070   -17.8250 
  227.5000    49.2810     7.9630     7.3730     5.9120    24.9990     2.3950   -17.8850 
  227.6250    52.2960     7.6780     7.1090     5.8640    25.0520     2.3890   -17.9580 
  227.7500    57.0820     7.4490     6.8980     5.9540    25.2430     2.3940   -18.0790 
  227.8750    59.3020     7.2910     6.7510     5.9410    25.4910     2.4050   -18.1910 
  228.0000    56.8510     7.2050     6.6710     5.9160    25.5720     2.4170   -18.3270 
  228.1250    57.6470     7.2080     6.6740     6.0260    25.4550     2.4250   -18.4860 
  228.2500    66.3550     7.2990     6.7580     6.2500    25.3820     2.4320   -18.7010 
  228.3750    77.5570     7.4820     6.9280     6.7460    25.3700     2.4440   -18.9280 
  228.5000    84.3390     7.7450     7.1710     7.4080    25.4070     2.4620   -19.1350 
  228.6250    84.0730     8.0500     7.4540     7.5900    25.5640     2.4710   -19.3800 
  228.7500    84.2370     8.3460     7.7280     7.7350    25.8210     2.4630   -19.6030 
  228.8750    88.2810     8.6060     7.9680     7.9460    26.0100     2.4460   -19.8540 
  229.0000    92.8140     8.8090     8.1570     8.1260    25.9960     2.4310   -20.0830 
  229.1250    93.0800     8.9360     8.2740     8.1790    25.7410     2.4260   -20.2930 
  229.2500    91.5350     8.9890     8.3230     8.2030    25.4860     2.4260   -20.4630 
  229.3750    92.8610     8.9700     8.3060     8.3460    25.4040     2.4300   -20.6100 
  229.5000    98.3770     8.8890     8.2300     8.5190    25.5870     2.4360   -20.7880 
  229.6250   104.8130     8.7860     8.1350     8.4280    25.7450     2.4370   -20.9390 
  229.7500   109.4750     8.7160     8.0710     8.2630    25.8140     2.4250   -21.1180 
  229.8750   111.4490     8.7010     8.0560     8.1880    25.8570     2.4040   -21.2700 
