~V
VERS. 2.00: Ver 2.00
~W
STRT.M 56.0000:
STOP.M 281.0000:
STEP.M 0.1250:
NULL. -999.2500:
UWI. F10232:
~C
DEPT.M :
SP.MV :
GR.API :
RML.OHMM :
RI. :
RXO.OHMM :
CALI.CM :
DEN.GM/CC :
~A
# ...
  179.7500   -14.6650    59.7090   114.9730   105.0330    97.0620    23.3610     2.2610 
  179.8750   -14.7160    57.7620   121.5630   111.5820   100.3690    23.3130     2.2650 
  180.0000   -14.7410    54.5170   124.0400   114.1150   102.9580    23.3290     2.2680 
  180.1250   -14.7500    53.2600   124.1670   114.1800   109.4340    23.3540     2.2700 
  180.2500   -14.7490    55.0100   123.7910   113.5640   111.9900    23.3610     2.2710 
  180.3750   -14.7260    58.1030   123.8940   113.3190   109.0690    23.3400     2.2720 
  180.5000   -14.6930    61.8860   124.3670   113.4730   105.5130    23.2820     2.2720 
  180.6250   -14.6440    65.7600   124.9030   113.8100   107.7440    23.1710     2.2710 
  180.7500   -14.5690    66.9930   125.1320   114.0360   112.6200    23.0050     2.2680 
  180.8750   -14.4830    62.8820   124.5180   113.7080   110.5920    22.8110     2.2620 
  181.0000   -14.3850    57.9490   122.7810   112.5250   103.6330    22.6830     2.2570 
  181.1250   -14.2640    55.0040   119.5500   110.1080    96.8730    22.6600     2.2530 
  181.2500   -14.1350    52.8050   114.4510   106.0630    91.1520    22.7430     2.2500 
  181.3750   -14.0210    50.0040   106.9640    99.8200    89.4200    22.9130     2.2490 
  181.5000   -13.9270    49.8350    97.9550    92.0430    88.4610    23.0610     2.2510 
  181.6250   -13.8630    54.1040    88.7480    83.8360    86.9820    23.1090     2.2560 
  181.7500   -13.8560    58.7580    81.1210    76.7910    83.3380    23.0880     2.2630 
  181.8750   -13.8900    57.9370    77.3860    73.0430    77.5910    23.1250     2.2670 
  182.0000   -13.9600    53.9620    77.8180    73.0250    65.4910    23.2740     2.2660 
  182.1250   -14.0740    51.4340    82.0830    76.6210    53.6130    23.5060     2.2610 
  182.2500   -14.2190    50.3700    88.8300    82.8000    49.9620    23.7580     2.2530 
  182.3750   -14.3870    47.6310    95.4470    89.3690    51.1440    23.9400     2.2460 
  182.5000   -14.5560    44.9200    99.1460    93.5900    55.7110    24.0510     2.2420 
  182.6250   -14.7180    45.4460    98.4170    93.7900    60.9220    24.1160     2.2420 
  182.7500   -14.8520    48.5820    93.5590    89.9010    65.5130    24.1420     2.2480 
  182.8750   -14.9620    51.7250    86.8110    83.6570    59.1300    24.0990     2.2590 
  183.0000   -15.0550    55.0260    81.3820    78.1490    52.2150    23.9790     2.2710 
  183.1250   -15.1220    57.7960    78.7520    74.9590    47.3810    23.7620     2.2810 
  183.2500   -15.1630    58.0480    79.2240    74.5870    45.9870    23.4470     2.2860 
  183.3750   -15.1730    54.4510    82.7670    77.1750    47.3700    23.0290     2.2830 
  183.5000   -15.1550    51.5050    88.2760    81.7630    50.3700    22.6340     2.2730 
  183.6250   -15.1060    50.8430    95.1770    87.8560    52.4530    22.4570     2.2610 
  183.7500   -15.0350    50.6470   102.7700    94.8450    54.6380    22.6000     2.2500 
  183.8750   -14.9240    51.0880   109.5990   101.5020    56.1220    22.9830     2.2460 
  184.0000   -14.7910    52.4750   113.7530   106.0490    57.4680    23.3590     2.2470 
  184.1250   -14.6570    53.4860   113.3190   106.6510    60.1540    23.6100     2.2530 
  184.2500   -14.5300    53.2200   107.2150   102.0820    66.8830    23.7110     2.2610 
  184.3750   -14.4220    52.1350    95.8590    92.2750    76.2270    23.6740     2.2710 
  184.5000   -14.3530    51.3280    83.4660    80.8980    80.5200    23.5800     2.2810 
  184.6250   -14.3200    50.6100    73.3370    71.0570    74.2770    23.4740     2.2910 
  184.7500   -14.3290    50.2650    67.5130    64.8660    59.2800    23.3830     2.2960 
  184.8750   -14.3870    50.6050    67.3420    63.8200    47.3120    23.3360     2.2940 
  185.0000   -14.4790    51.4590    71.4010    66.8390    45.8350    23.3270     2.2870 
  185.1250   -14.5840    52.0600    78.6140    73.1030    50.7450    23.3580     2.2760 
  185.2500   -14.6930    51.7700    87.6540    81.4950    58.4930    23.4300     2.2620 
  185.3750   -14.7950    51.2230    96.9510    90.5940    64.9260    23.5640     2.2490 
  185.5000   -14.8840    51.8160   105.0860    98.8310    69.0250    23.7670     2.2370 
  185.6250   -14.9720    52.8610   111.2900   105.3180    71.5980    24.0130     2.2300 
  185.7500   -15.0500    53.6370   115.1830   109.6240    75.6830    24.2250     2.2270 
  185.8750   -15.1240    54.4570   116.1850   111.1190    83.5500    24.2980     2.2290 
  186.0000   -15.2070    54.1480   114.8140   110.0190    92.4650    24.1990     2.2340 
  186.1250   -15.3010    53.5950   111.0510   106.3960    97.6510    23.9820     2.2410 
  186.2500   -15.4130    54.1350   105.4690   100.8190    96.3410    23.7320     2.2520 
  186.3750   -15.5570    55.5500    99.9050    94.4790    88.6210    23.4740     2.2630 
  186.5000   -15.7250    57.1370    93.6810    89.0160    76.3180    23.2430     2.2730 
  186.6250   -15.8930    58.8600    89.6440    85.4330    61.4640    23.0540     2.2780 
  186.7500   -16.0600    60.6180    88.0290    84.0920    48.6990    22.8930     2.2770 
  186.8750   -16.2180    60.8940    88.5410    84.8910    40.6000    22.8050     2.2710 
  187.0000   -16.3410    59.5770    89.7070    86.5060    35.8160    22.8660     2.2640 
  187.1250   -16.4420    58.3010    90.2950    87.7490    33.1710    23.1250     2.2580 
  187.2500   -16.5140    57.4310    89.2340    87.4840    34.4600    23.5790     2.2550 
  187.3750   -16.5410    56.9210    85.6230    84.6210    39.5980    24.1350     2.2560 
  187.5000   -16.5250    56.5670    80.3660    79.8350    45.6240    24.5700     2.2620 
  187.6250   -16.4790    57.9150    74.9700    74.4550    48.6500    24.7920     2.2720 
  187.7500   -16.4250    61.4660    71.5400    70.4910    46.8040    24.8210     2.2850 
  187.8750   -16.3770    63.7650    73.2260    70.9930    45.2560    24.7660     2.2940 
  188.0000   -16.3680    61.4330    81.1570    77.3040    47.1860    24.7450     2.2930 
  188.1250   -16.4000    56.9060    95.9260    90.2940    56.2670    24.8150     2.2780 
  188.2500   -16.4670    53.0300   116.4000   109.2380    75.1780    25.0170     2.2550 
  188.3750   -16.5660    50.6150   138.6790   130.7720    96.5550    25.2850     2.2330 
  188.5000   -16.7170    49.4330   156.3540   148.5430   120.4550    25.4330     2.2210 
  188.6250   -16.9240    50.9620   164.4270   157.5000   128.5470    25.3870     2.2200 
  188.7500   -17.1640    54.7870   161.3420   155.7810   117.1680    25.1950     2.2280 
  188.8750   -17.4430    57.1400   150.9130   146.2430   106.0540    24.9290     2.2390 
  189.0000   -17.7160    56.2790   141.3020   136.5660    96.3090    24.6700     2.2460 
  189.1250   -17.9680    53.0720   135.5660   130.1760    92.4460    24.4740     2.2470 
  189.2500   -18.2060    48.4780   133.6710   127.5820    92.3910    24.3520     2.2460 
  189.3750   -18.4380    46.6630   134.4920   128.0320    92.7940    24.2350     2.2460 
  189.5000   -18.6320    48.8040   136.1030   129.6760    94.6160    24.0470     2.2490 
  189.6250   -18.7940    52.6730   137.6110   131.6310    97.8880    23.7930     2.2540 
  189.7500   -18.9200    54.8080   138.7100   133.5350    95.3240    23.5190     2.2570 
  189.8750   -18.9960    54.2230   139.7040   135.6190    86.9040    23.3300     2.2550 
  190.0000   -19.0400    53.6510   141.0830   138.2660    76.4090    23.2310     2.2500 
  190.1250   -19.0720    54.5890   142.7040   141.3840    70.7040    23.2170     2.2440 
  190.2500   -19.0950    58.0190   143.4620   143.9730    69.3230    23.2500     2.2380 
  190.3750   -19.1090    60.6990   140.6250   143.3390    70.4720    23.2830     2.2310 
  190.5000   -19.1300    59.8620   132.7200   137.6430    71.3890    23.2840     2.2260 
  190.6250   -19.1610    57.0480   119.5920   126.2150    71.2810    23.2190     2.2250 
  190.7500   -19.1970    54.8020   103.1480   110.4620    68.5410    23.0450     2.2310 
  190.8750   -19.2520    53.7400    87.1100    93.8380    63.3680    22.7410     2.2460 
