~V
VERS. 2.00: Ver 2.00
~W
STRT.M 50.0000:
STOP.M 274.0000:
STEP.M 0.1250:
NULL. -999.2500:
UWI. F10206:
~C
DEPT.M :
SP.MV :
DEN.GM/CC :
GR.API :
RML.OHMM :
RI. :
RXO.OHMM :
CALI.CM :
~A
# ...
  230.0000   -25.9020     2.2700    58.8290    21.7390    18.7970    28.9330    24.8790 
  230.1250   -26.0120     2.2500    62.2110    22.9970    20.0380    28.9080    24.8080 
  230.2500   -26.0390     2.2320    61.8130    24.0720    21.1690    29.1520    24.6760 
  230.3750   -25.9940     2.2250    59.2370    24.8530    22.0730    30.8610    24.5110 
  230.5000   -25.9080     2.2290    57.7220    25.2610    22.6100    32.2020    24.3570 
  230.6250   -25.7660     2.2430    57.7790    25.2210    22.6590    30.4870    24.5590 
  230.7500   -25.6060     2.2590    57.2540    24.8630    22.3700    29.0270    24.8630 
  230.8750   -25.4500     2.2720    55.7200    24.3150    21.9000    28.3960    25.0220 
  231.0000   -25.3040     2.2820    55.4400    23.7320    21.4190    27.6920    25.1110 
  231.1250   -25.1880     2.2850    58.9690    23.2850    21.0720    26.1300    25.0200 
  231.2500   -25.1030     2.2860    62.8020    23.0630    20.9180    24.6120    25.0220 
  231.3750   -25.0260     2.2830    64.0820    23.1630    21.0320    23.9050    25.0430 
  231.5000   -24.9740     2.2750    63.3480    23.6930    21.4950    24.5880    25.0600 
  231.6250   -24.9900     2.2640    63.3130    24.7740    22.4080    25.8930    25.0590 
  231.7500   -24.9900     2.2510    63.0660    26.2090    23.6410    26.1990    25.0740 
  231.8750   -24.9710     2.2410    60.1660    27.7700    25.0540    26.6920    25.1170 
  232.0000   -24.9620     2.2380    57.2850    29.1940    26.4620    30.5610    25.2380 
  232.1250   -24.9000     2.2430    57.8200    30.2300    27.6490    33.2770    25.1710 
  232.2500   -24.8070     2.2520    59.0680    30.9820    28.5880    31.8150    25.1280 
  232.3750   -24.7180     2.2580    58.5380    31.7270    29.4030    30.0280    24.9620 
  232.5000   -24.5590     2.2570    57.1290    32.8130    30.3600    30.4200    24.8870 
  232.6250   -24.3320     2.2480    58.4660    34.5970    31.8810    32.8830    24.8300 
  232.7500   -24.1110     2.2390    60.3440    40.7100    34.0290    36.1980    24.8550 
  232.8750   -23.8760     2.2390    60.7310    47.2630    36.5750    40.7130    24.9710 
  233.0000   -23.6320     2.2500    60.7990    49.6780    38.9690    45.2400    24.9320 
  233.1250   -23.3890     2.2660    61.0220    50.6810    40.4000    46.2230    24.6330 
  233.2500   -23.1160     2.2750    60.3690    50.4650    40.8140    44.5780    24.0040 
  233.3750   -22.8430     2.2700    59.6770    49.5370    40.5520    42.5460    23.7840 
  233.5000   -22.5880     2.2520    58.2930    48.3990    40.0330    41.2280    24.4180 
  233.6250   -22.3280     2.2320    54.9470    47.1790    39.4100    41.4930    24.7500 
  233.7500   -22.0720     2.2190    51.9640    45.6650    38.5660    42.2410    24.8510 
  233.8750   -21.8020     2.2150    52.2660    43.6140    37.3420    42.6940    24.8840 
  234.0000   -21.5200     2.2180    55.8270    40.9890    35.7200    40.4890    24.8330 
  234.1250   -21.2850     2.2250    59.1490    38.0890    33.8860    36.3150    24.8540 
  234.2500   -21.0470     2.2290    60.8180    35.4850    32.1770    31.9890    24.8930 
  234.3750   -20.8040     2.2320    60.6950    33.4790    30.7670    30.8750    24.9220 
  234.5000   -20.5980     2.2310    59.3940    32.1120    29.7050    31.4950    24.9780 
  234.6250   -20.3860     2.2290    58.3590    31.3130    29.0140    31.7650    24.9960 
  234.7500   -20.1590     2.2260    59.1870    30.8450    28.5960    30.9680    25.0280 
  234.8750   -19.9630     2.2240    62.7980    30.6640    28.4460    29.2730    25.0360 
  235.0000   -19.7560     2.2240    66.1440    30.7210    28.5540    28.1190    25.0080 
  235.1250   -19.5450     2.2320    65.2000    30.6960    28.6910    28.9830    24.9290 
  235.2500   -19.3900     2.2470    61.7790    29.9960    28.3110    32.3980    24.9010 
  235.3750   -19.2570     2.2660    59.3110    28.1930    26.9520    36.5390    24.8760 
  235.5000   -19.1580     2.2830    60.0260    25.4760    24.6490    34.7690    24.9520 
  235.6250   -19.1530     2.2930    64.4910    22.8350    22.1450    27.0390    25.0160 
  235.7500   -19.1940     2.2970    70.7220    21.3600    20.4270    20.1420    25.0020 
  235.8750   -19.2580     2.3000    74.8260    21.6850    20.0760    18.1570    25.0490 
  236.0000   -19.3650     2.3030    72.3070    24.0510    21.4000    20.7680    25.1180 
  236.1250   -19.4710     2.3020    64.3250    28.5820    24.8040    29.0050    25.0970 
  236.2500   -19.5760     2.2960    57.6660    34.2200    29.7100    37.5420    25.0770 
  236.3750   -19.6860     2.2860    55.5520    39.6950    35.2200    43.3950    25.0580 
  236.5000   -19.7440     2.2740    57.2040    43.4760    39.8650    45.6420    25.0610 
  236.6250   -19.7570     2.2640    57.9410    44.2080    41.8870    46.1320    25.0540 
  236.7500   -19.7960     2.2560    55.8840    42.9720    41.6630    43.7150    25.0500 
  236.8750   -19.8200     2.2470    53.3520    41.1030    40.2230    41.7080    25.0600 
  237.0000   -19.8600     2.2400    53.8260    39.7480    38.7300    39.2610    25.1000 
  237.1250   -19.9310     2.2440    57.1580    39.7010    38.1470    37.0640    25.2150 
  237.2500   -19.9760     2.2660    60.9020    40.5580    38.4090    38.1210    25.1520 
  237.3750   -20.0290     2.3110    64.8150    41.5570    38.9580    43.7270    24.6730 
  237.5000   -20.1280     2.3680    69.3730    41.9230    39.1120    50.1990    24.3350 
  237.6250   -20.1920     2.4110    74.8690    41.3930    38.5710    54.1340    24.2290 
  237.7500   -20.2470     2.4200    79.3350    40.9250    38.0290    48.5010    24.0330 
  237.8750   -20.3020     2.3940    78.8810    41.7060    38.3810    39.7250    23.8600 
  238.0000   -20.2990     2.3460    72.7290    44.7890    40.5190    36.6100    23.8380 
  238.1250   -20.2640     2.3000    66.6460    51.0740    45.5060    53.9290    24.0610 
  238.2500   -20.2320     2.2690    63.9710    59.3190    52.7590    74.9970    24.5450 
  238.3750   -20.1310     2.2560    63.9500    67.2270    60.6760    77.4980    24.7880 
  238.5000   -19.9570     2.2580    64.9250    70.8240    65.7510    66.6630    24.7590 
  238.6250   -19.7770     2.2650    65.6760    64.8450    62.2520    65.2030    24.7130 
  238.7500   -19.5150     2.2700    64.6060    52.4090    51.7280    65.4970    24.5420 
  238.8750   -19.1970     2.2730    63.3930    39.0210    39.2240    55.8630    24.5250 
  239.0000   -18.8890     2.2770    63.8970    28.6550    29.0620    34.9650    24.5820 
  239.1250   -18.5460     2.2880    66.7810    22.9720    23.1460    22.0370    24.8610 
  239.2500   -18.1810     2.3020    70.5870    20.6500    20.2780    18.1390    24.9580 
  239.3750   -17.8710     2.3170    71.9360    20.7950    19.6860    24.6910    24.9330 
  239.5000   -17.6200     2.3280    69.3440    22.4650    20.7130    33.3770    24.8930 
  239.6250   -17.3830     2.3410    65.7670    24.5190    22.6430    33.5370    24.8570 
  239.7500   -17.2110     2.3630    64.2120    25.6430    24.1750    29.5610    24.7760 
  239.8750   -17.1300     2.3980    63.0170    25.1740    24.3640    27.4210    24.7510 
  240.0000   -17.0890     2.4370    60.5840    23.3340    23.0540    27.8690    24.7490 
  240.1250   -17.0760     2.4620    59.7330    21.0490    20.9440    25.6570    24.7730 
  240.2500   -17.1280     2.4580    59.3440    19.2040    19.0370    20.7270    24.8760 
  240.3750   -17.2210     2.4230    56.4180    18.0630    17.6880    17.5700    24.9670 
  240.5000   -17.3020     2.3710    52.8430    17.6660    16.9780    17.2320    24.9730 
  240.6250   -17.3850     2.3210    52.2140    18.0470    16.9770    18.4760    24.9460 
  240.7500   -17.4820     2.2850    53.8130    18.9280    17.4940    19.9250    24.9040 
  240.8750   -17.5340     2.2660    56.3870    20.0840    18.3680    21.6060    24.9000 
  241.0000   -17.5830     2.2650    58.4420    21.2560    19.3720    22.8330    24.9070 
  241.1250   -17.6680     2.2790    58.8070    22.1490    20.2000    23.6490    24.9020 
