~V
VERS. 2.00: Ver 2.00
~W
STRT.M 50.0000:
STOP.M 273.0000:
STEP.M 0.1250:
NULL. -999.2500:
UWI. F10249:
~C
DEPT.M :
DEN.GM/CC :
GR.API :
RML.OHMM :
RI. :
RXO.OHMM :
CALI.CM :
SP.MV :
~A
# ...
   83.7500     2.2210    69.4220    10.6660     8.2180     9.7000    24.3530   -13.4430 
   83.8750     2.2090    70.3920    10.6000     8.1920     9.6240    24.3330   -13.5610 
   84.0000     2.2000    74.1870    10.4930     8.1240     9.6240    24.3060   -13.6870 
   84.1250     2.1940    75.4290    10.3940     8.0440     9.8340    24.3150   -13.7720 
   84.2500     2.1920    72.7170    10.3220     7.9720     9.9890    24.3420   -13.8050 
   84.3750     2.1940    69.4410    10.2810     7.9190     9.8810    24.3180   -13.8380 
   84.5000     2.2000    69.3230    10.2730     7.8940     9.5830    24.1680   -13.8840 
   84.6250     2.2110    70.8620    10.3160     7.9100     9.4470    24.0440   -13.9270 
   84.7500     2.2230    70.8020    10.4070     7.9690     9.6020    24.0270   -13.9860 
   84.8750     2.2280    69.1410    10.5390     8.0690     9.9550    24.0580   -14.0250 
   85.0000     2.2200    67.6480    10.6880     8.1930    10.3540    24.0690   -14.0180 
   85.1250     2.1940    66.6070    10.8080     8.3080    10.3980    24.1050   -14.0370 
   85.2500     2.1590    65.5920    10.8710     8.3880    10.3140    24.1950   -14.0940 
   85.3750     2.1270    64.7370    10.8740     8.4230    10.2830    24.3650   -14.0980 
   85.5000     2.1110    63.8360    10.8300     8.4150    10.3820    24.4890   -14.0560 
   85.6250     2.1170    64.7630    10.7670     8.3770    10.4050    24.5160   -14.0720 
   85.7500     2.1360    67.9220    10.7090     8.3260    10.3640    24.5270   -14.0560 
   85.8750     2.1550    69.5140    10.6640     8.2730    10.2710    24.5340   -14.0020 
   86.0000     2.1680    66.7070    10.6280     8.2240    10.2270    24.5130   -14.0110 
   86.1250     2.1680    63.4240    10.5900     8.1790    10.4860    24.5070   -14.0270 
   86.2500     2.1600    63.6100    10.5390     8.1320    10.6190    24.5130   -14.0050 
   86.3750     2.1510    65.0170    10.4670     8.0770    10.6790    24.5100   -13.9870 
   86.5000     2.1450    65.8140    10.3750     8.0110    10.5980    24.5000   -13.9990 
   86.6250     2.1490    65.0150    10.2940     7.9420    10.3210    24.4890   -13.9750 
   86.7500     2.1600    63.5620    10.2840     7.9010    10.1650    24.4600   -13.9130 
   86.8750     2.1770    62.9270    10.4180     7.9390    10.2750    24.4020   -13.8220 
   87.0000     2.1940    63.8700    10.7620     8.1160    10.5410    24.3720   -13.6940 
   87.1250     2.2040    65.2860    11.3420     8.5030    10.9960    24.4100   -13.5680 
   87.2500     2.2070    65.1210    12.0020     9.0280    11.9690    24.4500   -13.4370 
   87.3750     2.2020    64.2820    12.5440     9.5640    15.1190    24.4530   -13.2670 
   87.5000     2.1900    64.8970    12.7640     9.9270    20.7800    24.3880   -13.0910 
   87.6250     2.1720    67.0720    12.4810     9.8910    19.9740    24.3120   -12.9640 
   87.7500     2.1530    69.0740    11.8640     9.5230    14.4940    24.3530   -12.8780 
   87.8750     2.1380    68.8390    11.1300     8.9810    11.0650    24.4770   -12.8210 
   88.0000     2.1310    67.6410    10.5040     8.4570    10.1150    24.5340   -12.7990 
   88.1250     2.1350    67.5630    10.1630     8.1170    10.1070    24.5000   -12.7480 
   88.2500     2.1470    66.4290    10.0620     7.9750    10.1210    24.4840   -12.6590 
   88.3750     2.1620    63.4510    10.1100     7.9920     9.9460    24.4500   -12.6080 
   88.5000     2.1760    59.8270    10.1980     8.0910     9.8290    24.4050   -12.5510 
   88.6250     2.1800    57.8070    10.2370     8.1870    10.0130    24.4040   -12.3970 
   88.7500     2.1760    58.3490    10.2110     8.2370    10.0910    24.4360   -12.2470 
   88.8750     2.1670    61.4770    10.1510     8.2410    10.0970    24.4960   -12.1050 
   89.0000     2.1600    65.0310    10.1080     8.2280    10.0190    24.5090   -11.8850 
   89.1250     2.1570    66.4710    10.1380     8.2440     9.9700    24.3960   -11.6260 
   89.2500     2.1530    66.5030    10.2140     8.3020     9.9830    24.2260   -11.4340 
   89.3750     2.1470    66.4870    10.2520     8.3580     9.7260    24.1680   -11.2710 
   89.5000     2.1400    65.8030    10.1260     8.3120     9.6270    24.2380   -11.0980 
   89.6250     2.1420    64.7040     9.7000     8.0220     9.6190    24.3050   -10.9470 
   89.7500     2.1600    67.2010     9.0540     7.5140     9.3560    24.2710   -10.7930 
   89.8750     2.1900    74.8960     8.3480     6.8990     8.4900    24.2300   -10.6440 
   90.0000     2.2250    84.6340     7.7900     6.3400     7.0240    24.2170   -10.5260 
   90.1250     2.2490    89.3130     7.6270     6.0280     6.1560    24.1190   -10.4470 
   90.2500     2.2570    86.5460     7.8670     6.0040     6.3660    24.0100   -10.3740 
   90.3750     2.2490    78.8400     8.4380     6.2630     7.3120    24.0910   -10.3580 
   90.5000     2.2320    72.0040     9.1820     6.7420     8.6410    24.3590   -10.4440 
   90.6250     2.2180    70.5720     9.8760     7.3060     9.6670    24.6210   -10.5850 
   90.7500     2.2140    71.6340    10.3930     7.7850    10.1470    24.7600   -10.7230 
   90.8750     2.2200    72.3770    10.7510     8.1290    10.2160    24.7580   -10.8850 
   91.0000     2.2300    72.3710    11.0600     8.3990    10.1690    24.6610   -11.0790 
   91.1250     2.2360    73.0600    11.4450     8.7020    10.0750    24.5430   -11.2370 
   91.2500     2.2360    73.5250    11.8840     9.0650     9.8320    24.4590   -11.3520 
   91.3750     2.2290    73.0780    12.2490     9.4190     9.7560    24.3530   -11.4130 
   91.5000     2.2170    71.7610    12.3730     9.6340     9.8350    24.0860   -11.4020 
   91.6250     2.2010    69.4490    12.1060     9.5380     9.9570    23.8780   -11.3440 
   91.7500     2.1810    67.6080    11.5820     9.1890     9.7650    23.9700   -11.3100 
   91.8750     2.1600    66.1120    10.9800     8.7150     9.8160    24.2470   -11.2580 
   92.0000     2.1410    64.2950    10.4830     8.2650    10.0090    24.5370   -11.1420 
   92.1250     2.1320    63.4310    10.2280     7.9690    10.1410    24.7950   -11.0660 
   92.2500     2.1330    64.2230    10.1610     7.8310    10.0730    24.9150   -11.0180 
   92.3750     2.1400    65.9270    10.1970     7.8110     9.9060    24.8720   -10.9040 
   92.5000     2.1490    66.7420    10.2500     7.8440     9.8380    24.7850   -10.7490 
   92.6250     2.1540    66.6960    10.2650     7.8810     9.8300    24.7240   -10.6410 
   92.7500     2.1560    68.2400    10.2470     7.9100     9.8310    24.6730   -10.5230 
   92.8750     2.1580    71.7580    10.2240     7.9420     9.8230    24.6510   -10.3490 
   93.0000     2.1630    75.2930    10.2310     7.9950     9.8010    24.6710   -10.1650 
   93.1250     2.1710    73.3250    10.3160     8.1020     9.9540    24.7120    -9.9600 
   93.2500     2.1800    69.2960    10.4790     8.2710    10.0540    24.7110    -9.7270 
   93.3750     2.1840    67.8850    10.6720     8.4890    10.0850    24.7210    -9.4840 
   93.5000     2.1780    69.7120    10.7930     8.6900    10.0970    24.8070    -9.2000 
   93.6250     2.1590    72.5430    10.6600     8.7260    10.0090    24.8560    -8.8390 
   93.7500     2.1410    76.6330    10.2210     8.5100     9.8660    24.8640    -8.4730 
   93.8750     2.1380    83.2840     9.5160     8.0410     9.6350    24.8510    -8.1110 
   94.0000     2.1600    89.3850     8.6770     7.4110     9.0090    24.8320    -7.7270 
   94.1250     2.2040    91.8650     7.8940     6.7750     7.8030    24.7030    -7.3270 
   94.2500     2.2480    93.2670     7.2720     6.2480     6.6560    24.4310    -6.9720 
   94.3750     2.2800    94.4600     6.8270     5.8500     6.2420    24.1440    -6.6830 
   94.5000     2.2930    94.4560     6.5340     5.5650     6.2100    23.9600    -6.4510 
   94.6250     2.2980    94.6390     6.3890     5.3980     5.9190    23.9050    -6.3080 
   94.7500     2.3070    97.4860     6.3690     5.3360     5.7020    23.9000    -6.2000 
   94.8750     2.3260   100.5600     6.4760     5.3810     5.4160    23.9170    -6.1260 
