~V
VERS. 2.00: Ver 2.00
~W
STRT.M 50.0000:
STOP.M 283.0000:
STEP.M 0.1250:
NULL. -999.2500:
UWI. F10256:
~C
DEPT.M :
DEN.GM/CC :
GR.API :
RML.OHMM :
RI. :
RXO.OHMM :
CALI.CM :
SP.MV :
~A
# ...
  173.7500     2.2350    50.6310   173.5970   161.5960   143.9190    24.4750   -24.5530 
  173.8750     2.2340    50.2390   180.8350   168.3400   150.7800    24.4260   -24.6020 
  174.0000     2.2350    52.8680   184.9280   172.1310   151.6730    24.3890   -24.6640 
  174.1250     2.2370    53.7760   186.2100   173.0600   142.7570    24.3520   -24.6970 
  174.2500     2.2370    52.4150   186.8430   173.0700   140.0860    24.2800   -24.7250 
  174.3750     2.2350    50.5340   188.4110   173.6930   139.8170    24.2460   -24.7560 
  174.5000     2.2320    51.5280   192.0090   176.0950   143.9280    24.2570   -24.7880 
  174.6250     2.2300    54.6710   198.5780   181.3380   148.5080    24.2340   -24.7830 
  174.7500     2.2270    53.9970   207.4580   188.9620   154.1950    24.2210   -24.7470 
  174.8750     2.2250    50.6770   217.5840   198.1580   157.3800    24.2400   -24.7100 
  175.0000     2.2210    49.2860   226.9400   207.2980   158.0820    24.2380   -24.7090 
  175.1250     2.2160    50.0600   231.5730   213.0940   169.3880    24.1600   -24.7020 
  175.2500     2.2120    49.4820   228.9930   213.0500   188.9880    24.0870   -24.6660 
  175.3750     2.2090    48.4420   218.1010   205.7080   194.2930    24.0030   -24.6340 
  175.5000     2.2070    49.3680   200.3500   191.6690   177.7300    23.8890   -24.6330 
  175.6250     2.2010    51.4960   179.3970   173.4390   158.5770    23.8600   -24.6650 
  175.7500     2.1910    51.6190   159.8140   155.4040   146.0620    24.0070   -24.6750 
  175.8750     2.1810    50.6610   143.6230   139.9290   131.1970    24.2860   -24.6470 
  176.0000     2.1770    49.3320   131.3290   127.9960   115.7240    24.6230   -24.5830 
  176.1250     2.1870    48.8520   122.9200   119.9290   101.9840    24.8910   -24.5180 
  176.2500     2.2070    50.7030   117.0140   114.4310    93.4060    24.8980   -24.4450 
  176.3750     2.2290    54.0680   113.1230   110.9730    83.0450    24.7020   -24.3620 
  176.5000     2.2440    56.4740   111.0780   109.3030    74.6480    24.4810   -24.2280 
  176.6250     2.2470    55.7310   111.3400   109.7480    75.2090    24.2620   -24.0800 
  176.7500     2.2400    54.8070   113.7880   112.1550    78.6080    24.0680   -23.9570 
  176.8750     2.2280    56.0990   118.2180   116.3780    90.6370    24.0000   -23.8400 
  177.0000     2.2130    58.4200   123.6630   121.5960   105.6900    24.0130   -23.6990 
  177.1250     2.2020    58.0950   127.8920   125.7990   124.4580    23.9680   -23.5790 
  177.2500     2.1960    54.0820   128.8440   127.0080   140.2710    23.9280   -23.4920 
  177.3750     2.1960    49.6580   125.4760   124.1360   144.5490    23.9700   -23.4190 
  177.5000     2.1990    48.0310   118.4080   117.5900   132.7890    24.0580   -23.3510 
  177.6250     2.1970    48.8860   110.2640   109.6100   117.3230    24.2560   -23.2580 
  177.7500     2.1890    50.1740   104.5650   103.6210   102.7270    24.5630   -23.1840 
  177.8750     2.1740    50.6310   103.2960   101.7440    79.1930    24.8090   -23.1340 
  178.0000     2.1570    51.4850   106.9770   104.7680    77.7150    24.9420   -23.1110 
  178.1250     2.1420    54.9960   114.8570   112.3170    92.7150    25.0670   -23.0610 
  178.2500     2.1330    59.8910   123.3220   120.9690   118.3080    25.1290   -22.9810 
  178.3750     2.1340    61.7650   129.0090   127.3900   139.0540    25.0450   -22.9060 
  178.5000     2.1440    58.4750   129.1280   128.6100   148.2880    24.8720   -22.8700 
  178.6250     2.1640    55.2910   122.1450   122.6070   145.0180    24.6730   -22.8320 
  178.7500     2.1900    54.7340   112.0840   112.8500   125.7880    24.4260   -22.7840 
  178.8750     2.2160    55.4360   103.2540   103.4060    98.6380    24.1790   -22.7400 
  179.0000     2.2350    56.7960    99.2670    98.0310    79.7010    24.0080   -22.7330 
  179.1250     2.2430    58.7020   103.3540   100.2770    77.6880    23.9280   -22.7920 
  179.2500     2.2410    59.8690   114.5950   109.6150    85.9330    23.8990   -22.8760 
  179.3750     2.2340    58.0080   131.7260   124.9800   100.8840    23.9420   -22.9500 
  179.5000     2.2270    53.5350   152.0680   143.8740   118.2910    23.9820   -23.0130 
  179.6250     2.2230    50.4890   170.7330   161.7290   129.1720    23.9540   -23.1150 
  179.7500     2.2220    51.6230   182.9490   173.9270   126.8030    23.9560   -23.2270 
  179.8750     2.2230    55.7270   185.9310   177.7670   114.8320    24.0130   -23.3500 
  180.0000     2.2270    58.3050   179.9100   173.1880   104.5870    24.0750   -23.4160 
  180.1250     2.2310    57.6770   167.7020   162.2360   105.1080    24.1600   -23.4490 
  180.2500     2.2360    56.6450   154.7590   149.8380   110.5560    24.1940   -23.4580 
  180.3750     2.2410    54.5090   144.0430   138.9030   111.2120    24.1450   -23.4220 
  180.5000     2.2430    51.8960   137.3060   131.3400   103.5660    24.0890   -23.3600 
  180.6250     2.2440    51.9760   136.0220   128.8420    98.9070    24.1300   -23.2980 
  180.7500     2.2420    54.0300   138.7580   130.3730   108.7150    24.1550   -23.2030 
  180.8750     2.2380    55.2760   143.6720   134.4240   134.6910    24.1520   -23.0660 
  181.0000     2.2350    55.1050   148.0370   138.5680   169.2080    24.1830   -22.9110 
  181.1250     2.2380    55.8520   148.0680   139.2710   214.9610    24.1860   -22.7110 
  181.2500     2.2500    55.8050   142.7860   135.1970   253.1110    24.1570   -22.5350 
  181.3750     2.2710    54.1270   133.3580   126.9810   245.6600    24.1510   -22.4090 
  181.5000     2.2920    51.9570   122.9610   117.2340   203.8630    24.1690   -22.2870 
  181.6250     2.3040    51.1290   115.8500   109.8950   128.4260    24.1400   -22.1400 
  181.7500     2.3030    52.7080   113.4710   106.8500    89.9770    24.1350   -22.0060 
  181.8750     2.2920    55.2550   115.5740   108.2440    81.1500    24.1490   -21.8760 
  182.0000     2.2760    57.3810   120.7490   112.9380    88.9040    24.1300   -21.7850 
  182.1250     2.2610    58.6120   127.0550   119.1140    99.2450    24.1090   -21.7290 
  182.2500     2.2460    58.2950   132.7310   124.8320   104.4950    24.1580   -21.6660 
  182.3750     2.2310    56.0360   137.4260   129.5030   102.3760    24.2320   -21.6300 
  182.5000     2.2160    53.2920   141.6160   133.3770    95.7320    24.3380   -21.6280 
  182.6250     2.2060    52.2390   145.7120   136.7530    94.1820    24.5350   -21.6290 
  182.7500     2.2020    51.4320   148.8830   139.0730    98.3610    24.6730   -21.5990 
  182.8750     2.2060    52.0110   149.3060   138.7970   113.2740    24.6960   -21.5770 
  183.0000     2.2170    55.0700   145.3120   134.4190   130.9690    24.6420   -21.5640 
  183.1250     2.2350    57.6580   136.4400   125.3250   126.9300    24.4890   -21.5500 
  183.2500     2.2540    56.2260   126.5550   114.8100   105.1220    24.3250   -21.4770 
  183.3750     2.2680    53.1080   119.8040   106.5050    83.9130    24.2720   -21.3540 
  183.5000     2.2740    52.6590   119.8280   103.7800    73.7400    24.3570   -21.2000 
  183.6250     2.2690    53.6670   129.2940   110.5240    74.5030    24.4970   -21.0050 
  183.7500     2.2580    52.5740   148.4800   126.4970    86.0950    24.6590   -20.7890 
  183.8750     2.2440    49.6180   176.7360   151.3380   105.0580    24.8220   -20.5470 
  184.0000     2.2310    47.9450   210.5870   183.2250   125.4780    24.9000   -20.2770 
  184.1250     2.2210    49.5040   252.7080   218.3020   151.9120    24.9450   -20.0040 
  184.2500     2.2140    50.3280   290.4920   249.9130   188.6730    25.0040   -19.7480 
  184.3750     2.2100    49.4270   316.3160   272.2870   226.4500    25.0620   -19.4540 
  184.5000     2.2110    47.8290   324.4040   281.0610   247.2170    25.0660   -19.1530 
  184.6250     2.2190    47.2610   310.1960   272.2770   261.4390    25.0900   -18.8890 
  184.7500     2.2330    47.5280   281.4860   250.8560   265.8450    25.1200   -18.6830 
  184.8750     2.2510    49.6530   244.7390   221.1860   245.6400    25.1120   -18.5060 
