~V
VERS. 2.00: Ver 2.00
~W
STRT.M 50.0000:
STOP.M 274.0000:
STEP.M 0.1250:
NULL. -999.2500:
UWI. F10206:
~C
DEPT.M :
SP.MV :
DEN.GM/CC :
GR.API :
RML.OHMM :
RI. :
RXO.OHMM :
CALI.CM :
~A
# ...
  173.7500   -22.7280     2.1690    57.5950   103.0710    75.4910    97.6360    25.4520 
  173.8750   -23.2870     2.1740    56.7670   110.1430    83.2730    86.7600    25.2690 
  174.0000   -23.7960     2.1880    56.8500   113.2510    86.9970    71.5790    25.1220 
  174.1250   -24.2270     2.2060    59.0860   118.7690    91.1520    64.5010    24.6110 
  174.2500   -24.6110     2.2170    59.0210   129.8660    99.2300    70.2010    24.2900 
  174.3750   -24.9320     2.2150    54.8820   146.1770   111.7070    89.6660    24.2110 
  174.5000   -25.2310     2.1980    50.5910   164.3880   126.4510   112.4550    24.3650 
  174.6250   -25.4810     2.1700    51.0830   177.9830   138.6560   119.3550    24.4750 
  174.7500   -25.6820     2.1420    52.1240   184.0530   145.3960   113.9630    24.4480 
  174.8750   -25.8290     2.1220    50.8720   184.7710   147.4600   105.6340    24.5180 
  175.0000   -25.9330     2.1170    48.9710   185.4680   148.5510   100.5400    24.9240 
  175.1250   -26.0290     2.1290    48.0640   191.9760   153.6230   102.2990    25.1930 
  175.2500   -26.0850     2.1490    48.3070   205.2850   164.2570   105.9670    25.2790 
  175.3750   -26.1690     2.1670    48.9830   224.5680   180.1210   112.6270    25.3140 
  175.5000   -26.2260     2.1770    47.8740   246.9280   199.0430   120.9250    25.3250 
  175.6250   -26.2610     2.1730    43.3450   265.7090   215.9760   133.0970    25.3140 
  175.7500   -26.3050     2.1600    40.3000   274.5730   225.6750   143.7790    25.2620 
  175.8750   -26.3350     2.1460    42.2410   270.8980   225.3980   153.5030    25.2340 
  176.0000   -26.3480     2.1370    45.6120   257.2710   216.1780   155.7130    25.2300 
  176.1250   -26.3310     2.1380    47.2150   240.1230   202.2490   146.4750    25.2460 
  176.2500   -26.3200     2.1450    47.6550   226.1880   189.6640   130.4270    25.3110 
  176.3750   -26.2410     2.1570    47.2220   217.9980   181.2760   121.9350    25.3760 
  176.5000   -26.1650     2.1670    46.4180   215.7070   177.9350   120.2160    25.3920 
  176.6250   -26.0700     2.1740    46.2800   218.5670   179.6650   123.3340    25.3920 
  176.7500   -25.9810     2.1780    48.3290   223.7520   184.2720   126.8660    25.3890 
  176.8750   -25.9070     2.1800    51.2570   229.4520   190.3020   130.1290    25.3900 
  177.0000   -25.8170     2.1820    52.7420   234.2110   196.4860   134.0980    25.3920 
  177.1250   -25.7600     2.1830    51.0280   236.5830   201.5940   135.6200    25.3930 
  177.2500   -25.6820     2.1850    47.2540   236.0070   204.8710   137.4460    25.3930 
  177.3750   -25.6090     2.1860    44.8640   231.3050   205.1880   136.7350    25.3940 
  177.5000   -25.4990     2.1880    45.7900   220.5710   200.6740   134.9890    25.4010 
  177.6250   -25.3480     2.1880    48.5940   200.3260   187.5720   133.5620    25.3980 
  177.7500   -25.1700     2.1870    50.6030   172.4940   166.3600   132.0370    25.3980 
  177.8750   -24.9320     2.1840    52.1240   141.0350   139.5880   126.2820    25.4440 
  178.0000   -24.7180     2.1790    53.9190   111.2830   112.0230   105.9820    25.4680 
  178.1250   -24.4850     2.1760    53.8020    88.4350    89.2290    76.5660    25.4830 
  178.2500   -24.2850     2.1780    50.6770    72.6100    72.6430    53.6990    25.4900 
  178.3750   -24.1120     2.1870    47.6800    63.0190    62.0310    41.7250    25.4910 
  178.5000   -24.0160     2.2000    48.3300    58.4320    56.3940    37.8330    25.4910 
  178.6250   -24.0150     2.2140    52.3350    58.2590    55.2340    40.8530    25.4830 
  178.7500   -24.0440     2.2260    55.2520    61.0030    57.1080    45.6070    25.4500 
  178.8750   -24.1690     2.2340    56.1080    66.1660    61.5300    49.4930    25.4250 
  179.0000   -24.3090     2.2400    55.3680    73.5140    68.1660    50.9700    25.4500 
  179.1250   -24.4660     2.2400    54.4960    83.4750    77.2130    54.2390    25.4900 
  179.2500   -24.5900     2.2350    54.1640    95.7640    88.3130    61.4300    25.5440 
  179.3750   -24.6950     2.2240    53.2810   109.9570   101.1330    78.7890    25.5590 
  179.5000   -24.7790     2.2090    52.3790   124.6860   114.5240    97.8050    25.5680 
  179.6250   -24.7900     2.1930    53.5250   137.0230   125.8330   103.5910    25.5740 
  179.7500   -24.8100     2.1810    54.6580   145.1360   133.1320   103.2760    25.5690 
  179.8750   -24.7880     2.1730    53.1670   148.9190   135.9530   103.8250    25.5680 
  180.0000   -24.7490     2.1700    49.1180   149.8280   135.4370   103.8430    25.5680 
  180.1250   -24.7120     2.1710    47.2550   149.7390   133.4510   101.1910    25.5680 
  180.2500   -24.6570     2.1760    47.9650   150.1230   131.7860    99.2380    25.5700 
  180.3750   -24.6160     2.1820    49.3010   151.7620   131.3000   100.7090    25.5820 
  180.5000   -24.5650     2.1890    50.1880   155.5770   132.7990   103.0900    25.5800 
  180.6250   -24.5520     2.1930    50.3820   163.3880   137.8630   103.1250    25.6180 
  180.7500   -24.5260     2.1950    49.8120   175.5670   146.8780   100.3510    25.5980 
  180.8750   -24.5000     2.1920    48.0350   192.2040   160.0820   103.2890    25.5930 
  181.0000   -24.4920     2.1850    46.8400   212.5000   177.0190   114.3160    25.6880 
  181.1250   -24.4370     2.1750    46.5390   234.6700   196.6260   140.4510    25.8360 
  181.2500   -24.4010     2.1670    44.7620   255.7270   216.4770   158.4570    25.9320 
  181.3750   -24.3230     2.1620    40.6960   273.1490   234.6650   166.3430    25.9880 
  181.5000   -24.2360     2.1610    39.0560   283.5330   248.5890   169.8300    25.9160 
  181.6250   -24.1000     2.1610    44.2630   278.1100   250.8850   186.7360    25.7320 
  181.7500   -23.9490     2.1580    48.6080   254.0850   237.0620   193.1960    25.5790 
  181.8750   -23.7660     2.1530    48.5940   215.1790   207.4320   186.2970    25.5700 
  182.0000   -23.5400     2.1500    48.1690   171.9560   169.5400   157.5080    25.6420 
  182.1250   -23.3230     2.1580    53.5860   136.7200   135.1220   105.2150    25.6360 
  182.2500   -23.0670     2.1760    61.4800   113.0910   110.4690    71.9550    25.4410 
  182.3750   -22.8340     2.1980    66.6520   100.8000    96.5630    60.2250    24.8270 
  182.5000   -22.5820     2.2130    67.4870    98.3030    92.2340    59.7990    24.5810 
  182.6250   -22.3420     2.2110    63.4250   105.3120    97.4200    63.9060    24.8860 
  182.7500   -22.1060     2.1950    58.2720   118.1790   109.1180    74.3870    25.3660 
  182.8750   -21.8550     2.1720    53.7450   132.1330   123.3010    97.4360    25.6880 
  183.0000   -21.6170     2.1500    49.2920   139.0250   132.2760   121.1580    25.7310 
  183.1250   -21.3310     2.1340    46.4590   128.6560   125.2700   126.5700    25.7590 
  183.2500   -21.0680     2.1270    47.5010   106.3390   105.4040   125.3010    25.6750 
  183.3750   -20.8100     2.1310    50.1330    81.6890    81.3570    98.2430    25.5920 
  183.5000   -20.5680     2.1480    52.7290    61.9270    60.9300    58.6780    25.3560 
  183.6250   -20.3590     2.1760    57.6090    50.1210    48.1200    37.5750    25.2270 
  183.7500   -20.1560     2.2060    64.1290    43.8460    40.8150    32.7480    25.1250 
  183.8750   -19.9980     2.2310    68.3010    41.7150    37.4970    32.0310    25.1230 
  184.0000   -19.8470     2.2460    69.4660    42.7650    37.1470    31.3180    25.0970 
  184.1250   -19.7850     2.2500    69.4570    46.4930    39.3360    31.9990    24.9870 
  184.2500   -19.7380     2.2460    68.5830    51.5980    42.9160    36.6380    25.1890 
  184.3750   -19.6990     2.2340    65.9050    57.2170    47.1190    42.5200    25.4700 
  184.5000   -19.6640     2.2200    63.2120    62.5330    51.2050    48.3770    25.5600 
  184.6250   -19.5940     2.2070    61.2330    66.6730    54.4280    49.4660    25.4980 
  184.7500   -19.5420     2.2000    60.1590    69.5390    56.6720    50.0950    25.4920 
  184.8750   -19.4630     2.2000    59.8650    71.3960    58.1200    52.5160    25.4840 
