~V
VERS. 2.00: Ver 2.00
~W
STRT.M 50.0000:
STOP.M 270.0000:
STEP.M 0.1250:
NULL. -999.2500:
UWI. F10223:
~C
DEPT.M :
GR.API :
RML.OHMM :
RI. :
RXO.OHMM :
CALI.CM :
DEN.GM/CC :
SP.MV :
~A
# ...
   61.2500    52.7220    -0.2960     0.1800     0.6090    24.1690     2.6120     3.8940 
   61.3750    54.2270    -0.3120     0.1710     0.6660    24.1560     2.7160     1.5280 
   61.5000    56.1130    -0.2840     0.1920     0.7710    23.9790     2.7590    -0.8870 
   61.6250    56.9440    -0.1880     0.2600     0.9640    23.7100     2.6620    -3.3290 
   61.7500    60.2220     0.0290     0.4120     1.1440    23.4190     2.4790    -5.7320 
   61.8750    66.3100     0.4650     0.7210     1.3890    23.3000     2.3010    -8.0250 
   62.0000    70.7950     1.2390     1.2790     2.0230    23.6300     2.1900   -10.1370 
   62.1250    71.1050     2.4310     2.2010     3.3110    24.7560     2.1530   -11.9970 
   62.2500    71.9330     3.6690     3.3170     4.3610    25.9090     2.1380   -13.6270 
   62.3750    75.7920     4.4300     4.3020     5.1370    25.9060     2.1280   -15.0200 
   62.5000    82.5390     4.4790     4.8540     5.7740    24.9900     2.1320   -16.1710 
   62.6250    90.7190     4.0890     4.9190     5.6040    24.3940     2.1730   -17.0650 
   62.7500    97.6700     3.7240     4.8110     5.3070    24.1560     2.2430   -17.8020 
   62.8750   102.5270     3.5390     4.7210     5.2060    24.0110     2.3170   -18.4080 
   63.0000   105.7210     3.6140     4.8010     5.4990    23.7660     2.3750   -18.9330 
   63.1250   104.7830     4.1610     5.3020     6.0390    23.4300     2.4140   -19.4180 
   63.2500    98.2190     5.3200     6.3980     6.7680    23.2590     2.4420   -19.9450 
   63.3750    88.1990     7.2550     8.2760     8.6610    23.2520     2.4600   -20.4770 
   63.5000    80.1750     9.9710    10.9530    15.1140    23.3530     2.4740   -21.0360 
   63.6250    78.7960    12.8760    13.8160    36.0700    23.4940     2.5020   -21.6230 
   63.7500    80.4330    14.4300    15.3250    47.2870    23.4210     2.5360   -22.1890 
   63.8750    81.1910    13.6280    14.5550    27.5930    22.9760     2.5450   -22.7080 
   64.0000    78.8680    11.2030    12.2030    13.1360    22.3730     2.4960   -23.1700 
   64.1250    76.2360     8.8900     9.8170     8.9820    22.0300     2.3960   -23.5810 
   64.2500    74.8380     7.4650     8.1670     7.9420    21.9280     2.3070   -23.8950 
   64.3750    74.1540     6.8800     7.2820     7.7600    21.9140     2.2540   -24.1900 
   64.5000    73.6290     6.8780     6.9890     7.8360    21.9100     2.2300   -24.4430 
   64.6250    71.0460     7.1880     7.0950     8.0450    21.9110     2.2210   -24.6270 
   64.7500    68.6560     7.4910     7.3060     8.1750    21.9310     2.2130   -24.7810 
   64.8750    68.3480     7.6590     7.4790     8.2640    21.9420     2.2090   -24.9200 
   65.0000    69.9120     7.6970     7.5650     8.2860    21.9370     2.2110   -25.1000 
   65.1250    69.5140     7.7250     7.6120     8.2640    21.9050     2.2180   -25.2650 
   65.2500    67.0670     7.8740     7.7280     8.1370    21.8740     2.2270   -25.4520 
   65.3750    65.4320     8.1930     7.9740     8.0230    21.8440     2.2380   -25.6620 
   65.5000    65.3780     8.6580     8.3430     8.0530    21.8270     2.2480   -25.8600 
   65.6250    67.3250     9.1600     8.7420     8.4030    21.8200     2.2510   -26.0350 
   65.7500    72.2940     9.5510     9.0110     9.1100    21.7890     2.2420   -26.2040 
   65.8750    79.4410     9.7310     9.0320     9.7270    21.7010     2.2290   -26.3950 
   66.0000    82.8830     9.6800     8.8000     9.3250    21.5700     2.2160   -26.5470 
   66.1250    79.6560     9.4500     8.4260     8.7720    21.5390     2.2070   -26.7010 
   66.2500    75.9550     9.1540     8.0750     8.4160    21.6280     2.2000   -26.8600 
   66.3750    76.1160     8.8490     7.8170     8.2240    21.7560     2.1970   -26.9790 
   66.5000    77.7520     8.5840     7.6670     8.0970    21.8440     2.1980   -27.0820 
   66.6250    73.4910     8.3960     7.6070     8.1850    21.9050     2.1980   -27.1950 
   66.7500    67.6000     8.2770     7.5810     8.2520    22.0010     2.1930   -27.2700 
   66.8750    66.5570     8.2160     7.5690     8.2690    22.0730     2.1860   -27.2930 
   67.0000    70.3350     8.1910     7.5630     8.2790    22.1120     2.1780   -27.3050 
   67.1250    69.9410     8.1570     7.5430     8.3130    22.1400     2.1700   -27.2920 
   67.2500    65.7290     8.1030     7.5000     8.2560    22.1640     2.1640   -27.2790 
   67.3750    65.3840     8.0570     7.4550     8.0840    22.1420     2.1600   -27.2710 
   67.5000    71.7110     8.0610     7.4410     7.9160    22.0740     2.1610   -27.2530 
   67.6250    79.6880     8.1470     7.4950     7.8170    21.9820     2.1640   -27.2160 
   67.7500    81.2340     8.2950     7.6080     7.8560    21.8720     2.1660   -27.1640 
   67.8750    74.8750     8.4700     7.7520     7.9630    21.7560     2.1650   -27.0970 
   68.0000    67.5290     8.6190     7.8780     8.0680    21.7310     2.1640   -27.0070 
   68.1250    69.2290     8.6600     7.9180     8.1350    21.7650     2.1660   -26.9180 
   68.2500    74.8870     8.5810     7.8550     8.2300    21.7600     2.1710   -26.8100 
   68.3750    76.3700     8.4100     7.7060     8.3350    21.7020     2.1770   -26.6930 
   68.5000    75.0590     8.2050     7.5100     8.3360    21.6480     2.1820   -26.5950 
   68.6250    74.2910     8.0330     7.3160     8.1830    21.6210     2.1840   -26.5230 
   68.7500    74.8580     7.9170     7.1550     7.9590    21.6190     2.1880   -26.5050 
   68.8750    77.6320     7.8430     7.0310     7.8210    21.6280     2.1910   -26.5520 
   69.0000    81.8220     7.7870     6.9340     7.9420    21.6480     2.1940   -26.6350 
   69.1250    83.0240     7.7640     6.8690     8.1380    21.6780     2.1960   -26.7510 
   69.2500    81.0930     7.8480     6.8650     8.2630    21.6930     2.1980   -26.8810 
   69.3750    79.6610     8.1210     6.9760     8.3100    21.6850     2.2040   -26.9980 
   69.5000    77.7270     8.6090     7.2380     8.3400    21.6640     2.2120   -27.0970 
   69.6250    73.2350     9.2490     7.6420     8.6390    21.6510     2.2180   -27.1780 
   69.7500    69.6200     9.8320     8.0610     8.5740    21.6620     2.2170   -27.2600 
   69.8750    67.3160    10.1890     8.3660     8.4720    21.6700     2.2110   -27.3190 
   70.0000    66.5680    10.2480     8.4730     8.5700    21.6250     2.2040   -27.3750 
   70.1250    68.2430    10.0630     8.3740     8.8790    21.5260     2.2030   -27.4370 
   70.2500    70.0070     9.8410     8.2030     9.1640    21.4570     2.2120   -27.4890 
   70.3750    69.7160     9.6830     8.0350     9.1590    21.4400     2.2300   -27.5470 
   70.5000    68.3130     9.5940     7.8920     8.9380    21.4900     2.2580   -27.6100 
   70.6250    69.5770     9.4890     7.7400     8.7330    21.5620     2.2900   -27.6950 
   70.7500    71.3840     9.2860     7.5370     8.4510    21.5960     2.3140   -27.7580 
   70.8750    71.1600     8.9890     7.2890     8.1460    21.6460     2.3150   -27.8040 
   71.0000    68.3260     8.6840     7.0450     8.2550    21.7420     2.2840   -27.8150 
   71.1250    66.0810     8.5010     6.8880     8.5860    21.7860     2.2400   -27.7750 
   71.2500    66.1580     8.4630     6.8320     8.9170    21.7930     2.2110   -27.7470 
   71.3750    67.0500     8.5280     6.8580     9.1670    21.7960     2.2030   -27.7230 
   71.5000    67.9900     8.6240     6.9200     9.3230    21.8060     2.2090   -27.6900 
   71.6250    68.7050     8.6910     6.9700     9.3970    21.8160     2.2150   -27.6590 
   71.7500    70.2520     8.7370     6.9960     9.3960    21.8220     2.2160   -27.6490 
   71.8750    73.9800     8.7890     7.0110     9.4310    21.8270     2.2120   -27.6630 
   72.0000    77.2210     8.8650     7.0280     9.4710    21.8370     2.2060   -27.7060 
   72.1250    74.3260     8.9560     7.0490     9.5310    21.8500     2.1970   -27.7760 
   72.2500    68.1970     9.0360     7.0720     9.5930    21.8510     2.1880   -27.8270 
   72.3750    65.4880     9.0900     7.0900     9.6480    21.8410     2.1790   -27.8740 
