~V
VERS. 2.00: Ver 2.00
~W
STRT.M 58.0000:
STOP.M 273.0000:
STEP.M 0.1250:
NULL. -999.2500:
UWI. F10226:
~C
DEPT.M :
SP.MV :
DEN.GM/CC :
GR.API :
RML.OHMM :
RI. :
RXO.OHMM :
CALI.CM :
~A
# ...
  136.7500   -10.0350     2.4920    82.2200    18.0520    16.3540    14.4870    24.6810 
  136.8750   -10.0510     2.4990    79.1730    18.4910    16.5660    17.4770    24.6920 
  137.0000   -10.0810     2.5020    78.4280    18.7850    16.7280    21.7980    24.7310 
  137.1250   -10.1020     2.4990    78.0910    18.7340    16.6730    23.7280    24.7960 
  137.2500   -10.1180     2.4930    75.9730    18.3600    16.3810    20.3960    24.8570 
  137.3750   -10.1350     2.4850    71.9080    17.9310    16.0140    17.0580    24.8590 
  137.5000   -10.1600     2.4760    69.3950    17.7380    15.7930    16.1020    24.7960 
  137.6250   -10.1940     2.4670    70.3850    17.8470    15.7960    17.0350    24.6810 
  137.7500   -10.2370     2.4580    73.6110    18.1230    15.9650    17.7540    24.5410 
  137.8750   -10.2580     2.4470    75.0860    18.2640    16.1000    18.5040    24.4470 
  138.0000   -10.2510     2.4370    75.6520    18.0500    16.0050    18.5360    24.3820 
  138.1250   -10.2250     2.4270    76.1950    17.4260    15.5840    17.0840    24.3480 
  138.2500   -10.2000     2.4160    75.9070    16.4720    14.8530    14.7450    24.3470 
  138.3750   -10.1810     2.4010    77.1720    15.2730    13.8490    14.1210    24.3900 
  138.5000   -10.1400     2.3810    79.0090    13.9130    12.6580    13.7110    24.3840 
  138.6250   -10.0560     2.3580    79.1990    12.4390    11.3370    12.4470    24.3700 
  138.7500    -9.9230     2.3370    79.6160    10.9460     9.9770    10.5050    24.3500 
  138.8750    -9.7630     2.3200    82.8330     8.8520     8.7220     9.3720    24.3050 
  139.0000    -9.6010     2.3020    86.0480     7.6730     7.6680     7.6800    24.3040 
  139.1250    -9.4650     2.2800    87.7150     6.8620     6.8660     6.5190    24.3700 
  139.2500    -9.3530     2.2500    90.0500     6.3500     6.3210     6.0250    24.4530 
  139.3750    -9.2690     2.2240    93.9080     6.0980     6.0190     5.9320    24.4830 
  139.5000    -9.1990     2.2140    95.9370     5.9870     5.8660     5.9670    24.4890 
  139.6250    -9.1710     2.2230    95.7600     5.9620     5.8150     5.9180    24.4800 
  139.7500    -9.1780     2.2470    94.8580     5.9980     5.8320     5.8490    24.4690 
  139.8750    -9.2170     2.2760    94.9910     6.1030     5.9090     5.8090    24.4620 
  140.0000    -9.2720     2.2980    96.3700     6.2630     6.0210     5.8940    24.4630 
  140.1250    -9.3290     2.3120    95.8510     6.4400     6.1420     5.9930    24.4560 
  140.2500    -9.3770     2.3180    90.6850     6.5750     6.2300     6.1460    24.4380 
  140.3750    -9.4090     2.3150    83.8980     6.5860     6.2230     6.2760    24.4380 
  140.5000    -9.4400     2.3070    80.4670     6.4760     6.1160     6.4160    24.4530 
  140.6250    -9.4740     2.2940    82.5800     6.2990     5.9460     6.3720    24.4540 
  140.7500    -9.5340     2.2790    87.3790     6.1410     5.7700     6.1150    24.4250 
  140.8750    -9.6270     2.2640    91.5470     6.1050     5.6670     5.8780    24.3680 
  141.0000    -9.7410     2.2550    93.6310     6.2110     5.6610     5.8940    24.2780 
  141.1250    -9.8470     2.2540    93.2050     6.4260     5.7470     6.1750    24.2100 
  141.2500    -9.9460     2.2630    90.6730     6.6870     5.8890     6.5330    24.1610 
  141.3750   -10.0360     2.2810    87.7440     6.9140     6.0400     6.8110    24.0640 
  141.5000   -10.1050     2.2990    85.4660     7.0680     6.1540     7.0160    23.8900 
  141.6250   -10.1390     2.3160    84.6980     7.1310     6.2040     6.9460    23.7200 
  141.7500   -10.1260     2.3260    85.8880     7.0990     6.1750     6.7480    23.5930 
  141.8750   -10.0270     2.3260    89.1970     6.9620     6.0520     6.7330    23.6350 
  142.0000    -9.8440     2.3170    92.6500     6.7340     5.8520     6.8080    23.8180 
  142.1250    -9.6130     2.3040    94.4210     6.4420     5.6000     6.4880    24.0960 
  142.2500    -9.3470     2.2930    94.0000     6.1390     5.3340     5.8170    24.3490 
  142.3750    -9.0540     2.2900    92.8570     5.9020     5.1110     5.4140    24.4880 
  142.5000    -8.7770     2.2930    93.0110     5.7670     4.9560     5.2980    24.5290 
  142.6250    -8.5410     2.2990    93.4530     5.7380     4.8810     5.3430    24.5250 
  142.7500    -8.3230     2.3070    92.4510     5.7880     4.8740     5.4100    24.4940 
  142.8750    -8.1530     2.3180    92.7620     5.8720     4.9180     5.4690    24.4750 
  143.0000    -8.0320     2.3340    96.6010     5.9530     4.9810     5.5320    24.4660 
  143.1250    -7.9400     2.3510    99.3740     6.0230     5.0460     5.6500    24.4510 
  143.2500    -7.8670     2.3650    97.9640     6.0950     5.1130     5.7470    24.4200 
  143.3750    -7.8210     2.3710    94.5490     6.1760     5.1770     5.8040    24.3960 
  143.5000    -7.7880     2.3660    92.6700     6.2570     5.2340     5.8320    24.3690 
  143.6250    -7.7540     2.3570    93.3080     6.3140     5.2730     5.8580    24.3310 
  143.7500    -7.7290     2.3470    97.0250     6.3290     5.2820     5.9040    24.2900 
  143.8750    -7.7060     2.3420   103.0820     6.2910     5.2520     5.8470    24.2890 
  144.0000    -7.6880     2.3440   106.6060     6.2260     5.1990     5.7260    24.3130 
  144.1250    -7.6930     2.3470   104.9460     6.1680     5.1460     5.6130    24.3340 
  144.2500    -7.7180     2.3470   100.7670     6.1480     5.1130     5.5970    24.3490 
  144.3750    -7.7560     2.3430    97.6720     6.1940     5.1210     5.6660    24.3310 
  144.5000    -7.7970     2.3370    96.3650     6.2870     5.1630     5.7750    24.3140 
  144.6250    -7.8380     2.3310    96.2950     6.4030     5.2270     5.8620    24.3440 
  144.7500    -7.8870     2.3290    94.6210     6.5100     5.2940     5.9240    24.4130 
  144.8750    -7.9560     2.3310    92.8660     6.5800     5.3420     5.8430    24.5210 
  145.0000    -8.0350     2.3360    94.0020     6.6110     5.3650     5.7540    24.6160 
  145.1250    -8.1140     2.3400    97.7570     6.6130     5.3640     5.7270    24.6610 
  145.2500    -8.1790     2.3440    99.6920     6.5960     5.3460     5.7540    24.6700 
  145.3750    -8.2160     2.3420    94.0000     6.5700     5.3120     5.7740    24.6720 
  145.5000    -8.2320     2.3350    88.4930     6.5390     5.2700     5.7280    24.6730 
  145.6250    -8.2250     2.3250    90.4840     6.5050     5.2240     5.6450    24.6780 
  145.7500    -8.2100     2.3140    96.8250     6.4730     5.1770     5.5720    24.6840 
  145.8750    -8.2020     2.3070    97.5540     6.4490     5.1340     5.5600    24.7000 
  146.0000    -8.1880     2.3030    92.9130     6.4370     5.1000     5.5660    24.7190 
  146.1250    -8.1580     2.2990    90.3330     6.4370     5.0770     5.5140    24.7380 
  146.2500    -8.1090     2.2940    93.3260     6.4460     5.0630     5.4940    24.7460 
  146.3750    -8.0470     2.2880    99.4250     6.4560     5.0560     5.5380    24.7480 
  146.5000    -7.9770     2.2810   105.1720     6.4560     5.0490     5.5820    24.7470 
  146.6250    -7.9090     2.2800   106.7800     6.4420     5.0360     5.5820    24.7450 
  146.7500    -7.8410     2.2840   103.9030     6.4180     5.0190     5.5530    24.7450 
  146.8750    -7.7600     2.2910   100.7770     6.3960     5.0030     5.5170    24.7450 
  147.0000    -7.6810     2.2980    99.2220     6.3810     4.9930     5.4870    24.7460 
  147.1250    -7.6280     2.3030    96.3940     6.3750     4.9890     5.5050    24.7470 
  147.2500    -7.6180     2.3030    93.4770     6.3750     4.9940     5.5380    24.7420 
  147.3750    -7.6740     2.3010    96.3050     6.3800     5.0030     5.5490    24.7240 
  147.5000    -7.7850     2.3040   102.8190     6.3890     5.0190     5.5320    24.7710 
  147.6250    -7.9280     2.3120   107.8650     6.4060     5.0410     5.5380    25.0190 
  147.7500    -8.0860     2.3250   110.2770     6.4310     5.0710     5.5970    25.4410 
  147.8750    -8.2650     2.3360   109.1200     6.4620     5.1050     5.6190    25.5510 
