~V
VERS. 2.00: Ver 2.00
~W
STRT.M 56.0000:
STOP.M 281.0000:
STEP.M 0.1250:
NULL. -999.2500:
UWI. F10232:
~C
DEPT.M :
SP.MV :
GR.API :
RML.OHMM :
RI. :
RXO.OHMM :
CALI.CM :
DEN.GM/CC :
~A
# ...
  157.2500    -7.8780    56.2370    17.0370    15.1030    13.9770    23.5040     2.4810 
  157.3750    -7.9280    57.8780    17.4670    15.4760    13.8750    23.4440     2.4790 
  157.5000    -7.9610    55.5690    18.0430    15.9870    14.1650    23.3730     2.4830 
  157.6250    -7.9730    51.3510    18.6650    16.5720    14.9440    23.2870     2.4910 
  157.7500    -7.9740    47.5690    19.1790    17.1110    15.9440    23.1910     2.4950 
  157.8750    -7.9660    47.8980    19.4030    17.4290    16.2380    23.1160     2.4900 
  158.0000    -7.9470    52.7480    19.3440    17.4920    15.6460    23.0900     2.4800 
  158.1250    -7.9220    56.5290    19.0620    17.3230    14.8530    23.0800     2.4700 
  158.2500    -7.8930    55.7320    18.6420    16.9840    14.5770    23.0530     2.4630 
  158.3750    -7.8680    54.5860    18.1240    16.5150    14.4550    23.0250     2.4570 
  158.5000    -7.8390    56.0650    17.5270    15.9520    13.9800    23.0220     2.4510 
  158.6250    -7.8060    57.5310    16.8480    15.3040    13.3910    23.0570     2.4440 
  158.7500    -7.7660    56.8570    16.1400    14.6110    12.7820    23.1290     2.4370 
  158.8750    -7.7220    55.4610    15.5940    14.0170    12.3360    23.2310     2.4270 
  159.0000    -7.6690    55.0550    15.4380    13.7070    12.3090    23.3450     2.4120 
  159.1250    -7.6140    56.4840    15.9000    13.8730    12.7280    23.4730     2.3920 
  159.2500    -7.5640    59.7540    17.1450    14.6730    13.3510    23.6150     2.3640 
  159.3750    -7.5070    63.4550    19.3500    16.3070    14.9510    23.7660     2.3310 
  159.5000    -7.4570    64.8360    22.2500    18.6190    18.3160    23.8810     2.2980 
  159.6250    -7.4220    63.9490    25.6080    21.4620    23.1640    23.9270     2.2700 
  159.7500    -7.4050    63.6580    29.1280    24.5970    28.3810    23.9080     2.2500 
  159.8750    -7.4030    64.1540    32.4670    27.6980    30.5360    23.8190     2.2400 
  160.0000    -7.4200    62.0740    35.4220    30.4850    31.0100    23.7100     2.2380 
  160.1250    -7.4570    57.5960    37.8370    32.7680    34.0760    23.6190     2.2400 
  160.2500    -7.5080    53.9800    39.5280    34.3880    39.6750    23.5540     2.2460 
  160.3750    -7.5710    53.9700    40.1170    35.0440    43.0400    23.5160     2.2570 
  160.5000    -7.6390    56.3390    39.7080    34.8280    40.8020    23.5150     2.2740 
  160.6250    -7.7050    59.3690    38.5510    33.9300    37.2510    23.5640     2.2920 
  160.7500    -7.7690    61.7200    37.0710    32.7100    37.4910    23.6450     2.3070 
  160.8750    -7.8410    61.9630    35.5820    31.4760    40.0120    23.7180     2.3110 
  161.0000    -7.9060    60.5640    34.0530    30.2610    41.1010    23.7460     2.3080 
  161.1250    -7.9580    57.5050    32.3130    28.9650    40.1450    23.7430     2.3020 
  161.2500    -7.9960    54.9020    30.3140    27.5540    37.6010    23.7180     2.2960 
  161.3750    -8.0130    55.9300    28.2930    26.2130    32.9620    23.6840     2.2930 
  161.5000    -8.0220    57.5310    26.6600    25.2530    27.1750    23.6580     2.2910 
  161.6250    -8.0120    57.0920    25.6710    24.8890    23.0870    23.6470     2.2880 
  161.7500    -7.9830    55.6950    25.3310    25.1330    21.2300    23.6500     2.2830 
  161.8750    -7.9310    57.1320    25.3830    25.7480    20.8750    23.6670     2.2760 
  162.0000    -7.8730    57.8940    25.2530    26.1570    20.8950    23.7000     2.2680 
  162.1250    -7.8020    55.4120    24.4660    25.8190    20.9290    23.7440     2.2600 
  162.2500    -7.7310    54.0550    22.7350    24.3490    20.7480    23.7630     2.2570 
  162.3750    -7.6830    59.4460    20.0370    21.6280    19.3100    23.7490     2.2610 
  162.5000    -7.6370    65.8140    16.9820    18.3780    16.5170    23.7150     2.2720 
  162.6250    -7.6180    67.2740    14.0480    15.1800    13.0370    23.6780     2.2880 
  162.7500    -7.6360    65.9940    11.5920    12.4460    10.0940    23.6540     2.3030 
  162.8750    -7.7150    67.5110     9.9450    10.5080     8.4580    23.6480     2.3160 
  163.0000    -7.8500    71.9940     9.1120     9.3350     7.6480    23.6540     2.3260 
  163.1250    -8.0490    77.2350     9.2450     9.0050     7.2750    23.6660     2.3370 
  163.2500    -8.3020    80.2030    10.6150     9.6820     7.4510    23.6860     2.3460 
  163.3750    -8.6010    78.2330    13.9530    11.9570     9.5830    23.7140     2.3500 
  163.5000    -8.9510    72.5810    19.4130    16.1190    13.9960    23.7480     2.3430 
  163.6250    -9.3290    65.1300    27.0470    22.5330    21.4020    23.7720     2.3250 
  163.7500    -9.7110    58.4760    36.3100    31.0960    31.0810    23.7580     2.3030 
  163.8750   -10.0780    54.7330    45.8160    40.9180    38.6480    23.7200     2.2850 
  164.0000   -10.4220    54.6030    53.8110    49.9470    45.5590    23.7010     2.2740 
  164.1250   -10.7430    55.7400    59.3780    56.5760    50.3170    23.7460     2.2720 
  164.2500   -11.0200    56.0520    62.9190    60.4690    53.8630    23.8760     2.2730 
  164.3750   -11.2490    54.4010    66.2890    63.0920    59.1220    24.0460     2.2750 
  164.5000   -11.4500    52.1200    71.2900    66.6030    65.8740    24.1830     2.2730 
  164.6250   -11.6360    51.3070    78.4660    71.7990    72.9910    24.2710     2.2660 
  164.7500   -11.8160    52.1920    87.5160    78.6480    77.9920    24.3350     2.2570 
  164.8750   -11.9820    54.6550    97.5900    86.6410    80.3270    24.3540     2.2480 
  165.0000   -12.1160    56.7140   107.2040    94.5830    80.1770    24.2960     2.2440 
  165.1250   -12.2320    56.5430   115.2110   101.5240    76.5030    24.1440     2.2440 
  165.2500   -12.3340    54.3020   120.8280   106.7750    73.0570    23.9290     2.2490 
  165.3750   -12.4260    52.4780   123.4620   109.7900    71.3320    23.7480     2.2540 
  165.5000   -12.4850    52.7190   123.8680   111.0700    75.7120    23.7190     2.2560 
  165.6250   -12.4980    53.4900   122.3150   110.7690    86.9510    23.8470     2.2540 
  165.7500   -12.4770    53.6160   118.9150   108.9160    95.1800    24.0350     2.2480 
  165.8750   -12.4340    54.3390   113.5630   105.3090    97.4240    24.1680     2.2430 
  166.0000   -12.3930    56.4300   107.0300   100.5060    97.3430    24.2400     2.2420 
  166.1250   -12.3600    57.0090   100.0500    95.0680    94.9990    24.2560     2.2440 
  166.2500   -12.3540    54.3290    93.3540    89.6360    91.2280    24.2190     2.2500 
  166.3750   -12.3770    52.1770    87.5020    84.7510    88.0090    24.1470     2.2570 
  166.5000   -12.4430    53.9130    82.4110    80.4330    84.8500    24.0680     2.2620 
  166.6250   -12.5660    55.9010    78.0210    76.6440    82.0260    23.9940     2.2670 
  166.7500   -12.7260    55.6080    74.3880    73.4330    78.0790    23.9390     2.2720 
  166.8750   -12.9110    55.3720    71.9400    71.1660    74.0620    23.9310     2.2790 
  167.0000   -13.1080    55.5640    70.8460    70.0490    69.6700    24.0010     2.2850 
  167.1250   -13.3050    55.0220    71.2620    70.2900    65.9300    24.1410     2.2880 
  167.2500   -13.4970    54.9130    73.0810    71.8760    65.2280    24.3040     2.2860 
  167.3750   -13.6880    55.8290    76.0570    74.6770    65.6750    24.4170     2.2780 
  167.5000   -13.8790    55.2780    79.5440    78.1060    69.2500    24.4720     2.2690 
  167.6250   -14.0640    54.0200    83.3040    81.9190    74.8260    24.4780     2.2600 
  167.7500   -14.2450    54.0790    87.4130    86.1290    77.6640    24.4400     2.2520 
  167.8750   -14.4310    54.7720    92.4460    91.2270    76.6800    24.3850     2.2460 
  168.0000   -14.6420    54.8420    98.7030    97.5070    75.3150    24.3520     2.2400 
  168.1250   -14.8640    54.7710   106.0790   104.9490    79.3070    24.3580     2.2360 
  168.2500   -15.0890    55.0300   113.7040   112.8240    90.0850    24.3830     2.2340 
  168.3750   -15.3240    54.8570   119.3440   119.0950   104.1420    24.4180     2.2340 
