~V
VERS. 2.00: Ver 2.00
~W
STRT.M 56.0000:
STOP.M 275.0000:
STEP.M 0.1250:
NULL. -999.2500:
UWI. F10253:
~C
DEPT.M :
GR.API :
RML.OHMM :
RI. :
RXO.OHMM :
CALI.CM :
DEN.GM/CC :
SP.MV :
~A
# ...
   67.2500    69.7110     8.3050     8.1400    13.9380    23.9300     2.3930   -13.3020 
   67.3750    56.3800     9.0670     8.8890    17.4160    23.8590     2.3740   -13.8060 
   67.5000    50.8560     9.4180     9.3070    18.0660    23.5760     2.3210   -14.3290 
   67.6250    52.8440     9.3740     9.3760    13.8170    23.2670     2.2720   -14.8190 
   67.7500    56.4480     9.1490     9.2430     9.5190    23.0660     2.2610   -15.2640 
   67.8750    56.9590     9.0190     9.1240     8.6720    22.9950     2.3110   -15.6290 
   68.0000    56.7440     9.0500     9.1120     8.5910    22.9790     2.3890   -15.8850 
   68.1250    56.8480     9.1600     9.1620     8.5990    22.9610     2.4510   -16.0580 
   68.2500    56.0280     9.2210     9.1790     8.5720    22.8760     2.4560   -16.1460 
   68.3750    55.7430     9.1310     9.0700     8.6670    22.7670     2.3940   -16.1680 
   68.5000    55.9360     8.9520     8.8760     8.8760    22.5990     2.3150   -16.0830 
   68.6250    56.8880     8.7780     8.6720     9.1860    22.4260     2.2510   -15.9760 
   68.7500    57.5030     8.6740     8.5200     9.5080    22.3300     2.2160   -15.8860 
   68.8750    55.7970     8.6500     8.4400     9.2260    22.3230     2.2070   -15.8020 
   69.0000    54.5880     8.6570     8.3920     8.8360    22.3330     2.2100   -15.7290 
   69.1250    55.5170     8.6760     8.3540     8.5370    22.3210     2.2140   -15.6570 
   69.2500    57.5570     8.7090     8.3190     8.3370    22.3020     2.2160   -15.5840 
   69.3750    58.0040     8.7540     8.2840     8.2550    22.3030     2.2110   -15.4840 
   69.5000    58.8070     8.7670     8.2230     8.2700    22.3060     2.2050   -15.4050 
   69.6250    60.7120     8.6840     8.0900     8.2230    22.2870     2.2010   -15.3220 
   69.7500    62.6690     8.4530     7.8420     7.9650    22.2860     2.2060   -15.2090 
   69.8750    67.1590     8.0700     7.4630     7.4500    22.3890     2.2220   -15.1100 
   70.0000    72.7390     7.6620     7.0410     6.6740    22.5700     2.2420   -15.0420 
   70.1250    75.7460     7.3720     6.6810     5.9150    22.7690     2.2570   -15.0060 
   70.2500    74.7620     7.3420     6.4980     5.6130    22.8770     2.2600   -15.0220 
   70.3750    70.0520     7.7540     6.6480     5.8210    22.8550     2.2560   -15.0860 
   70.5000    63.5020     8.5650     7.1320     6.3300    22.7960     2.2590   -15.1950 
   70.6250    57.5530     9.6700     7.9010     7.3560    22.7420     2.2790   -15.3500 
   70.7500    54.6720    10.8530     8.8160     8.9600    22.6540     2.3130   -15.5320 
   70.8750    53.3080    11.7480     9.6160    10.8320    22.5630     2.3390   -15.7390 
   71.0000    52.1500    12.1260    10.0790    12.3660    22.5110     2.3380   -15.9700 
   71.1250    51.5120    11.9320    10.1090    12.2510    22.4740     2.3090   -16.2190 
   71.2500    50.8430    11.3220     9.7730    10.1220    22.4440     2.2650   -16.4500 
   71.3750    51.1390    10.6130     9.2710     9.0260    22.4380     2.2260   -16.6480 
   71.5000    54.0450    10.0880     8.8410     8.8510    22.4280     2.2000   -16.8150 
   71.6250    57.3630     9.8280     8.5720     8.9030    22.4330     2.1860   -16.9500 
   71.7500    57.4520     9.7850     8.4590     8.8120    22.4770     2.1800   -17.0510 
   71.8750    55.6980     9.8520     8.4510     8.6780    22.5060     2.1790   -17.1350 
   72.0000    55.9560     9.9100     8.4590     8.5380    22.4770     2.1820   -17.1930 
   72.1250    56.2940     9.9230     8.4510     8.4390    22.3930     2.1840   -17.2290 
   72.2500    53.9240     9.8900     8.4170     8.3590    22.3080     2.1840   -17.2620 
   72.3750    50.2240     9.8190     8.3540     8.3030    22.2690     2.1790   -17.3050 
   72.5000    49.2030     9.7300     8.2740     8.2810    22.2500     2.1710   -17.3580 
   72.6250    50.5930     9.6330     8.1840     8.3270    22.2430     2.1650   -17.4110 
   72.7500    53.0260     9.5330     8.0900     8.4930    22.2790     2.1620   -17.4660 
   72.8750    56.3020     9.4330     7.9950     8.7020    22.3290     2.1620   -17.5140 
   73.0000    57.5510     9.3420     7.9050     8.8820    22.3840     2.1630   -17.5530 
   73.1250    55.8560     9.2830     7.8380     8.9560    22.4170     2.1640   -17.5970 
   73.2500    52.9100     9.2970     7.8220     8.8990    22.4140     2.1650   -17.6580 
   73.3750    52.8070     9.4500     7.9110     8.7530    22.4040     2.1680   -17.7030 
   73.5000    53.8640     9.7360     8.1080     8.6350    22.3960     2.1760   -17.7610 
   73.6250    53.2440    10.1080     8.3890     8.6290    22.3860     2.1930   -17.8040 
   73.7500    50.8910    10.4730     8.6940     8.7040    22.3730     2.2160   -17.8260 
   73.8750    49.8560    10.6820     8.9130     8.7880    22.3650     2.2380   -17.8010 
   74.0000    52.0550    10.6700     8.9740     8.7820    22.3910     2.2470   -17.7330 
   74.1250    55.8720    10.4370     8.8540     8.7070    22.4470     2.2380   -17.6010 
   74.2500    58.4880    10.0570     8.5890     8.6740    22.4650     2.2180   -17.4140 
   74.3750    57.8440     9.6550     8.2590     8.6250    22.3960     2.1980   -17.2120 
   74.5000    57.5480     9.3390     7.9630     8.5670    22.3220     2.1870   -16.9670 
   74.6250    59.5880     9.1460     7.7450     8.4790    22.3030     2.1860   -16.7180 
   74.7500    62.5850     9.0650     7.6170     8.3990    22.3270     2.1890   -16.4890 
   74.8750    63.4070     9.0650     7.5710     8.3380    22.3540     2.1930   -16.3070 
   75.0000    62.1080     9.0990     7.5700     8.2650    22.3750     2.1960   -16.1980 
   75.1250    61.0060     9.1530     7.5980     8.1820    22.3900     2.1970   -16.1620 
   75.2500    61.6470     9.2270     7.6500     8.1280    22.3900     2.1980   -16.1870 
   75.3750    61.5840     9.3360     7.7310     8.1130    22.3830     2.1980   -16.2690 
   75.5000    60.3860     9.4820     7.8400     8.1350    22.3890     2.1970   -16.4050 
   75.6250    59.1990     9.6620     7.9770     8.2400    22.4260     2.1970   -16.5970 
   75.7500    58.5320     9.8560     8.1300     8.4580    22.4730     2.1970   -16.8250 
   75.8750    56.0640    10.0200     8.2720     8.7170    22.4940     2.1990   -17.0590 
   76.0000    53.6350    10.1210     8.3740     8.9170    22.4710     2.2000   -17.2630 
   76.1250    55.1650    10.1410     8.4210     8.9800    22.4180     2.2010   -17.4440 
   76.2500    58.3670    10.0960     8.4150     8.8830    22.3830     2.2000   -17.6150 
   76.3750    58.7060    10.0280     8.3760     8.7390    22.3980     2.1970   -17.7640 
   76.5000    58.1740     9.9890     8.3420     8.6600    22.4420     2.1940   -17.8730 
   76.6250    58.1100    10.0030     8.3340     8.6900    22.4760     2.1920   -17.9450 
   76.7500    56.9850    10.0640     8.3540     8.9410    22.4750     2.1920   -17.9840 
   76.8750    54.9520    10.1330     8.3810     9.3990    22.4570     2.1950   -17.9970 
   77.0000    54.3240    10.1620     8.3850     9.7370    22.4780     2.1990   -18.0160 
   77.1250    53.6840    10.1310     8.3480    10.0040    22.5260     2.2000   -18.0540 
   77.2500    51.0740    10.0480     8.2740    10.1130    22.5900     2.1980   -18.1090 
   77.3750    48.2970     9.9490     8.1850     9.9030    22.6690     2.1900   -18.1770 
   77.5000    47.4080     9.8840     8.1160     9.3310    22.7650     2.1820   -18.2600 
   77.6250    47.4940     9.8770     8.0900     9.1370    22.8510     2.1760   -18.3480 
   77.7500    47.8280     9.9280     8.1110     9.2310    22.9040     2.1740   -18.4240 
   77.8750    48.5140    10.0210     8.1730     9.3300    22.8940     2.1770   -18.4730 
   78.0000    48.5870    10.1150     8.2470     9.2740    22.8520     2.1780   -18.4860 
   78.1250    49.7470    10.1770     8.3060     9.2800    22.8170     2.1770   -18.4490 
   78.2500    51.9980    10.1810     8.3270     9.3850    22.7920     2.1740   -18.3230 
   78.3750    52.7710    10.0920     8.2780     9.5690    22.7890     2.1680   -18.1160 
