~V
VERS. 2.00: Ver 2.00
~W
STRT.M 55.0000:
STOP.M 270.0000:
STEP.M 0.1250:
NULL. -999.2500:
UWI. F10235:
~C
DEPT.M :
GR.API :
RML.OHMM :
RI. :
RXO.OHMM :
CALI.CM :
DEN.GM/CC :
SP.MV :
~A
# ...
  190.0000    89.6520    35.3340    31.1210    42.1310    25.4110     2.3230   -11.7570 
  190.1250    88.2290    35.1230    31.3010    34.8880    25.4840     2.3070   -12.2460 
  190.2500    84.4210    34.7790    31.5470    41.9000    25.4790     2.2880   -12.6340 
  190.3750    79.4550    33.3910    30.8260    57.0070    25.5110     2.2750   -12.9320 
  190.5000    76.6340    30.5810    28.5490    57.2800    25.6280     2.2760   -13.0920 
  190.6250    81.0730    26.7490    25.1190    39.7490    25.7180     2.2980   -13.1130 
  190.7500    88.2930    23.1360    21.8710    25.7340    25.7180     2.3330   -13.1010 
  190.8750    93.0550    20.5590    19.5270    17.5400    25.6880     2.3680   -13.0890 
  191.0000    93.6850    19.3480    18.3400    12.6700    25.6490     2.3910   -13.0800 
  191.1250    93.9490    19.3690    18.2630    12.9060    25.6150     2.3850   -13.1980 
  191.2500    95.2800    19.6820    18.5140    15.7840    25.5570     2.3560   -13.4060 
  191.3750    94.6300    19.6010    18.3940    17.1970    25.4350     2.3070   -13.6150 
  191.5000    91.0520    18.7790    17.4940    14.6870    25.2970     2.2530   -13.8230 
  191.6250    88.9510    17.3390    15.9700    10.4900    25.1680     2.2140   -14.0680 
  191.7500    89.1220    15.9820    14.5260     8.7980    25.0720     2.2050   -14.3460 
  191.8750    89.6670    15.2940    13.6200     8.8550    25.0590     2.2250   -14.6700 
  192.0000    87.3030    15.7600    13.5660    10.3360    25.1820     2.2590   -15.0800 
  192.1250    83.5690    18.1980    14.8990    14.1640    25.3810     2.2820   -15.5770 
  192.2500    82.5550    23.1040    18.0140    17.9860    25.4580     2.2820   -16.2390 
  192.3750    81.8810    31.5260    23.9440    27.4130    25.4640     2.2630   -17.2460 
  192.5000    77.0860    44.7970    34.2620    64.5030    25.4570     2.2360   -18.6660 
  192.6250    69.0890    65.2670    51.8430   130.4830    25.4500     2.2110   -20.3880 
  192.7500    63.8280    91.6990    75.9680   160.4920    25.4300     2.1940   -22.1180 
  192.8750    61.7660   121.1730   103.9100   148.4950    25.4050     2.1860   -23.8040 
  193.0000    59.9430   148.4740   130.0820   152.7690    25.3910     2.1900   -25.4800 
  193.1250    57.7110   166.7730   147.1360   169.0830    25.3800     2.2090   -27.0710 
  193.2500    56.8540   175.7070   155.1690   177.6990    25.3540     2.2350   -28.5220 
  193.3750    56.4800   177.3330   156.6270   178.9090    25.3170     2.2570   -29.8780 
  193.5000    56.6460   174.5850   154.2010   175.3590    25.2780     2.2680   -31.1330 
  193.6250    58.6690   169.2010   149.5430   160.2430    25.2870     2.2620   -32.2420 
  193.7500    59.9670   162.0130   143.7190   141.9360    25.3260     2.2510   -33.3300 
  193.8750    60.3700   152.6050   136.3660   140.7500    25.3650     2.2400   -34.3640 
  194.0000    62.3000   140.7460   126.9090   148.6060    25.3830     2.2350   -35.2340 
  194.1250    65.6480   127.1150   115.4960   139.6580    25.3880     2.2360   -35.9810 
  194.2500    67.0050   114.0390   104.1450   107.9670    25.3870     2.2400   -36.6170 
  194.3750    66.8010   103.4800    94.7110    73.5470    25.3780     2.2450   -37.0110 
  194.5000    67.0150    96.7490    88.5300    65.4680    25.3570     2.2460   -37.3300 
  194.6250    66.4930    94.8910    86.7100    71.6440    25.3380     2.2440   -37.8360 
  194.7500    65.7100    96.5930    88.2090    83.2350    25.3300     2.2390   -38.4100 
  194.8750    67.8710   100.7690    92.1010    92.3850    25.3290     2.2350   -38.9000 
  195.0000    70.3880   106.1430    97.1710    94.6130    25.3290     2.2350   -39.1740 
  195.1250    69.1300   111.4240   102.1220    95.9830    25.3280     2.2410   -39.1900 
  195.2500    68.8640   115.9220   106.2130   103.1860    25.3250     2.2470   -39.2850 
  195.3750    71.8030   119.6570   109.4070   108.2420    25.3240     2.2500   -39.7070 
  195.5000    74.7990   123.0980   112.1410   105.7120    25.3250     2.2470   -40.1920 
  195.6250    73.6350   127.0780   115.2300   106.0480    25.3260     2.2380   -40.2410 
  195.7500    70.7410   132.1760   119.2610   104.4220    25.3260     2.2270   -39.9340 
  195.8750    68.3540   138.6680   124.5140    97.5740    25.3260     2.2180   -39.5510 
  196.0000    66.1480   146.3990   130.9790   107.1550    25.3170     2.2130   -39.4190 
  196.1250    65.4560   154.5620   138.0750   130.1880    25.2940     2.2090   -39.8880 
  196.2500    64.9100   161.7470   144.4640   137.8420    25.2780     2.2060   -40.8560 
  196.3750    64.6250   166.8400   149.0780   131.9920    25.2800     2.2020   -42.0490 
  196.5000    64.9890   169.2610   151.3050   131.1340    25.2680     2.2000   -43.3470 
  196.6250    65.7520   168.8440   150.8550   136.0280    25.2480     2.2020   -44.9530 
  196.7500    65.4460   166.8370   148.9150   135.1040    25.2190     2.2100   -46.8050 
  196.8750    63.2190   163.9860   146.3200   134.5680    25.2000     2.2230   -48.6700 
  197.0000    60.8480   160.6860   143.4700   130.6750    25.2010     2.2360   -50.3350 
  197.1250    60.8420   156.9130   140.2570   132.5870    25.2230     2.2440   -51.5190 
  197.2500    63.2340   152.6930   136.6350   130.3310    25.2530     2.2440   -51.9840 
  197.3750    66.5300   148.1040   132.6660   126.2010    25.2770     2.2350   -51.6640 
  197.5000    68.3340   143.3420   128.5220   115.5750    25.2970     2.2210   -50.6760 
  197.6250    67.4870   138.7280   124.5030   104.7040    25.2760     2.2070   -49.0940 
  197.7500    66.2040   134.5010   120.8570   105.2300    25.2310     2.2000   -47.1790 
  197.8750    64.5570   130.7520   117.6840   110.9360    25.1580     2.2020   -45.1070 
  198.0000    62.6180   127.3890   114.8910   114.5160    25.0640     2.2100   -42.9760 
  198.1250    63.0940   124.1330   112.2170   110.7010    24.9790     2.2190   -40.7650 
  198.2500    66.5250   120.5730   109.3050   102.1110    25.0490     2.2250   -38.5690 
  198.3750    69.2760   116.3650   105.8630    96.5830    25.1360     2.2300   -36.5390 
  198.5000    68.9840   111.2820   101.6690    95.4950    25.1760     2.2370   -34.8090 
  198.6250    66.9430   105.2670    96.6170    91.5720    25.1870     2.2470   -33.4030 
  198.7500    66.8480    98.9760    91.2800    86.2760    25.1660     2.2580   -32.2430 
  198.8750    70.0560    93.1620    86.3770    80.6870    25.1030     2.2660   -31.3570 
  199.0000    74.7930    88.5950    82.6930    73.8790    25.0620     2.2700   -30.6830 
  199.1250    75.5730    86.0910    81.0680    72.4300    25.0990     2.2670   -30.1490 
  199.2500    71.7440    85.3080    81.1650    77.0050    25.2050     2.2580   -29.7250 
  199.3750    67.9790    85.6220    82.4380    87.7050    25.3680     2.2450   -29.3290 
  199.5000    67.2730    85.7740    83.8630   101.7650    25.5930     2.2320   -28.8570 
  199.6250    67.4540    83.2240    83.0070   104.4350    25.7810     2.2260   -28.3620 
  199.7500    66.4380    76.4110    77.5230    95.9930    25.8370     2.2330   -27.8810 
  199.8750    64.6260    65.1760    66.4420    94.3030    25.8250     2.2540   -27.3380 
  200.0000    64.1000    51.4930    51.6520    88.6530    25.7500     2.2860   -26.7200 
  200.1250    67.8740    38.6930    37.4000    69.2790    25.5630     2.3190   -26.0730 
  200.2500    74.8060    28.5480    26.4730    40.6280    25.2610     2.3430   -25.4170 
  200.3750    82.9680    21.2300    19.2060    21.3210    24.9460     2.3520   -24.8070 
  200.5000    87.5900    16.4210    14.8600    13.6470    24.8460     2.3500   -24.2950 
  200.6250    85.7320    14.0400    12.7840    11.9130    25.0240     2.3440   -23.8880 
  200.7500    82.6790    13.1270    12.0030    11.7390    25.2820     2.3430   -23.5640 
  200.8750    83.2910    13.2100    12.1680    12.8900    25.3740     2.3470   -23.3940 
  201.0000    85.3530    13.9750    12.9810    13.5490    25.2510     2.3530   -23.4510 
  201.1250    85.2330    15.1730    14.1870    14.5950    25.0760     2.3570   -23.7020 
