~V
VERS. 2.00: Ver 2.00
~W
STRT.M 50.0000:
STOP.M 278.0000:
STEP.M 0.1250:
NULL. -999.2500:
UWI. F10217:
~C
DEPT.M :
SP.MV :
DEN.GM/CC :
GR.API :
RML.OHMM :
RI. :
RXO.OHMM :
CALI.CM :
~A
# ...
  151.2500   -17.4770     2.2770    84.5870     9.3600     8.2610    13.1190    23.0000 
  151.3750   -17.5080     2.2820    82.8440     9.6580     8.6960    12.3900    23.0610 
  151.5000   -17.5110     2.2890    81.0660     9.5600     8.7430    11.1900    23.1390 
  151.6250   -17.4770     2.2930    79.8550     9.3620     8.5940    10.4610    23.2620 
  151.7500   -17.4290     2.2890    79.7770     9.3370     8.5080    10.9660    23.4740 
  151.8750   -17.3750     2.2760    80.5740     9.5790     8.5990    12.1310    23.8530 
  152.0000   -17.3280     2.2580    80.7170    10.1170     8.9250    13.1730    24.3630 
  152.1250   -17.2740     2.2420    80.5930    11.0110     9.5700    13.2690    24.7080 
  152.2500   -17.2270     2.2340    81.1720    12.2310    10.5230    13.7340    24.8310 
  152.3750   -17.2030     2.2340    79.9280    13.7740    11.8060    15.5330    24.8500 
  152.5000   -17.1940     2.2380    73.5060    15.5880    13.4070    18.6740    24.8690 
  152.6250   -17.2240     2.2380    67.1920    17.5400    15.2660    21.1440    24.9100 
  152.7500   -17.2580     2.2270    67.0900    19.3830    17.1510    23.0790    24.9590 
  152.8750   -17.2960     2.2040    71.3650    20.9130    18.8460    23.6060    24.9530 
  153.0000   -17.3400     2.1710    74.5660    21.9690    20.1520    23.1090    24.8600 
  153.1250   -17.3780     2.1380    75.4170    22.3130    20.8020    22.8500    24.7740 
  153.2500   -17.4160     2.1150    75.0700    21.9020    20.7210    22.6210    24.7110 
  153.3750   -17.4640     2.1080    72.6530    20.6470    19.7890    21.4210    24.6590 
  153.5000   -17.5290     2.1180    70.3770    18.6730    18.0800    18.3830    24.6550 
  153.6250   -17.5630     2.1430    71.6300    16.4680    16.0040    15.2040    24.6300 
  153.7500   -17.6090     2.1720    73.1930    14.7480    14.2320    12.5340    24.6320 
  153.8750   -17.6590     2.2000    72.5780    13.9890    13.1860    10.4530    24.6170 
  154.0000   -17.7180     2.2240    73.3860    14.4820    13.1280    10.3310    24.5970 
  154.1250   -17.7840     2.2420    76.7940    16.6630    14.5030    12.6950    24.6120 
  154.2500   -17.8650     2.2540    76.9520    20.3510    17.3440    17.9690    24.6490 
  154.3750   -17.9370     2.2600    72.8350    25.3370    21.7180    26.8170    24.6910 
  154.5000   -17.9990     2.2560    68.4990    30.9560    27.2670    36.5900    24.6980 
  154.6250   -18.0620     2.2390    68.0040    35.6840    32.6910    40.3110    24.6300 
  154.7500   -18.1300     2.2130    68.9600    38.3020    36.3700    42.7310    24.4800 
  154.8750   -18.1900     2.1870    68.7190    38.5820    37.6490    45.0650    24.2700 
  155.0000   -18.2370     2.1670    66.8770    37.2650    36.9730    44.4760    24.1320 
  155.1250   -18.2850     2.1590    65.8290    35.4900    35.3250    39.7540    24.1050 
  155.2500   -18.3010     2.1610    66.9630    34.2330    33.8130    35.1010    24.1370 
  155.3750   -18.3040     2.1700    67.5010    33.9190    32.9820    32.3990    24.1830 
  155.5000   -18.3100     2.1810    66.1360    34.5940    33.0610    32.1400    24.2360 
  155.6250   -18.3240     2.1900    64.5300    35.8560    33.9260    35.0070    24.2680 
  155.7500   -18.3350     2.1970    63.6840    36.7670    34.8050    41.1380    24.2620 
  155.8750   -18.3590     2.1990    63.6170    36.6620    35.0500    47.6300    24.2190 
  156.0000   -18.3840     2.1990    65.8340    35.4360    34.3710    43.4320    24.1560 
  156.1250   -18.4020     2.2000    70.5060    33.7230    33.0780    31.6940    24.0940 
  156.2500   -18.4360     2.2030    72.9870    32.5210    32.0080    26.0830    24.0210 
  156.3750   -18.4830     2.2070    70.9440    32.3000    31.6580    26.8790    23.9650 
  156.5000   -18.5360     2.2070    67.1590    33.1280    32.2300    31.8460    23.9250 
  156.6250   -18.6070     2.2020    64.2920    34.8150    33.7440    37.6460    23.9020 
  156.7500   -18.6860     2.1950    62.4510    36.6080    35.5850    38.9840    23.8780 
  156.8750   -18.7650     2.1910    62.8400    37.8090    37.0680    37.4070    23.8510 
  157.0000   -18.8230     2.1930    63.0440    37.8640    37.5470    37.0340    23.8210 
  157.1250   -18.8780     2.2000    58.9460    36.3910    36.4920    41.6630    23.7990 
  157.2500   -18.9030     2.2070    54.1690    33.9780    34.3630    39.9930    23.7820 
  157.3750   -18.8860     2.2090    54.4960    31.2830    31.7500    31.6780    23.7760 
  157.5000   -18.8230     2.2030    59.7300    29.0070    29.3350    25.4810    23.7750 
  157.6250   -18.7260     2.1870    65.4360    27.8370    27.8080    23.9330    23.7750 
  157.7500   -18.5670     2.1670    70.8880    27.7400    27.2610    24.8950    23.7760 
  157.8750   -18.3900     2.1520    74.8450    28.5030    27.6030    26.4090    23.7840 
  158.0000   -18.2130     2.1500    73.5430    29.7040    28.5280    28.7070    23.8230 
  158.1250   -18.0310     2.1680    68.1520    30.7510    29.5230    33.0870    23.9530 
  158.2500   -17.8590     2.1960    64.3590    31.2840    30.1380    35.0120    24.1860 
  158.3750   -17.6960     2.2200    62.8380    31.2690    30.2510    34.0190    24.4340 
  158.5000   -17.5410     2.2310    62.8580    30.8810    29.9610    31.8110    24.6130 
  158.6250   -17.4220     2.2250    62.3280    30.3550    29.4610    30.2840    24.6870 
  158.7500   -17.3490     2.2120    62.0820    29.8660    28.9530    29.7500    24.7170 
  158.8750   -17.2990     2.2000    65.1010    29.4160    28.4750    29.4020    24.7250 
  159.0000   -17.2850     2.1950    71.0940    28.9240    27.9770    29.0510    24.7290 
  159.1250   -17.2990     2.1950    73.3660    28.2980    27.3760    28.4840    24.7320 
  159.2500   -17.3430     2.1950    71.3120    27.5810    26.7000    28.0710    24.7280 
  159.3750   -17.4060     2.1940    68.9540    26.8690    26.0270    27.2020    24.7250 
  159.5000   -17.5050     2.1920    66.7610    26.2790    25.4660    26.1880    24.7210 
  159.6250   -17.5810     2.1910    63.4400    25.9430    25.1370    25.9280    24.7100 
  159.7500   -17.6640     2.1920    62.0870    25.8310    25.0130    26.4900    24.6960 
  159.8750   -17.7550     2.1950    62.8540    25.8470    25.0210    27.0150    24.6900 
  160.0000   -17.8530     2.1980    63.7500    25.7710    24.9910    27.0800    24.6890 
  160.1250   -17.9200     2.1990    65.3610    25.1250    24.5060    26.6040    24.6930 
  160.2500   -17.9810     2.2000    68.7730    23.6130    23.2300    25.8080    24.7040 
  160.3750   -18.0330     2.2000    71.2710    21.2210    21.0800    25.0550    24.7170 
  160.5000   -18.0850     2.2000    72.7570    18.3410    18.3830    23.6830    24.7200 
  160.6250   -18.1690     2.2030    73.0310    15.6950    15.7840    19.9970    24.7100 
  160.7500   -18.2490     2.2110    72.7850    13.7850    13.7670    15.3440    24.6960 
  160.8750   -18.3300     2.2230    73.2290    12.7800    12.5130    12.8760    24.6900 
  161.0000   -18.3960     2.2370    74.6410    12.6160    12.0160    13.2490    24.6930 
  161.1250   -18.4780     2.2460    78.1210    13.1700    12.2500    14.8110    24.7060 
  161.2500   -18.5550     2.2460    79.0830    14.0430    12.9070    16.1350    24.7180 
  161.3750   -18.6490     2.2400    75.3280    14.9570    13.7580    17.1130    24.7220 
  161.5000   -18.7260     2.2320    67.6680    15.6870    14.5640    17.6990    24.7180 
  161.6250   -18.7930     2.2280    62.9580    16.1040    15.1280    17.9140    24.7050 
  161.7500   -18.8510     2.2280    65.1590    16.3380    15.4920    18.1910    24.6940 
  161.8750   -18.8810     2.2320    71.2470    16.5020    15.7410    18.6440    24.6910 
  162.0000   -18.8960     2.2350    76.1510    16.6620    15.9470    18.9720    24.6950 
  162.1250   -18.9190     2.2320    76.1610    16.7980    16.1110    19.0310    24.7030 
  162.2500   -18.9420     2.2250    74.4830    16.8040    16.1570    19.0440    24.7070 
  162.3750   -18.9610     2.2130    74.1180    16.5570    15.9660    18.9030    24.6980 
