~V
VERS. 2.00: Ver 2.00
~W
STRT.M 50.0000:
STOP.M 283.0000:
STEP.M 0.1250:
NULL. -999.2500:
UWI. F10256:
~C
DEPT.M :
DEN.GM/CC :
GR.API :
RML.OHMM :
RI. :
RXO.OHMM :
CALI.CM :
SP.MV :
~A
# ...
  218.7500     2.2460    59.4040    48.8960    42.3450    42.8570    24.9650    -5.8860 
  218.8750     2.2450    58.0770    52.7970    45.6980    50.5750    24.9610    -5.9110 
  219.0000     2.2460    56.3340    56.1890    48.9440    59.3680    25.0080    -5.9390 
  219.1250     2.2500    57.3720    57.8780    51.0320    63.0380    25.0320    -5.9890 
  219.2500     2.2530    61.0780    57.9640    51.7690    57.8970    24.9800    -6.0510 
  219.3750     2.2530    63.1500    57.1490    51.5570    51.1200    24.9390    -6.1330 
  219.5000     2.2520    60.4880    56.4350    51.1770    49.0430    24.9470    -6.2260 
  219.6250     2.2470    56.8370    56.7170    51.4480    49.3980    24.9130    -6.3190 
  219.7500     2.2400    57.2480    57.9160    52.4810    50.2060    24.8930    -6.4080 
  219.8750     2.2310    59.5330    59.6360    54.0450    52.7260    24.9260    -6.5110 
  220.0000     2.2240    60.9700    61.3280    55.7220    57.4380    24.9230    -6.6160 
  220.1250     2.2180    60.8850    62.3470    56.9660    62.5530    24.8920    -6.6960 
  220.2500     2.2140    59.8180    62.5400    57.5580    61.9640    24.8830    -6.7630 
  220.3750     2.2060    58.6860    62.0490    57.5390    58.1320    24.8770    -6.8350 
  220.5000     2.1950    58.7350    61.2670    57.1840    54.5730    24.8000    -6.9000 
  220.6250     2.1800    60.4930    60.7750    56.9420    50.8630    24.7560    -6.9130 
  220.7500     2.1700    59.8440    60.9280    57.1040    50.0110    24.8020    -6.8900 
  220.8750     2.1680    56.5570    61.6410    57.6890    51.9090    24.8480    -6.8740 
  221.0000     2.1770    53.9720    62.5730    58.4770    55.1550    24.8920    -6.9100 
  221.1250     2.1960    54.8280    63.2640    58.9640    57.6310    24.9490    -6.9870 
  221.2500     2.2190    57.0060    62.8800    58.7550    59.3130    24.9260    -7.0630 
  221.3750     2.2390    59.3580    61.8430    57.7370    59.4220    24.8660    -7.1310 
  221.5000     2.2520    60.7410    60.5290    56.1870    59.1930    24.8740    -7.2430 
  221.6250     2.2550    58.9820    60.0660    54.7960    57.2240    24.8860    -7.4100 
  221.7500     2.2510    57.1570    60.1800    54.1880    50.7530    24.8420    -7.5580 
  221.8750     2.2450    58.2010    60.9870    54.6380    43.5680    24.8070    -7.6810 
  222.0000     2.2380    60.0010    63.3900    56.0600    42.1140    24.7620    -7.7800 
  222.1250     2.2330    58.1950    65.2490    58.0690    47.4630    24.6700    -7.8570 
  222.2500     2.2280    56.2040    66.8130    59.9960    52.5580    24.6550    -7.9290 
  222.3750     2.2220    57.8720    67.8160    61.5120    54.0210    24.6840    -7.9960 
  222.5000     2.2130    60.5500    68.3920    62.6060    52.8680    24.6590    -8.0520 
  222.6250     2.2020    58.1100    69.0400    63.6050    53.0530    24.5760    -8.0960 
  222.7500     2.1910    53.6890    70.1480    64.8950    54.9330    24.5530    -8.1560 
  222.8750     2.1830    51.6530    71.7120    66.5480    59.0960    24.5330    -8.2010 
  223.0000     2.1790    51.2560    73.4180    68.3550    65.5560    24.4440    -8.2450 
  223.1250     2.1810    50.8700    74.7390    69.8750    70.4740    24.3830    -8.3260 
  223.2500     2.1870    51.1280    75.4440    70.8640    72.8780    24.3930    -8.4280 
  223.3750     2.1940    51.7990    75.6140    71.3550    71.9780    24.3840    -8.5290 
  223.5000     2.2010    52.1490    75.6680    71.7070    72.0170    24.3790    -8.5950 
  223.6250     2.2070    54.9250    76.5820    72.8230    73.1100    24.4510    -8.6580 
  223.7500     2.2120    59.5730    79.3350    75.6910    79.7200    24.4760    -8.7670 
  223.8750     2.2140    61.9060    84.9780    81.4440    81.3870    24.4780    -8.9140 
  224.0000     2.2120    60.8590    95.5820    91.2510    84.7670    24.4950    -9.0390 
  224.1250     2.2070    58.8840   112.2790   106.9420    95.1790    24.4100    -9.1160 
  224.2500     2.2020    56.2570   134.2250   127.4360   118.0830    24.2860    -9.1760 
  224.3750     2.2020    51.5440   159.0260   150.2230   155.2860    24.2880    -9.2430 
  224.5000     2.2110    47.1760   176.4460   170.0670   193.5600    24.3540    -9.3190 
  224.6250     2.2360    46.2400   178.2370   177.2330   213.0620    24.3260    -9.3400 
  224.7500     2.2730    46.4870   163.1630   167.4410   218.2420    24.2870    -9.3150 
  224.8750     2.3190    46.8700   133.0280   141.0480   210.3490    24.2870    -9.3010 
  225.0000     2.3670    48.2500    98.3100   105.5270   193.6680    24.2460    -9.2940 
  225.1250     2.4020    52.5420    70.2760    73.6820   154.9700    24.2000    -9.2860 
  225.2500     2.4140    57.6350    50.6110    52.0090    87.3400    24.1930    -9.2770 
  225.3750     2.4010    60.8830    38.4940    40.4390    41.6680    24.1660    -9.2980 
  225.5000     2.3670    61.7410    36.6490    36.9240    27.9360    24.1540    -9.3590 
  225.6250     2.3250    59.6330    42.1000    40.9480    33.0220    24.2610    -9.4760 
  225.7500     2.2900    57.5750    53.1580    51.0040    46.4270    24.4000    -9.6150 
  225.8750     2.2650    57.1610    68.9040    66.6270    70.2750    24.5510    -9.7570 
  226.0000     2.2520    57.4220    87.3350    86.0790   103.6940    24.7650    -9.9240 
  226.1250     2.2450    56.0210   104.7330   105.1890   131.5390    24.8890   -10.0700 
  226.2500     2.2380    53.1070   117.0100   118.9350   134.4400    24.8810   -10.2040 
  226.3750     2.2300    50.8230   121.9500   124.6450   134.6110    24.8760   -10.3330 
  226.5000     2.2220    51.1150   121.2050   123.1280   137.5210    24.9290   -10.4550 
  226.6250     2.2170    53.5860   115.8980   117.7460   137.5000    24.9360   -10.5720 
  226.7500     2.2160    56.0620   112.2010   112.8200   124.4920    24.9140   -10.6730 
  226.8750     2.2180    57.7350   110.3610   110.1370   107.6200    24.9320   -10.7480 
  227.0000     2.2180    58.1670   112.6670   110.2810   101.6130    24.9320   -10.8210 
  227.1250     2.2160    56.8360   117.7240   113.2780   110.3690    24.9000   -10.9620 
  227.2500     2.2130    55.4420   123.7970   117.6160   126.2010    24.9240   -11.1110 
  227.3750     2.2080    55.9660   129.4850   122.0550   138.6890    24.9480   -11.2120 
  227.5000     2.2040    58.0250   133.6250   125.4970   140.6440    24.9160   -11.2860 
  227.6250     2.2040    58.6360   135.3490   127.0660   134.8570    24.9200   -11.3860 
  227.7500     2.2090    57.9750   135.3520   127.1650   134.3390    24.9390   -11.4900 
  227.8750     2.2190    56.7100   134.2810   126.2670   134.9310    24.9120   -11.5570 
  228.0000     2.2300    55.0650   132.6470   124.8050   135.8400    24.9050   -11.5980 
  228.1250     2.2370    54.9050   130.7140   123.0310   134.3390    24.9130   -11.6350 
  228.2500     2.2360    55.9330   128.7360   121.2050   134.6310    24.8640   -11.6560 
  228.3750     2.2290    55.6990   126.9260   119.5390   135.4420    24.8380   -11.6610 
  228.5000     2.2190    52.1230   125.4810   118.2330   132.5690    24.8610   -11.6500 
  228.6250     2.2120    49.0360   124.5160   117.4420   126.3490    24.8450   -11.6350 
  228.7500     2.2090    51.2990   123.7490   116.9380   122.2370    24.8320   -11.6150 
  228.8750     2.2110    54.8230   122.8210   116.4110   121.4330    24.8510   -11.6060 
  229.0000     2.2170    55.5420   121.3110   115.4760   123.1020    24.8420   -11.5780 
  229.1250     2.2250    54.6380   118.6210   113.5620   125.2360    24.8070   -11.5260 
  229.2500     2.2320    58.1210   114.6560   110.4940   124.6350    24.8120   -11.4810 
  229.3750     2.2370    63.6210   109.4150   106.1910   121.6020    24.7760   -11.4430 
  229.5000     2.2400    63.4260   103.1720   100.8280   116.1680    24.6880   -11.3930 
  229.6250     2.2420    56.7120    96.4990    94.8470   107.2970    24.6810   -11.3390 
  229.7500     2.2450    51.7110    90.2610    89.0700    98.8780    24.7000   -11.3190 
  229.8750     2.2500    51.6350    85.1360    84.1560    89.3880    24.6560   -11.3410 
