~V
VERS. 2.00: Ver 2.00
~W
STRT.M 48.0000:
STOP.M 276.0000:
STEP.M 0.1250:
NULL. -999.2500:
UWI. F10244:
~C
DEPT.M :
GR.API :
RML.OHMM :
RI. :
RXO.OHMM :
CALI.CM :
DEN.GM/CC :
SP.MV :
~A
# ...
  149.2500    91.1190     5.2980     5.6910     5.6310    24.6530     2.3000    -4.7540 
  149.3750    90.9740     4.7240     4.9170     5.3430    24.5630     2.3100    -4.7960 
  149.5000    89.5240     4.4990     4.5590     5.4270    24.5210     2.3250    -4.8350 
  149.6250    92.3170     4.5080     4.4950     5.5320    24.5010     2.3390    -4.8550 
  149.7500    96.3340     4.6340     4.6020     5.5990    24.4950     2.3480    -4.8990 
  149.8750    95.6960     4.7730     4.7730     5.7290    24.5300     2.3500    -4.9550 
  150.0000    94.2250     4.8790     4.9360     5.7860    24.5690     2.3490    -4.9800 
  150.1250    95.0850     4.9700     5.0950     5.7740    24.6160     2.3430    -4.9670 
  150.2500    95.2790     5.0800     5.2730     5.7640    24.6970     2.3330    -4.9880 
  150.3750    91.2720     5.2330     5.4790     5.8380    24.7650     2.3210    -5.0140 
  150.5000    87.0860     5.3920     5.6740     6.1180    24.7740     2.3090    -5.0200 
  150.6250    87.5690     5.5020     5.7910     6.7830    24.7720     2.3000    -5.0260 
  150.7500    91.2410     5.5070     5.7670     7.2850    24.7620     2.2970    -5.0840 
  150.8750    92.2060     5.3680     5.5530     6.6040    24.5680     2.3010    -5.1330 
  151.0000    90.0860     5.1530     5.2370     5.9310    24.2560     2.3070    -5.2050 
  151.1250    89.3390     4.9450     4.9130     5.5940    23.9990     2.3110    -5.3020 
  151.2500    91.2600     4.8370     4.6820     5.8670    23.9020     2.3090    -5.3900 
  151.3750    91.6470     4.9490     4.6730     6.5810    24.1460     2.3010    -5.5150 
  151.5000    90.1610     5.3280     4.9360     7.0370    24.6490     2.2920    -5.6320 
  151.6250    89.0830     6.0380     5.5300     7.4870    25.0470     2.2840    -5.7670 
  151.7500    88.7440     7.1460     6.5180     8.9840    25.1540     2.2770    -5.8740 
  151.8750    87.0660     8.7610     8.0090    13.7210    25.1010     2.2650    -5.9870 
  152.0000    82.8190    10.7060     9.8580    19.0510    25.0570     2.2510    -6.0910 
  152.1250    78.2310    12.6910    11.8210    21.1010    25.0330     2.2410    -6.1900 
  152.2500    74.9000    14.3080    13.5090    19.0100    25.0530     2.2390    -6.2770 
  152.3750    74.6000    15.1050    14.4220    15.9810    25.0560     2.2460    -6.3390 
  152.5000    75.8830    15.2210    14.6130    14.1550    25.0360     2.2530    -6.3970 
  152.6250    75.9670    14.9260    14.3210    13.2810    24.9710     2.2540    -6.4560 
  152.7500    74.9210    14.4880    13.8140    13.6350    24.8420     2.2480    -6.4860 
  152.8750    75.9560    14.0320    13.2390    14.1990    24.7870     2.2400    -6.5380 
  153.0000    80.1610    13.5650    12.6320    14.4060    24.7870     2.2380    -6.5830 
  153.1250    84.6970    13.1290    12.0310    14.0750    24.8240     2.2420    -6.6150 
  153.2500    86.9570    12.8740    11.5750    13.5770    24.7740     2.2470    -6.6470 
  153.3750    86.0940    13.1630    11.6290    12.4020    24.5130     2.2440    -6.6450 
  153.5000    82.2200    14.2250    12.5140    11.9530    24.2900     2.2300    -6.6270 
  153.6250    77.8590    16.7930    14.7050    14.4520    24.3140     2.2080    -6.5910 
  153.7500    74.1240    21.9350    18.8030    27.5250    24.4090     2.1850    -6.5830 
  153.8750    70.6340    30.7250    25.7340    49.8450    24.4330     2.1680    -6.5510 
  154.0000    67.1660    41.1320    34.5240    64.6590    24.5470     2.1600    -6.5140 
  154.1250    65.8560    49.7960    42.6910    63.2340    24.7160     2.1620    -6.4540 
  154.2500    66.5330    53.3710    46.6540    58.8950    24.8580     2.1710    -6.3970 
  154.3750    67.7360    50.3520    44.1920    55.5540    24.9750     2.1860    -6.3570 
  154.5000    69.9460    44.7260    38.9960    46.5740    25.0840     2.2010    -6.3130 
  154.6250    72.6760    39.7280    34.0350    36.1970    25.1830     2.2140    -6.2380 
  154.7500    73.9090    37.0070    30.9530    29.2880    25.1860     2.2230    -6.1640 
  154.8750    72.5900    37.4880    30.8690    32.1990    25.1550     2.2290    -6.0810 
  155.0000    69.6970    40.9980    33.6070    41.2160    25.1440     2.2350    -5.9990 
  155.1250    66.6800    47.8080    39.1810    54.3470    25.1190     2.2400    -5.9400 
  155.2500    65.5970    57.6640    47.1700    68.4310    25.0870     2.2420    -5.8660 
  155.3750    67.2090    68.9530    56.2260    80.4110    25.0530     2.2380    -5.7890 
  155.5000    67.9240    78.4410    63.9250    78.9790    25.0430     2.2310    -5.7370 
  155.6250    66.3500    83.8760    68.6650    72.8710    25.0490     2.2230    -5.7210 
  155.7500    64.8550    84.5010    69.9040    71.9860    25.0920     2.2170    -5.6890 
  155.8750    64.2530    80.5230    67.4850    79.6530    25.1100     2.2160    -5.6720 
  156.0000    63.3880    74.2410    62.8290    80.5930    25.0560     2.2180    -5.6640 
  156.1250    64.2980    67.2310    57.0980    62.5490    24.9440     2.2220    -5.6440 
  156.2500    67.5690    60.9780    51.6070    42.7080    24.8550     2.2250    -5.6000 
  156.3750    70.0710    57.0380    47.9170    38.8660    24.9460     2.2260    -5.5760 
  156.5000    70.7240    55.5500    46.4190    40.9770    25.0080     2.2270    -5.5640 
  156.6250    70.7780    56.1570    46.8870    45.5880    25.0300     2.2270    -5.5150 
  156.7500    70.0680    57.8100    48.4730    53.3630    25.0400     2.2290    -5.4790 
  156.8750    67.4370    58.6520    49.6530    74.2420    25.0670     2.2330    -5.4510 
  157.0000    65.5460    57.4390    49.2090    91.1780    25.0890     2.2380    -5.4390 
  157.1250    66.2750    54.1170    46.9190    72.7550    25.0600     2.2430    -5.4390 
  157.2500    68.5580    49.6170    43.4690    47.5550    24.9830     2.2460    -5.4950 
  157.3750    71.0530    45.2920    39.9260    42.8650    24.9320     2.2470    -5.5190 
  157.5000    73.5400    41.8850    36.9770    42.5830    24.9080     2.2510    -5.5560 
  157.6250    76.5370    39.5030    34.8280    37.7920    24.8980     2.2560    -5.6340 
  157.7500    80.1840    37.9820    33.4730    32.1970    24.8950     2.2600    -5.7210 
  157.8750    82.2650    37.1410    32.8120    30.1580    24.9130     2.2620    -5.8250 
  158.0000    80.6240    36.6190    32.5030    33.1710    24.9270     2.2600    -5.9140 
  158.1250    77.0260    36.1950    32.3590    35.2000    24.9640     2.2560    -6.0210 
  158.2500    75.4290    35.6400    32.1660    34.8030    24.9910     2.2530    -6.1320 
  158.3750    77.1850    34.7200    31.5920    32.7200    24.9700     2.2560    -6.2950 
  158.5000    78.9190    33.5290    30.6140    31.7250    24.9300     2.2640    -6.4460 
  158.6250    80.5580    32.3240    29.4710    31.4070    24.9060     2.2740    -6.5970 
  158.7500    83.2990    31.4400    28.5420    29.6450    24.8850     2.2820    -6.7440 
  158.8750    85.1580    31.2610    28.2900    26.8270    24.8670     2.2830    -6.9010 
  159.0000    83.4090    31.7670    28.7730    27.6330    24.8330     2.2780    -7.0660 
  159.1250    80.2320    32.8110    29.9000    32.1170    24.8030     2.2680    -7.2070 
  159.2500    77.7740    34.0630    31.3730    35.9590    24.7910     2.2560    -7.3080 
  159.3750    77.2940    34.9710    32.6580    37.0090    24.8080     2.2440    -7.3990 
  159.5000    78.1530    35.1880    33.3020    35.8530    24.8410     2.2370    -7.4850 
  159.6250    79.3100    34.6410    33.1280    34.1610    24.8770     2.2350    -7.5720 
  159.7500    80.7710    33.5280    32.2730    32.0490    24.9090     2.2400    -7.6380 
  159.8750    83.6800    32.1940    31.0880    30.9460    24.9520     2.2500    -7.6560 
  160.0000    85.7180    30.9650    29.9670    30.5250    25.0020     2.2630    -7.6740 
  160.1250    83.7270    29.9540    29.0350    29.8140    25.0260     2.2760    -7.7170 
  160.2500    80.1060    29.1870    28.3090    28.4830    25.0300     2.2880    -7.7750 
  160.3750    82.7330    28.7240    27.8340    28.0330    25.0300     2.2950    -7.7850 
