~V
VERS. 2.00: Ver 2.00
~W
STRT.M 50.0000:
STOP.M 270.0000:
STEP.M 0.1250:
NULL. -999.2500:
UWI. F10223:
~C
DEPT.M :
GR.API :
RML.OHMM :
RI. :
RXO.OHMM :
CALI.CM :
DEN.GM/CC :
SP.MV :
~A
# ...
   95.0000    75.7800    10.4210     8.4100     9.6060    21.6000     2.2550   -30.7360 
   95.1250    70.3200    10.5390     8.5040     9.4490    21.5760     2.2430   -30.7310 
   95.2500    63.6740    10.4570     8.5230     9.4110    21.5640     2.2290   -30.7070 
   95.3750    59.5520    10.2170     8.4420     9.4540    21.5730     2.2170   -30.6560 
   95.5000    58.6330     9.9160     8.2880     9.4930    21.5780     2.2090   -30.5930 
   95.6250    59.4170     9.6550     8.1170     9.7350    21.4950     2.2050   -30.5150 
   95.7500    59.3180     9.4800     7.9850    10.0670    21.2930     2.2000   -30.4000 
   95.8750    60.2110     9.3910     7.9120    10.4930    21.0300     2.1930   -30.2520 
   96.0000    63.6780     9.3470     7.8850    11.1480    20.8180     2.1830   -30.0780 
   96.1250    64.9280     9.2750     7.8510    11.4790    20.7250     2.1770   -29.8650 
   96.2500    62.2080     9.1250     7.7650    11.5150    20.6770     2.1780   -29.6430 
   96.3750    58.7100     8.8940     7.6190    11.9860    20.6560     2.1810   -29.4260 
   96.5000    58.3340     8.6200     7.4330    12.6370    20.6280     2.1810   -29.2150 
   96.6250    61.3790     8.3810     7.2440    12.3410    20.5840     2.1730   -29.0080 
   96.7500    63.9770     8.2370     7.0900    11.7600    20.5590     2.1640   -28.8230 
   96.8750    66.2290     8.1900     6.9800    11.3800    20.6670     2.1580   -28.6560 
   97.0000    66.9210     8.1690     6.8850    10.9130    21.0360     2.1580   -28.4920 
   97.1250    64.9370     8.0280     6.7260     9.8950    21.5900     2.1670   -28.3040 
   97.2500    64.1640     7.6760     6.4410     9.0150    22.1670     2.1830   -28.1030 
   97.3750    67.6090     7.1170     6.0180     8.1620    22.5960     2.2070   -27.8840 
   97.5000    75.3540     6.4900     5.5330     7.0420    22.8450     2.2380   -27.6780 
   97.6250    83.4970     6.0940     5.1700     6.1300    23.0020     2.2740   -27.5330 
   97.7500    88.8970     6.1260     5.0710     6.0470    23.1980     2.3090   -27.4630 
   97.8750    88.4090     6.6660     5.3140     6.4080    23.3590     2.3330   -27.4650 
   98.0000    81.4540     7.6650     5.9100     7.7450    23.3120     2.3390   -27.5590 
   98.1250    72.5750     8.9230     6.8070    11.8870    23.0530     2.3220   -27.7780 
   98.2500    68.1000    10.0090     7.7270    17.4590    22.5930     2.2870   -28.0490 
   98.3750    68.2840    10.5950     8.4000    17.2440    22.1660     2.2450   -28.3660 
   98.5000    69.6070    10.5680     8.6550    12.6960    21.8510     2.2090   -28.6790 
   98.6250    69.0050    10.0550     8.4810    10.2770    21.6200     2.1950   -28.9410 
   98.7500    67.8210     9.4610     8.1440     9.3930    21.3920     2.1930   -29.1450 
   98.8750    67.2590     9.0050     7.8150     9.0140    21.1160     2.1950   -29.2850 
   99.0000    66.9190     8.7730     7.5860     8.7400    20.8580     2.1960   -29.3360 
   99.1250    64.8020     8.7610     7.4890     8.6050    20.7110     2.1990   -29.2990 
   99.2500    63.1790     8.8630     7.4720     8.5440    20.6630     2.2040   -29.2460 
   99.3750    64.5980     9.0290     7.5100     8.4550    20.6580     2.2130   -29.1890 
   99.5000    65.9490     9.2170     7.5860     8.4630    20.6770     2.2200   -29.1380 
   99.6250    63.5790     9.3710     7.6740     8.7410    20.7660     2.2250   -29.0980 
   99.7500    60.8450     9.4390     7.7340     9.0860    20.8860     2.2260   -29.0600 
   99.8750    61.4020     9.3840     7.7210     9.3280    21.0380     2.2250   -29.0190 
  100.0000    62.8970     9.1950     7.6080     9.3060    21.1880     2.2230   -28.9830 
  100.1250    62.1150     8.8980     7.3990     9.4090    21.3350     2.2240   -28.9470 
  100.2500    63.2000     8.5930     7.1690     9.2220    21.4270     2.2250   -28.9020 
  100.3750    66.7910     8.3650     6.9870     8.8670    21.4440     2.2250   -28.8480 
  100.5000    67.0390     8.2800     6.9100     8.7670    21.4160     2.2250   -28.7910 
  100.6250    63.8420     8.3890     6.9800     8.8990    21.3740     2.2270   -28.7430 
  100.7500    64.2380     8.6340     7.1640     9.2250    21.3750     2.2300   -28.7070 
  100.8750    68.6930     8.9570     7.4280     9.4050    21.4020     2.2330   -28.6850 
  101.0000    71.0470     9.2840     7.7270     9.6830    21.4170     2.2340   -28.6790 
  101.1250    68.5810     9.5350     7.9910    10.0530    21.4440     2.2320   -28.6730 
  101.2500    64.8220     9.6750     8.1630    10.0400    21.5480     2.2300   -28.6620 
  101.3750    60.9750     9.6900     8.2160     9.8140    21.7060     2.2270   -28.6370 
  101.5000    60.1650     9.5680     8.1410     9.5580    21.7400     2.2210   -28.5840 
  101.6250    65.5650     9.2890     7.9300     9.1760    21.4850     2.2150   -28.4910 
  101.7500    68.9190     8.9090     7.6280     8.6830    21.1620     2.2120   -28.3700 
  101.8750    67.1060     8.4960     7.2800     8.2030    20.9840     2.2170   -28.2440 
  102.0000    66.1310     8.1400     6.9440     7.8240    20.9550     2.2270   -28.1360 
  102.1250    69.7330     7.9480     6.7100     7.5480    21.0170     2.2350   -28.0760 
  102.2500    72.7360     7.9390     6.6150     7.4360    21.0950     2.2380   -28.0470 
  102.3750    71.8530     8.1030     6.6710     7.6970    21.1640     2.2370   -28.0630 
  102.5000    69.3980     8.4030     6.8580     8.1590    21.1930     2.2320   -28.1220 
  102.6250    68.1100     8.7700     7.1310     8.5480    21.1860     2.2250   -28.2140 
  102.7500    68.8270     9.0980     7.4050     8.7330    21.1750     2.2190   -28.3280 
  102.8750    70.6070     9.3110     7.6190     9.2650    21.1600     2.2150   -28.4420 
  103.0000    70.0030     9.3810     7.7380    10.5940    21.1460     2.2160   -28.5280 
  103.1250    66.8380     9.3580     7.7720    11.9430    21.1770     2.2210   -28.5560 
  103.2500    64.5140     9.3930     7.8180    10.8350    21.2840     2.2250   -28.5510 
  103.3750    63.5160     9.6060     7.9650     9.7710    21.4820     2.2280   -28.5090 
  103.5000    62.7600    10.0470     8.2710     9.4820    21.7650     2.2310   -28.4460 
  103.6250    60.4900    10.6670     8.7440     9.3610    21.9840     2.2370   -28.3960 
  103.7500    57.2120    11.2340     9.2360     9.0100    22.0770     2.2490   -28.3500 
  103.8750    53.9540    11.5390     9.5850     8.9500    22.0560     2.2680   -28.3170 
  104.0000    53.2330    11.4570     9.6600     9.0990    21.9890     2.2870   -28.2970 
  104.1250    56.9570    10.9940     9.4120     8.9290    21.9490     2.2930   -28.3040 
  104.2500    61.5170    10.4100     9.0050     8.6930    21.9420     2.2820   -28.3200 
  104.3750    64.7590     9.8650     8.5590     8.6010    21.9160     2.2590   -28.3270 
  104.5000    66.4180     9.4070     8.1320     8.7930    21.8290     2.2380   -28.3060 
  104.6250    68.5680     8.9840     7.7200     9.0520    21.7320     2.2290   -28.2540 
  104.7500    70.5420     8.5180     7.2970     8.9950    21.6790     2.2290   -28.1860 
  104.8750    71.7230     8.0210     6.8760     8.3660    21.7370     2.2320   -28.1230 
  105.0000    73.4210     7.5830     6.5090     7.2640    21.9000     2.2360   -28.0900 
  105.1250    75.6010     7.3790     6.3060     6.6440    22.0170     2.2360   -28.1160 
  105.2500    75.5970     7.4640     6.3060     6.9740    21.9940     2.2300   -28.1710 
  105.3750    71.8030     7.8170     6.5120     8.1040    21.9050     2.2160   -28.2500 
  105.5000    66.1630     8.3250     6.8670     9.0040    21.8140     2.2030   -28.3380 
  105.6250    61.7090     8.8070     7.2560     9.3360    21.7230     2.2050   -28.3910 
  105.7500    60.0780     9.1260     7.5560     9.4830    21.5980     2.2170   -28.4070 
  105.8750    60.1810     9.2490     7.7200     9.5790    21.4820     2.2240   -28.3590 
  106.0000    60.5230     9.2170     7.7550     9.5850    21.3540     2.2210   -28.2440 
  106.1250    62.6470     9.0870     7.6820     9.5780    21.1100     2.2180   -28.0580 
