~V
VERS. 2.00: Ver 2.00
~W
STRT.M 56.0000:
STOP.M 270.0000:
STEP.M 0.1250:
NULL. -999.2500:
UWI. F10225:
~C
DEPT.M :
SP.MV :
DEN.GM/CC :
GR.API :
RML.OHMM :
RI. :
RXO.OHMM :
CALI.CM :
~A
# ...
  112.2500   -16.6480     2.3420    94.5360     5.6440     4.6230     5.3410    23.6480 
  112.3750   -16.7240     2.3390    94.2440     5.6460     4.5170     5.3640    23.5590 
  112.5000   -16.8070     2.3360    94.3130     5.7850     4.5240     5.4630    23.4920 
  112.6250   -16.8730     2.3380    95.2090     6.0020     4.6290     5.5350    23.4310 
  112.7500   -16.9360     2.3420    92.8390     6.2020     4.7560     5.5070    23.4060 
  112.8750   -17.0260     2.3440    87.7320     6.3160     4.8330     5.4570    23.4170 
  113.0000   -17.1450     2.3420    84.5520     6.2930     4.8130     5.5180    23.4330 
  113.1250   -17.2870     2.3430    85.7730     6.0970     4.6740     5.6540    23.3590 
  113.2500   -17.4130     2.3550    88.8300     5.8040     4.4730     5.7080    23.2260 
  113.3750   -17.5090     2.3750    90.9140     5.5710     4.3070     5.6170    23.1480 
  113.5000   -17.6130     2.3980    90.4740     5.5950     4.2860     5.5570    23.1670 
  113.6250   -17.8200     2.4230    87.7460     6.1200     4.5550     5.8460    23.2040 
  113.7500   -18.1160     2.4480    83.8770     7.1770     5.1710     6.7950    23.2010 
  113.8750   -18.4550     2.4660    79.0950     8.6220     6.1140     9.2460    23.1650 
  114.0000   -18.8340     2.4660    73.6660    10.1150     7.2350    12.1160    23.0810 
  114.1250   -19.2580     2.4350    70.5060    11.0450     8.1330    13.1050    22.9640 
  114.2500   -19.7480     2.3830    71.6070    11.0950     8.4700    11.8260    22.8070 
  114.3750   -20.3280     2.3240    75.2270    10.3960     8.2150     9.8650    22.6050 
  114.5000   -20.9540     2.2740    77.9210     9.3920     7.6200     8.5100    22.3920 
  114.6250   -21.5190     2.2430    77.8190     8.5980     7.0260     8.0700    22.2410 
  114.7500   -22.0080     2.2300    75.4660     8.2160     6.6280     8.0720    22.1420 
  114.8750   -22.4470     2.2250    71.9900     8.2050     6.4620     8.2490    22.0880 
  115.0000   -22.8390     2.2210    69.3290     8.4280     6.4860     8.5500    22.0670 
  115.1250   -23.1760     2.2150    69.6230     8.7270     6.6230     8.8710    22.0620 
  115.2500   -23.4770     2.2100    71.2790     8.9710     6.7730     9.1990    22.0490 
  115.3750   -23.7320     2.2070    71.2300     9.0970     6.8810     9.5650    22.0100 
  115.5000   -23.9490     2.2040    69.5490     9.1070     6.9310     9.8910    21.9620 
  115.6250   -24.1420     2.2020    69.0810     9.0460     6.9370     9.8950    21.9560 
  115.7500   -24.3220     2.1990    70.1150     8.9880     6.9330     9.8480    22.0130 
  115.8750   -24.5080     2.1970    70.6790     8.9800     6.9490    10.0920    22.1050 
  116.0000   -24.7030     2.1990    69.8700     9.0340     6.9970    10.3660    22.1990 
  116.1250   -24.9100     2.2000    67.6840     9.1350     7.0790    10.4440    22.2250 
  116.2500   -25.0950     2.1960    64.9330     9.2410     7.1770    10.2750    22.1760 
  116.3750   -25.2200     2.1870    62.6090     9.3350     7.2830    10.1110    22.1120 
  116.5000   -25.2630     2.1800    61.4570     9.4220     7.3960    10.2540    22.1140 
  116.6250   -25.2650     2.1760    60.4690     9.5300     7.5320    10.5470    22.1530 
  116.7500   -25.2670     2.1740    59.5790     9.6940     7.6950    10.7770    22.1930 
  116.8750   -25.2610     2.1700    59.3650     9.9290     7.8740    10.9290    22.2030 
  117.0000   -25.2100     2.1640    60.0150    10.1980     8.0310    11.0930    22.1940 
  117.1250   -25.0640     2.1570    60.4150    10.3990     8.1080    11.1440    22.1700 
  117.2500   -24.8470     2.1500    58.9080    10.4480     8.0830    11.1440    22.1390 
  117.3750   -24.6130     2.1470    55.5410    10.3140     7.9650    11.2230    22.0560 
  117.5000   -24.4160     2.1480    52.7920    10.0230     7.7780    11.2370    21.9450 
  117.6250   -24.2490     2.1570    52.4870     9.6500     7.5650    10.9590    21.8530 
  117.7500   -24.0520     2.1740    52.4120     9.3310     7.3940    10.7980    21.8020 
  117.8750   -23.7840     2.2060    50.8660     9.2490     7.3680    10.9210    21.7540 
  118.0000   -23.4350     2.2510    49.9860     9.6590     7.6390    11.1030    21.6760 
  118.1250   -23.0400     2.3150    50.2100    10.9870     8.4890    11.1300    21.5690 
  118.2500   -22.6090     2.3950    49.1370    13.3140    10.0630    11.7220    21.4740 
  118.3750   -22.1560     2.4810    47.3560    16.3470    12.3390    14.1040    21.4230 
  118.5000   -21.6980     2.5500    46.8980    19.2200    14.8720    19.7230    21.4240 
  118.6250   -21.2440     2.5680    49.0330    20.2030    16.3100    24.5600    21.4680 
  118.7500   -20.8230     2.5370    52.4790    18.6560    15.7670    22.3800    21.5030 
  118.8750   -20.4670     2.4750    56.3940    15.4230    13.6630    16.6410    21.4860 
  119.0000   -20.2100     2.3970    59.7080    11.9920    11.1420    12.4250    21.4300 
  119.1250   -20.0700     2.3280    60.8450     9.5820     9.1740     9.5520    21.3690 
  119.2500   -20.0390     2.2830    59.9710     8.3320     7.9600     8.3380    21.3480 
  119.3750   -20.0580     2.2660    58.5400     7.9310     7.3730     8.1600    21.3700 
  119.5000   -20.0620     2.2720    58.0160     7.9760     7.1990     8.3510    21.4220 
  119.6250   -20.0240     2.2910    58.9260     8.0830     7.2020     8.4470    21.5330 
  119.7500   -19.9640     2.3060    59.7070     8.0550     7.1940     8.3880    21.7290 
  119.8750   -19.9160     2.3040    59.2410     7.9140     7.1340     8.0090    22.0260 
  120.0000   -19.8810     2.2810    57.7720     7.8040     7.0900     7.4040    22.3980 
  120.1250   -19.8030     2.2540    57.0440     7.9110     7.1920     7.5250    22.7140 
  120.2500   -19.6560     2.2410    57.4060     8.2890     7.5040     8.3470    22.9300 
  120.3750   -19.4850     2.2430    57.7150     8.9320     8.0470     9.5490    22.9980 
  120.5000   -19.3240     2.2530    57.6910     9.8650     8.8360    10.7530    22.9890 
  120.6250   -19.1900     2.2770    58.0330    11.2750     9.9790    11.5290    22.8880 
  120.7500   -19.0530     2.3220    58.2100    13.3490    11.5880    12.0190    22.6190 
  120.8750   -18.8630     2.3910    56.9330    16.2460    13.8090    12.9060    22.2150 
  121.0000   -18.6170     2.4730    53.5320    19.9450    16.7220    15.1510    21.8470 
  121.1250   -18.3750     2.5380    48.4480    23.9750    20.1340    21.0130    21.6500 
  121.2500   -18.2010     2.5690    42.8640    27.3460    23.2800    26.8120    21.5720 
  121.3750   -18.0890     2.5720    39.0720    29.1850    25.3220    28.1010    21.5280 
  121.5000   -18.0290     2.5670    38.0080    29.3110    25.9220    25.0480    21.5010 
  121.6250   -17.9920     2.5680    38.1310    28.3860    25.4640    22.7590    21.4890 
  121.7500   -17.9860     2.5740    38.0350    27.5560    24.8680    22.5710    21.4540 
  121.8750   -18.0310     2.5790    38.8650    27.5020    24.7480    22.9090    21.4060 
  122.0000   -18.1310     2.5840    41.1450    28.3250    25.3000    22.3900    21.3670 
  122.1250   -18.2680     2.5890    42.3430    29.6580    26.3740    23.1740    21.3630 
  122.2500   -18.4150     2.5900    40.8200    30.7930    27.4540    26.0670    21.3850 
  122.3750   -18.5570     2.5830    38.2380    31.2080    28.0740    29.0310    21.4240 
  122.5000   -18.6610     2.5720    36.6540    30.7560    28.0180    28.8100    21.4740 
  122.6250   -18.7520     2.5630    36.5540    29.6500    27.3390    24.8770    21.5150 
  122.7500   -18.8420     2.5560    36.7780    28.3740    26.3790    22.8450    21.5360 
  122.8750   -18.9370     2.5450    36.6770    27.2080    25.3870    23.4590    21.5490 
  123.0000   -19.0460     2.5260    36.4130    26.1790    24.4490    24.1620    21.5660 
  123.1250   -19.1490     2.5020    37.3840    25.1730    23.5510    23.4860    21.5930 
  123.2500   -19.2040     2.4800    38.9660    24.1410    22.6830    21.0320    21.6080 
  123.3750   -19.1930     2.4660    39.1260    23.2020    21.9200    18.2720    21.6000 
