~V
VERS. 2.00: Ver 2.00
~W
STRT.M 47.0000:
STOP.M 270.0000:
STEP.M 0.1250:
NULL. -999.2500:
UWI. F10221:
~C
DEPT.M :
SP.MV :
GR.API :
RML.OHMM :
RI. :
RXO.OHMM :
CALI.CM :
DEN.GM/CC :
~A
# ...
  260.7500    -6.1540    61.9150    12.0670     9.3690     7.5390    24.7520     2.4240 
  260.8750    -6.1400    61.9150    12.2660     9.5130     7.3320    24.8290     2.4210 
  261.0000    -6.0680    61.9150    12.5950     9.7870     7.5150    24.8300     2.4260 
  261.1250    -6.0240    61.9150    12.9290    10.1010     7.8240    24.8040     2.4380 
  261.2500    -6.0260    61.9150    13.1880    10.3800     8.1680    24.7920     2.4540 
  261.3750    -6.0730    61.9150    13.3380    10.5680     8.3570    24.7990     2.4670 
  261.5000    -6.1310    61.9150    13.3790    10.6430     8.5940    24.8230     2.4780 
  261.6250    -6.1980    61.9150    13.3650    10.6530     9.2590    24.8470     2.4860 
  261.7500    -6.2520    61.9150    13.3100    10.6280    10.1240    24.8590     2.4890 
  261.8750    -6.3230    61.9150    13.2130    10.5850     9.8490    24.8640     2.4860 
  262.0000    -6.4350    61.9150    13.0830    10.5310     8.4740    24.8650     2.4800 
  262.1250    -6.5400    61.9150    12.9580    10.4760     7.7910    24.8630     2.4780 
  262.2500    -6.6590    61.9150    12.8760    10.4350     7.8850    24.8680     2.4810 
  262.3750    -6.7750    61.9150    12.8640    10.4290     8.2910    24.8890     2.4850 
  262.5000    -6.8860    61.9150    12.9230    10.4760     9.3280    24.9340     2.4850 
  262.6250    -6.9950    61.9150    12.9880    10.5330    12.3450    24.9910     2.4790 
  262.7500    -7.1170    61.9150    12.9820    10.5370    18.5510    25.0710     2.4610 
  262.8750    -7.2330    61.9150    12.8440    10.4270    24.8480    25.1560     2.4340 
  263.0000    -7.3330    61.9150    12.5540    10.1710    27.5720    25.2050     2.4100 
  263.1250    -7.4460    61.9150    12.2050     9.8490    30.7320    25.2120     2.3870 
  263.2500    -7.5500    61.9150    11.9020     9.5490    31.0270    25.2220     2.3580 
  263.3750    -7.6170    61.9150    11.7340     9.3450    23.1730    25.2780     2.3280 
  263.5000    -7.6830    61.9150    11.7530     9.2890    21.3630    25.3710     2.3030 
  263.6250    -7.7450    61.9150    11.8860     9.3370    23.8880    25.4380     2.2910 
  263.7500    -7.8220    61.9150    12.0610     9.4390    27.5320    25.4160     2.3070 
  263.8750    -7.8670    61.9150    12.2090     9.5430    28.4920    25.3880     2.3430 
  264.0000    -7.9350    61.9150    12.2840     9.6080    27.5430    25.2660     2.3880 
  264.1250    -7.9650    61.9150    12.3040     9.6350    22.6280    25.0640     2.4280 
  264.2500    -7.9500    61.9150    12.2950     9.6370    17.4740    24.9650     2.4510 
  264.3750    -7.9710    61.9150    12.2780     9.6320    12.2330    24.9380     2.4550 
  264.5000    -7.9910    61.9150    12.2600     9.6310    10.5370    25.0450     2.4440 
  264.6250    -7.9960    61.9150    12.2450     9.6320     9.6530    25.1090     2.4340 
  264.7500    -8.0050    61.9150    12.2330     9.6330     9.2760    25.1320     2.4450 
  264.8750    -8.0510    61.9150    12.2250     9.6350     8.8670    25.0900     2.4760 
  265.0000    -8.0700    61.9150    12.2240     9.6360     8.4070    25.0310     2.5090 
  265.1250    -8.0990    61.9150    12.2240     9.6360     8.1150    25.0340     2.5290 
  265.2500    -8.1600    61.9150    12.2240     9.6360     7.8540    25.1220     2.5300 
  265.3750    -8.1970    61.9150    12.2240     9.6360     7.7120    25.2020     2.5180 
  265.5000    -8.2290    61.9150    12.2240     9.6360     7.5920    25.2320     2.4980 
  265.6250    -8.2640    61.9150    12.2240     9.6360     7.5350    25.2410     2.4760 
  265.7500    -8.2990    61.9150    12.2240     9.6360     7.6390    25.2400     2.4610 
  265.8750    -8.3310    61.9150    12.2240     9.6360     7.8210    25.2360     2.4520 
  266.0000    -8.3790    61.9150    12.2240     9.6360     7.8800    25.2330     2.4480 
  266.1250    -8.4110    61.9150    12.2240     9.6360     7.8340    25.2330     2.4510 
  266.2500    -8.4660    61.9150    12.2240     9.6360     8.0700    25.2330     2.4590 
  266.3750    -8.5360    61.9150    12.2240     9.6360     8.8580    25.2320     2.4650 
  266.5000    -8.6120    61.9150    12.2240     9.6360    10.2050    25.2320     2.4660 
  266.6250    -8.6790    61.9150    12.2240     9.6360    10.5160    25.2300     2.4630 
  266.7500    -8.7890    61.9150    12.2240     9.6360    10.7640    25.2130     2.4590 
  266.8750    -9.0350    61.9150    12.2240     9.6360    10.2320    25.1600     2.4540 
  267.0000    -9.2960    61.9150    12.2240     9.6360     9.0870    25.1120     2.4510 
  267.1250    -9.5840    61.9150    12.2240     9.6360     7.8780    25.1100     2.4470 
  267.2500    -9.8820    61.9150    12.2240     9.6360     7.4720    25.1470     2.4370 
  267.3750   -10.1930    61.9150    12.2240     9.6360     7.4820    25.1880     2.4270 
  267.5000   -10.5040    61.9150    12.2240     9.6360     7.7840    25.1650     2.4250 
  267.6250   -10.8250    61.9150    12.2240     9.6360     7.9490    25.0990     2.4330 
  267.7500   -10.8890    61.9150    12.2240     9.6360     7.9720    25.0070     2.4400 
  267.8750   -10.8890    61.9150    12.2240     9.6360     7.8480    24.9560     2.4360 
  268.0000  -999.2500    61.9150    12.2240     9.6360     7.5500    24.9240     2.4150 
  268.1250  -999.2500    61.9150    12.2240     9.6360     7.1230    24.8490     2.3720 
  268.2500  -999.2500    61.9150    12.2240     9.6360     6.7940    24.6280     2.2970 
  268.3750  -999.2500    61.9150    12.2240     9.6360     6.5330    23.4500     2.1910 
  268.5000  -999.2500    61.9150    12.2240     9.6360     6.1810    20.0270     2.0520 
  268.6250  -999.2500    61.9150    12.2240     9.6360     5.8000    15.6020     1.8740 
  268.7500  -999.2500    61.9150    12.2240     9.6360     5.6460    13.2030     1.7230 
  268.8750  -999.2500    61.9150    12.2240     9.6360     5.6260    12.6110     1.6410 
  269.0000  -999.2500    61.9150    12.2240     9.6360     5.6240    12.6110     1.6130 
  269.1250  -999.2500    61.9150    12.2240     9.6360     5.6250    12.6110     1.6140 
  269.2500  -999.2500    61.9150    12.2240     9.6360     5.6260    12.6100     1.6170 
  269.3750  -999.2500    61.9150    12.2240     9.6360     5.6260    12.6080     1.6160 
  269.5000  -999.2500    61.9150    12.2240     9.6360     5.6250    12.6030     1.6140 
  269.6250  -999.2500    61.9150    12.2240     9.6360     5.6240    12.6010     1.6120 
  269.7500  -999.2500    61.9150    12.2240     9.6360     5.6230    12.6010     1.6100 
  269.8750  -999.2500    61.9150    12.2240     9.6360     5.6230    12.6010     1.6090 
  270.0000  -999.2500  -999.2500  -999.2500  -999.2500  -999.2500  -999.2500     1.6030 
