~V
VERS. 2.00: Ver 2.00
~W
STRT.M 53.0000:
STOP.M 286.0000:
STEP.M 0.1250:
NULL. -999.2500:
UWI. F10262:
~C
DEPT.M :
DEN.GM/CC :
GR.API :
RML.OHMM :
RI. :
RXO.OHMM :
CALI.CM :
SP.MV :
~A
# ...
   64.2500     1.7820    72.5680     7.1750     7.7950     7.8780    28.9940    -0.6950 
   64.3750     1.8890    80.0080     7.1980     7.9590     8.4540    27.2360    -1.7600 
   64.5000     2.0020    87.9870     7.1400     7.8950     8.3940    25.7440    -2.1820 
   64.6250     2.1040    96.5030     6.9960     7.6880     8.1690    24.8120    -2.2460 
   64.7500     2.1840   102.7090     6.8020     7.4250     7.8390    24.3400    -2.0930 
   64.8750     2.2290   105.0990     6.6130     7.1800     7.0710    24.1770    -1.9020 
   65.0000     2.2520   105.7000     6.4720     6.9850     6.5120    24.1300    -1.8240 
   65.1250     2.2620   104.6680     6.4170     6.8620     6.2260    24.1360    -1.9070 
   65.2500     2.2650   102.9070     6.4810     6.8330     6.0750    24.1660    -2.1300 
   65.3750     2.2580   100.7230     6.6970     6.9410     6.1980    24.2450    -2.5110 
   65.5000     2.2390    97.5250     6.9980     7.1610     6.5530    24.4150    -3.0210 
   65.6250     2.2110    92.5000     7.3020     7.4370     6.9190    24.6990    -3.6130 
   65.7500     2.1810    85.6690     7.4990     7.6580     7.1110    25.0010    -4.1930 
   65.8750     2.1590    80.3150     7.4790     7.6690     7.0990    25.1620    -4.6460 
   66.0000     2.1480    79.0950     7.3160     7.4930     6.9040    25.2210    -4.9250 
   66.1250     2.1530    83.2050     7.1360     7.2400     6.6770    25.2310    -5.0260 
   66.2500     2.1740    90.8440     7.0620     7.0420     6.2210    25.1760    -4.9920 
   66.3750     2.2160    98.3070     7.1640     7.0000     5.9770    24.9540    -4.9010 
   66.5000     2.2720   101.1980     7.3310     7.0520     6.8120    24.8680    -4.8150 
   66.6250     2.3290    97.3470     7.4030     7.0820     8.2010    24.9130    -4.7850 
   66.7500     2.3710    91.3600     7.2460     6.9730     7.9400    24.9650    -4.8880 
   66.8750     2.3820    94.6560     6.8750     6.7030     6.6740    24.9330    -5.2320 
   67.0000     2.3630   103.3670     6.5570     6.4480     5.9500    24.7710    -5.7890 
   67.1250     2.3210   107.6420     6.5250     6.3900     5.7520    24.5120    -6.5520 
   67.2500     2.2740   102.1330     6.9380     6.6890     6.0240    24.2800    -7.5130 
   67.3750     2.2570    88.1580     7.9220     7.5120     6.9630    24.3510    -8.4380 
   67.5000     2.2870    74.4080     9.2210     8.6820     8.8840    24.8720    -9.2400 
   67.6250     2.3500    66.3710    10.3970     9.8450    13.5110    25.8340    -9.8730 
   67.7500     2.4140    66.2240    10.8740    10.4810    19.6730    26.9220   -10.2720 
   67.8750     2.4340    69.2820    10.2630    10.1390    18.5650    26.9900   -10.4810 
   68.0000     2.4080    72.2170     9.1770     9.2490    13.0050    25.9040   -10.5890 
   68.1250     2.3560    76.2060     8.1840     8.3000     8.4500    24.8260   -10.6610 
   68.2500     2.3030    80.1600     7.6200     7.6300     6.9440    24.3500   -10.7660 
   68.3750     2.2660    81.6220     7.6490     7.4330     7.2510    24.2780   -10.9720 
   68.5000     2.2390    80.7970     8.1040     7.6110     7.9560    24.3460   -11.2730 
   68.6250     2.2180    79.1810     8.8240     8.0520     8.1760    24.4430   -11.6650 
   68.7500     2.2030    78.0430     9.5800     8.5720     7.9470    24.4810   -12.1270 
   68.8750     2.1960    77.6050     9.9940     8.8570     7.9450    24.3930   -12.6150 
   69.0000     2.1950    77.6270     9.8380     8.7050     8.4260    24.2930   -12.9760 
   69.1250     2.1970    78.9210     9.1110     8.1020     8.6660    24.2440   -13.1020 
   69.2500     2.1990    81.3110     8.1180     7.2720     8.3170    24.2460   -12.9570 
   69.3750     2.2040    83.7430     7.4540     6.6430     7.1810    24.2960   -12.6700 
   69.5000     2.2250    85.2030     7.5890     6.5520     6.2850    24.3790   -12.3560 
   69.6250     2.2800    85.0380     8.9090     7.3000     6.9240    24.5130   -12.0650 
   69.7500     2.3710    80.0570    11.8320     9.3030     9.3860    24.6470   -11.8530 
   69.8750     2.4820    68.7340    17.2030    13.5070    17.1110    24.7670   -11.7460 
   70.0000     2.5710    58.1770    24.6020    19.9190    22.9180    24.8790   -11.8370 
   70.1250     2.6090    53.3160    32.3020    27.4890    24.7360    24.9880   -12.1530 
   70.2500     2.5960    55.2520    36.9830    33.4450    24.4690    25.1090   -12.6890 
   70.3750     2.5670    60.8130    35.8970    34.4080    23.2410    25.1840   -13.3740 
   70.5000     2.5700    64.2070    31.7010    31.5910    23.8020    25.2560   -14.1900 
   70.6250     2.6190    62.3200    26.6040    26.9380    27.3840    25.5340   -15.0800 
   70.7500     2.6800    57.0510    21.7540    21.9580    31.3780    26.3630   -16.0150 
   70.8750     2.6840    55.3080    17.6870    17.5640    30.9970    28.0400   -16.9460 
   71.0000     2.5970    57.5050    14.4410    14.0070    25.2980    29.4740   -17.7060 
   71.1250     2.4370    60.5850    12.0430    11.3510    16.7900    29.8660   -18.3700 
   71.2500     2.2620    61.1690    10.4370     9.5240    10.8610    29.3940   -18.9260 
   71.3750     2.1410    60.1010     9.5760     8.4710     8.7210    28.8020   -19.3140 
   71.5000     2.0790    60.6740     9.1920     7.9160     8.7280    28.8710   -19.5920 
   71.6250     2.0490    62.4300     9.2210     7.7750     9.1020    29.3810   -19.7500 
   71.7500     2.0230    62.6920     9.6560     8.0210     9.1550    29.8960   -19.8050 
   71.8750     2.0110    61.4210    10.5230     8.6790     8.9770    29.9280   -19.7790 
   72.0000     2.0450    64.0650    11.6110     9.5890     9.2390    29.2540   -19.7410 
   72.1250     2.1370    69.8140    12.6550    10.5500    11.0540    27.7270   -19.7120 
   72.2500     2.2530    72.4150    13.2920    11.2570    15.5150    26.1110   -19.7200 
   72.3750     2.3250    70.6510    13.1040    11.3040    16.6060    25.3790   -19.7720 
   72.5000     2.3210    67.6160    12.3100    10.7920    13.6510    25.5630   -19.8210 
   72.6250     2.2560    65.3040    11.3020    10.0140    10.5460    26.3230   -19.8790 
   72.7500     2.1720    63.3120    10.4540     9.2720     9.0870    27.3210   -19.9270 
   72.8750     2.1030    61.8900    10.0220     8.7880     9.0640    28.1430   -19.9780 
   73.0000     2.0470    61.0260     9.9090     8.5560     9.3270    28.6120   -19.9790 
   73.1250     1.9940    59.9550     9.9560     8.5050     9.3740    29.0870   -19.8530 
   73.2500     1.9420    60.8670    10.0270     8.5350     9.1740    29.3220   -19.5550 
   73.3750     1.9140    64.2000    10.1200     8.6100     8.9800    28.6510   -19.0040 
   73.5000     1.9250    67.8250    10.3100     8.7440     8.9780    27.4390   -18.2400 
   73.6250     1.9810    73.1180    10.5820     8.9250     9.3290    26.3660   -17.2330 
   73.7500     2.0720    79.5950    10.8140     9.0680    10.0050    25.6480   -16.0820 
   73.8750     2.1720    84.3510    10.7720     9.0050    10.5070    25.2150   -14.7840 
   74.0000     2.2550    87.9620    10.3860     8.6730    10.3230    24.9490   -13.5010 
   74.1250     2.3040    92.3670     9.7190     8.1120     9.2460    24.9390   -12.3590 
   74.2500     2.3160    98.0000     8.9490     7.4520     8.0030    25.0910   -11.3340 
   74.3750     2.2920    99.5350     8.2970     6.8560     7.2400    25.2190   -10.6010 
   74.5000     2.2470    96.7140     7.8600     6.4140     7.3160    25.1610   -10.1250 
   74.6250     2.1880    92.1710     7.6610     6.1640     7.7510    25.2040    -9.9010 
   74.7500     2.1340    90.7210     7.6950     6.1240     7.8440    25.5070    -9.9670 
   74.8750     2.1150    94.3330     7.9970     6.3320     7.5480    25.9360   -10.3420 
   75.0000     2.1410    95.5250     8.5320     6.7430     7.9420    26.3870   -10.9340 
   75.1250     2.1940    89.6860     9.2560     7.3260    10.0380    26.9110   -11.6540 
   75.2500     2.2370    81.7940    10.0090     7.9820    12.6640    27.2770   -12.3840 
   75.3750     2.2290    79.6680    10.4650     8.4840    11.8320    26.5740   -12.9940 
