~V
VERS. 2.00: Ver 2.00
~W
STRT.M 50.0000:
STOP.M 275.0000:
STEP.M 0.1250:
NULL. -999.2500:
UWI. F10202:
~C
DEPT.M :
GR.API :
RML.OHMM :
RI. :
RXO.OHMM :
CALI.CM :
SP.MV :
DEN.GM/CC :
~A
# ...
   61.2500    88.9330     4.9160     5.5670     9.3380    25.6000     8.4590     2.2440 
   61.3750    91.3440     5.0560     5.8310     7.0880    25.5000     3.7520     2.2710 
   61.5000    93.1930     5.0450     5.8540     5.9830    25.2000     0.3970     2.2820 
   61.6250    95.3690     4.9610     5.7110     6.0430    25.8190    -2.2220     2.2980 
   61.7500    99.4360     4.8840     5.5350     6.2940    25.7130    -4.3610     2.3120 
   61.8750   103.6140     4.8510     5.4040     6.0340    25.6990    -6.0750     2.3190 
   62.0000   107.5760     4.8750     5.3630     5.6180    25.7350    -7.3490     2.3170 
   62.1250   111.5510     4.9580     5.4430     5.5420    25.7650    -8.1660     2.3130 
   62.2500   112.1460     5.0800     5.6110     5.6130    25.7730    -8.8590     2.3170 
   62.3750   106.4230     5.2270     5.8290     5.8610    25.7240    -9.4920     2.3260 
   62.5000    97.8860     5.3790     6.0360     6.3780    25.6020   -10.1070     2.3350 
   62.6250    93.3780     5.5000     6.1450     6.8750    25.4610   -10.9330     2.3320 
   62.7500    93.3770     5.5780     6.1430     6.5200    25.3710   -12.0030     2.3170 
   62.8750    95.7470     5.6290     6.0770     6.2080    25.2930   -13.2920     2.2970 
   63.0000    98.0670     5.6940     6.0400     6.3480    25.1960   -14.7640     2.2780 
   63.1250    96.9400     5.8420     6.1630     6.7750    25.1170   -16.4000     2.2610 
   63.2500    92.2710     6.0910     6.4670     6.8980    25.0610   -18.0360     2.2420 
   63.3750    86.4220     6.4150     6.8950     7.3880    25.0170   -19.6030     2.2220 
   63.5000    83.4770     6.7340     7.3120     9.0700    25.0270   -20.9230     2.2110 
   63.6250    83.9280     6.9020     7.5060    10.0380    25.1230   -21.7960     2.2210 
   63.7500    85.8300     6.8560     7.4150     9.5870    25.2490   -22.3390     2.2460 
   63.8750    89.6790     6.6150     7.0810     8.0790    25.3500   -22.6530     2.2710 
   64.0000    95.7570     6.2860     6.6340     6.6560    25.3660   -22.7780     2.2810 
   64.1250    98.2180     6.0380     6.2600     6.7030    25.2770   -22.7220     2.2710 
   64.2500    95.8500     5.9800     6.0720     7.3510    25.1890   -22.6560     2.2550 
   64.3750    93.3810     6.1520     6.1210     7.5330    25.1080   -22.6590     2.2410 
   64.5000    91.4220     6.5430     6.4080     7.3450    24.9100   -22.9130     2.2330 
   64.6250    85.4210     7.1190     6.9100     8.2490    24.5940   -23.5920     2.2280 
   64.7500    77.9600     7.7530     7.4950     9.2580    24.4410   -24.6760     2.2220 
   64.8750    74.5950     8.3150     8.0490    10.4210    24.4120   -25.8620     2.2190 
   65.0000    75.8020     8.6550     8.4380    11.2120    24.4380   -26.8860     2.2200 
   65.1250    78.5810     8.5920     8.4810    11.6110    24.4590   -27.5850     2.2250 
   65.2500    79.6120     8.2010     8.1930    11.8330    24.5070   -27.9270     2.2280 
   65.3750    77.8660     7.6530     7.6810    11.5170    24.6210   -27.9710     2.2310 
   65.5000    76.3320     7.2080     7.1520    10.2560    24.7870   -27.6670     2.2390 
   65.6250    80.7540     7.2450     6.9440     9.2980    25.0480   -27.0100     2.2720 
   65.7500    86.9920     7.9540     7.3050     9.6120    25.3580   -26.1600     2.3350 
   65.8750    88.0100     9.4430     8.4540    14.1970    25.6100   -25.3280     2.4240 
   66.0000    80.8630    11.5750    10.4480    23.1590    25.7130   -24.6280     2.5230 
   66.1250    72.1000    13.7050    12.8960    27.3090    25.7060   -24.1210     2.6050 
   66.2500    69.4050    14.8820    14.6820    30.4050    25.7050   -23.8560     2.6530 
   66.3750    72.3160    14.5520    14.9180    36.6850    25.7150   -23.7960     2.6570 
   66.5000    79.8200    12.8370    13.4680    31.6660    25.7080   -23.9810     2.6160 
   66.6250    90.5660    10.5120    11.0630    17.0830    25.7350   -24.3530     2.5420 
   66.7500    98.6560     8.5780     8.8960     9.2600    25.7980   -24.7770     2.4620 
   66.8750    99.2420     7.4370     7.4350     6.9640    25.8320   -25.2880     2.3960 
   67.0000    92.3300     7.1250     6.7540     6.8580    25.8080   -25.9400     2.3510 
   67.1250    82.9600     7.5510     6.8540     7.8750    25.8230   -26.7900     2.3210 
   67.2500    75.3760     8.3260     7.4390     9.4650    25.8940   -27.6700     2.2900 
   67.3750    70.7620     9.1680     8.2700    11.4580    26.0020   -28.4640     2.2470 
   67.5000    68.6190     9.8180     9.0660    14.9640    26.1470   -29.0830     2.1900 
   67.6250    66.3290    10.0410     9.5040    21.7230    26.3080   -29.5610     2.1340 
   67.7500    65.3430     9.9090     9.5380    23.2780    26.2310   -29.8520     2.0990 
   67.8750    67.2950     9.5690     9.2590    16.2610    25.9000   -29.9380     2.0970 
   68.0000    69.7180     9.1990     8.8440    11.4780    25.6350   -29.8710     2.1210 
   68.1250    70.1970     8.9680     8.4820    10.2990    25.5720   -29.6860     2.1480 
   68.2500    69.8060     8.8920     8.2520    10.4820    25.6600   -29.4070     2.1510 
   68.3750    68.4540     8.9250     8.1410    11.8540    25.8960   -29.0770     2.1310 
   68.5000    66.2140     8.9880     8.0920    14.0770    26.2660   -28.7840     2.1010 
   68.6250    65.2390     8.9980     8.0330    14.0010    26.3490   -28.5490     2.0870 
   68.7500    65.9630     8.9410     7.9350    12.0270    26.3300   -28.3810     2.0950 
   68.8750    65.7530     8.8400     7.8110    10.9360    26.3420   -28.2550     2.1200 
   69.0000    65.9380     8.7400     7.6960    10.6310    26.4230   -28.1490     2.1480 
   69.1250    67.8060     8.6920     7.6290    10.6800    26.5450   -27.9970     2.1660 
   69.2500    69.4440     8.7090     7.6170    10.8830    26.6740   -27.8660     2.1740 
   69.3750    68.9270     8.7880     7.6620    11.0790    26.7940   -27.7760     2.1750 
   69.5000    67.6460     8.9210     7.7620    11.1600    26.8800   -27.6850     2.1720 
   69.6250    67.0270     9.0930     7.9140    11.1860    26.9840   -27.5920     2.1720 
   69.7500    65.5990     9.2640     8.0850    11.2140    27.1310   -27.5180     2.1750 
   69.8750    67.0330     9.3960     8.2340    11.1580    27.3170   -27.4340     2.1800 
   70.0000    71.8600     9.4440     8.3190    11.0150    27.4960   -27.3070     2.1850 
   70.1250    73.3520     9.3650     8.2910    11.0090    27.6170   -27.1830     2.1870 
   70.2500    69.6860     9.1950     8.1700    11.0860    27.6770   -27.0930     2.1880 
   70.3750    64.6740     8.9780     7.9930    11.1180    27.6950   -27.0860     2.1870 
   70.5000    62.0030     8.7660     7.8050    10.9840    27.7030   -27.1790     2.1840 
   70.6250    60.6430     8.5870     7.6380    11.0040    27.7320   -27.2320     2.1780 
   70.7500    60.1790     8.4170     7.4820    11.0050    27.8080   -27.2030     2.1710 
   70.8750    60.9540     8.2240     7.3090    11.0710    27.9340   -27.0960     2.1680 
   71.0000    61.4600     7.9960     7.1030    11.0870    28.1360   -26.8920     2.1710 
   71.1250    63.8390     7.7590     6.8730    10.3470    28.3790   -26.5650     2.1790 
   71.2500    69.3060     7.5690     6.6690     8.9720    28.5410   -26.2540     2.1870 
   71.3750    75.9910     7.4730     6.5310     8.0890    28.5370   -25.9930     2.1910 
   71.5000    78.7060     7.4840     6.4840     8.0340    28.4570   -25.6470     2.1900 
   71.6250    77.0850     7.5870     6.5320     8.9230    28.4200   -25.2240     2.1830 
   71.7500    76.8430     7.7130     6.6240     9.4020    28.4220   -24.7220     2.1770 
   71.8750    77.8780     7.8110     6.7140     9.5000    28.4460   -24.1560     2.1730 
   72.0000    76.4250     7.8440     6.7600     9.3550    28.4650   -23.6270     2.1720 
   72.1250    72.4390     7.7990     6.7300     9.5230    28.4840   -23.2650     2.1740 
   72.2500    70.7030     7.7200     6.6580     9.6470    28.5280   -22.9950     2.1760 
   72.3750    70.5660     7.6540     6.5910     9.5750    28.6070   -22.7390     2.1790 
