~V
VERS. 2.00: Ver 2.00
~W
STRT.M 50.0000:
STOP.M 284.0000:
STEP.M 0.1250:
NULL. -999.2500:
UWI. F10254:
~C
DEPT.M :
GR.API :
RML.OHMM :
RI. :
RXO.OHMM :
CALI.CM :
DEN.GM/CC :
SP.MV :
~A
# ...
  173.7500    77.4190     6.1050     5.0480     5.4020    23.8500     2.4100     0.1280 
  173.8750    77.9570     6.1590     5.0740     5.5200    23.7800     2.4120     0.0270 
  174.0000    79.6580     6.3160     5.1790     5.6220    23.7440     2.4060    -0.0150 
  174.1250    80.4590     6.5860     5.3770     5.8820    23.7650     2.3950     0.0420 
  174.2500    80.1470     6.9060     5.6310     6.3220    23.8410     2.3890     0.0890 
  174.3750    78.9950     7.2060     5.8930     6.8950    23.9360     2.3920     0.1360 
  174.5000    77.2830     7.4120     6.1030     7.6650    24.0210     2.4020     0.2130 
  174.6250    76.5950     7.4400     6.1840     7.8100    24.0880     2.4140     0.2680 
  174.7500    77.3970     7.3180     6.1380     6.8930    24.1570     2.4220     0.3400 
  174.8750    80.2390     7.1010     5.9940     6.3340    24.2740     2.4240     0.4550 
  175.0000    84.5800     6.8580     5.8040     6.3680    24.4570     2.4210     0.5120 
  175.1250    87.7140     6.6500     5.6180     6.3800    24.6730     2.4130     0.4590 
  175.2500    87.8830     6.5000     5.4690     6.2000    24.8480     2.3970     0.3950 
  175.3750    85.2570     6.4160     5.3710     6.0450    24.9040     2.3740     0.3660 
  175.5000    81.8050     6.4000     5.3310     5.8080    24.8530     2.3480     0.3690 
  175.6250    80.7590     6.4570     5.3540     5.5140    24.6950     2.3240     0.3510 
  175.7500    81.9150     6.5580     5.4190     5.6920    24.5090     2.3050     0.2940 
  175.8750    82.6400     6.6630     5.4990     6.3790    24.3660     2.2910     0.2570 
  176.0000    82.3270     6.7160     5.5540     6.7400    24.3030     2.2820     0.2650 
  176.1250    82.3690     6.6520     5.5330     6.3090    24.2940     2.2770     0.3240 
  176.2500    83.8390     6.4910     5.4380     5.7890    24.3160     2.2760     0.4020 
  176.3750    84.8350     6.2790     5.2910     5.3850    24.3740     2.2770     0.5040 
  176.5000    84.9050     6.0760     5.1330     5.2200    24.4340     2.2810     0.5910 
  176.6250    86.6480     5.9480     5.0110     5.2540    24.4970     2.2880     0.7400 
  176.7500    89.1070     5.9000     4.9420     5.3990    24.5720     2.2950     0.9680 
  176.8750    89.5490     5.9130     4.9230     5.5810    24.7010     2.3010     1.1470 
  177.0000    87.0240     5.9590     4.9410     5.8080    24.8700     2.3040     1.2740 
  177.1250    84.4830     6.0110     4.9800     5.9010    25.0520     2.3040     1.4340 
  177.2500    83.0630     6.0530     5.0260     5.8750    25.1540     2.3020     1.6000 
  177.3750    81.6740     6.0850     5.0780     5.8490    25.1810     2.3030     1.7320 
  177.5000    80.7890     6.1150     5.1350     5.7890    25.1690     2.3090     1.8340 
  177.6250    80.5680     6.1520     5.1950     5.8140    25.1420     2.3200     1.8570 
  177.7500    80.4440     6.1940     5.2560     5.8990    25.1270     2.3310     1.8510 
  177.8750    79.4710     6.2400     5.3210     5.9740    25.1050     2.3370     1.8880 
  178.0000    79.7930     6.3020     5.4010     5.9630    25.0440     2.3400     1.9260 
  178.1250    83.7880     6.3940     5.5070     6.0230    24.9420     2.3450     1.8540 
  178.2500    87.9600     6.5060     5.6300     6.1680    24.8170     2.3550     1.7170 
  178.3750    89.3210     6.6140     5.7480     6.3370    24.6770     2.3690     1.5710 
  178.5000    89.3180     6.6830     5.8360     6.3750    24.5320     2.3800     1.4440 
  178.6250    91.3400     6.6770     5.8640     6.1530    24.3790     2.3820     1.3180 
  178.7500    92.5420     6.6050     5.8340     5.8920    24.2500     2.3760     1.1250 
  178.8750    90.0410     6.4850     5.7520     5.7810    24.1630     2.3660     0.9210 
  179.0000    87.0600     6.3390     5.6330     5.8920    24.1130     2.3570     0.8120 
  179.1250    87.2410     6.1870     5.4950     6.0140    24.1030     2.3520     0.7760 
  179.2500    87.8830     6.0480     5.3590     5.9610    24.1140     2.3510     0.7760 
  179.3750    85.8370     5.9360     5.2400     5.7850    24.1390     2.3520     0.8300 
  179.5000    81.9350     5.8620     5.1470     5.6720    24.1660     2.3550     0.9420 
  179.6250    80.6800     5.8310     5.0910     5.6800    24.1940     2.3580     1.1210 
  179.7500    83.3570     5.8270     5.0630     5.7200    24.2160     2.3600     1.3490 
  179.8750    86.3410     5.8320     5.0530     5.7590    24.2500     2.3590     1.5970 
  180.0000    87.0540     5.8170     5.0440     5.7100    24.3660     2.3550     1.7690 
  180.1250    85.6270     5.7580     5.0150     5.6450    24.6240     2.3470     1.9030 
  180.2500    84.3310     5.6810     4.9780     5.6800    24.8550     2.3420     2.0200 
  180.3750    82.3170     5.6400     4.9670     5.7750    24.9370     2.3410     2.0200 
  180.5000    80.1190     5.7040     5.0320     5.8030    24.9230     2.3490     1.8930 
  180.6250    80.3070     5.9570     5.2390     5.7800    24.8860     2.3640     1.7060 
  180.7500    81.2620     6.3760     5.5850     6.0920    24.8720     2.3820     1.5120 
  180.8750    82.0260     6.8960     6.0390     6.9250    24.8640     2.3990     1.2740 
  181.0000    84.1600     7.4050     6.5230     7.9540    24.8500     2.4130     0.9940 
  181.1250    87.7350     7.7340     6.8960     8.5480    24.8030     2.4180     0.6660 
  181.2500    89.0690     7.8260     7.0760     8.4650    24.7470     2.4150     0.3040 
  181.3750    87.9420     7.7100     7.0530     7.9890    24.6980     2.4010     0.0210 
  181.5000    88.6720     7.4880     6.8940     7.5560    24.6770     2.3830    -0.1710 
  181.6250    91.2030     7.2920     6.6980     7.3980    24.6780     2.3650    -0.3830 
  181.7500    91.6670     7.1860     6.5370     7.3570    24.6830     2.3540    -0.6890 
  181.8750    90.1180     7.1620     6.4280     7.3180    24.6890     2.3490    -1.0390 
  182.0000    89.7630     7.1770     6.3540     7.2340    24.6850     2.3440    -1.3440 
  182.1250    90.9790     7.1530     6.2790     7.1830    24.7600     2.3350    -1.6350 
  182.2500    92.5900     7.0620     6.1810     7.2830    24.8580     2.3230    -2.0400 
  182.3750    93.9600     6.9780     6.1040     7.4690    24.9140     2.3150    -2.6070 
  182.5000    93.5480     7.0770     6.1610     7.6730    24.8710     2.3220    -3.3040 
  182.6250    89.9780     7.6230     6.5440     7.7890    24.7210     2.3530    -4.1000 
  182.7500    85.5870     8.6110     7.2750     8.7200    24.5590     2.3980    -4.9420 
  182.8750    81.4270     9.8860     8.2950    11.4560    24.4590     2.4390    -5.8470 
  183.0000    76.1760    11.0890     9.3730    19.0560    24.4240     2.4560    -6.8270 
  183.1250    71.9260    11.5960    10.0140    22.6520    24.4230     2.4330    -7.8800 
  183.2500    71.0430    11.2810    10.0020    16.6880    24.4220     2.3860    -8.8780 
  183.3750    71.8210    10.4440     9.4990    11.1120    24.3940     2.3320    -9.7890 
  183.5000    72.7750     9.5920     8.8740     9.9400    24.3220     2.2870   -10.6500 
  183.6250    74.1390     9.1930     8.4970    10.0540    24.2670     2.2580   -11.3500 
  183.7500    75.1130     9.2660     8.4540    10.3140    24.2330     2.2430   -11.7830 
  183.8750    75.0080     9.6250     8.6650    10.3370    24.2190     2.2380   -11.9030 
  184.0000    75.2320     9.9500     8.9120    10.4010    24.1970     2.2440   -11.7110 
  184.1250    77.4670     9.8810     8.8920    10.5270    24.1090     2.2620   -11.0940 
  184.2500    81.5420     9.4100     8.5410    10.3210    23.8870     2.2870   -10.1090 
  184.3750    88.0040     8.6690     7.9350     9.2270    23.5360     2.3190    -8.7920 
  184.5000    94.6100     7.8300     7.2140     7.6140    23.3250     2.3530    -7.2050 
  184.6250    94.8510     7.0700     6.5290     7.0530    23.5070     2.3850    -5.5560 
  184.7500    90.8710     6.4990     5.9900     6.9820    23.7460     2.4120    -4.0560 
  184.8750    89.0720     6.2020     5.6690     6.7240    23.9460     2.4360    -2.7710 
