~V
VERS. 2.00: Ver 2.00
~W
STRT.M 53.0000:
STOP.M 269.0000:
STEP.M 0.1250:
NULL. -999.2500:
UWI. F10224:
~C
DEPT.M :
DEN.GM/CC :
GR.API :
RML.OHMM :
RI. :
RXO.OHMM :
CALI.CM :
SP.MV :
~A
   53.0000  -999.2500    42.7310     0.6730     0.3360     0.7390    22.5810  -999.2500 
   53.1250  -999.2500    42.2150     0.7110     0.3500     0.8310    22.7640  -999.2500 
   53.2500  -999.2500    41.5330     0.8520     0.3490     0.8950    23.0050  -999.2500 
   53.3750  -999.2500    42.1270     1.0660     0.3330     0.9530    23.2010  -999.2500 
   53.5000  -999.2500    42.6380     1.2710     0.3090     1.0550    23.5260  -999.2500 
   53.6250  -999.2500    40.1910     1.3500     0.2900     1.2370    24.2000  -999.2500 
   53.7500  -999.2500    37.1250     1.2960     0.2810     1.6300    24.8630  -999.2500 
   53.8750  -999.2500    36.2570     1.1860     0.2830     3.6880    25.1990  -999.2500 
   54.0000  -999.2500    37.3010     1.1140     0.2890 999999.8750    25.2800  -999.2500 
   54.1250  -999.2500    36.6440     1.1260     0.2940 1000000.0000    25.2800  -999.2500 
   54.2500  -999.2500    35.0280     1.1830     0.2960 1000000.0000    25.2800   -14.6090 
   54.3750  -999.2500    34.1530     1.2390     0.2950 1000000.0000    25.2800   -14.6090 
   54.5000  -999.2500    34.7290     1.2390     0.2930 1000000.0000    25.2820   -14.7920 
   54.6250  -999.2500    35.8520     1.1560     0.2930 1000000.0000    25.2880   -14.5490 
   54.7500  -999.2500    36.5420     1.0190     0.2970 1000000.0000    25.2940   -13.9120 
   54.8750  -999.2500    38.1720     0.8720     0.3010 1000000.0000    25.2620   -12.9670 
   55.0000  -999.2500    41.4450     0.7450     0.3020 1000000.0000    25.0660   -11.6510 
   55.1250  -999.2500    43.9300     0.6540     0.2980 1000000.0000    24.5080    -9.7730 
   55.2500  -999.2500    43.7300     0.6000     0.2940 500021.0000    23.8280    -7.5670 
   55.3750  -999.2500    41.2940     0.5940     0.2960    14.4430    23.4090    -5.3530 
   55.5000  -999.2500    39.4240     0.6370     0.3100     2.3820    23.3000    -3.3820 
   55.6250  -999.2500    39.5210     0.7010     0.3280     1.1580    23.2950    -1.7410 
   55.7500  -999.2500    41.1320     0.7280     0.3410     0.7390    23.2780    -0.3970 
   55.8750  -999.2500    42.7170     0.6830     0.3430     0.5750    23.3000     0.7070 
   56.0000  -999.2500    42.6220     0.5730     0.3330     0.5610    23.4380     1.5080 
   56.1250  -999.2500    41.2660     0.4500     0.3190     0.7390    23.4520     1.8330 
   56.2500  -999.2500    40.8790     0.3770     0.3100     1.0340    23.3450     1.8020 
   56.3750  -999.2500    41.5900     0.3730     0.3090     1.3210    23.2630     1.5020 
   56.5000  -999.2500    40.7180     0.4290     0.3150     1.5050    23.3290     0.9510 
   56.6250  -999.2500    40.7230     0.5360     0.3200     1.6030    23.5050     0.0240 
   56.7500  -999.2500    45.5880     0.6970     0.3210     1.7230    23.6900    -1.3600 
   56.8750  -999.2500    53.4180     0.9550     0.3190     2.1050    23.9960    -3.2940 
   57.0000  -999.2500    59.5200     1.3710     0.3160     6.5780    24.4790    -5.6580 
   57.1250  -999.2500    61.7170     1.9450     0.3130 1000000.0000    24.9500    -8.2740 
   57.2500  -999.2500    62.9660     2.2520     0.3120 1000000.0000    25.1970   -10.8490 
   57.3750  -999.2500    63.7340     1.8720     0.3130 1000000.0000    25.2700   -13.1350 
   57.5000  -999.2500    63.1210     1.1670     0.3160 1000000.0000    25.2780   -14.9400 
   57.6250  -999.2500    59.1200     0.7140     0.3200 1000000.0000    25.2730   -15.9400 
   57.7500     2.1500    51.0350     0.5090     0.3210 1000000.0000    25.2560   -16.1350 
   57.8750     2.1500    43.2360     0.4450     0.3190 250006.8280    25.2270   -15.5600 
   58.0000     2.2750    40.0950     0.4340     0.3160     6.4600    25.2030   -14.4270 
   58.1250     2.3600    42.1010     0.4190     0.3160 250016.7340    25.1890   -12.8930 
   58.2500     2.3040    45.2060     0.3950     0.3220 1000000.0000    25.1690   -11.2170 
   58.3750     2.1820    47.0170     0.3830     0.3290 1000000.0000    25.1390    -9.5760 
   58.5000     2.0830    47.3940     0.3990     0.3340 1000000.0000    25.1230    -8.0720 
   58.6250     2.0400    45.8610     0.4530     0.3320 1000000.0000    25.1210    -6.8240 
   58.7500     2.0220    43.8890     0.5120     0.3250 1000000.0000    25.1210    -5.7870 
   58.8750     2.0120    43.0930     0.5280     0.3190 1000000.0000    25.1200    -4.9280 
   59.0000     2.0120    43.3790     0.4680     0.3180 1000000.0000    25.1170    -4.1250 
   59.1250     2.0240    41.4300     0.3380     0.3250 1000000.0000    25.1130    -3.2450 
   59.2500     2.0380    36.9240     0.2000     0.3320 1000000.0000    25.0950    -2.2470 
   59.3750     2.0480    35.4110     0.1020     0.3370 1000000.0000    25.0700    -1.1320 
   59.5000     2.0510    40.4430     0.0610     0.3340 1000000.0000    25.0550     0.0700 
   59.6250     2.0470    45.9290     0.0660     0.3250 1000000.0000    25.0520     1.3980 
   59.7500     2.0400    46.0100     0.0730     0.3150 1000000.0000    25.0390     2.8860 
   59.8750     2.0350    44.1170     0.0530     0.3100 1000000.0000    24.9640     4.5870 
   60.0000     2.0300    45.4200     0.0020     0.3130 1000000.0000    24.7340     6.4800 
   60.1250     2.0230    50.2770    -0.0630     0.3240 1000000.0000    24.4390     8.3800 
   60.2500     2.0160    54.4620    -0.1160     0.3350 1000000.0000    24.3250    10.0550 
   60.3750     2.0100    55.4430    -0.1480     0.3440 1000000.0000    24.3990    11.4630 
   60.5000     2.0070    54.0420    -0.1570     0.3460 1000000.0000    24.3570    12.6420 
   60.6250     2.0030    52.7720    -0.1480     0.3390 1000000.0000    24.0810    13.4830 
   60.7500     1.9980    53.7160    -0.1320     0.3280 1000000.0000    23.8010    13.9160 
   60.8750     1.9960    54.5790    -0.1220     0.3140 1000000.0000    23.6640    13.8680 
   61.0000     2.0010    54.5100    -0.1290     0.2960 1000000.0000    23.6300    13.3120 
   61.1250     2.0220    55.4620    -0.1680     0.2650 1000000.0000    23.5990    12.2800 
   61.2500     2.0620    57.7570    -0.2320     0.2250 1000000.0000    23.5310    10.9640 
   61.3750     2.1250    59.1260    -0.2950     0.1840 1000000.0000    23.4620     9.3600 
   61.5000     2.2100    60.1340    -0.3370     0.1550 1000000.0000    23.4210     7.4540 
   61.6250     2.3100    62.7310    -0.3430     0.1460 1000000.0000    23.4610     5.1350 
   61.7500     2.4040    64.7240    -0.3190     0.1570 500023.4060    23.5590     2.4560 
   61.8750     2.4640    64.8440    -0.2510     0.1970    12.2780    23.7120    -0.4780 
   62.0000     2.4450    64.8270    -0.0970     0.2940     1.1360    24.0300    -3.4950 
   62.1250     2.3000    65.7950     0.2610     0.5270     1.7010    25.1230    -6.3140 
   62.2500     2.0900    65.2760     0.9080     0.9730     2.8190    26.7980    -8.7860 
   62.3750     1.9120    63.8870     1.9010     1.7160     4.3860    27.4920   -10.8250 
   62.5000     1.8470    65.7450     3.1000     2.7450     5.9540    25.6090   -12.4290 
   62.6250     1.9170    72.8880     4.0120     3.8220     6.7200    23.2700   -13.4770 
   62.7500     2.0520    80.1920     4.4220     4.6380     6.9630    22.3000   -14.0260 
   62.8750     2.1830    84.5510     4.5490     5.1530     6.5550    22.2390   -14.1630 
   63.0000     2.2580    88.0150     4.6750     5.5040     5.9710    22.2550   -14.0580 
   63.1250     2.2790    93.2970     4.9510     5.8460     6.0130    22.0310   -13.9180 
   63.2500     2.2810    96.9800     5.3250     6.2170     6.6210    21.7540   -13.8510 
   63.3750     2.2730    96.3510     5.7130     6.5700     7.3960    21.6350   -13.8940 
   63.5000     2.2650    92.8170     6.0280     6.8430     7.8040    21.7060   -14.0560 
   63.6250     2.2640    89.3660     6.2370     7.0000     7.5020    22.0930   -14.3330 
   63.7500     2.2640    86.7750     6.4390     7.1150     6.9510    22.7080   -14.6230 
   63.8750     2.2580    83.9030     6.7240     7.2590     6.6420    22.9910   -14.9340 
   64.0000     2.2400    79.8620     7.1070     7.4480     6.9770    22.6070   -15.2820 
