~V
VERS. 2.00: Ver 2.00
~W
STRT.M 53.0000:
STOP.M 296.0000:
STEP.M 0.1250:
NULL. -999.2500:
UWI. F10258:
~C
DEPT.M :
GR.API :
RML.OHMM :
RI. :
RXO.OHMM :
CALI.CM :
DEN.GM/CC :
SP.MV :
~A
# ...
  255.5000    73.7340    46.1250    43.0870    45.6620    25.7670     2.2370   -20.5400 
  255.6250    70.2040    42.6430    39.6370    38.8380    25.7670     2.2490   -20.5510 
  255.7500    67.9200    40.4990    37.3250    36.9400    25.7670     2.2600   -20.5650 
  255.8750    67.4550    39.9290    36.4550    36.3760    25.7670     2.2670   -20.5880 
  256.0000    68.5410    40.8770    37.0740    37.3160    25.7670     2.2700   -20.6090 
  256.1250    70.2650    43.2030    39.2160    39.4510    25.7670     2.2690   -20.6280 
  256.2500    72.2100    46.1380    42.2010    45.7800    25.7670     2.2670   -20.6330 
  256.3750    72.8520    49.0310    45.3820    52.9090    25.7670     2.2660   -20.6230 
  256.5000    72.2380    51.2310    48.0330    58.7340    25.7670     2.2670   -20.5890 
  256.6250    70.9750    52.1000    49.3520    59.6350    25.7580     2.2710   -20.5070 
  256.7500    70.2250    51.8650    49.4090    54.9230    25.7370     2.2750   -20.3730 
  256.8750    69.9890    50.9390    48.5760    50.0670    25.7160     2.2770   -20.2070 
  257.0000    71.4110    49.8530    47.4210    48.4740    25.7070     2.2760   -20.0220 
  257.1250    74.4340    49.1120    46.5080    49.4890    25.7070     2.2740   -19.8170 
  257.2500    75.4150    48.8480    46.0550    50.4670    25.7070     2.2710   -19.6090 
  257.3750    73.5410    49.0320    46.0780    50.3230    25.7070     2.2700   -19.3970 
  257.5000    71.3170    49.5590    46.4920    49.9900    25.7070     2.2680   -19.1910 
  257.6250    69.5710    50.3480    47.2300    50.6970    25.7040     2.2640   -19.0140 
  257.7500    68.5250    51.2770    48.1690    51.8410    25.6890     2.2580   -18.8730 
  257.8750    68.6120    52.2750    49.2440    53.4230    25.6590     2.2540   -18.7580 
  258.0000    69.6090    53.2550    50.3400    55.0070    25.6350     2.2530   -18.6490 
  258.1250    69.8950    54.0670    51.2640    55.9420    25.6150     2.2590   -18.5390 
  258.2500    70.2270    54.6000    51.8760    55.4010    25.5930     2.2730   -18.4200 
  258.3750    70.7900    54.7400    52.0480    53.5140    25.5770     2.2960   -18.2900 
  258.5000    69.6500    54.3880    51.6800    51.7000    25.5710     2.3230   -18.1380 
  258.6250    67.9830    53.4090    50.6190    52.0710    25.5710     2.3480   -17.9500 
  258.7500    69.6060    52.0160    49.0340    52.1750    25.5710     2.3640   -17.7340 
  258.8750    71.5470    50.5570    47.2030    51.0690    25.5710     2.3750   -17.5140 
  259.0000    70.5620    49.6300    45.6830    47.4560    25.5710     2.3880   -17.3030 
  259.1250    68.8960    50.3570    45.6090    43.5340    25.5690     2.4210   -17.1000 
  259.2500    70.7550    53.3900    47.7990    41.2810    25.5570     2.4780   -16.9000 
  259.3750    72.8190    59.2430    53.0190    45.0630    25.5280     2.5540   -16.7040 
  259.5000    70.1490    67.7140    61.5710    58.6610    25.5370     2.6340   -16.5240 
  259.6250    65.0960    76.8730    72.3480    95.3780    25.6580     2.6920   -16.3360 
  259.7500    62.5200    82.9690    81.0070   131.7490    25.8780     2.7180   -16.1280 
  259.8750    61.9860    83.2720    83.5470   123.8420    26.0310     2.7110   -15.8780 
  260.0000    61.6140    77.3480    78.8950    88.7800    26.0780     2.6840   -15.6010 
  260.1250    63.1100    66.6470    68.6990    59.0000    26.0040     2.6580   -15.3150 
  260.2500    66.2310    54.4160    56.3280    34.2560    25.8140     2.6530   -15.0330 
  260.3750    69.3220    42.1460    43.3360    25.5240    25.5900     2.6710   -14.7670 
  260.5000    72.7640    30.9310    31.2330    37.5870    25.4730     2.6960   -14.5110 
  260.6250    76.2820    22.0730    21.8070    43.3360    25.4490     2.6970   -14.2840 
  260.7500    78.1310    15.6010    15.1990    26.1560    25.4060     2.6630   -14.0970 
  260.8750    77.8970    11.3640    11.0930    12.7180    25.3520     2.5980   -13.9750 
  261.0000    78.2780     9.0210     8.8290     9.7240    25.3230     2.5220   -13.9200 
  261.1250    81.0120     7.5740     7.9110     9.8430    25.3160     2.4620   -13.9320 
  261.2500    84.7880     7.5580     7.7050    10.5380    25.3150     2.4250   -13.9800 
  261.3750    89.2790     7.8350     7.9520    10.9270    25.3090     2.4090   -14.0430 
  261.5000    93.0310     8.1750     8.3960    11.1150    25.2920     2.4050   -14.1170 
  261.6250    94.4070     8.4030     8.7810    11.3310    25.2600     2.4030   -14.1800 
  261.7500    95.9540     8.4680     8.9870    11.4890    25.2340     2.4000   -14.2150 
  261.8750    99.7950     8.3730     8.9890    11.1980    25.2060     2.3970   -14.2090 
  262.0000   105.0910     8.1440     8.7950    10.8750    25.1820     2.3940   -14.1650 
  262.1250   109.8360     7.8220     8.4350    10.6890    25.1550     2.3940   -14.0860 
  262.2500   115.1830     7.4900     8.0190    10.4270    25.1310     2.3940   -13.9840 
  262.3750   121.6690     7.2040     7.6210     9.7920    25.1210     2.3940   -13.8530 
  262.5000   126.9300     6.9980     7.2900     9.3430    25.1140     2.3940   -13.6970 
  262.6250   125.1520     6.8830     7.0510     9.7910    25.0960     2.3960   -13.5240 
  262.7500   117.2900     6.8180     6.8730     9.9350    25.0770     2.3970   -13.3420 
  262.8750   109.3960     6.7780     6.7380     9.2910    25.0750     2.3990   -13.1330 
  263.0000   106.6550     6.7560     6.6420     8.5470    25.0640     2.4000   -12.8900 
  263.1250   108.1090     6.7600     6.5900     8.3880    25.0560     2.4020   -12.6140 
  263.2500   108.5800     6.7880     6.5750     8.6820    25.0520     2.4070   -12.3290 
  263.3750   109.1460     6.8230     6.5760     8.9840    25.0520     2.4130   -12.0560 
  263.5000   111.2710     6.8300     6.5600     8.3740    25.0520     2.4170   -11.7940 
  263.6250   111.1430     6.7620     6.4690     7.9740    25.0620     2.4160   -11.5600 
  263.7500   107.8320     6.6280     6.3000     7.7100    25.0870     2.4120   -11.3550 
  263.8750   106.6390     6.4630     6.0850     7.6530    25.1180     2.4040   -11.1880 
  264.0000   110.8030     6.3160     5.8740     7.7000    25.1470     2.3970   -11.0720 
  264.1250   116.2080     6.2410     5.7230     7.6480    25.1730     2.3940   -11.0160 
  264.2500   117.0370     6.2460     5.6450     7.5280    25.1830     2.4000   -11.0000 
  264.3750   115.2490     6.3260     5.6470     7.4210    25.1840     2.4200   -11.0080 
  264.5000   113.7730     6.4710     5.7290     7.6090    25.1830     2.4500   -11.0280 
  264.6250   112.3950     6.6760     5.8940     8.1270    25.1830     2.4800   -11.0550 
  264.7500   111.4090     6.9230     6.1050     9.1610    25.1850     2.4990   -11.0850 
  264.8750   110.9710     7.2000     6.3390    11.4670    25.1950     2.5030   -11.1080 
  265.0000   110.0580     7.4860     6.5740    14.8760    25.2110     2.4970   -11.1020 
  265.1250   110.4870     7.7260     6.7770    14.6730    25.1980     2.4930   -11.0670 
  265.2500   111.2090     7.8730     6.9080    11.8340    25.1910     2.4960   -11.0410 
  265.3750   109.7130     7.8970     6.9370     9.6110    25.1910     2.5020   -11.0430 
  265.5000   107.1890     7.8120     6.8610     9.0380    25.1970     2.5030   -11.0670 
  265.6250   107.2800     7.6650     6.7090     8.9200    25.2070     2.4950   -11.1020 
  265.7500   109.1320     7.5340     6.5610     9.1800    25.2110     2.4820   -11.1250 
  265.8750   110.9050     7.4550     6.4590    10.1270    25.2190     2.4700   -11.1230 
  266.0000   114.8700     7.4310     6.4160    11.9970    25.2310     2.4620   -11.0930 
  266.1250   121.6920     7.4310     6.4200    12.9850    25.2430     2.4570   -11.0170 
  266.2500   124.0970     7.4050     6.4340    11.2300    25.2470     2.4520   -10.8830 
  266.3750   119.5860     7.3240     6.4350     9.3240    25.2480     2.4470   -10.6950 
  266.5000   112.1780     7.1860     6.4090     8.0800    25.2480     2.4430   -10.4740 
  266.6250   107.6800     7.0170     6.3580     7.1940    25.2480     2.4390   -10.2130 
