~V
VERS. 2.00: Ver 2.00
~W
STRT.M 53.0000:
STOP.M 286.0000:
STEP.M 0.1250:
NULL. -999.2500:
UWI. F10262:
~C
DEPT.M :
DEN.GM/CC :
GR.API :
RML.OHMM :
RI. :
RXO.OHMM :
CALI.CM :
SP.MV :
~A
# ...
  109.2500     2.2110    72.3380    11.1920     8.3100    12.0730    24.2070   -15.7710 
  109.3750     2.2060    70.6190    11.2470     8.4010    12.0540    24.2100   -15.8670 
  109.5000     2.1990    67.9820    11.2970     8.4680    11.9740    24.2110   -15.9330 
  109.6250     2.1970    66.3950    11.3330     8.5070    12.0700    24.2170   -15.9480 
  109.7500     2.2020    67.6460    11.3480     8.5180    12.1390    24.2300   -15.8990 
  109.8750     2.2060    70.2950    11.3210     8.5000    12.1340    24.2290   -15.8000 
  110.0000     2.2050    72.0360    11.2270     8.4450    11.6800    24.2240   -15.6670 
  110.1250     2.1970    71.7260    11.0370     8.3330    11.2710    24.2440   -15.4480 
  110.2500     2.1840    70.3740    10.7440     8.1560    11.1030    24.3740   -15.2090 
  110.3750     2.1780    72.1440    10.3780     7.9260    11.0400    24.6830   -14.9060 
  110.5000     2.1850    77.0790    10.0190     7.6930    10.7760    24.9940   -14.5930 
  110.6250     2.1980    80.1950     9.7280     7.4980    10.3590    25.0270   -14.3210 
  110.7500     2.2020    76.2830     9.5370     7.3720    10.4770    25.0420   -14.0990 
  110.8750     2.1660    68.1970     9.4630     7.3360    10.3470    25.3050   -13.9190 
  111.0000     2.0860    63.5910     9.4750     7.3740    10.1080    25.8690   -13.7630 
  111.1250     1.9790    62.1630     9.5690     7.4780     9.7450    26.7290   -13.6030 
  111.2500     1.8780    62.1960     9.7400     7.6400     9.4010    27.7220   -13.3720 
  111.3750     1.8280    63.5230     9.9280     7.8190     9.1920    28.1750   -13.1340 
  111.5000     1.8340    66.7110     9.9780     7.9120     9.4290    27.9670   -12.8440 
  111.6250     1.8840    71.0260     9.7570     7.8170     9.9420    27.5840   -12.3810 
  111.7500     1.9530    72.9700     9.2750     7.5250    10.1780    27.3500   -11.7430 
  111.8750     2.0260    74.1690     8.7760     7.1830     9.5930    27.0840   -10.9780 
  112.0000     2.1060    81.0250     8.5660     6.9950     8.6920    26.5900   -10.1440 
  112.1250     2.2040    92.7340     8.7750     7.0550     8.5470    25.9900    -9.3270 
  112.2500     2.3170   103.1060     9.2980     7.3210    10.3970    25.6710    -8.5380 
  112.3750     2.4150   106.5800     9.6860     7.5360    14.4330    25.5020    -7.8870 
  112.5000     2.4700   107.8650     9.4910     7.3870    14.6840    25.3260    -7.4460 
  112.6250     2.4720   111.5180     8.6650     6.8130    11.3910    25.0870    -7.2470 
  112.7500     2.4390   117.3900     7.5870     6.0470     9.0580    24.8680    -7.3420 
  112.8750     2.3990   123.0780     6.8800     5.4630     8.3840    24.7770    -7.7460 
  113.0000     2.3680   122.6240     6.8220     5.2480     8.7770    24.7340    -8.4250 
  113.1250     2.3430   112.4800     7.4010     5.4500    10.0130    24.6560    -9.3420 
  113.2500     2.3140    97.5940     8.3790     6.0090    11.5850    24.5290   -10.4240 
  113.3750     2.2770    85.8640     9.3390     6.7530    11.4520    24.5570   -11.5290 
  113.5000     2.2410    77.7930     9.9390     7.3920    10.8850    24.7670   -12.5420 
  113.6250     2.2170    72.1400    10.0950     7.7700    10.6400    25.1270   -13.4870 
  113.7500     2.2100    70.4100     9.9360     7.8900    10.6990    25.4010   -14.3120 
  113.8750     2.2200    73.1650     9.7030     7.8630    10.7290    25.3490   -14.9490 
  114.0000     2.2290    74.7670     9.5770     7.8410    10.6780    25.1510   -15.3990 
  114.1250     2.2160    74.0390     9.5820     7.8660    10.6640    25.1070   -15.6520 
  114.2500     2.1610    73.5720     9.6790     7.9290    10.8120    25.2990   -15.8140 
  114.3750     2.0560    73.2850     9.8040     8.0000    10.5900    25.8120   -15.9540 
  114.5000     1.9370    72.8980     9.8740     8.0330    10.0850    26.6020   -16.1100 
  114.6250     1.8400    72.1350     9.8420     7.9970     9.5350    27.4550   -16.2700 
  114.7500     1.7890    71.2580     9.7170     7.8950     9.5590    27.9400   -16.4610 
  114.8750     1.7920    70.0590     9.5590     7.7610    10.1810    27.9980   -16.6760 
  115.0000     1.8190    69.7950     9.4460     7.6480    10.4210    28.1080   -16.8730 
  115.1250     1.8440    71.7690     9.4090     7.5800    10.2900    28.3170   -17.0880 
  115.2500     1.8570    74.0710     9.4240     7.5510    10.3900    28.2230   -17.2360 
  115.3750     1.8610    77.6360     9.4130     7.5200    10.5730    27.4490   -17.2570 
  115.5000     1.8760    84.0730     9.3190     7.4440    10.6210    26.4940   -17.2140 
  115.6250     1.9170    95.1910     9.1570     7.3200    10.7950    25.7980   -17.0710 
  115.7500     1.9860   113.7640     8.9990     7.1890    11.1410    25.1200   -16.8570 
  115.8750     2.0700   141.0040     8.9580     7.1220    10.9470    24.8090   -16.6940 
  116.0000     2.1410   160.4670     9.0830     7.1560    10.9660    24.3810   -16.6530 
  116.1250     2.1890   154.4510     9.3710     7.3040    11.5810    24.0500   -16.7170 
  116.2500     2.2130   125.1360     9.7620     7.5410    12.3660    23.9110   -16.8880 
  116.3750     2.2170    95.4620    10.1280     7.7990    12.4110    23.9090   -17.2110 
  116.5000     2.2070    78.4790    10.3590     7.9940    12.2540    24.0260   -17.5930 
  116.6250     2.1760    71.8850    10.4250     8.0870    11.9430    24.3400   -18.0290 
  116.7500     2.1210    70.4680    10.3700     8.0880    11.3620    24.7920   -18.4500 
  116.8750     2.0500    69.7170    10.2900     8.0440    10.7950    25.1800   -18.7130 
  117.0000     1.9850    67.8480    10.2630     8.0200    10.8780    25.2560   -18.8070 
  117.1250     1.9450    66.7540    10.3000     8.0350    11.2780    25.0260   -18.7650 
  117.2500     1.9430    66.2610    10.3690     8.0850    11.4820    24.7370   -18.6640 
  117.3750     1.9800    64.7500    10.4240     8.1510    11.4470    24.6150   -18.5300 
  117.5000     2.0340    63.7520    10.4470     8.2120    11.5080    24.6770   -18.3650 
  117.6250     2.0910    65.3890    10.4460     8.2610    11.5090    24.9020   -18.1730 
  117.7500     2.1350    66.4490    10.4510     8.3070    11.4650    25.2700   -17.9740 
  117.8750     2.1540    63.9420    10.5040     8.3650    11.3180    25.8200   -17.7710 
  118.0000     2.1490    62.7950    10.6140     8.4420    11.0250    26.4700   -17.5140 
  118.1250     2.1300    65.0870    10.7420     8.5200    10.5120    26.8920   -17.1180 
  118.2500     2.1100    68.0270    10.7930     8.5410    10.2120    26.7090   -16.5460 
  118.3750     2.0980    67.1510    10.5900     8.3830    10.5040    26.1240   -15.7950 
  118.5000     2.0910    65.0790    10.0910     8.0080    10.9400    25.8410   -14.9870 
  118.6250     2.0820    66.6080     9.3690     7.4630    10.8680    25.8380   -14.1370 
  118.7500     2.0740    72.6640     8.6120     6.8760    10.2310    26.0210   -13.3420 
  118.8750     2.0780    81.2210     8.0930     6.4290     9.1550    26.1610   -12.7680 
  119.0000     2.0960    86.2340     7.9210     6.2050     8.7440    26.1520   -12.4480 
  119.1250     2.1200    86.8710     8.1000     6.2260     9.0120    26.0220   -12.4520 
  119.2500     2.1380    84.5920     8.5470     6.4640     9.5430    25.8470   -12.6890 
  119.3750     2.1440    79.5730     9.1100     6.8570    10.1970    25.6690   -13.0500 
  119.5000     2.1470    74.2330     9.6000     7.2700    10.4740    25.5160   -13.4970 
  119.6250     2.1570    72.0070     9.9390     7.6260    10.4950    25.3680   -14.0730 
  119.7500     2.1710    74.2270    10.1390     7.8950    10.4110    25.2200   -14.6600 
  119.8750     2.1840    75.6070    10.2670     8.0900    10.7030    25.0430   -15.1060 
  120.0000     2.1910    72.9050    10.3850     8.2540    11.1360    25.0200   -15.4110 
  120.1250     2.1940    68.8010    10.4880     8.3960    12.4950    25.2080   -15.5280 
  120.2500     2.1920    68.2140    10.5470     8.5040    14.7040    25.5790   -15.5390 
  120.3750     2.1800    71.4100    10.5480     8.5660    15.6700    26.2120   -15.5360 
