~V
VERS. 2.00: Ver 2.00
~W
STRT.M 50.0000:
STOP.M 258.0000:
STEP.M 0.1250:
NULL. -999.2500:
UWI. F10200:
~C
DEPT.M :
SP.MV :
GR.API :
RML.OHMM :
RI. :
RXO.OHMM :
CALI.CM :
DEN.GM/CC :
~A
# ...
  207.5000   -13.0260    58.0390   129.1700   113.0240   120.7300    23.8790     2.1990 
  207.6250   -13.0370    60.8470   138.1470   121.1730   125.9380    23.8520     2.1940 
  207.7500   -13.0400    61.0570   147.0010   129.3180   135.5130    23.8030     2.1900 
  207.8750   -13.0180    59.0260   155.3990   137.1650   152.4490    23.7540     2.1880 
  208.0000   -12.9770    57.3210   163.1340   144.5040   163.2950    23.7140     2.1870 
  208.1250   -12.9220    55.0320   169.7080   150.8630   159.8300    23.6920     2.1880 
  208.2500   -12.8650    52.5570   174.6810   155.8660   158.2740    23.6830     2.1880 
  208.3750   -12.8080    53.9980   177.2300   158.8580   169.8760    23.6810     2.1890 
  208.5000   -12.7500    58.9120   176.3960   159.0570   179.0940    23.6720     2.1890 
  208.6250   -12.6960    60.1540   170.9960   155.1590   178.2620    23.6480     2.1890 
  208.7500   -12.6500    55.5120   162.6210   147.7060   165.3920    23.6100     2.1890 
  208.8750   -12.6210    51.5920   152.0670   137.4640   155.6900    23.5720     2.1890 
  209.0000   -12.6070    52.4510   140.6870   125.7840   148.1500    23.5590     2.1900 
  209.1250   -12.6010    53.7450   131.4890   114.5180   133.6630    23.5710     2.1950 
  209.2500   -12.6000    52.3400   120.4600   105.1360   118.6120    23.5490     2.2010 
  209.3750   -12.6030    50.5690   112.8190    98.5260   103.6660    23.4090     2.2060 
  209.5000   -12.6120    52.0480   108.9820    95.1710    92.3000    23.2030     2.2100 
  209.6250   -12.6280    55.2350   109.3580    95.6200    85.0700    23.2230     2.2100 
  209.7500   -12.6460    57.1260   112.4570    98.7300    82.6460    23.5650     2.2060 
  209.8750   -12.6680    57.0770   116.9470   103.4520    86.2190    23.8580     2.2000 
  210.0000   -12.7000    55.8160   121.2150   108.4150    94.6620    23.9560     2.1940 
  210.1250   -12.7520    57.9440   123.2350   111.8130    96.5660    23.9280     2.1910 
  210.2500   -12.8250    63.0760   122.3400   112.7700    99.5880    23.8970     2.1900 
  210.3750   -12.9150    65.6420   118.5760   111.0450   104.6870    23.8840     2.1910 
  210.5000   -13.0060    62.6470   112.6860   107.0420   107.1250    23.8820     2.1900 
  210.6250   -13.1100    58.6660   105.5860   101.3730   103.1440    23.8820     2.1880 
  210.7500   -13.2310    56.7590    98.2180    95.0190    99.0370    23.8820     2.1870 
  210.8750   -13.3790    55.6620    90.9200    88.3810    94.8300    23.8770     2.1880 
  211.0000   -13.5450    55.4190    83.9390    81.7740    88.7430    23.8610     2.1900 
  211.1250   -13.7210    58.5670    77.7340    75.6760    84.3830    23.8270     2.1920 
  211.2500   -13.9120    62.1030    72.6570    70.5060    77.4370    23.8030     2.1970 
  211.3750   -14.1250    63.0380    69.2290    66.7720    70.5050    23.7800     2.2040 
  211.5000   -14.3840    62.6770    68.0850    65.0630    65.0150    23.7610     2.2130 
  211.6250   -14.6840    62.8480    70.6130    66.6530    62.9690    23.7530     2.2230 
  211.7500   -15.0050    62.8860    77.2740    72.0260    64.4060    23.7510     2.2310 
  211.8750   -15.3250    61.6030    88.9190    82.0690    70.4540    23.7260     2.2370 
  212.0000   -15.6610    59.7800   106.0760    97.3910    81.9720    23.6590     2.2370 
  212.1250   -16.0150    58.6620   128.9250   118.3200    98.4160    23.5580     2.2250 
  212.2500   -16.3680    57.4220   153.9460   141.6100   125.2940    23.5420     2.2050 
  212.3750   -16.7000    54.8500   176.8840   163.3130   169.0310    23.5390     2.1820 
  212.5000   -17.0000    50.8800   192.8410   178.8810   203.7370    23.5140     2.1630 
  212.6250   -17.2510    47.6300   196.4380   183.3260   212.8000    23.4580     2.1530 
  212.7500   -17.4790    46.8560   190.4120   178.7660   204.6210    23.4140     2.1500 
  212.8750   -17.6960    48.7630   179.1940   168.8020   193.1950    23.3900     2.1510 
  213.0000   -17.8650    51.4940   167.4280   157.6340   175.9190    23.4050     2.1540 
  213.1250   -17.9940    53.5380   158.3950   148.6730   155.4760    23.4130     2.1620 
  213.2500   -18.1050    54.3560   152.2620   142.5400   147.0950    23.3960     2.1730 
  213.3750   -18.2220    53.6500   148.5040   138.9020   142.6260    23.3050     2.1850 
  213.5000   -18.3500    51.6020   146.4140   137.1220   136.1040    23.0470     2.1940 
  213.6250   -18.5000    48.8500   145.4520   136.6660   127.4650    22.7990     2.1970 
  213.7500   -18.6480    48.0960   145.0240   136.8140   119.7320    22.9940     2.1970 
  213.8750   -18.7740    49.8650   145.0010   137.3370   118.0570    23.5130     2.1960 
  214.0000   -18.9050    52.4120   145.3890   138.1730   119.7700    23.8270     2.1950 
  214.1250   -19.0320    54.7410   146.2590   139.3490   124.9430    23.8490     2.1930 
  214.2500   -19.1650    56.5550   147.3670   140.6800   130.0640    23.9230     2.1890 
  214.3750   -19.2940    56.5870   148.3480   141.8600   137.6650    24.0570     2.1860 
  214.5000   -19.4140    54.7930   148.7610   142.4930   148.8770    24.1360     2.1870 
  214.6250   -19.5160    52.9050   148.1220   142.1110   158.1210    24.0270     2.1930 
  214.7500   -19.6130    53.3510   146.6250   140.8660   151.6440    23.9260     2.1990 
  214.8750   -19.7160    54.8830   144.7180   139.1390   124.9290    23.8860     2.2010 
  215.0000   -19.8410    55.0770   143.1150   137.5890    96.5950    23.8900     2.1960 
  215.1250   -19.9960    53.1560   142.7520   137.1290    98.6330    23.9030     2.1880 
  215.2500   -20.1550    50.8960   143.7670   137.9790   111.4550    23.9190     2.1850 
  215.3750   -20.3170    50.8400   145.9200   139.9800   124.2050    23.9150     2.1910 
  215.5000   -20.4880    52.9460   148.5510   142.5600   129.5620    23.8780     2.2050 
  215.6250   -20.6790    54.3940   150.5130   144.7000   129.3200    23.7600     2.2250 
  215.7500   -20.8930    54.0880   150.9860   145.5840   138.6280    23.6680     2.2430 
  215.8750   -21.1460    52.2160   149.6300   144.8270   155.2680    23.6480     2.2550 
  216.0000   -21.4000    50.3070   146.5810   142.4660   160.0610    23.6720     2.2560 
  216.1250   -21.6410    50.9710   142.2240   138.7460   159.2440    23.6540     2.2480 
  216.2500   -21.8690    53.7870   137.4690   134.5050   162.3360    23.6150     2.2360 
  216.3750   -22.0950    56.0490   132.8510   130.2810   159.2510    23.5750     2.2250 
  216.5000   -22.3150    55.1800   128.7000   126.4330   137.4270    23.4160     2.2140 
  216.6250   -22.5180    51.7380   125.2950   123.2110   128.2710    23.2170     2.2010 
  216.7500   -22.7030    51.9170   122.6050   120.5390   130.3450    23.0300     2.1860 
  216.8750   -22.8560    56.9400   120.6080   118.3530   141.0520    22.9500     2.1720 
  217.0000   -23.0070    60.4140   119.1610   116.5190   156.7770    22.9770     2.1610 
  217.1250   -23.1340    56.0560   117.9620   114.7920   144.4520    23.0860     2.1540 
  217.2500   -23.2650    51.3170   116.5660   112.8480   116.1050    23.1480     2.1530 
  217.3750   -23.3900    52.9290   114.7620   110.5180    93.6530    23.1350     2.1550 
  217.5000   -23.5000    57.1660   112.6910   107.9150    86.2090    23.0440     2.1610 
  217.6250   -23.5780    58.5610   111.1260   105.6850    87.0300    22.9440     2.1700 
  217.7500   -23.6160    58.4510   111.0120   104.6680    83.9410    22.9190     2.1800 
  217.8750   -23.6070    57.4960   113.1420   105.5950    75.9790    22.9910     2.1900 
  218.0000   -23.5400    54.3660   116.9910   108.8590    70.7860    23.1190     2.2010 
  218.1250   -23.4200    51.8540   123.0380   114.5980    76.0710    23.2550     2.2150 
  218.2500   -23.2400    53.0200   129.3910   121.5580    89.2890    23.4220     2.2310 
  218.3750   -22.9860    55.4250   134.2690   128.5750   112.3360    23.6070     2.2460 
  218.5000   -22.6460    56.1250   140.5310   134.5400   136.4510    23.7590     2.2540 
  218.6250   -22.2060    54.4380   145.7370   138.5940   145.0780    23.8480     2.2540 
