~V
VERS. 2.00: Ver 2.00
~W
STRT.M 60.0000:
STOP.M 271.0000:
STEP.M 0.1250:
NULL. -999.2500:
UWI. F10205:
~C
DEPT.M :
DEN.GM/CC :
GR.API :
RML.OHMM :
RI. :
RXO.OHMM :
CALI.CM :
SP.MV :
~A
# ...
  105.0000     2.1930    77.5650     7.1070     6.7170     8.9330    24.9300   -20.6060 
  105.1250     2.2050    77.8990     7.1930     6.8170     8.9330    24.8710   -19.8400 
  105.2500     2.2030    76.7200     7.2760     6.9340     9.8130    24.9870   -18.9950 
  105.3750     2.1930    74.4630     7.2750     7.0040    10.5700    25.1760   -18.0440 
  105.5000     2.1840    74.0870     7.1050     6.9430    10.2400    25.2550   -16.9990 
  105.6250     2.1880    78.3200     6.7020     6.6610     9.4650    25.2170   -15.8240 
  105.7500     2.2080    86.2250     6.1660     6.2170     8.3950    25.1600   -14.5580 
  105.8750     2.2380    97.0560     5.6220     5.7060     6.8660    25.0590   -13.2640 
  106.0000     2.2720   108.0620     5.1930     5.2430     5.5510    24.9520   -11.9880 
  106.1250     2.2960   114.1510     4.9910     4.9460     4.9460    24.8470   -10.8080 
  106.2500     2.3090   114.8220     4.9720     4.8190     4.8580    24.7900    -9.7480 
  106.3750     2.3100   112.2430     5.0670     4.8320     4.9750    24.8100    -8.8480 
  106.5000     2.3050   109.3960     5.1830     4.9200     5.2590    24.8740    -8.1310 
  106.6250     2.3020   108.1750     5.2440     5.0060     5.5750    25.0570    -7.7220 
  106.7500     2.3070   106.7930     5.2560     5.0600     5.6510    25.1840    -7.5630 
  106.8750     2.3190   104.5740     5.2740     5.1020     5.5010    25.0810    -7.6330 
  107.0000     2.3320   103.5940     5.3540     5.1770     5.2550    24.7270    -7.8560 
  107.1250     2.3370   105.2960     5.5330     5.3270     5.3560    24.4400    -8.1670 
  107.2500     2.3320   103.7100     5.7570     5.5280     6.3530    24.3210    -8.4510 
  107.3750     2.3190    96.8930     5.9550     5.7260     7.7730    24.3190    -8.6710 
  107.5000     2.3040    90.2760     6.0680     5.8600     7.7290    24.2560    -8.8510 
  107.6250     2.2900    88.8630     6.0700     5.8810     6.6300    24.0890    -9.0220 
  107.7500     2.2800    89.0830     6.0330     5.8290     5.9690    23.9780    -9.2720 
  107.8750     2.2710    88.3540     6.0310     5.7670     5.9690    23.9490    -9.6090 
  108.0000     2.2630    88.5190     6.1110     5.7520     6.2850    23.9440   -10.0350 
  108.1250     2.2590    89.9120     6.2700     5.8200     6.6370    23.9270   -10.5670 
  108.2500     2.2560    88.0830     6.4360     5.9280     7.1910    23.9690   -11.1980 
  108.3750     2.2490    83.4840     6.5880     6.0440     7.8020    24.1000   -11.9240 
  108.5000     2.2350    81.9190     6.7960     6.1800     8.2820    24.2600   -12.7200 
  108.6250     2.2230    84.1870     7.3230     6.4760     8.7120    24.4130   -13.5020 
  108.7500     2.2310    84.0750     8.3650     7.1110     9.1220    24.5950   -14.1520 
  108.8750     2.2740    80.1930    10.1410     8.2620     9.5420    24.8290   -14.5960 
  109.0000     2.3540    77.6240    12.6180     9.9780    11.0300    24.9650   -14.7710 
  109.1250     2.4470    77.9600    15.0500    11.9570    17.0990    24.7320   -14.6220 
  109.2500     2.5160    79.6950    16.2940    13.4230    31.1180    24.4330   -14.2980 
  109.3750     2.5400    83.1450    15.8370    13.7710    38.2470    24.2660   -13.8970 
  109.5000     2.5200    87.3890    14.0590    12.9200    23.9970    24.1720   -13.4710 
  109.6250     2.4690    91.1180    11.9660    11.3850    13.1160    24.0310   -13.0870 
  109.7500     2.4150    92.9260    10.4440    10.0220     9.2960    23.9700   -12.7660 
  109.8750     2.3720    91.6350     9.7110     9.1660    10.2490    24.0750   -12.4870 
  110.0000     2.3460    88.1330     9.5370     8.7910    12.8400    24.3380   -12.2570 
  110.1250     2.3420    85.4060     9.4520     8.6310    12.7500    24.7100   -12.0030 
  110.2500     2.3480    84.6380     9.0440     8.3120    12.5910    25.0800   -11.6250 
  110.3750     2.3540    88.8060     8.2170     7.6820    12.6980    25.2530   -11.0720 
  110.5000     2.3550    99.2870     7.1300     6.7950     8.3840    25.2780   -10.3830 
  110.6250     2.3500   110.0990     6.1060     5.8740     5.7830    25.1830    -9.5860 
  110.7500     2.3470   114.1140     5.3680     5.1360     4.6250    24.9920    -8.7840 
  110.8750     2.3490   115.3180     4.9710     4.6640     4.5030    24.7030    -8.0220 
  111.0000     2.3570   118.0440     4.8810     4.4660     4.5240    24.4730    -7.3550 
  111.1250     2.3750   119.8020     5.0460     4.5310     4.5230    24.3940    -6.8460 
  111.2500     2.3990   120.0600     5.3230     4.7410     4.6170    24.3780    -6.5100 
  111.3750     2.4240   121.6880     5.6130     5.0100     4.8380    24.4330    -6.3120 
  111.5000     2.4400   124.7510     5.8280     5.2550     5.5860    24.5820    -6.1900 
  111.6250     2.4340   124.8530     5.8770     5.3860     6.6270    24.6590    -6.1010 
  111.7500     2.4060   120.7190     5.7780     5.3860     6.7490    24.6350    -6.0100 
  111.8750     2.3620   116.0740     5.5820     5.2720     5.5530    24.6400    -5.9230 
  112.0000     2.3110   115.2470     5.3670     5.0950     4.7920    24.8060    -5.8420 
  112.1250     2.2710   120.3470     5.2230     4.9260     4.7680    25.1910    -5.7900 
  112.2500     2.2490   126.0720     5.1800     4.8180     4.7000    25.4570    -5.7620 
  112.3750     2.2460   128.3790     5.2380     4.7870     4.6510    25.4930    -5.8040 
  112.5000     2.2560   127.8070     5.3670     4.8260     4.8650    25.2600    -5.9150 
  112.6250     2.2660   126.2600     5.5260     4.9100     5.2950    25.0400    -6.1100 
  112.7500     2.2720   120.5460     5.6620     4.9930     5.5040    25.1900    -6.3580 
  112.8750     2.2740   110.3970     5.7450     5.0460     5.5180    25.5720    -6.6460 
  113.0000     2.2770   101.3760     5.7630     5.0490     5.7730    25.9350    -6.9160 
  113.1250     2.2870   101.8060     5.7300     5.0020     5.8560    26.0910    -7.1750 
  113.2500     2.2990   106.9150     5.7140     4.9520     5.6790    26.1990    -7.4470 
  113.3750     2.3080   110.1870     5.7850     4.9550     5.5290    26.2970    -7.7600 
  113.5000     2.3090   107.9610     5.9990     5.0580     5.4760    26.3970    -8.1920 
  113.6250     2.3010   102.7440     6.3880     5.3010     5.8130    26.4080    -8.7880 
  113.7500     2.2850   101.8210     6.8590     5.6300     7.0550    26.3360    -9.5160 
  113.8750     2.2630   103.6040     7.3010     5.9730     8.8040    26.1250   -10.3310 
  114.0000     2.2390   100.5520     7.6110     6.2440     9.2760    25.8310   -11.2310 
  114.1250     2.2220    91.6780     7.7240     6.3650     8.7920    25.5410   -12.2000 
  114.2500     2.2170    87.0410     7.7450     6.3820     8.4280    25.3580   -13.1870 
  114.3750     2.2240    87.3030     7.7920     6.3760     8.3350    25.3300   -14.1290 
  114.5000     2.2340    86.9260     7.9530     6.4350     8.3460    25.3710   -14.9420 
  114.6250     2.2300    84.9050     8.2500     6.6280     8.5190    25.2820   -15.5650 
  114.7500     2.2060    83.2150     8.5650     6.9030     9.0010    25.1200   -16.0290 
  114.8750     2.1680    83.7090     8.7760     7.1700     9.7310    25.1100   -16.3690 
  115.0000     2.1290    86.6760     8.7870     7.3230    10.5400    25.1140   -16.6140 
  115.1250     2.1070    90.6150     8.5430     7.2580     9.5160    24.8230   -16.7530 
  115.2500     2.1070    92.4050     8.1470     7.0170     8.1600    24.3770   -16.7760 
  115.3750     2.1230    92.1870     7.7030     6.6730     7.3070    23.9810   -16.7080 
  115.5000     2.1460    92.5910     7.3090     6.3150     7.1230    23.6650   -16.5900 
  115.6250     2.1690    93.1230     7.0500     6.0310     7.1590    23.3290   -16.4420 
  115.7500     2.1860    91.2400     6.9250     5.8440     7.1990    23.1310   -16.3030 
  115.8750     2.1960    88.1610     6.9150     5.7530     7.3540    23.0400   -16.2100 
  116.0000     2.2010    86.9720     6.9920     5.7480     7.4440    23.0980   -16.1690 
  116.1250     2.1990    89.0330     7.1310     5.8260     7.3630    23.2510   -16.2040 
