~V
VERS. 2.00: Ver 2.00
~W
STRT.M 57.0000:
STOP.M 259.0000:
STEP.M 0.1250:
NULL. -999.2500:
UWI. F10209:
~C
DEPT.M :
SP.MV :
DEN.GM/CC :
GR.API :
RML.OHMM :
RI. :
RXO.OHMM :
CALI.CM :
~A
# ...
   68.2500   -23.6520     1.9870    72.3520    10.4670     9.7430    11.6550    25.8670 
   68.3750   -24.9610     1.9770    70.0450    10.2850     9.6530    11.2460    26.1090 
   68.5000   -26.1240     1.9770    71.8760     9.9130     9.3280    10.8990    25.9260 
   68.6250   -27.1310     1.9850    74.3300     9.5820     8.9540    10.9520    25.4330 
   68.7500   -27.8880     2.0030    73.9860     9.4210     8.6720    10.9370    24.9400 
   68.8750   -28.2430     2.0320    72.2080     9.4670     8.5550    11.0280    24.6080 
   69.0000   -28.2540     2.0610    71.0890     9.6180     8.5460    10.9900    24.4920 
   69.1250   -28.0720     2.0780    70.0760     9.8090     8.5970    11.1090    24.5450 
   69.2500   -27.8820     2.0820    70.0750     9.9930     8.6680    11.4890    24.6690 
   69.3750   -27.9230     2.0730    71.3910    10.1530     8.7360    11.6870    24.7980 
   69.5000   -28.1290     2.0570    73.7040    10.3100     8.8070    11.6930    24.9130 
   69.6250   -28.3990     2.0420    75.7700    10.4910     8.9000    11.6520    24.9970 
   69.7500   -28.6810     2.0340    75.6400    10.6970     9.0200    11.9120    25.0090 
   69.8750   -28.9540     2.0470    74.7950    10.8830     9.1400    12.0610    24.9430 
   70.0000   -29.2700     2.0760    73.8190    10.9880     9.2070    11.9250    24.8790 
   70.1250   -29.6130     2.1110    73.5170    10.9660     9.1780    11.3760    24.7690 
   70.2500   -29.9080     2.1370    74.5540    10.8190     9.0410    11.0580    24.3960 
   70.3750   -30.0850     2.1480    74.9720    10.6060     8.8170    11.3080    24.0420 
   70.5000   -30.1830     2.1490    74.4130    10.4230     8.5780    11.3610    23.8520 
   70.6250   -30.2210     2.1500    72.9690    10.3250     8.3760    11.0720    23.7670 
   70.7500   -30.2010     2.1520    71.5460    10.3330     8.2430    10.5830    23.6490 
   70.8750   -30.0700     2.1510    71.8500    10.4340     8.1980    10.0720    23.5990 
   71.0000   -29.8500     2.1400    73.6890    10.5340     8.1860     9.9270    23.6350 
   71.1250   -29.5840     2.1210    74.8270    10.5410     8.1430    10.2050    23.6510 
   71.2500   -29.2610     2.1010    73.7540    10.3860     8.0090    10.5720    23.6950 
   71.3750   -28.7560     2.0970    75.4550    10.0770     7.7750    10.6160    23.7950 
   71.5000   -28.1990     2.1170    82.1020     9.7590     7.5300    10.2840    23.8300 
   71.6250   -27.7560     2.1530    89.4100     9.5640     7.3610     9.5290    23.7210 
   71.7500   -27.5640     2.1890    91.2220     9.5790     7.3350     8.9890    23.5230 
   71.8750   -27.7660     2.2070    84.4720     9.8620     7.5100    10.0360    23.8470 
   72.0000   -28.2080     2.2070    75.1660    10.2990     7.8260    12.0700    24.3870 
   72.1250   -28.7600     2.1970    69.2810    10.7740     8.2120    13.2850    24.8010 
   72.2500   -29.4440     2.1850    69.7280    11.1660     8.5740    13.2420    24.8870 
   72.3750   -30.3670     2.1740    71.7400    11.3690     8.8070    12.5760    24.8900 
   72.5000   -31.3330     2.1600    70.8590    11.3950     8.8920    13.1910    24.9230 
   72.6250   -32.1570     2.1440    68.9080    11.2620     8.8320    13.7920    24.8160 
   72.7500   -32.6670     2.1310    67.2540    10.9890     8.6420    13.7680    24.4720 
   72.8750   -32.7260     2.1310    67.9930    10.5910     8.3390    12.5620    24.2900 
   73.0000   -32.5170     2.1470    72.1650    10.1730     8.0010    11.5620    24.4140 
   73.1250   -32.1110     2.1730    78.8970     9.8450     7.7060    10.8660    24.6010 
   73.2500   -31.5920     2.1960    83.6810     9.7010     7.5190    10.7050    24.4270 
   73.3750   -31.0950     2.1980    82.2410     9.8110     7.5010    10.3410    24.2960 
   73.5000   -30.7350     2.1770    79.2110    10.0930     7.6200    10.7880    24.6990 
   73.6250   -30.5120     2.1380    75.9650    10.4610     7.8400    11.4360    25.3820 
   73.7500   -30.4150     2.1020    71.1270    10.8140     8.1090    12.0160    25.7750 
   73.8750   -30.4620     2.0880    65.8470    11.0470     8.3570    12.5010    25.4880 
   74.0000   -30.5730     2.0970    64.9030    11.1390     8.5320    13.0700    24.9680 
   74.1250   -30.7300     2.1190    68.0390    11.1110     8.6120    13.4610    24.6000 
   74.2500   -30.8720     2.1390    69.8470    11.0100     8.5990    13.4860    24.3130 
   74.3750   -30.8100     2.1470    67.6690    10.8700     8.4970    13.1480    24.0200 
   74.5000   -30.5150     2.1460    65.2600    10.7000     8.3320    12.8320    23.8530 
   74.6250   -30.0510     2.1420    65.2020    10.4880     8.1120    12.5600    23.8190 
   74.7500   -29.4930     2.1390    69.1030    10.2380     7.8540    12.2200    23.8270 
   74.8750   -28.9080     2.1410    75.8360     9.9830     7.5930    11.5920    23.8930 
   75.0000   -28.3670     2.1480    80.0670     9.7800     7.3750    11.0280    23.9100 
   75.1250   -27.9620     2.1590    79.5600     9.6720     7.2360    10.6250    23.8270 
   75.2500   -27.7230     2.1640    77.9280     9.6920     7.2020    10.4130    23.6400 
   75.3750   -27.7950     2.1420    77.1220     9.9020     7.3230    10.8910    23.7340 
   75.5000   -28.1230     2.0920    74.2250    10.3060     7.6010    11.6950    24.3320 
   75.6250   -28.7250     2.0420    70.0430    10.9000     8.0390    12.7190    25.3470 
   75.7500   -29.5360     2.0290    68.6470    11.6100     8.6020    13.6410    26.2710 
   75.8750   -30.5440     2.0870    68.7140    12.2430     9.1740    14.2650    26.5800 
   76.0000   -31.6780     2.1770    66.9940    12.5750     9.5740    14.5840    26.3990 
   76.1250   -32.8940     2.2500    64.2140    12.4740     9.6690    14.7060    26.1530 
   76.2500   -34.1440     2.2660    62.0890    11.9810     9.4330    14.8670    26.2770 
   76.3750   -35.2880     2.2200    62.4070    11.3020     8.9640    15.3000    26.5600 
   76.5000   -36.2710     2.1590    64.5330    10.7170     8.4760    15.6500    26.7310 
   76.6250   -37.0890     2.1140    66.0350    10.3520     8.0840    15.5990    26.8900 
   76.7500   -37.8060     2.0950    65.1430    10.2250     7.8430    15.3670    27.1300 
   76.8750   -38.2700     2.0960    62.7330    10.2840     7.7620    15.2240    27.3020 
   77.0000   -38.5600     2.1010    60.5300    10.3910     7.7590    15.1610    27.4370 
   77.1250   -38.6390     2.1050    59.2410    10.4810     7.7830    15.0050    27.6980 
   77.2500   -38.4650     2.1090    59.9510    10.5270     7.8030    14.9410    28.0000 
   77.3750   -38.1430     2.1130    62.8730    10.5120     7.7980    15.0140    27.8890 
   77.5000   -37.8150     2.1150    63.2220    10.4520     7.7650    15.2680    27.3300 
   77.6250   -37.3820     2.1110    60.5670    10.3770     7.7170    15.5740    26.7630 
   77.7500   -36.7560     2.1020    60.1180    10.3170     7.6720    15.0800    26.5910 
   77.8750   -36.0040     2.0870    64.0630    10.2890     7.6390    13.9340    26.5910 
   78.0000   -35.1390     2.0720    66.6050    10.2690     7.6080    13.0660    26.3350 
   78.1250   -34.2410     2.0600    66.3310    10.2270     7.5600    13.6270    25.8800 
   78.2500   -33.4170     2.0540    68.9500    10.1300     7.4780    14.5080    25.6620 
   78.3750   -32.5960     2.0620    77.8330     9.9610     7.3490    14.0590    25.7650 
   78.5000   -31.7910     2.0810    83.3020     9.7720     7.2000    12.6800    25.7300 
   78.6250   -31.1590     2.1060    80.5340     9.6220     7.0660    12.1960    25.4800 
   78.7500   -30.7990     2.1270    74.6410     9.5620     6.9780    12.7850    25.4090 
   78.8750   -30.8130     2.1340    72.7440     9.6350     6.9750    13.0550    25.5150 
   79.0000   -31.1710     2.1300    72.9660     9.8010     7.0460    13.4660    25.6270 
   79.1250   -31.8230     2.1210    72.7700    10.0040     7.1710    14.4640    25.8360 
   79.2500   -32.7030     2.1130    71.3270    10.1850     7.3130    15.1020    26.1510 
   79.3750   -33.7390     2.1080    69.9860    10.2990     7.4350    15.0470    26.3520 
