~V
VERS. 2.00: Ver 2.00
~W
STRT.M 55.0000:
STOP.M 276.0000:
STEP.M 0.1250:
NULL. -999.2500:
UWI. F10239:
~C
DEPT.M :
SP.MV :
DEN.GM/CC :
GR.API :
RML.OHMM :
RI. :
RXO.OHMM :
CALI.CM :
~A
# ...
  145.0000    -7.5750     2.3040    95.5710     5.2130     3.9390     4.3140    24.2590 
  145.1250    -7.5120     2.3080    96.6530     5.2260     3.9350     4.3200    24.3010 
  145.2500    -7.4460     2.3110    94.3720     5.2810     3.9660     4.3290    24.2690 
  145.3750    -7.3630     2.3100    89.9440     5.3500     4.0100     4.3580    24.2010 
  145.5000    -7.2580     2.3070    87.5910     5.4150     4.0570     4.3420    24.1480 
  145.6250    -7.1480     2.3000    88.4120     5.4720     4.1010     4.3040    24.1130 
  145.7500    -7.0640     2.2920    89.0070     5.5300     4.1430     4.3190    24.0200 
  145.8750    -7.0260     2.2790    89.0350     5.6000     4.1810     4.3350    23.8590 
  146.0000    -7.0380     2.2600    91.2360     5.6750     4.2120     4.4090    23.7930 
  146.1250    -7.0650     2.2320    95.6300     5.7320     4.2300     4.5710    23.8790 
  146.2500    -7.0820     2.2030    99.5150     5.7380     4.2250     4.7060    23.9860 
  146.3750    -7.0690     2.1920   101.1850     5.6940     4.1980     4.7190    23.9860 
  146.5000    -7.0460     2.2090   101.3050     5.6250     4.1540     4.5870    23.8800 
  146.6250    -7.0300     2.2430   101.2460     5.5700     4.1050     4.5020    23.7780 
  146.7500    -7.0210     2.2700   101.7140     5.5620     4.0730     4.5200    23.8390 
  146.8750    -7.0000     2.2860   103.0630     5.5990     4.0700     4.5710    24.1170 
  147.0000    -6.9470     2.3000   104.5050     5.6630     4.0930     4.5810    24.6270 
  147.1250    -6.8660     2.3170   105.4680     5.7260     4.1300     4.5210    25.1680 
  147.2500    -6.7910     2.3180   105.2800     5.7590     4.1590     4.4260    25.2040 
  147.3750    -6.7430     2.3230   105.4480     5.7650     4.1730     4.3270    25.1490 
  147.5000    -6.7160     2.3300   108.2980     5.7580     4.1750     4.2760    25.3870 
  147.6250    -6.6930     2.3320   111.8970     5.7560     4.1770     4.2690    25.9460 
  147.7500    -6.6450     2.3270   110.9600     5.7710     4.1870     4.2850    26.4310 
  147.8750    -6.5790     2.3190   106.4850     5.8020     4.2050     4.2750    26.6350 
  148.0000    -6.5110     2.3120   103.4470     5.8480     4.2280     4.2610    26.2520 
  148.1250    -6.4490     2.3050   102.3580     5.9060     4.2540     4.2870    25.2440 
  148.2500    -6.3870     2.2990    98.2360     5.9610     4.2750     4.3470    24.5000 
  148.3750    -6.2970     2.2970    91.7430     5.9960     4.2840     4.3980    24.1580 
  148.5000    -6.1720     2.2970    87.9670     5.9950     4.2780     4.4480    24.0990 
  148.6250    -6.0130     2.3020    90.1150     5.9550     4.2530     4.5130    24.3380 
  148.7500    -5.8400     2.3160    96.4530     5.8890     4.2190     4.5030    24.9540 
  148.8750    -5.6840     2.3330   101.5650     5.8160     4.1870     4.4430    25.6510 
  149.0000    -5.5630     2.3480   102.0990     5.7470     4.1600     4.3570    26.0130 
  149.1250    -5.4850     2.3550    98.2260     5.6940     4.1340     4.2850    25.8790 
  149.2500    -5.4450     2.3540    92.6640     5.6660     4.1090     4.2630    25.6060 
  149.3750    -5.4380     2.3480    88.0430     5.6600     4.0930     4.2880    25.2440 
  149.5000    -5.4570     2.3390    85.8550     5.6730     4.0930     4.3480    24.8050 
  149.6250    -5.4840     2.3290    86.4250     5.6980     4.1070     4.4110    24.3970 
  149.7500    -5.5090     2.3210    88.9530     5.7150     4.1230     4.4420    24.1180 
  149.8750    -5.5300     2.3140    92.9760     5.7050     4.1230     4.4370    23.9680 
  150.0000    -5.5690     2.3110    99.7600     5.6570     4.1010     4.4140    23.9230 
  150.1250    -5.6180     2.3110   107.9100     5.5720     4.0600     4.3960    23.9800 
  150.2500    -5.6570     2.3140   111.1950     5.4640     4.0120     4.3510    24.0780 
  150.3750    -5.6810     2.3220   107.2580     5.3590     3.9670     4.2760    24.1120 
  150.5000    -5.6840     2.3330   101.5320     5.2790     3.9300     4.2040    24.1010 
  150.6250    -5.6760     2.3430   101.0030     5.2370     3.9000     4.2010    24.1590 
  150.7500    -5.6920     2.3440   103.8220     5.2330     3.8760     4.1970    24.3100 
  150.8750    -5.7240     2.3410   102.0250     5.2430     3.8570     4.1830    24.4740 
  151.0000    -5.7460     2.3350    95.8330     5.2370     3.8340     4.1630    24.5640 
  151.1250    -5.7350     2.3320    90.6140     5.1850     3.7960     4.1500    24.5570 
  151.2500    -5.6860     2.3310    89.0120     5.0660     3.7230     4.1160    24.5460 
  151.3750    -5.6170     2.3300    87.8530     4.9020     3.6170     4.0640    24.6290 
  151.5000    -5.5480     2.3290    86.6410     4.7470     3.5030     3.9710    24.7660 
  151.6250    -5.4910     2.3310    85.5490     4.6770     3.4330     3.8770    24.8620 
  151.7500    -5.4320     2.3400    83.6940     4.7670     3.4670     3.8330    24.8930 
  151.8750    -5.3620     2.3570    82.3390     5.0050     3.6070     3.9140    24.7640 
  152.0000    -5.2800     2.3670    82.7140     5.3190     3.8160     4.2550    24.3990 
  152.1250    -5.2080     2.3650    85.4580     5.5810     4.0170     4.7990    24.0050 
  152.2500    -5.1670     2.3540    89.7770     5.6390     4.1090     5.0500    23.8010 
  152.3750    -5.1570     2.3480    94.0750     5.4800     4.0580     4.6290    23.8190 
  152.5000    -5.1660     2.3490    96.3450     5.1810     3.8950     4.0690    23.8930 
  152.6250    -5.1740     2.3520    95.8090     4.8720     3.6910     3.8140    23.9190 
  152.7500    -5.1500     2.3560    95.4060     4.6670     3.5180     3.8080    23.8220 
  152.8750    -5.1230     2.3600    94.9240     4.5830     3.4120     3.8510    23.7040 
  153.0000    -5.1260     2.3630    92.3220     4.5900     3.3710     3.8270    23.6670 
  153.1250    -5.1710     2.3620    89.1370     4.6500     3.3780     3.7470    23.6700 
  153.2500    -5.2490     2.3530    86.8010     4.7460     3.4270     3.7850    23.6210 
  153.3750    -5.3270     2.3400    84.6040     4.8820     3.5140     3.8850    23.5260 
  153.5000    -5.4000     2.3270    84.4830     5.0570     3.6400     3.9840    23.4300 
  153.6250    -5.4900     2.3180    89.3930     5.2450     3.7950     4.1820    23.4260 
  153.7500    -5.6250     2.3150    96.3450     5.3960     3.9480     4.5010    23.5360 
  153.8750    -5.7920     2.3120    98.1070     5.4710     4.0650     4.7460    23.6830 
  154.0000    -5.9560     2.3090    94.7540     5.4610     4.1260     4.6860    23.7500 
  154.1250    -6.0930     2.3100    91.3510     5.3970     4.1360     4.3970    23.6710 
  154.2500    -6.2040     2.3170    90.8810     5.3280     4.1140     4.2470    23.3990 
  154.3750    -6.3090     2.3240    93.3580     5.2960     4.0990     4.3630    23.0310 
  154.5000    -6.4130     2.3250    98.5150     5.3200     4.1180     4.5050    22.7370 
  154.6250    -6.5020     2.3230   103.5020     5.4030     4.1870     4.5040    22.6960 
  154.7500    -6.5660     2.3220   102.9730     5.5480     4.3120     4.4750    22.6920 
  154.8750    -6.5960     2.3250    96.2800     5.7370     4.4710     4.7010    22.6880 
  155.0000    -6.5950     2.3230    88.8120     5.9440     4.6440     5.2120    22.6530 
  155.1250    -6.5830     2.3130    85.6200     6.1160     4.7980     5.7200    22.6560 
  155.2500    -6.5560     2.3000    86.9060     6.1820     4.8840     5.6030    22.7250 
  155.3750    -6.5190     2.2930    89.1880     6.1210     4.8820     5.3110    22.9850 
  155.5000    -6.4690     2.2900    91.2260     5.9490     4.7910     5.1560    23.2880 
  155.6250    -6.4150     2.2880    93.4370     5.7120     4.6330     5.0620    23.4660 
  155.7500    -6.3610     2.2900    95.7130     5.4570     4.4440     4.8360    23.5340 
  155.8750    -6.3010     2.2950    97.2840     5.2110     4.2580     4.5730    23.5610 
  156.0000    -6.2310     2.2990    98.0100     4.9870     4.0950     4.3290    23.5780 
  156.1250    -6.1780     2.3010    98.6310     4.8170     3.9720     4.2150    23.6050 
