~V
VERS. 2.00: Ver 2.00
~W
STRT.M 50.0000:
STOP.M 271.0000:
STEP.M 0.1250:
NULL. -999.2500:
UWI. F10251:
~C
DEPT.M :
DEN.GM/CC :
GR.API :
RML.OHMM :
RI. :
RXO.OHMM :
CALI.CM :
SP.MV :
~A
# ...
  117.5000     2.3590   103.6470     6.1920     4.6350     6.2930    23.3180    -3.2570 
  117.6250     2.3450   102.1920     6.2120     4.5890     6.5260    23.3220    -3.1300 
  117.7500     2.3200    96.6690     6.3110     4.6020     6.3230    23.3070    -3.0370 
  117.8750     2.2950    92.6330     6.4340     4.6470     5.8850    23.2720    -3.0850 
  118.0000     2.2780    89.9340     6.5350     4.6990     5.8260    23.2230    -3.2070 
  118.1250     2.2760    87.6490     6.5870     4.7350     6.0910    23.1520    -3.2950 
  118.2500     2.2780    89.5530     6.6140     4.7620     6.0870    23.1020    -3.3410 
  118.3750     2.2800    93.8880     6.6360     4.7910     5.9420    23.0470    -3.4040 
  118.5000     2.2800    95.1260     6.6400     4.8210     6.0110    22.9940    -3.5290 
  118.6250     2.2810    91.5730     6.5680     4.8190     6.2550    22.9700    -3.6520 
  118.7500     2.2860    88.8890     6.4350     4.7790     6.6310    22.9960    -3.6930 
  118.8750     2.2970    89.8590     6.3430     4.7530     6.9910    23.0870    -3.6560 
  119.0000     2.3190    92.7360     6.4550     4.8330     6.9670    23.1980    -3.6190 
  119.1250     2.3520    94.2500     6.9730     5.1480     6.6420    23.2540    -3.6260 
  119.2500     2.3880    93.3180     7.8350     5.6790     7.0090    23.2490    -3.6180 
  119.3750     2.4220    89.8190     8.8230     6.3230     8.4510    23.2010    -3.5370 
  119.5000     2.4440    85.5150     9.5390     6.8520    10.5920    23.1450    -3.4470 
  119.6250     2.4320    82.5570     9.4220     6.8960    10.4050    23.1300    -3.4520 
  119.7500     2.3930    84.1190     8.5590     6.4390     8.2620    23.1320    -3.4890 
  119.8750     2.3590    91.3330     7.3470     5.6790     6.6440    23.1350    -3.5430 
  120.0000     2.3500   100.7970     6.2540     4.8910     5.7710    23.1550    -3.6590 
  120.1250     2.3610   104.5400     5.6290     4.3220     5.5330    23.2290    -3.9010 
  120.2500     2.3690   101.8050     5.4150     4.0150     5.6580    23.2780    -4.2650 
  120.3750     2.3630    97.8430     5.5210     3.9600     6.1770    23.2860    -4.6940 
  120.5000     2.3500    96.1800     5.8710     4.1310     6.7110    23.2930    -5.1530 
  120.6250     2.3380    94.2980     6.4600     4.5340     7.1870    23.3330    -5.7610 
  120.7500     2.3260    90.2170     7.2110     5.1000     7.8520    23.3560    -6.5100 
  120.8750     2.3070    84.7530     8.0360     5.7690     8.3930    23.2290    -7.2590 
  121.0000     2.2780    78.3740     8.7890     6.4440     8.5680    22.9610    -7.9410 
  121.1250     2.2470    72.7650     9.2730     6.9710     8.7860    22.7100    -8.5790 
  121.2500     2.2240    69.1060     9.4720     7.2860     9.6160    22.6280    -9.1700 
  121.3750     2.2140    67.6030     9.4560     7.3980    10.4790    22.6470    -9.6960 
  121.5000     2.2110    67.2610     9.3600     7.3810    10.4180    22.7260   -10.0690 
  121.6250     2.2100    68.4700     9.3250     7.3210     9.8510    22.8800   -10.1270 
  121.7500     2.2060    71.6720     9.3680     7.2630     9.8630    23.1520    -9.9950 
  121.8750     2.2030    74.0650     9.3980     7.1740     9.8890    23.4790    -9.7540 
  122.0000     2.2020    73.4450     9.2730     6.9930     9.7610    23.6890    -9.3470 
  122.1250     2.2060    72.6880     8.8510     6.6570     9.8080    23.7180    -8.6990 
  122.2500     2.2130    76.6220     8.2220     6.2170     9.4490    23.6800    -7.9150 
  122.3750     2.2230    83.1410     7.5430     5.7580     8.5090    23.6730    -7.0910 
  122.5000     2.2290    85.5550     6.9880     5.3760     7.1590    23.7500    -6.2820 
  122.6250     2.2320    84.0470     6.7130     5.1710     6.4890    23.8770    -5.5460 
  122.7500     2.2400    84.5560     6.6770     5.1260     6.3200    23.9060    -4.8960 
  122.8750     2.2590    87.4890     6.7870     5.1890     6.9980    23.8490    -4.3510 
  123.0000     2.2850    90.5090     6.8960     5.2690     8.0380    23.8250    -3.9180 
  123.1250     2.3070    91.3460     6.8370     5.2440     8.0370    23.9060    -3.5930 
  123.2500     2.3210    93.1560     6.6050     5.0970     6.9730    24.0180    -3.3260 
  123.3750     2.3300    96.0490     6.2840     4.8710     6.3930    24.1270    -3.1130 
  123.5000     2.3390    98.3980     5.9930     4.6400     6.0940    24.1940    -3.0260 
  123.6250     2.3430    99.0030     5.8650     4.4940     5.8880    24.2280    -3.0510 
  123.7500     2.3390    98.1360     5.9050     4.4640     6.0180    24.2440    -3.0460 
  123.8750     2.3260    96.1670     6.0640     4.5390     6.3140    24.1970    -3.0320 
  124.0000     2.3090    91.9880     6.2540     4.6710     6.5260    24.0660    -3.1340 
  124.1250     2.2880    85.1180     6.3900     4.8090     6.9690    23.9160    -3.4080 
  124.2500     2.2730    79.3580     6.5240     4.9650     7.4500    23.8410    -3.7070 
  124.3750     2.2780    76.6110     6.8100     5.2340     7.5040    23.8900    -3.9510 
  124.5000     2.3070    77.5660     7.4570     5.7500     7.4100    23.9990    -4.1520 
  124.6250     2.3570    77.4770     8.7920     6.7410     8.2790    24.0530    -4.3910 
  124.7500     2.4180    74.2770    10.7960     8.2500    11.5860    24.0780    -4.6360 
  124.8750     2.4710    68.7690    13.2410    10.2080    18.1280    24.1080    -4.8450 
  125.0000     2.4890    64.2490    15.5450    12.2660    21.6270    24.1680    -5.0350 
  125.1250     2.4610    63.6010    16.6690    13.5990    18.4390    24.1720    -5.2700 
  125.2500     2.4160    62.5590    16.3540    13.7840    16.4350    24.1420    -5.5960 
  125.3750     2.3630    60.8360    14.9670    12.9590    15.3840    24.1360    -5.9770 
  125.5000     2.3010    61.0500    13.2310    11.6540    12.2820    24.0650    -6.3220 
  125.6250     2.2430    64.3570    11.8290    10.4230    10.7150    23.8790    -6.6450 
  125.7500     2.2050    66.6680    10.9210     9.5000    10.3830    23.6820    -7.0320 
  125.8750     2.1880    66.1190    10.4620     8.9130    10.5580    23.6170    -7.4100 
  126.0000     2.1810    64.6580    10.3570     8.6350    10.6810    23.6260    -7.7000 
  126.1250     2.1780    64.5320    10.5040     8.6270    10.8970    23.6500    -7.9220 
  126.2500     2.1740    66.4980    10.7280     8.7390    11.1280    23.6820    -8.1230 
  126.3750     2.1700    69.7400    10.9210     8.8760    11.0980    23.6430    -8.3150 
  126.5000     2.1670    71.0340    11.0000     8.9670    10.9640    23.5520    -8.4790 
  126.6250     2.1670    69.1820    10.8740     8.9450    10.7820    23.4540    -8.6030 
  126.7500     2.1720    67.6850    10.5800     8.8140    10.7130    23.4130    -8.7110 
  126.8750     2.1810    68.9980    10.1940     8.6030    10.6500    23.3960    -8.8510 
  127.0000     2.1910    71.5120     9.8250     8.3650    10.3160    23.4050    -9.0090 
  127.1250     2.1970    70.8670     9.5870     8.1630     9.9920    23.4130    -9.0880 
  127.2500     2.1970    66.9970     9.4920     8.0280     9.8080    23.4330    -9.1270 
  127.3750     2.1920    64.1680     9.5150     7.9700     9.9010    23.4730    -9.2170 
  127.5000     2.1880    64.0500     9.6200     7.9830    10.1060    23.5230    -9.3920 
  127.6250     2.1880    66.1250     9.7780     8.0640    10.0920    23.4990    -9.5000 
  127.7500     2.1900    67.8820     9.9490     8.1810     9.9040    23.4200    -9.5350 
  127.8750     2.1920    68.0250    10.0980     8.3060     9.7580    23.2630    -9.6100 
  128.0000     2.1950    66.8510    10.1880     8.4060     9.9350    22.9260    -9.7320 
  128.1250     2.1950    66.0150    10.1680     8.4410    10.2130    22.5160    -9.8370 
  128.2500     2.1880    65.5580    10.0600     8.4070    10.4460    22.5180    -9.8960 
  128.3750     2.1720    64.3780     9.9120     8.3240    10.3630    22.9350    -9.9370 
  128.5000     2.1540    63.1300     9.7940     8.2250    10.1400    23.4580   -10.0110 
  128.6250     2.1400    64.8620     9.7900     8.1710    10.0240    23.7910   -10.1160 
