~V
VERS. 2.00: Ver 2.00
~W
STRT.M 50.0000:
STOP.M 278.0000:
STEP.M 0.1250:
NULL. -999.2500:
UWI. F10217:
~C
DEPT.M :
SP.MV :
DEN.GM/CC :
GR.API :
RML.OHMM :
RI. :
RXO.OHMM :
CALI.CM :
~A
# ...
  106.2500   -21.4290     2.1190    66.7430     7.0900     4.9790     7.8590    24.4380 
  106.3750   -21.2690     2.1220    63.7400     6.8660     4.8230     7.7170    24.4240 
  106.5000   -21.0940     2.1290    64.6890     6.6590     4.6600     7.6010    24.3860 
  106.6250   -20.9430     2.1390    68.2170     6.5370     4.5320     7.4120    24.3370 
  106.7500   -20.8040     2.1490    70.2210     6.5190     4.4610     7.1960    24.3190 
  106.8750   -20.6830     2.1560    69.8870     6.5920     4.4500     7.0810    24.3220 
  107.0000   -20.5810     2.1550    69.1240     6.7110     4.4820     7.1580    24.3260 
  107.1250   -20.4850     2.1440    70.7380     6.7990     4.5200     7.3150    24.3260 
  107.2500   -20.4250     2.1280    71.3770     6.8030     4.5260     7.3430    24.3260 
  107.3750   -20.3480     2.1120    69.4450     6.7170     4.4870     7.2430    24.3260 
  107.5000   -20.2640     2.1040    67.9940     6.5770     4.4190     7.0350    24.3180 
  107.6250   -20.1600     2.1090    70.6550     6.4580     4.3610     6.8100    24.2880 
  107.7500   -20.0620     2.1210    72.6040     6.4110     4.3470     6.6970    24.2400 
  107.8750   -19.9510     2.1360    70.6420     6.4540     4.3960     6.8820    24.1940 
  108.0000   -19.8180     2.1460    65.7190     6.5770     4.5030     7.4570    24.1580 
  108.1250   -19.6760     2.1460    62.0410     6.7580     4.6550     7.8150    24.1460 
  108.2500   -19.4880     2.1380    62.3530     6.9490     4.8140     7.9760    24.1410 
  108.3750   -19.2460     2.1250    64.0470     7.1020     4.9490     7.9550    24.1280 
  108.5000   -18.9700     2.1130    63.5370     7.1500     5.0170     7.8150    24.0930 
  108.6250   -18.6740     2.1110    62.6340     6.9710     4.9370     7.6280    24.0500 
  108.7500   -18.3500     2.1190    65.3740     6.5360     4.6850     7.3670    24.0270 
  108.8750   -18.0400     2.1390    71.2980     5.8660     4.2680     6.9110    24.0240 
  109.0000   -17.7370     2.1680    76.2590     5.0650     3.7440     6.0160    24.0760 
  109.1250   -17.4440     2.2000    80.3080     4.3310     3.2230     4.7310    24.2250 
  109.2500   -17.2390     2.2270    85.1100     3.8190     2.8090     3.9580    24.4240 
  109.3750   -17.1310     2.2460    90.9480     3.6080     2.5670     3.6850    24.5260 
  109.5000   -17.0900     2.2540    94.9050     3.7190     2.5320     3.6580    24.5140 
  109.6250   -17.1170     2.2460    90.7690     4.1910     2.7590     3.8760    24.4070 
  109.7500   -17.1970     2.2260    80.4930     4.9050     3.1910     4.5980    24.2150 
  109.8750   -17.2580     2.1950    69.9650     5.7510     3.7690     5.9130    24.0190 
  110.0000   -17.2910     2.1580    64.6580     6.5800     4.4010     6.9420    23.9140 
  110.1250   -17.2700     2.1260    62.6950     7.1770     4.9450     7.2980    23.8980 
  110.2500   -17.1080     2.1080    60.6510     7.4090     5.2740     7.3930    23.9120 
  110.3750   -16.8180     2.1120    59.8340     7.1650     5.2810     7.5440    23.9490 
  110.5000   -16.4370     2.1460    62.9720     6.4320     4.9250     7.5810    24.0010 
  110.6250   -15.9770     2.2100    71.1800     5.3520     4.2490     7.5580    24.0350 
  110.7500   -15.4880     2.2820    80.7670     4.3080     3.5010     7.1160    24.0280 
  110.8750   -15.0440     2.3400    92.0710     3.5570     2.8620     5.6210    24.0070 
  111.0000   -14.6610     2.3630   104.2530     3.2130     2.4460     3.9570    24.0270 
  111.1250   -14.3870     2.3440   111.2570     3.3260     2.3400     3.6390    24.0340 
  111.2500   -14.2270     2.3070   109.9190     3.7460     2.4800     4.1410    24.0370 
  111.3750   -14.1630     2.2700   101.8310     4.3430     2.8080     5.1190    24.0270 
  111.5000   -14.1480     2.2440    93.5530     4.9120     3.2200     5.6170    24.0120 
  111.6250   -14.1720     2.2320    90.3040     5.1660     3.5470     5.5040    24.0040 
  111.7500   -14.1660     2.2290    88.8750     5.0830     3.6890     5.2640    23.9860 
  111.8750   -14.1280     2.2280    87.0530     4.8030     3.6600     4.9310    23.9410 
  112.0000   -14.0690     2.2240    86.9930     4.5080     3.5410     4.4720    23.8750 
  112.1250   -13.9820     2.2160    90.5240     4.3170     3.4220     4.4910    23.7650 
  112.2500   -13.8700     2.2070    94.4860     4.2140     3.3390     4.6480    23.6960 
  112.3750   -13.7410     2.2030    97.8860     4.1650     3.2910     4.6880    23.6820 
  112.5000   -13.6350     2.2060    99.4670     4.1470     3.2630     4.5900    23.7060 
  112.6250   -13.5600     2.2200    97.7880     4.1600     3.2500     4.4840    23.7480 
  112.7500   -13.5310     2.2360    94.7890     4.2080     3.2490     4.4040    23.7880 
  112.8750   -13.5300     2.2490    94.2380     4.2920     3.2630     4.3050    23.8570 
  113.0000   -13.5620     2.2530    94.3000     4.3860     3.2820     4.2820    23.9470 
  113.1250   -13.6310     2.2510    92.1800     4.4120     3.2750     4.3270    24.0350 
  113.2500   -13.7540     2.2460    94.8920     4.3170     3.2120     4.3160    24.1050 
  113.3750   -13.9460     2.2440   103.6910     4.0980     3.0850     4.2400    24.1950 
  113.5000   -14.1910     2.2430   111.3000     3.8510     2.9270     4.1720    24.3160 
  113.6250   -14.4650     2.2400   110.0170     3.8200     2.8590     4.1110    24.3940 
  113.7500   -14.8280     2.2350   104.2700     4.2120     3.0160     4.1280    24.4030 
  113.8750   -15.2600     2.2370    99.6220     5.1870     3.5260     4.3620    24.3560 
  114.0000   -15.7410     2.2600    95.2140     6.8160     4.4850     5.4890    24.2550 
  114.1250   -16.2780     2.3160    88.5310     9.0100     5.9450     9.4040    24.1570 
  114.2500   -16.8580     2.3880    80.7480    11.0160     7.5060    16.7950    24.0930 
  114.3750   -17.4330     2.4440    73.4870    11.9030     8.5530    19.3980    24.0390 
  114.5000   -17.9810     2.4550    69.2240    11.1970     8.5890    13.3550    23.9650 
  114.6250   -18.4570     2.4040    69.1490     9.4620     7.6920     9.1680    23.9050 
  114.7500   -18.7990     2.3250    70.8830     7.8910     6.6410     7.4640    23.9160 
  114.8750   -18.9940     2.2440    72.9720     6.9040     5.8160     7.0550    23.9740 
  115.0000   -19.0550     2.1790    73.9270     6.5380     5.3570     7.0070    24.0100 
  115.1250   -18.9540     2.1390    74.4650     6.7600     5.3350     7.0100    24.0290 
  115.2500   -18.7260     2.1250    74.2380     7.3430     5.6310     7.1850    24.0390 
  115.3750   -18.4050     2.1380    72.5380     8.1320     6.1510     7.9990    24.0620 
  115.5000   -18.0180     2.1750    72.0800     8.9030     6.7430     9.9110    24.0820 
  115.6250   -17.6300     2.2200    74.5230     9.2670     7.1330    13.4570    24.0000 
  115.7500   -17.2700     2.2470    76.3030     9.0580     7.1430    12.9340    23.8170 
  115.8750   -16.9690     2.2430    76.2580     8.3470     6.7610     9.7510    23.6120 
  116.0000   -16.7480     2.2120    75.6320     7.4310     6.1500     7.4390    23.4250 
  116.1250   -16.6140     2.1750    77.6130     6.6810     5.5540     6.7850    23.3090 
  116.2500   -16.5370     2.1500    80.2400     6.2430     5.1300     6.5420    23.2930 
  116.3750   -16.5210     2.1420    81.6270     6.1170     4.9220     6.2250    23.3680 
  116.5000   -16.5650     2.1430    81.5440     6.2350     4.9120     5.9150    23.4440 
  116.6250   -16.6560     2.1450    80.0170     6.5240     5.0670     6.2450    23.4860 
  116.7500   -16.7910     2.1460    78.7400     6.8610     5.2950     6.7450    23.5050 
  116.8750   -16.9800     2.1460    77.6340     7.1570     5.5260     7.2470    23.5230 
  117.0000   -17.2060     2.1500    76.7980     7.3380     5.6970     7.6010    23.5510 
  117.1250   -17.4670     2.1580    74.9170     7.3500     5.7480     7.6490    23.6060 
  117.2500   -17.7460     2.1680    71.6410     7.2620     5.7100     7.6080    23.6690 
  117.3750   -18.0430     2.1770    69.5110     7.1420     5.6260     7.7360    23.7460 
