~V
VERS. 2.00: Ver 2.00
~W
STRT.M 53.0000:
STOP.M 286.0000:
STEP.M 0.1250:
NULL. -999.2500:
UWI. F10262:
~C
DEPT.M :
DEN.GM/CC :
GR.API :
RML.OHMM :
RI. :
RXO.OHMM :
CALI.CM :
SP.MV :
~A
# ...
  131.7500     2.2240    90.4770     9.5910     8.2660    10.6070    24.1880    -5.7310 
  131.8750     2.2140    85.1840    10.7760     9.1200    11.5560    24.3940    -5.9090 
  132.0000     2.2430    83.7980    12.2460    10.2600    12.9070    24.5860    -6.1000 
  132.1250     2.3010    81.7190    13.5720    11.4030    14.3520    24.5370    -6.3550 
  132.2500     2.3630    75.9550    14.0930    11.9940    14.4490    24.2230    -6.5790 
  132.3750     2.4010    73.4060    13.0470    11.2810    16.7530    23.9300    -6.7120 
  132.5000     2.4110    78.4260    10.9900     9.6800    24.3130    23.8170    -6.7870 
  132.6250     2.4020    86.8120     8.8170     7.9440    23.8850    23.7720    -6.8430 
  132.7500     2.3900    91.9950     7.2960     6.6540    13.6810    23.6540    -6.9030 
  132.8750     2.3870    91.6020     7.0030     6.1840     9.1360    23.5200    -7.1180 
  133.0000     2.3890    87.8270     7.8220     6.4830     7.9030    23.4730    -7.4760 
  133.1250     2.3890    82.6090     9.5870     7.5580     8.0010    23.5440    -7.8620 
  133.2500     2.3800    78.1840    11.9050     9.3050     9.6480    23.6750    -8.2640 
  133.3750     2.3510    76.2090    14.0290    11.3320    13.0280    23.8120    -8.6540 
  133.5000     2.3050    74.6040    15.3380    12.9490    16.3300    23.8790    -9.0540 
  133.6250     2.2520    70.8250    15.7380    13.8280    16.3260    23.9250    -9.4540 
  133.7500     2.2080    65.9180    15.5660    14.0750    15.1900    23.9600    -9.8570 
  133.8750     2.1840    63.4480    15.2430    13.9790    15.4370    23.9650   -10.2170 
  134.0000     2.1750    63.6660    14.9800    13.8050    15.7860    23.9520   -10.4370 
  134.1250     2.1730    64.3820    14.7670    13.6080    15.5480    23.9600   -10.5190 
  134.2500     2.1720    65.1830    14.5890    13.4130    14.9030    23.9910   -10.5400 
  134.3750     2.1730    67.5260    14.5510    13.3130    14.5410    24.0160   -10.6010 
  134.5000     2.1800    70.9830    14.7710    13.4110    14.6240    24.0090   -10.7020 
  134.6250     2.1960    73.3010    15.3390    13.7930    14.5650    23.9320   -10.8390 
  134.7500     2.2210    75.2070    16.2870    14.5110    14.7470    23.8740   -11.0100 
  134.8750     2.2500    76.3080    17.5750    15.5990    15.4550    24.1870   -11.1600 
  135.0000     2.2730    75.8010    18.8790    16.8370    16.6070    24.7620   -11.3180 
  135.1250     2.2800    73.7830    19.8160    17.9130    18.3660    25.1850   -11.5180 
  135.2500     2.2670    72.8760    20.0110    18.4440    20.7810    25.1920   -11.6940 
  135.3750     2.2400    74.5860    19.1470    18.0060    22.3730    24.9210   -11.7900 
  135.5000     2.2130    75.8940    17.5580    16.7930    21.2300    24.6330   -11.7610 
  135.6250     2.1970    75.8860    15.6030    15.1040    18.6160    24.3330   -11.5720 
  135.7500     2.1960    75.8960    13.6800    13.3280    15.3260    24.0310   -11.2240 
  135.8750     2.2150    76.3620    12.2650    11.9140    13.3900    23.8180   -10.7280 
  136.0000     2.2480    78.4610    11.5540    11.0530    12.7560    23.5910   -10.1410 
  136.1250     2.2940    83.0780    11.5680    10.7930    12.4140    23.3980    -9.5070 
  136.2500     2.3440    87.7640    12.0740    11.0060    11.7500    23.2850    -8.9050 
  136.3750     2.3820    88.3030    12.5690    11.3820    10.9530    23.3580    -8.3130 
  136.5000     2.3970    85.9250    12.6480    11.5620    11.1330    23.4230    -7.7450 
  136.6250     2.3970    84.6170    12.3740    11.5160    14.0800    23.4210    -7.1960 
  136.7500     2.3950    85.2820    12.2330    11.5260    16.8210    23.4150    -6.6710 
  136.8750     2.4080    84.9540    13.1210    12.1740    15.6730    23.4920    -6.3490 
  137.0000     2.4300    81.8440    15.3900    13.8130    13.0650    23.5550    -6.2190 
  137.1250     2.4490    77.3620    18.9460    16.5990    12.7030    23.5850    -6.1990 
  137.2500     2.4520    74.4200    22.9560    20.1620    19.7380    23.5990    -6.2430 
  137.3750     2.4390    73.6040    25.3720    22.9400    34.1590    23.7080    -6.3270 
  137.5000     2.4210    71.3340    25.1050    23.5410    40.4370    23.9070    -6.4660 
  137.6250     2.4060    68.4520    22.9230    22.2520    33.1960    24.0360    -6.6830 
  137.7500     2.4020    68.1950    20.7000    20.5480    26.9340    23.9640    -6.9580 
  137.8750     2.4200    73.0620    20.0970    19.8520    22.5410    23.8130    -7.1710 
  138.0000     2.4590    77.4080    21.0980    20.3900    19.6530    23.6780    -7.3020 
  138.1250     2.5090    77.5540    23.2780    22.0090    18.4850    23.6020    -7.3880 
  138.2500     2.5500    73.0570    25.9640    24.3100    21.4780    23.6340    -7.4760 
  138.3750     2.5620    67.9820    28.2460    26.5870    30.3630    23.6870    -7.6090 
  138.5000     2.5480    68.0710    29.6750    28.2340    41.5900    23.7020    -7.7660 
  138.6250     2.5200    72.8840    30.4200    29.2060    39.5370    23.7240    -7.9780 
  138.7500     2.4890    75.5960    30.9580    29.8380    29.5120    23.8370    -8.2510 
  138.8750     2.4630    72.7400    31.5800    30.4230    30.0300    23.9700    -8.5930 
  139.0000     2.4450    70.4240    32.0180    30.8440    32.4280    24.0420    -8.9660 
  139.1250     2.4330    71.5950    31.7210    30.6430    30.1330    24.0470    -9.3650 
  139.2500     2.4210    73.6530    30.2660    29.3990    26.3550    23.9700    -9.7710 
  139.3750     2.3970    74.3800    27.7200    27.0980    25.4810    24.1960   -10.1400 
  139.5000     2.3570    75.5990    25.1170    24.6760    24.9880    24.8540   -10.5190 
  139.6250     2.3110    75.9400    23.2760    22.8710    22.6930    25.4290   -10.8290 
  139.7500     2.2820    73.6280    22.7120    22.1380    20.6220    25.5100   -11.0470 
  139.8750     2.2960    70.1720    23.7820    22.8350    18.5540    25.1090   -11.1920 
  140.0000     2.3450    68.0500    25.8400    24.5330    16.8250    24.6580   -11.2300 
  140.1250     2.4050    69.0560    28.0140    26.5840    17.8540    24.2130   -11.2680 
  140.2500     2.4470    71.8020    29.1950    27.9780    23.1680    24.0180   -11.2970 
  140.3750     2.4440    74.0100    28.3950    27.6330    33.4390    24.3370   -11.3120 
  140.5000     2.4030    73.6380    26.3750    26.0600    35.5620    25.1820   -11.3520 
  140.6250     2.3410    70.8230    24.1570    24.1270    27.3930    26.0720   -11.3640 
  140.7500     2.2760    67.4400    22.5380    22.5690    21.8970    26.5320   -11.3830 
  140.8750     2.2220    65.9840    21.8900    21.7930    20.8370    26.6980   -11.4010 
  141.0000     2.1890    67.3840    21.7960    21.5460    20.3300    26.6160   -11.3950 
  141.1250     2.1880    69.6270    21.8800    21.5380    20.0480    26.3370   -11.3660 
  141.2500     2.2240    70.4970    21.8960    21.5280    19.9640    26.0060   -11.3220 
  141.3750     2.2950    69.6960    21.8130    21.4410    18.2420    25.8750   -11.2480 
  141.5000     2.3690    70.3450    21.7680    21.3700    16.2820    25.8530   -11.1720 
  141.6250     2.4170    73.5180    21.8440    21.3880    16.7190    25.9020   -11.1460 
  141.7500     2.4170    75.5470    22.0520    21.5160    18.5120    25.9590   -11.1570 
  141.8750     2.3590    72.9960    22.3490    21.7330    20.5750    26.0360   -11.2420 
  142.0000     2.2790    69.0180    22.6350    21.9600    21.9800    26.1890   -11.3550 
  142.1250     2.2170    66.7400    22.8410    22.1290    21.9120    26.4210   -11.4130 
  142.2500     2.2040    67.8860    22.9330    22.1950    21.3120    26.3830   -11.3400 
  142.3750     2.2550    70.1210    22.8980    22.1380    19.9150    25.8180   -11.1610 
  142.5000     2.3330    71.0580    22.7760    21.9980    20.7210    25.2930   -10.9280 
  142.6250     2.4040    70.7560    22.6080    21.8110    23.7420    25.2770   -10.5980 
  142.7500     2.4480    70.7480    22.4570    21.6270    25.3120    25.5420   -10.2600 
  142.8750     2.4570    71.5130    22.3590    21.4710    22.7410    25.3750    -9.8140 
