~V
VERS. 2.00: Ver 2.00
~W
STRT.M 40.0000:
STOP.M 276.0000:
STEP.M 0.1250:
NULL. -999.2500:
UWI. F10236:
~C
DEPT.M :
SP.MV :
GR.API :
RML.OHMM :
RI. :
RXO.OHMM :
CALI.CM :
DEN.GM/CC :
~A
# ...
  175.0000   -20.3350    62.1520    76.8640    74.0220    69.6870    25.2560     2.2900 
  175.1250   -20.3860    63.8070    77.3030    74.4260    62.1550    25.2580     2.2730 
  175.2500   -20.4280    67.3050    78.4910    75.4570    57.9890    25.2970     2.2550 
  175.3750   -20.4800    69.3430    81.1570    77.6630    53.8500    25.2180     2.2430 
  175.5000   -20.5100    68.3020    86.1050    81.7660    55.4460    25.0910     2.2390 
  175.6250   -20.4860    65.9370    94.2760    88.7490    56.2020    24.9700     2.2400 
  175.7500   -20.4810    64.7900   104.7730    97.9530    66.3300    24.9650     2.2410 
  175.8750   -20.4720    63.7310   116.1660   108.1090    82.6070    25.0290     2.2400 
  176.0000   -20.4900    61.4180   126.2120   117.1440   103.5400    25.1530     2.2350 
  176.1250   -20.4830    60.3850   131.5970   122.0520   115.4700    25.2220     2.2320 
  176.2500   -20.4800    61.8350   131.9040   122.4150   116.6170    25.1940     2.2340 
  176.3750   -20.4440    62.4050   128.4850   119.3120   109.5260    25.1390     2.2420 
  176.5000   -20.4390    60.3810   124.0830   115.0560   100.6920    25.1230     2.2500 
  176.6250   -20.4480    59.1570   121.9440   112.5690    96.0180    25.1210     2.2540 
  176.7500   -20.4590    60.2050   122.8660   112.8290    94.4720    25.1130     2.2550 
  176.8750   -20.4570    62.2500   125.8240   115.1450    97.8040    25.1110     2.2540 
  177.0000   -20.4250    63.1250   128.3180   117.5290   104.0870    25.0980     2.2510 
  177.1250   -20.3590    61.8180   126.5520   116.8300   105.8460    25.0680     2.2410 
  177.2500   -20.2930    58.9660   119.8350   111.9830   102.4640    25.0510     2.2270 
  177.3750   -20.2170    57.9460   109.6480   103.7140    83.2380    24.9810     2.2170 
  177.5000   -20.1420    62.0800    98.8320    94.1580    60.6440    24.8650     2.2200 
  177.6250   -20.0650    70.3980    90.4800    86.0240    59.6600    24.8160     2.2350 
  177.7500   -19.9790    74.1150    85.4050    80.4900    60.2620    24.8130     2.2500 
  177.8750   -19.9160    70.1790    83.1690    77.4840    61.7310    24.8110     2.2550 
  178.0000   -19.8530    62.7430    82.3200    75.9130    62.2860    24.8130     2.2540 
  178.1250   -19.8180    61.3170    80.8280    73.9880    66.2570    24.8050     2.2540 
  178.2500   -19.7850    65.2780    77.8620    70.8460    70.0400    24.7910     2.2560 
  178.3750   -19.7800    68.7300    74.0080    66.9770    64.2940    24.7210     2.2540 
  178.5000   -19.7600    69.3790    70.5770    63.5380    50.4010    24.5200     2.2530 
  178.6250   -19.7780    68.6560    69.3180    62.0860    43.1610    24.2060     2.2640 
  178.7500   -19.8110    69.6580    70.7170    63.0530    49.4380    24.0530     2.2810 
  178.8750   -19.8480    72.2520    74.6750    66.3740    63.5840    24.0150     2.2880 
  179.0000   -19.8980    74.5020    80.3830    71.3830    71.3930    24.0230     2.2780 
  179.1250   -19.9480    72.5230    86.0700    76.6570    70.4800    24.0720     2.2630 
  179.2500   -19.9890    68.2880    89.5220    80.2990    75.1640    24.1230     2.2540 
  179.3750   -20.0340    66.7960    89.3260    80.9560    80.6080    24.1160     2.2520 
  179.5000   -20.0670    69.1020    85.2930    78.1770    78.6290    24.1280     2.2530 
  179.6250   -20.0860    69.2810    78.0280    72.1220    69.7390    24.2080     2.2540 
  179.7500   -20.0810    65.5400    69.4940    64.4440    55.9670    24.2770     2.2580 
  179.8750   -20.0630    62.5460    61.0090    56.3890    43.6410    24.3200     2.2640 
  180.0000   -20.0290    62.5510    53.7850    49.2220    39.4110    24.3520     2.2710 
  180.1250   -19.9850    64.3160    49.0400    44.2350    35.1130    24.3810     2.2770 
  180.2500   -19.9360    66.4440    46.5950    41.3660    32.0290    24.4230     2.2810 
  180.3750   -19.8640    68.4640    46.1740    40.3850    27.7020    24.5490     2.2860 
  180.5000   -19.8440    68.3320    47.3450    40.9290    25.8090    24.7720     2.2860 
  180.6250   -19.7680    65.0210    49.6260    42.6450    32.8890    24.9440     2.2790 
  180.7500   -19.7140    63.7950    52.2100    44.7870    38.6750    25.0000     2.2640 
  180.8750   -19.6330    64.7360    54.7880    46.9970    34.1680    24.8660     2.2460 
  181.0000   -19.5490    65.3040    57.3350    49.1520    30.2910    24.5020     2.2300 
  181.1250   -19.4430    64.8710    59.6590    51.0610    36.5390    24.1490     2.2230 
  181.2500   -19.3430    66.5710    61.0910    52.2330    48.7300    24.0950     2.2220 
  181.3750   -19.2390    69.2620    60.6950    51.9600    56.8380    24.3100     2.2170 
  181.5000   -19.1010    69.0970    57.7750    49.6940    59.1800    24.5160     2.2060 
  181.6250   -18.9980    67.2330    52.3480    45.3960    48.5610    24.5380     2.1990 
  181.7500   -18.8870    66.3580    46.4170    40.6110    35.3470    24.3680     2.2090 
  181.8750   -18.8020    66.6640    41.6310    36.6300    29.8960    24.1540     2.2370 
  182.0000   -18.7270    67.9490    38.9820    34.2500    30.4540    24.0490     2.2710 
  182.1250   -18.6780    70.4710    39.1080    34.0590    30.9460    24.0980     2.2950 
  182.2500   -18.6310    72.7800    41.2770    35.6720    30.6790    24.2880     2.3060 
  182.3750   -18.5940    72.6190    44.7220    38.7190    32.1910    24.5200     2.3060 
  182.5000   -18.5420    70.5360    48.1440    42.3150    36.3250    24.6830     2.2990 
  182.6250   -18.5030    68.1360    49.3110    44.5560    41.3850    24.7870     2.2890 
  182.7500   -18.4590    68.0850    47.1870    43.9870    44.1760    24.8530     2.2810 
  182.8750   -18.4180    71.8240    42.0280    40.3490    43.4530    24.9440     2.2770 
  183.0000   -18.3690    77.5820    35.3960    34.8310    36.6350    24.9920     2.2760 
  183.1250   -18.3300    81.4940    29.4850    29.4480    26.2050    24.8600     2.2840 
  183.2500   -18.2980    81.6680    25.3680    25.4230    19.4770    24.6990     2.3030 
  183.3750   -18.2970    78.7020    23.1030    22.9170    17.8660    24.6500     2.3320 
  183.5000   -18.3240    75.2310    22.2270    21.6110    16.6540    24.6610     2.3580 
  183.6250   -18.3590    74.3770    22.0580    21.0170    15.3200    24.6930     2.3680 
  183.7500   -18.4090    75.8660    21.7730    20.4510    15.4340    24.7430     2.3680 
  183.8750   -18.4680    77.7740    21.0620    19.6270    16.7150    24.7670     2.3690 
  184.0000   -18.5420    80.4800    20.1000    18.6240    15.2900    24.7250     2.3730 
  184.1250   -18.6290    85.0520    19.6930    17.9850    12.6480    24.6710     2.3790 
  184.2500   -18.7240    87.5660    20.7880    18.3240    11.9650    24.6040     2.3790 
  184.3750   -18.8060    85.4420    24.4390    20.3620    13.4740    24.4500     2.3690 
  184.5000   -18.9190    79.6120    31.8530    25.1150    18.2850    24.1360     2.3440 
  184.6250   -19.0250    73.2850    45.4050    34.9890    30.7880    23.8220     2.3060 
  184.7500   -19.1620    69.3180    65.2530    50.7520    58.6860    23.7200     2.2650 
  184.8750   -19.3120    68.0850    90.4710    71.8550    94.2360    23.8560     2.2280 
  185.0000   -19.4840    67.8570   116.5880    94.2680   109.5530    24.1530     2.2020 
  185.1250   -19.6530    64.5150   133.8380   109.6490   106.3210    24.5690     2.1910 
  185.2500   -19.8530    59.9600   139.2160   115.3580   101.4930    24.8660     2.1890 
  185.3750   -20.0470    58.2300   136.5510   113.9840   101.3710    25.0070     2.1930 
  185.5000   -20.2210    60.0990   131.6640   109.9610   104.5640    24.9930     2.2040 
  185.6250   -20.3680    64.6790   127.9110   106.4190   103.5640    24.9790     2.2220 
  185.7500   -20.4790    69.6200   124.6360   103.5470   101.7360    25.0170     2.2410 
  185.8750   -20.5630    73.0640   120.0710   100.2740    99.1280    25.0760     2.2520 
  186.0000   -20.6220    73.2490   112.7070    95.4050    92.6780    25.1020     2.2550 
  186.1250   -20.6610    69.8490   101.6840    87.8680    85.0960    25.0380     2.2550 
