~V
VERS. 2.00: Ver 2.00
~W
STRT.M 50.0000:
STOP.M 271.0000:
STEP.M 0.1250:
NULL. -999.2500:
UWI. F10251:
~C
DEPT.M :
DEN.GM/CC :
GR.API :
RML.OHMM :
RI. :
RXO.OHMM :
CALI.CM :
SP.MV :
~A
# ...
  106.2500     2.1960    59.5390    10.0600     7.5570    10.5890    23.1080   -14.6070 
  106.3750     2.2030    61.2240     9.8070     7.4000    10.4930    23.1270   -13.9220 
  106.5000     2.2140    64.0790     9.3680     7.1040    10.1680    23.1530   -13.2820 
  106.6250     2.2240    66.0640     8.7680     6.6830     9.4680    23.2090   -12.6490 
  106.7500     2.2290    68.5670     8.1710     6.2430     8.9810    23.2930   -11.9390 
  106.8750     2.2250    72.2370     7.7230     5.8820     8.3350    23.3820   -11.2150 
  107.0000     2.2140    75.4240     7.5410     5.6850     7.0860    23.4330   -10.5890 
  107.1250     2.1980    74.6620     7.7290     5.7430     6.9300    23.4500   -10.1220 
  107.2500     2.1830    72.9150     8.1740     5.9990     7.5380    23.4740    -9.7830 
  107.3750     2.1740    72.6680     8.7190     6.3620     8.2960    23.4420    -9.4660 
  107.5000     2.1770    71.8320     9.1320     6.6850     8.5120    23.3480    -9.0680 
  107.6250     2.1960    68.5950     9.0880     6.7370     9.0300    23.2390    -8.7090 
  107.7500     2.2220    68.9810     8.5560     6.4560     9.5980    23.1150    -8.4170 
  107.8750     2.2510    77.1620     7.6790     5.9020     9.4830    23.0040    -8.0750 
  108.0000     2.2790    88.6590     6.7260     5.2360     8.2900    22.9340    -7.6500 
  108.1250     2.2990    95.3210     6.0070     4.6570     7.5970    22.8710    -7.2590 
  108.2500     2.3050    97.7060     5.6460     4.2810     7.0770    22.7860    -6.9720 
  108.3750     2.2980    98.2600     5.6760     4.1620     6.8800    22.6640    -6.8490 
  108.5000     2.2810    97.5470     6.0570     4.3060     7.1030    22.5150    -6.9220 
  108.6250     2.2580    93.5230     6.6930     4.6920     8.0500    22.3900    -7.1190 
  108.7500     2.2350    87.2380     7.3450     5.1610     9.6320    22.2790    -7.4340 
  108.8750     2.2190    79.9240     7.8230     5.5720    10.5660    22.1970    -7.9010 
  109.0000     2.2130    74.7790     8.0040     5.8060    10.1770    22.1770    -8.4100 
  109.1250     2.2140    75.0340     7.8510     5.7870     9.3140    22.2600    -8.8190 
  109.2500     2.2150    78.9310     7.5470     5.6200     8.9070    22.4590    -9.1390 
  109.3750     2.2140    82.6530     7.2430     5.4030     8.3970    22.7560    -9.4310 
  109.5000     2.2140    82.3490     7.0570     5.2240     7.8180    23.0880    -9.7760 
  109.6250     2.2170    78.9930     7.0850     5.1660     7.5330    23.3050   -10.1660 
  109.7500     2.2200    76.9460     7.3090     5.2430     7.5910    23.4170   -10.5100 
  109.8750     2.2240    77.0150     7.7120     5.4660     7.8020    23.4540   -10.8140 
  110.0000     2.2260    77.6600     8.2520     5.8220     8.4780    23.4600   -11.1900 
  110.1250     2.2280    76.0230     8.8610     6.2700     9.6410    23.4480   -11.7010 
  110.2500     2.2300    73.1070     9.4100     6.6990    10.5800    23.4250   -12.2330 
  110.3750     2.2320    70.6800     9.7870     7.0160    10.7230    23.4030   -12.6830 
  110.5000     2.2320    71.0690     9.9270     7.1620    10.5900    23.3990   -13.0080 
  110.6250     2.2260    75.1250     9.8250     7.1220    10.5570    23.4220   -13.3000 
  110.7500     2.2160    79.4110     9.6260     6.9890    10.4840    23.4390   -13.6170 
  110.8750     2.2090    79.2040     9.4350     6.8330    10.1760    23.4490   -13.9160 
  111.0000     2.2090    73.1300     9.3190     6.7060    10.0060    23.4490   -14.1230 
  111.1250     2.2150    69.9700     9.3070     6.6510    10.0270    23.4340   -14.2490 
  111.2500     2.2220    73.0400     9.3760     6.6680    10.0000    23.3940   -14.3940 
  111.3750     2.2260    76.6510     9.5280     6.7600    10.0270    23.3440   -14.6160 
  111.5000     2.2250    75.3540     9.7680     6.9240    10.1880    23.3120   -14.8720 
  111.6250     2.2120    70.6240    10.0890     7.1510    10.5570    23.3430   -15.0370 
  111.7500     2.1940    66.3500    10.4260     7.3990    10.8810    23.4040   -15.1340 
  111.8750     2.1760    63.1570    10.7070     7.6290    11.1490    23.4380   -15.2820 
  112.0000     2.1640    62.3220    10.8630     7.7900    11.2540    23.4700   -15.4930 
  112.1250     2.1540    62.5150    10.8390     7.8320    11.3120    23.5580   -15.6360 
  112.2500     2.1490    63.4250    10.6920     7.7760    11.2240    23.6770   -15.6360 
  112.3750     2.1520    66.1800    10.4900     7.6550    10.9300    23.6680   -15.5210 
  112.5000     2.1630    69.5260    10.3050     7.5150    10.6710    23.4970   -15.4120 
  112.6250     2.1710    70.7550    10.2200     7.4040    10.3810    23.3410   -15.3340 
  112.7500     2.1730    70.1700    10.2340     7.3500    10.3510    23.2830   -15.1950 
  112.8750     2.1740    68.3550    10.3130     7.3600    10.5210    23.2960   -14.9600 
  113.0000     2.1740    65.3890    10.3980     7.4210    10.8610    23.3630   -14.6600 
  113.1250     2.1720    63.0690    10.4330     7.5030    11.0400    23.4900   -14.3580 
  113.2500     2.1710    63.9690    10.4250     7.5680    10.7590    23.5600   -14.0740 
  113.3750     2.1720    67.0930    10.4160     7.6100    10.4940    23.5710   -13.7340 
  113.5000     2.1760    69.1750    10.4540     7.6420    10.3680    23.5480   -13.2180 
  113.6250     2.1800    68.0830    10.5200     7.6690    10.4460    23.4360   -12.5340 
  113.7500     2.1840    66.6240    10.5090     7.6570    10.5050    23.3210   -11.8320 
  113.8750     2.1860    66.6210    10.2990     7.5390    10.4210    23.3310   -11.0570 
  114.0000     2.1870    66.4990     9.8080     7.2460    10.3810    23.4530   -10.1280 
  114.1250     2.1950    65.7160     9.0300     6.7360     9.5580    23.6580    -9.0510 
  114.2500     2.2120    69.8840     8.1800     6.1240     8.3300    23.8750    -7.9640 
  114.3750     2.2350    79.2730     7.4370     5.5280     7.3350    23.9920    -6.9640 
  114.5000     2.2580    88.2320     6.9160     5.0500     6.6870    23.9810    -6.0620 
  114.6250     2.2850    91.3810     6.6720     4.7690     6.4550    23.8310    -5.1990 
  114.7500     2.3140    92.4750     6.5850     4.6410     7.0940    23.7070    -4.3770 
  114.8750     2.3340    95.3680     6.5460     4.6010     7.5880    23.7210    -3.7190 
  115.0000     2.3380   100.1410     6.4690     4.5760     6.9890    23.8610    -3.2770 
  115.1250     2.3320   103.0380     6.3190     4.5110     6.2220    24.0470    -2.9810 
  115.2500     2.3280   102.0780     6.1580     4.4240     5.9920    24.1620    -2.7330 
  115.3750     2.3310    98.9450     6.0570     4.3610     6.0050    24.1530    -2.5180 
  115.5000     2.3390    96.8040     6.0700     4.3650     5.7550    24.0610    -2.3910 
  115.6250     2.3460    97.3830     6.2180     4.4680     5.6200    23.9480    -2.4390 
  115.7500     2.3430    98.8580     6.4200     4.6260     6.0060    23.7920    -2.5610 
  115.8750     2.3310    96.9400     6.5780     4.7710     6.7730    23.6450    -2.6320 
  116.0000     2.3170    89.9080     6.5970     4.8260     6.7150    23.5870    -2.6520 
  116.1250     2.3080    83.1590     6.4240     4.7250     6.0660    23.6190    -2.7570 
  116.2500     2.3010    84.6580     6.1780     4.5380     5.6430    23.6520    -2.9290 
  116.3750     2.2940    92.7390     5.9960     4.3680     5.4520    23.6710    -3.0920 
  116.5000     2.2870   101.2250     5.9890     4.3080     5.2720    23.6180    -3.1990 
  116.6250     2.2830   103.1890     6.2090     4.4210     5.3790    23.5220    -3.2890 
  116.7500     2.2820    97.7050     6.5300     4.6360     5.7930    23.3920    -3.3730 
  116.8750     2.2870    89.2840     6.8040     4.8620     6.4980    23.3090    -3.4290 
  117.0000     2.2980    85.1020     6.9070     5.0050     6.8200    23.2810    -3.4420 
  117.1250     2.3170    87.7300     6.7780     4.9990     6.6540    23.2780    -3.3730 
  117.2500     2.3390    92.6680     6.5400     4.8930     6.3590    23.2840    -3.2980 
  117.3750     2.3560    98.6260     6.3150     4.7510     6.1350    23.2970    -3.2780 
