~V
VERS. 2.00: Ver 2.00
~W
STRT.M 56.0000:
STOP.M 284.0000:
STEP.M 0.1250:
NULL. -999.2500:
UWI. F10233:
~C
DEPT.M :
GR.API :
RML.OHMM :
RI. :
RXO.OHMM :
CALI.CM :
DEN.GM/CC :
SP.MV :
~A
# ...
   89.7500    62.2430    10.1780     7.5730     7.4270    23.2990     2.2360   -17.8160 
   89.8750    63.1840    10.1930     7.5900     7.7790    23.2650     2.2600   -17.8130 
   90.0000    63.5530    10.1980     7.6160     8.1840    23.4700     2.2340   -17.8190 
   90.1250    61.5990    10.1380     7.6080     8.5380    23.8720     2.1830   -17.8510 
   90.2500    59.5680    10.0180     7.5490     8.6930    24.1700     2.1570   -17.8950 
   90.3750    60.1110     9.8760     7.4430     8.6770    24.2850     2.1580   -17.9170 
   90.5000    62.4730     9.7640     7.3240     8.5290    24.2470     2.1700   -17.9530 
   90.6250    63.4300     9.7270     7.2420     8.5220    24.0710     2.1760   -18.0270 
   90.7500    62.8720     9.7480     7.2170     8.6620    23.8490     2.1770   -18.0360 
   90.8750    63.4190     9.8060     7.2460     8.7610    23.5320     2.1840   -17.9860 
   91.0000    66.6990     9.8850     7.3090     8.7330    23.1290     2.1990   -17.9900 
   91.1250    70.4180     9.9860     7.3830     8.7150    22.7480     2.2140   -18.0680 
   91.2500    70.8570    10.1010     7.4530     8.6440    22.6180     2.2180   -18.1400 
   91.3750    68.8030    10.2170     7.5170     8.6230    22.8300     2.2100   -18.2620 
   91.5000    66.9070    10.3160     7.5760     8.8030    23.2320     2.1950   -18.4420 
   91.6250    66.2630    10.3800     7.6260     9.2650    23.5970     2.1820   -18.6270 
   91.7500    65.4420    10.4190     7.6640     9.6850    23.9920     2.1750   -18.8540 
   91.8750    63.8360    10.4440     7.6880     9.6120    24.2890     2.1730   -19.1280 
   92.0000    61.8340    10.4540     7.6890     9.2870    24.4270     2.1760   -19.3640 
   92.1250    62.0950    10.4100     7.6480     9.0170    24.3610     2.1790   -19.5370 
   92.2500    65.7370    10.2950     7.5650     8.7890    24.2320     2.1810   -19.7060 
   92.3750    70.9710    10.1330     7.4560     8.4830    24.2020     2.1790   -19.8480 
   92.5000    72.4700     9.9830     7.3580     8.2300    24.2420     2.1730   -19.9380 
   92.6250    68.0940     9.9210     7.3110     8.0560    24.1430     2.1710   -19.9750 
   92.7500    63.8870     9.9490     7.3140     8.0900    24.1390     2.1750   -19.9780 
   92.8750    62.9100    10.0210     7.3460     8.4120    24.2450     2.1840   -19.9630 
   93.0000    63.5420    10.0620     7.3690     8.8600    24.3230     2.1920   -19.9450 
   93.1250    63.4110     9.9870     7.3410     8.9080    24.4400     2.1930   -19.9190 
   93.2500    62.4620     9.8100     7.2610     8.6390    24.6120     2.1920   -19.8900 
   93.3750    61.1410     9.5910     7.1560     8.5260    24.7410     2.1920   -19.8430 
   93.5000    60.0340     9.4130     7.0650     8.4600    24.7820     2.1910   -19.7860 
   93.6250    59.5850     9.3680     7.0300     8.3780    24.7790     2.1880   -19.7340 
   93.7500    60.1850     9.4410     7.0480     8.3820    24.7790     2.1810   -19.6580 
   93.8750    61.7120     9.5780     7.0940     8.6060    24.7950     2.1720   -19.5590 
   94.0000    62.5060     9.6980     7.1280     8.8260    24.8510     2.1620   -19.4690 
   94.1250    61.7230     9.7260     7.1130     8.9050    25.0080     2.1470   -19.3790 
   94.2500    60.2850     9.6930     7.0730     8.8380    25.1930     2.1290   -19.2710 
   94.3750    60.2530     9.6580     7.0450     9.0550    25.3100     2.1170   -19.1490 
   94.5000    62.4300     9.6650     7.0520     9.1890    25.1890     2.1200   -19.0360 
   94.6250    63.9350     9.7020     7.0910     9.3840    24.7570     2.1380   -18.9480 
   94.7500    64.4350     9.7040     7.1240     9.8340    24.2960     2.1500   -18.8470 
   94.8750    65.8600     9.6270     7.1140    10.5500    23.9430     2.1520   -18.7280 
   95.0000    68.8860     9.4670     7.0400    10.5900    23.6170     2.1510   -18.5780 
   95.1250    70.9800     9.2740     6.9120     9.2030    23.2010     2.1570   -18.4180 
   95.2500    71.1630     9.1170     6.7730     8.5050    22.8730     2.1670   -18.2830 
   95.3750    71.1040     9.0150     6.6480     8.3510    22.6790     2.1770   -18.1790 
   95.5000    70.1260     8.9570     6.5500     8.4190    22.6010     2.1830   -18.0660 
   95.6250    66.9620     8.9180     6.4760     8.6390    22.5720     2.1840   -17.9230 
   95.7500    65.0120     8.8580     6.4010     8.7650    22.5570     2.1870   -17.8190 
   95.8750    65.1510     8.7630     6.3040     8.3120    22.5650     2.1930   -17.7560 
   96.0000    65.9990     8.6360     6.1750     7.8070    22.5920     2.1980   -17.7060 
   96.1250    66.4710     8.4700     6.0210     7.6070    22.6790     2.1980   -17.6800 
   96.2500    67.5540     8.2680     5.8640     7.5680    22.7740     2.1940   -17.6450 
   96.3750    70.0760     8.0630     5.7300     7.4770    22.7100     2.1870   -17.5920 
   96.5000    72.5600     7.9280     5.6580     7.3200    22.4980     2.1750   -17.5720 
   96.6250    74.3430     7.9820     5.7120     7.1600    22.3870     2.1550   -17.6740 
   96.7500    74.1180     8.2400     5.8980     7.1720    22.5690     2.1230   -17.8100 
   96.8750    72.4010     8.6590     6.1970     7.3250    23.1040     2.0760   -17.8870 
   97.0000    70.2070     9.1180     6.5450     7.4750    23.7090     2.0290   -17.9940 
   97.1250    67.2570     9.4020     6.8050     7.5950    24.1180     2.0060   -18.1550 
   97.2500    64.8480     9.4050     6.8780     7.6180    24.3530     2.0140   -18.2960 
   97.3750    64.5720     9.1520     6.7580     7.6510    24.4190     2.0420   -18.4180 
   97.5000    67.3790     8.7880     6.5310     7.8370    24.3670     2.0750   -18.5190 
   97.6250    70.2050     8.5400     6.3430     8.1550    24.2980     2.1010   -18.5200 
   97.7500    69.6730     8.5080     6.2790     8.3720    24.3170     2.1160   -18.4400 
   97.8750    67.2580     8.6610     6.3410     8.4570    24.3520     2.1210   -18.3500 
   98.0000    64.2290     8.8720     6.4700     8.5380    24.3060     2.1230   -18.2020 
   98.1250    62.8920     8.9560     6.5540     8.7680    24.1540     2.1320   -17.9420 
   98.2500    62.6950     8.8650     6.5350     8.6120    24.0470     2.1420   -17.6620 
   98.3750    63.3460     8.6610     6.4270     8.2090    24.0530     2.1510   -17.3670 
   98.5000    66.5380     8.4500     6.2820     8.1480    24.0770     2.1640   -17.0480 
   98.6250    71.9380     8.3220     6.1560     8.3280    23.9190     2.1850   -16.7390 
   98.7500    75.9750     8.2730     6.0700     8.3230    23.7380     2.1960   -16.4630 
   98.8750    77.0980     8.2650     6.0130     7.8600    23.7660     2.1860   -16.2180 
   99.0000    76.9080     8.2610     5.9680     7.5370    23.9710     2.1640   -16.0420 
   99.1250    77.1310     8.2510     5.9310     7.2600    24.0620     2.1470   -15.9640 
   99.2500    76.8570     8.2590     5.9140     7.0770    24.0080     2.1390   -15.9470 
   99.3750    75.1850     8.3090     5.9310     7.1590    23.9360     2.1360   -16.0080 
   99.5000    70.8910     8.4070     5.9810     7.4310    23.9190     2.1360   -16.1390 
   99.6250    66.0800     8.5360     6.0460     7.4750    23.9570     2.1400   -16.3060 
   99.7500    65.6420     8.6500     6.1000     7.3910    24.0120     2.1460   -16.4750 
   99.8750    69.0720     8.7110     6.1310     7.3290    24.0490     2.1560   -16.6310 
  100.0000    71.4720     8.7060     6.1410     7.3080    24.0790     2.1670   -16.7680 
  100.1250    70.4520     8.6580     6.1360     7.2540    24.1320     2.1770   -16.8830 
  100.2500    69.2430     8.6230     6.1290     7.2890    24.2290     2.1820   -16.9550 
  100.3750    68.7680     8.6260     6.1210     7.3250    24.2880     2.1840   -16.9530 
  100.5000    68.2770     8.6650     6.1210     7.3460    24.2620     2.1850   -16.9090 
  100.6250    69.4400     8.7190     6.1470     7.3510    24.1850     2.1870   -16.8500 
  100.7500    71.3070     8.7610     6.1940     7.3800    24.1360     2.1880   -16.7780 
  100.8750    71.6850     8.7720     6.2440     7.3360    24.1400     2.1890   -16.7110 
