~V
VERS. 2.00: Ver 2.00
~W
STRT.M 52.0000:
STOP.M 271.0000:
STEP.M 0.1250:
NULL. -999.2500:
UWI. F10212:
~C
DEPT.M :
GR.API :
RML.OHMM :
RI. :
RXO.OHMM :
CALI.CM :
SP.MV :
DEN.GM/CC :
~A
# ...
   97.0000    68.5620    13.0790    10.6600    14.0570    23.4500   -21.3930     2.1260 
   97.1250    66.5130    13.3910    10.7460    14.3580    23.3790   -20.5840     2.1480 
   97.2500    67.2640    14.2360    11.2590    15.0380    23.3520   -19.6010     2.1690 
   97.3750    69.1570    15.2580    12.0100    16.1320    23.4810   -18.4950     2.1910 
   97.5000    70.0320    15.9560    12.6530    18.5660    23.7770   -17.3640     2.2200 
   97.6250    71.6420    15.6800    12.6400    21.9120    24.0850   -16.2950     2.2730 
   97.7500    74.3810    14.4740    11.8760    20.4640    24.2880   -15.3010     2.3480 
   97.8750    77.8420    12.7290    10.6070    13.9050    24.3300   -14.3720     2.4170 
   98.0000    81.7160    10.9740     9.2310    10.1290    24.2330   -13.5500     2.4350 
   98.1250    84.2990     9.6530     8.0960     9.2280    24.0550   -12.9730     2.3850 
   98.2500    84.5790     8.8220     7.2990     8.9810    23.9540   -12.6460     2.3340 
   98.3750    84.1410     8.4250     6.8400     8.7360    23.9900   -12.5580     2.3100 
   98.5000    85.8690     8.3380     6.6580     7.8120    24.1210   -12.6280     2.3110 
   98.6250    86.7650     8.4760     6.6900     7.1000    24.3120   -12.8070     2.3220 
   98.7500    84.8690     8.7290     6.8300     7.4890    24.4250   -13.0520     2.3310 
   98.8750    82.4000     9.0030     7.0100     8.2650    24.4630   -13.3850     2.3270 
   99.0000    79.1720     9.1770     7.1520     8.4790    24.4450   -13.8370     2.3080 
   99.1250    75.9510     9.1540     7.1840     8.3720    24.4280   -14.4300     2.2870 
   99.2500    75.8430     9.0460     7.1540     8.4040    24.4090   -15.1490     2.2770 
   99.3750    81.2760     9.0250     7.1550     8.6900    24.3690   -15.9680     2.2720 
   99.5000    86.8490     9.2590     7.2930     8.9790    24.3200   -16.8760     2.2640 
   99.6250    85.0250     9.8490     7.6600     9.6620    24.3000   -17.8710     2.2450 
   99.7500    78.6670    10.6280     8.1930    10.8140    24.3370   -18.9150     2.2220 
   99.8750    73.7390    11.4160     8.7950    12.6260    24.4520   -19.9400     2.2010 
  100.0000    71.9750    12.0460     9.3460    14.3080    24.5820   -20.8620     2.1890 
  100.1250    71.6230    12.3900     9.7150    15.0600    24.6350   -21.5800     2.1840 
  100.2500    72.0970    12.5160     9.9030    14.9960    24.6460   -22.0610     2.1830 
  100.3750    72.2980    12.5100     9.9500    14.8400    24.6430   -22.2810     2.1820 
  100.5000    70.8970    12.4410     9.9060    14.6310    24.6410   -22.2840     2.1820 
  100.6250    69.2530    12.3310     9.8010    14.3780    24.5920   -22.1040     2.1820 
  100.7500    68.8650    12.1730     9.6480    14.0790    24.4670   -21.8230     2.1840 
  100.8750    69.0990    11.9460     9.4410    13.6670    24.3080   -21.4830     2.1900 
  101.0000    70.6140    11.6420     9.1770    12.8380    24.2830   -21.1060     2.1950 
  101.1250    76.1290    11.2720     8.8590    12.0290    24.3690   -20.7810     2.1980 
  101.2500    81.3280    10.8960     8.5320    11.4430    24.4130   -20.5930     2.2010 
  101.3750    82.2230    10.5610     8.2300    10.9540    24.4170   -20.5890     2.2040 
  101.5000    78.8260    10.2890     7.9780    10.4100    24.4040   -20.7340     2.2120 
  101.6250    74.9810    10.1150     7.8070    10.0080    24.3860   -21.0420     2.2230 
  101.7500    73.6310    10.0590     7.7310    10.2440    24.3460   -21.4570     2.2350 
  101.8750    74.5500    10.1680     7.7800    10.9190    24.3030   -22.0000     2.2400 
  102.0000    76.4310    10.4840     7.9830    11.1540    24.2730   -22.6990     2.2350 
  102.1250    76.5430    11.0540     8.3790    12.2250    24.2850   -23.5120     2.2210 
  102.2500    74.3700    11.7680     8.9020    14.1050    24.3660   -24.3320     2.2070 
  102.3750    70.1630    12.4800     9.4620    14.9790    24.5150   -25.1050     2.1950 
  102.5000    65.1950    13.0180     9.9400    14.8880    24.5870   -25.8120     2.1830 
  102.6250    65.1210    13.2010    10.1850    14.3460    24.5490   -26.4080     2.1690 
  102.7500    68.1850    13.0820    10.1970    13.9070    24.5170   -26.9290     2.1590 
  102.8750    68.6480    12.7850    10.0410    13.7970    24.5690   -27.3760     2.1580 
  103.0000    63.1380    12.4700     9.8250    13.8960    24.6170   -27.7340     2.1640 
  103.1250    57.1920    12.2730     9.6500    14.4880    24.5880   -27.9750     2.1650 
  103.2500    56.3600    12.1950     9.5470    15.0750    24.6650   -28.1100     2.1590 
  103.3750    57.7940    12.2050     9.5090    15.5500    24.7360   -28.1570     2.1510 
  103.5000    59.8070    12.2670     9.5200    15.5230    24.7920   -28.1430     2.1480 
  103.6250    64.1070    12.3690     9.5760    15.2100    24.8180   -28.0880     2.1500 
  103.7500    68.1210    12.5000     9.6630    14.9980    24.7290   -28.0210     2.1510 
  103.8750    67.7290    12.6490     9.7710    15.0460    24.5400   -27.9220     2.1510 
  104.0000    63.9000    12.7870     9.8820    15.3020    24.4730   -27.7650     2.1530 
  104.1250    63.0230    12.8690     9.9670    15.5760    24.6460   -27.5510     2.1600 
  104.2500    65.6670    12.8810    10.0100    15.5670    24.7810   -27.3560     2.1680 
  104.3750    68.4610    12.8240    10.0010    15.4300    24.8370   -27.2290     2.1730 
  104.5000    68.9410    12.7100     9.9420    15.3530    24.9220   -27.1910     2.1750 
  104.6250    67.0620    12.5510     9.8340    15.2770    25.0970   -27.2030     2.1740 
  104.7500    64.5230    12.3610     9.6950    15.2130    25.2770   -27.1940     2.1720 
  104.8750    63.0100    12.1480     9.5340    15.2420    25.3770   -27.1670     2.1680 
  105.0000    62.0400    11.9260     9.3610    15.0040    25.3960   -27.1480     2.1630 
  105.1250    60.7390    11.7340     9.2020    14.2560    25.3370   -27.1900     2.1670 
  105.2500    60.0620    11.6130     9.0860    13.4900    25.2270   -27.2890     2.1780 
  105.3750    61.1620    11.6040     9.0430    12.3970    25.0530   -27.4150     2.1870 
  105.5000    63.6440    11.7340     9.0970    11.3470    24.9430   -27.5210     2.1870 
  105.6250    66.6640    12.0100     9.2650    11.7460    24.9910   -27.5990     2.1770 
  105.7500    68.9840    12.3500     9.5010    13.0400    25.0740   -27.6820     2.1630 
  105.8750    68.9590    12.6640     9.7530    13.7320    24.9520   -27.7760     2.1450 
  106.0000    66.3050    12.8730     9.9610    13.8180    24.6220   -27.8990     2.1340 
  106.1250    63.3990    12.9210    10.0660    13.8120    24.4180   -28.0260     2.1410 
  106.2500    61.4820    12.8730    10.0870    13.5820    24.2920   -28.1310     2.1550 
  106.3750    60.9350    12.8050    10.0580    13.2050    24.1460   -28.2090     2.1610 
  106.5000    61.7850    12.7720    10.0140    14.0990    24.0500   -28.2590     2.1550 
  106.6250    62.9580    12.7920     9.9740    14.8670    24.1120   -28.3020     2.1450 
  106.7500    64.1020    12.8190     9.9310    15.3090    24.2570   -28.3840     2.1370 
  106.8750    65.1310    12.8020     9.8640    15.6960    24.3390   -28.5260     2.1380 
  107.0000    67.0540    12.7110     9.7570    15.8530    24.3660   -28.6990     2.1580 
  107.1250    70.9150    12.5500     9.6070    16.1360    24.3960   -28.8410     2.1930 
  107.2500    74.4140    12.3930     9.4580    16.4500    24.4650   -28.9240     2.2200 
  107.3750    73.3500    12.3100     9.3600    16.4690    24.5440   -28.9810     2.2270 
  107.5000    67.3730    12.3600     9.3600    16.1210    24.5900   -29.0590     2.2180 
  107.6250    63.8190    12.5840     9.5000    15.9530    24.5350   -29.1370     2.2100 
  107.7500    65.2820    12.9130     9.7420    16.0280    24.4010   -29.1230     2.2030 
  107.8750    67.8620    13.2750    10.0420    16.7120    24.3040   -28.9990     2.1890 
  108.0000    68.2990    13.6010    10.3480    18.2090    24.3020   -28.7840     2.1620 
  108.1250    67.0020    13.8350    10.6050    19.4110    24.1420   -28.5400     2.1270 
