~V
VERS. 2.00: Ver 2.00
~W
STRT.M 57.0000:
STOP.M 259.0000:
STEP.M 0.1250:
NULL. -999.2500:
UWI. F10209:
~C
DEPT.M :
SP.MV :
DEN.GM/CC :
GR.API :
RML.OHMM :
RI. :
RXO.OHMM :
CALI.CM :
~A
# ...
   79.5000   -34.7690     2.1030    68.8650    10.3600     7.5240    15.1630    26.4250 
   79.6250   -35.6620     2.0960    68.1310    10.3910     7.5820    15.5350    26.4090 
   79.7500   -36.3650     2.0920    68.9990    10.4160     7.6210    15.6020    26.3410 
   79.8750   -36.8860     2.0920    72.8750    10.4540     7.6530    15.6200    26.2260 
   80.0000   -37.2750     2.0990    77.6790    10.4900     7.6780    15.8370    26.0630 
   80.1250   -37.5130     2.1070    79.6490    10.4940     7.6830    16.1250    25.8530 
   80.2500   -37.5920     2.1140    78.4480    10.4400     7.6560    16.1300    25.7480 
   80.3750   -37.5800     2.1180    77.6540    10.3170     7.5920    16.1310    25.8130 
   80.5000   -37.5400     2.1230    76.3720    10.1510     7.5120    16.2620    25.9440 
   80.6250   -37.4870     2.1290    73.2580     9.9660     7.4300    15.9980    26.0200 
   80.7500   -37.4520     2.1360    71.0160     9.7870     7.3650    15.6120    26.0940 
   80.8750   -37.3920     2.1360    72.0220     9.6430     7.3420    15.6310    26.3870 
   81.0000   -37.2380     2.1250    71.3770     9.5560     7.3720    15.6850    27.0130 
   81.1250   -36.9420     2.1050    67.6510     9.5490     7.4710    15.3140    27.6770 
   81.2500   -36.4630     2.0780    65.6020     9.6430     7.6460    14.8990    27.9340 
   81.3750   -35.6940     2.0500    67.5050     9.8470     7.8950    15.3960    27.6820 
   81.5000   -34.6010     2.0310    68.2250    10.0730     8.1480    15.5560    27.3260 
   81.6250   -33.1110     2.0250    66.7630    10.1970     8.3030    15.6130    26.8990 
   81.7500   -31.0980     2.0380    67.6320    10.0790     8.2410    15.4190    26.2200 
   81.8750   -28.4110     2.0730    72.9580     9.5810     7.8400    14.6900    25.4670 
   82.0000   -25.2170     2.1260    82.2160     8.8280     7.1990    12.3450    25.0180 
   82.1250   -21.7490     2.1920    97.0750     7.9820     6.4450     8.8360    24.7600 
   82.2500   -18.2930     2.2590   113.6450     7.2050     5.7080     6.2630    24.5710 
   82.3750   -15.1330     2.3090   121.6030     6.6140     5.0910     5.3830    24.4360 
   82.5000   -12.3630     2.3270   122.2090     6.1510     4.5900     5.0570    24.3530 
   82.6250   -10.1340     2.3160   120.8490     5.7490     4.1900     4.9990    24.3010 
   82.7500    -8.6010     2.2890   120.4200     5.4140     3.9100     4.9070    24.1940 
   82.8750    -7.9140     2.2680   119.2520     5.3280     3.8540     5.0190    23.9630 
   83.0000    -7.8770     2.2720   117.9950     5.7610     4.1210     5.3510    23.7740 
   83.1250    -8.3400     2.3100   115.9080     7.0910     4.8980     6.1530    23.6740 
   83.2500    -9.1260     2.3820   109.3990     9.6780     6.4530     8.6170    23.6210 
   83.3750   -10.1520     2.4830    98.5210    13.8550     9.2730    15.9170    23.6100 
   83.5000   -11.4080     2.5810    88.6030    18.7260    13.0840    23.8500    23.6330 
   83.6250   -12.9570     2.6420    81.2700    22.5930    16.7940    32.0590    23.7220 
   83.7500   -14.8080     2.6350    75.3570    23.3990    18.4920    41.5240    23.9000 
   83.8750   -16.9380     2.5310    70.8330    20.4210    16.9540    33.4180    24.2920 
   84.0000   -19.2240     2.3610    68.6310    16.5200    14.2610    19.9590    24.9270 
   84.1250   -21.5420     2.1750    67.1090    13.5170    11.8980    14.7050    25.5330 
   84.2500   -23.7860     2.0370    65.3180    11.9810    10.4040    13.7920    25.8720 
   84.3750   -25.8350     2.0190    65.7140    11.9100     9.8980    14.0510    25.8510 
   84.5000   -27.6680     2.0940    66.0590    12.6040    10.0300    14.1220    25.4880 
   84.6250   -29.2210     2.2050    62.6510    13.4850    10.4900    13.8470    25.0580 
   84.7500   -30.4760     2.2880    57.8350    13.9710    10.8640    14.0760    25.0550 
   84.8750   -31.4400     2.2970    55.1260    13.6760    10.7700    13.8910    25.7980 
   85.0000   -32.2300     2.2540    53.8360    12.9560    10.3310    14.0920    26.5600 
   85.1250   -32.9750     2.1840    52.1260    12.1860     9.7770    14.7170    26.7390 
   85.2500   -33.7590     2.0980    51.9720    11.6230     9.2930    15.0930    26.7940 
   85.3750   -34.5680     2.0040    53.9770    11.3990     9.0050    14.9640    28.0730 
   85.5000   -35.3130     1.9210    54.9110    11.3700     8.8700    14.9350    29.8900 
   85.6250   -35.9200     1.8780    54.8540    11.3860     8.8070    15.0430    30.6100 
   85.7500   -36.3350     1.8910    55.7120    11.3490     8.7410    15.1320    29.6730 
   85.8750   -36.5650     1.9490    57.7280    11.2600     8.6490    15.3670    28.4140 
   86.0000   -36.6650     2.0120    59.7690    11.2030     8.5690    15.3080    27.8580 
   86.1250   -36.5990     2.0540    60.9080    11.2330     8.5300    14.7300    27.8130 
   86.2500   -36.3040     2.0670    62.2050    11.3610     8.5440    14.0290    27.8020 
   86.3750   -35.7920     2.0540    63.4420    11.5290     8.5920    13.6200    28.2650 
   86.5000   -35.1970     2.0310    64.4630    11.6250     8.6220    13.2200    28.8500 
   86.6250   -34.5740     2.0130    64.9250    11.5810     8.5910    12.1670    28.9120 
   86.7500   -33.9420     2.0060    64.6050    11.3910     8.4800    11.1630    28.1550 
   86.8750   -33.3080     2.0160    63.8430    11.1230     8.3110    11.9160    26.8490 
   87.0000   -32.7090     2.0340    63.5510    10.8980     8.1480    13.0890    25.9200 
   87.1250   -32.1300     2.0540    63.2500    10.7900     8.0380    13.7220    25.7970 
   87.2500   -31.5560     2.0720    62.3210    10.8300     8.0100    14.0130    25.7770 
   87.3750   -30.9790     2.0860    61.7990    11.0180     8.0720    14.3060    25.5800 
   87.5000   -30.3570     2.0990    62.6890    11.2670     8.1760    14.6560    25.5590 
   87.6250   -29.6100     2.1110    62.5340    11.4820     8.2700    14.9050    25.7950 
   87.7500   -28.6260     2.1230    60.0640    11.5240     8.2720    15.1090    26.0540 
   87.8750   -27.2090     2.1270    59.1750    11.1880     8.0550    14.7700    26.1490 
   88.0000   -25.3330     2.1140    62.6000    10.5200     7.6340    14.3300    26.0750 
   88.1250   -23.0090     2.0850    70.2660     9.7330     7.1310    13.4950    25.7420 
   88.2500   -20.3250     2.0600    80.1770     9.1620     6.7360    11.5300    25.2590 
   88.3750   -17.4550     2.0850    88.3500     9.1930     6.6740     8.6080    24.6150 
   88.5000   -14.6090     2.1700    90.7790     9.7930     6.9590     7.5230    24.1550 
   88.6250   -11.9150     2.2930    86.6820    10.7460     7.5220     9.0660    23.8840 
   88.7500    -9.5400     2.4080    80.6380    11.6380     8.1630    13.4240    23.7360 
   88.8750    -7.7280     2.4550    79.5840    11.8640     8.4910    15.9520    23.6430 
   89.0000    -6.4370     2.4340    84.0850    11.3380     8.3330    12.4930    23.6150 
   89.1250    -5.6590     2.3730    90.0250    10.3490     7.8010     8.6550    23.6640 
   89.2500    -5.3470     2.3080    92.7250     9.3480     7.1620     7.4720    23.6950 
   89.3750    -5.3180     2.2680    92.4080     8.7030     6.6740     7.9380    23.5230 
   89.5000    -5.3230     2.2480    93.7310     8.4060     6.4000     8.0610    23.4370 
   89.6250    -5.3140     2.2380    97.0380     8.3990     6.3460     7.5000    23.4310 
   89.7500    -5.2620     2.2350    99.4960     8.6410     6.5010     7.0050    23.4570 
   89.8750    -5.1120     2.2510    97.6270     9.1440     6.8780     7.1880    23.4820 
   90.0000    -4.8960     2.2940    94.2650     9.7900     7.3910     7.5710    23.6060 
   90.1250    -4.6200     2.3550    92.5240    10.3830     7.9130     9.1580    23.8920 
   90.2500    -4.2730     2.4100    91.2070    10.6310     8.2310    12.2260    24.3510 
   90.3750    -3.9250     2.4300    90.0980    10.2250     8.0700    12.1020    24.4840 
   90.5000    -3.6480     2.4170    93.4520     9.3940     7.5400     8.8830    24.4420 
   90.6250    -3.4520     2.3880   102.8000     8.4810     6.8670     6.6460    24.3760 
