~V
VERS. 2.00: Ver 2.00
~W
STRT.M 50.0000:
STOP.M 275.0000:
STEP.M 0.1250:
NULL. -999.2500:
UWI. F10202:
~C
DEPT.M :
GR.API :
RML.OHMM :
RI. :
RXO.OHMM :
CALI.CM :
SP.MV :
DEN.GM/CC :
~A
# ...
  241.2500    63.1820    35.4820    33.1700    37.0600    24.0670   -15.8600     2.2620 
  241.3750    63.2560    35.8660    33.5170    36.7660    24.6050   -15.2880     2.2620 
  241.5000    65.0100    36.1780    33.8170    35.9760    24.7760   -14.9290     2.2650 
  241.6250    67.7230    36.3980    34.0440    38.5490    24.7970   -14.8160     2.2690 
  241.7500    68.3640    36.5030    34.1500    40.1450    24.8240   -14.6670     2.2700 
  241.8750    67.5590    36.4890    34.1200    38.4410    24.8360   -14.2430     2.2700 
  242.0000    67.4150    36.4060    34.0070    37.1670    24.8370   -13.5190     2.2700 
  242.1250    67.9940    36.3730    33.9410    36.5590    24.8370   -12.8370     2.2720 
  242.2500    68.0050    36.4890    34.0370    37.0310    24.8350   -12.2100     2.2750 
  242.3750    68.6650    36.7850    34.3330    37.4570    24.8310   -11.6150     2.2800 
  242.5000    68.9030    37.2150    34.7820    38.2030    24.8340   -11.0780     2.2830 
  242.6250    66.0270    37.6430    35.2340    38.7120    24.8360   -10.5120     2.2840 
  242.7500    63.1950    37.9380    35.5290    39.2670    24.8370    -9.9520     2.2830 
  242.8750    64.6950    38.0580    35.6190    39.7650    24.8370    -9.6210     2.2800 
  243.0000    69.5610    38.0530    35.5720    39.8580    24.8370    -9.6620     2.2790 
  243.1250    74.0170    38.0120    35.5210    39.2490    24.8270    -9.7930     2.2790 
  243.2500    77.2160    37.9730    35.5110    37.8480    24.8030    -9.8630     2.2800 
  243.3750    78.2700    37.8770    35.4600    37.0290    24.7770    -9.7270     2.2780 
  243.5000    73.5940    37.6330    35.2470    39.7660    24.7540    -9.3260     2.2770 
  243.6250    69.4290    37.1480    34.7740    44.2920    24.7270    -8.7300     2.2760 
  243.7500    78.9340    36.4720    34.1150    42.3030    24.7080    -8.1510     2.2760 
  243.8750    95.9970    35.6420    33.3250    36.7780    24.7000    -7.6420     2.2780 
  244.0000   101.0260    34.6830    32.4230    33.4370    24.6960    -7.0250     2.2830 
  244.1250    88.0700    33.5750    31.3760    33.5000    24.6540    -6.3710     2.2950 
  244.2500    77.2170    32.3670    30.2100    31.4580    24.5520    -5.8530     2.3120 
  244.3750    76.3430    31.1070    28.9800    28.9410    24.4320    -5.4820     2.3260 
  244.5000    79.5950    29.8310    27.7900    27.2830    24.3690    -5.1760     2.3320 
  244.6250    81.3730    28.5910    26.7970    27.5410    24.3980    -4.9120     2.3280 
  244.7500    82.0280    27.5530    26.0690    28.4270    24.5190    -4.7550     2.3240 
  244.8750    81.7040    26.9570    25.6370    27.2550    24.6650    -4.6160     2.3280 
  245.0000    82.7480    26.9500    25.5140    25.3810    24.7400    -4.5230     2.3450 
  245.1250    85.6280    27.5060    25.7810    20.8500    24.7790    -4.4480     2.3710 
  245.2500    85.1670    28.3000    26.4230    16.6640    24.7530    -4.2720     2.3940 
  245.3750    81.6540    29.1550    27.4180    17.9790    24.6750    -4.0240     2.4070 
  245.5000    78.1450    29.9340    28.6140    22.9140    24.5420    -3.6800     2.4080 
  245.6250    74.7270    30.3560    29.6290    31.1970    24.4350    -3.3100     2.4100 
  245.7500    70.3070    30.1630    30.0490    34.6830    24.4120    -2.9910     2.4270 
  245.8750    66.9370    29.1400    29.5340    34.6240    24.4570    -2.7590     2.4620 
  246.0000    65.7160    27.2770    27.9010    29.6700    24.5280    -2.5880     2.4990 
  246.1250    62.7520    24.8060    25.0810    22.0230    24.6480    -2.4030     2.5140 
  246.2500    58.1340    22.2710    21.6650    17.6890    24.7190    -2.2340     2.4970 
  246.3750    56.3190    19.9310    18.1810    13.2640    24.6970    -2.0740     2.4570 
  246.5000    59.1490    17.8310    15.1070    10.4120    24.6970    -1.9650     2.4140 
  246.6250    65.4680    15.9580    12.8860     9.4640    24.7570    -1.8450     2.3870 
  246.7500    70.7220    14.3500    11.4630     8.8010    24.6750    -1.5900     2.3780 
  246.8750    72.5660    13.1820    10.7480     8.4890    24.4210    -1.2210     2.3820 
  247.0000    71.7790    12.5830    10.5960     8.7320    24.1580    -0.9520     2.3930 
  247.1250    70.0940    12.5660    10.8720     9.5100    24.1080    -0.7970     2.4040 
  247.2500    70.2800    12.7790    11.3110     9.9600    24.2130    -0.6440     2.4120 
  247.3750    71.6180    12.9830    11.7550    10.3690    24.3810    -0.5280     2.4170 
  247.5000    71.0900    13.0660    12.1020    10.7920    24.6110    -0.4580     2.4200 
  247.6250    66.6170    13.0680    12.3040    11.1050    24.7690    -0.4210     2.4250 
  247.7500    62.6060    13.1230    12.4380    11.2610    24.9080    -0.4270     2.4360 
  247.8750    62.0920    13.3140    12.5860    11.5290    24.9900    -0.4610     2.4520 
  248.0000    62.8820    13.6590    12.8220    12.0530    25.0290    -0.4270     2.4730 
  248.1250    62.1510    14.1040    13.1670    14.0110    25.0310    -0.3690     2.4980 
  248.2500    60.1870    14.4930    13.5030    16.4960    24.9960    -0.4330     2.5270 
  248.3750    58.7320    14.6850    13.6830    16.6250    24.9140    -0.6530     2.5550 
  248.5000    56.0930    14.5910    13.5870    15.5010    24.8110    -0.9770     2.5750 
  248.6250    58.1670    14.1920    13.1670    15.4200    24.7450    -1.2660     2.5710 
  248.7500    70.6000    13.6750    12.6060    14.0210    24.7490    -1.5230     2.5420 
  248.8750    84.1800    13.2040    12.0770    12.2790    24.7950    -1.7750     2.4970 
  249.0000    85.9390    12.9110    11.7150    11.3210    24.8190    -1.9650     2.4520 
  249.1250    74.1310    12.9530    11.6390    11.2810    24.8030    -2.1060     2.4290 
  249.2500    63.4780    13.3740    11.8150    11.6610    24.7740    -2.2190     2.4290 
  249.3750    59.2660    14.1310    12.2140    12.3250    24.7430    -2.2350     2.4490 
  249.5000    57.9540    14.9660    12.7760    13.8510    24.6590    -2.1300     2.4760 
  249.6250    59.3900    15.4510    13.3830    16.7310    24.4950    -2.0490     2.4970 
  249.7500    60.9520    15.5370    13.8620    19.0740    24.3500    -2.0360     2.5050 
  249.8750    62.3890    15.3950    14.0860    19.7960    24.4060    -2.1130     2.5020 
  250.0000    63.4340    15.1720    14.0070    19.1430    24.6760    -2.3320     2.4940 
  250.1250    64.9650    14.8730    13.6720    18.2130    24.8220    -2.6260     2.4870 
  250.2500    67.0280    14.5470    13.2960    15.6490    24.7940    -2.8810     2.4800 
  250.3750    66.9130    14.3260    13.0480    13.3840    24.6280    -3.1270     2.4700 
  250.5000    71.7230    14.3440    13.0530    12.0620    24.4300    -3.3810     2.4600 
  250.6250    88.6530    14.7110    13.4090    13.4470    24.3370    -3.5490     2.4560 
  250.7500    98.8010    15.3600    14.0420    16.0960    24.3170    -3.4880     2.4640 
  250.8750    87.5570    16.2300    14.8890    18.0390    24.3430    -3.1300     2.4810 
  251.0000    66.1910    17.2440    15.8740    19.0320    24.4410    -2.5270     2.5000 
  251.1250    59.5600    18.3120    16.9070    19.9630    24.4920    -1.7820     2.5130 
  251.2500    63.5790    19.3380    17.8950    22.4230    24.2000    -0.9890     2.5180 
  251.3750    65.3380    20.2600    18.7810    28.0690    24.1330    -0.1500     2.5190 
  251.5000    62.9690    21.0360    19.5220    30.6890    24.2670     0.6410     2.5220 
  251.6250    61.6930    21.6110    20.0650    31.6140    24.3000     1.0210     2.5290 
  251.7500    62.4060    22.0210    20.4420    27.5410    24.4000     0.9400     2.5370 
  251.8750    62.2570    22.3050    20.6920    24.3050    24.4000     0.5980     2.5410 
  252.0000    61.6760    22.5160    20.8730    23.7450    24.9210     0.1340     2.5400 
  252.1250    62.7570    22.7100    21.0490    25.1940    24.9490    -0.3430     2.5300 
  252.2500    64.7070    22.9030    21.2460    25.7030    24.9500    -0.8270     2.5170 
  252.3750    65.0580    23.0720    21.4250    27.1920    24.9220    -1.3060     2.5040 
