~V
VERS. 2.00: Ver 2.00
~W
STRT.M 63.0000:
STOP.M 280.0000:
STEP.M 0.1250:
NULL. -999.2500:
UWI. F10220:
~C
DEPT.M :
SP.MV :
DEN.GM/CC :
GR.API :
RML.OHMM :
RI. :
RXO.OHMM :
CALI.CM :
~A
# ...
  254.2500    -7.2740     2.4010    65.8650    10.4640     8.4300     9.4950    24.6200 
  254.3750    -7.3710     2.3900    69.3130    10.4610     8.4690    10.0150    24.5620 
  254.5000    -7.3950     2.3820    69.2110    10.4060     8.4630    10.0430    24.5660 
  254.6250    -7.3010     2.3780    65.3610    10.3280     8.4210     9.5640    24.6060 
  254.7500    -7.1450     2.3790    62.1170    10.2770     8.3730     8.9140    24.5950 
  254.8750    -6.9860     2.3810    61.6870    10.2780     8.3510     8.3990    24.5820 
  255.0000    -6.8450     2.3860    60.9410    10.3320     8.3740     8.3230    24.5710 
  255.1250    -6.6580     2.3970    57.5040    10.4220     8.4390     8.3680    24.5320 
  255.2500    -6.3650     2.4110    55.2040    10.5400     8.5390     8.3190    24.5620 
  255.3750    -6.0260     2.4210    57.0340    10.6840     8.6550     8.2390    24.7390 
  255.5000    -5.7100     2.4260    61.5470    10.8600     8.7860     8.1380    25.0250 
  255.6250    -5.4670     2.4240    63.8680    11.0750     8.9340     8.1400    25.3030 
  255.7500    -5.3060     2.4200    60.3980    11.3370     9.1120     8.0990    25.4600 
  255.8750    -5.1670     2.4220    55.7380    11.6260     9.3150     7.7050    25.4810 
  256.0000    -5.0100     2.4300    54.8520    11.9160     9.5230     7.3670    25.4100 
  256.1250    -4.8860     2.4380    58.7290    12.1740     9.7140     7.4270    25.3970 
  256.2500    -4.8720     2.4410    61.9650    12.3740     9.8650     7.6800    25.5030 
  256.3750    -4.8910     2.4400    61.3820    12.5400     9.9900     7.7110    25.5770 
  256.5000    -4.9200     2.4390    58.5090    12.7070    10.1090     7.6470    25.5690 
  256.6250    -4.9760     2.4460    56.3200    12.9090    10.2490     7.5820    25.4190 
  256.7500    -5.0170     2.4600    57.3950    13.1740    10.4400     7.6830    25.2620 
  256.8750    -5.0950     2.4700    59.9000    13.4960    10.6800     7.8810    25.1970 
  257.0000    -5.2040     2.4700    60.8080    13.8540    10.9600     8.1240    25.2160 
  257.1250    -5.2740     2.4650    60.0570    14.2070    11.2610     8.4100    25.3080 
  257.2500    -5.3290     2.4650    62.4620    14.4900    11.5370     8.9310    25.3460 
  257.3750    -5.3770     2.4720    66.9310    14.6740    11.7550     9.4580    25.3260 
  257.5000    -5.3800     2.4780    67.3870    14.7600    11.8970     9.7680    25.3390 
  257.6250    -5.3580     2.4750    62.8650    14.7850    11.9690     9.8950    25.4190 
  257.7500    -5.3070     2.4680    61.3320    14.8180    12.0070     9.6700    25.4040 
  257.8750    -5.2020     2.4660    64.1990    14.9070    12.0680     9.4650    25.2830 
  258.0000    -5.1150     2.4690    67.0300    15.0550    12.1800     9.4210    25.2050 
  258.1250    -5.0700     2.4750    67.2560    15.2260    12.3360    10.1740    25.2140 
  258.2500    -4.9950     2.4790    64.8890    15.3450    12.4890    12.0530    25.2340 
  258.3750    -4.9140     2.4840    60.7910    15.3650    12.5840    13.9580    25.2360 
  258.5000    -4.8690     2.4910    57.2920    15.2750    12.5930    14.7750    25.2240 
  258.6250    -4.7940     2.5000    57.2050    15.1170    12.5260    14.2000    25.1810 
  258.7500    -4.7330     2.4990    59.8210    14.9770    12.4360    13.7850    25.2010 
  258.8750    -4.6960     2.4890    62.5990    14.9050    12.3820    13.7120    25.2350 
  259.0000    -4.6500     2.4800    65.2630    14.8990    12.3870    13.1340    25.2640 
  259.1250    -4.6220     2.4800    65.9020    14.9280    12.4430    11.9050    25.2690 
  259.2500    -4.6110     2.4830    63.9750    14.9470    12.5160    10.6800    25.2650 
  259.3750    -4.6580     2.4820    63.1640    14.9340    12.5700    10.1150    25.2780 
  259.5000    -4.7280     2.4730    62.8850    14.8950    12.5940    10.0980    25.3080 
  259.6250    -4.8340     2.4630    62.4430    14.8570    12.5990    10.5650    25.3160 
  259.7500    -4.9510     2.4590    62.6920    14.8560    12.6150    11.4960    25.2940 
  259.8750    -5.0780     2.4620    65.3950    14.9130    12.6710    12.1070    25.2930 
  260.0000    -5.2040     2.4690    67.8450    15.0500    12.7920    13.0290    25.3130 
  260.1250    -5.3580     2.4770    66.0600    15.2770    12.9900    14.6820    25.3080 
  260.2500    -5.5190     2.4880    62.0900    15.5640    13.2610    15.9330    25.2470 
  260.3750    -5.6500     2.4990    60.9290    15.7930    13.5250    15.8250    25.1710 
  260.5000    -5.7580     2.5040    62.5680    15.8390    13.6760    15.2930    25.1120 
  260.6250    -5.8330     2.4940    64.9130    15.6210    13.6220    14.6570    25.0800 
  260.7500    -5.8930     2.4680    64.5600    15.1450    13.3170    14.8330    25.1100 
  260.8750    -5.9630     2.4420    61.8940    14.6100    12.9010    14.7490    25.1670 
  261.0000    -6.0240     2.4280    59.7230    14.1930    12.5130    14.1770    25.2090 
  261.1250    -5.9840     2.4310    60.0290    14.0260    12.2850    13.3460    25.1660 
  261.2500    -5.8720     2.4450    60.1950    14.2030    12.3370    14.1190    25.0860 
  261.3750    -5.7730     2.4570    59.7950    14.6240    12.6280    15.4010    25.0480 
  261.5000    -5.6730     2.4630    61.5240    15.1950    13.0960    16.7420    25.0780 
  261.6250    -5.5860     2.4630    64.5520    15.7930    13.6420    16.7560    25.0760 
  261.7500    -5.4620     2.4630    64.0800    16.2600    14.1280    20.7010    25.1290 
  261.8750    -5.2890     2.4660    62.9100    16.5330    14.4730    18.7630    25.1760 
  262.0000    -5.1030     2.4670    64.9600    16.6070    14.6590    17.3220    25.2040 
  262.1250    -4.9500     2.4630    66.8430    16.5240    14.7080    16.8140    25.2310 
  262.2500    -4.8610     2.4540    65.5590    16.3530    14.6580    13.9110    25.2310 
  262.3750    -4.7850     2.4480    64.4070    16.1980    14.5920    11.5570    25.2130 
  262.5000    -4.7130     2.4440    62.4060    16.1240    14.5690    10.8060    25.1340 
  262.6250    -4.6370     2.4370    58.8310    16.1520    14.6200    10.7030    25.0430 
  262.7500    -4.6200     2.4290    57.8980    16.2640    14.7460    10.8030    25.0720 
  262.8750    -4.6730     2.4280    60.5550    16.3800    14.8820    11.0750    25.1450 
  263.0000    -4.7400     2.4330    62.2460    16.4250    14.9590    12.0990    25.1860 
  263.1250    -4.8190     2.4400    59.7850    16.3350    14.9170    13.3590    25.1890 
  263.2500    -4.9170     2.4410    57.5710    16.0520    14.6950    12.8980    25.1790 
  263.3750    -5.0080     2.4340    59.2620    15.6390    14.3460    11.3710    25.1520 
  263.5000    -5.0900     2.4230    62.5820    15.1840    13.9420     9.7840    25.1220 
  263.6250    -5.1900     2.4120    65.1840    14.7910    13.5750     9.3030    25.0990 
  263.7500    -5.2620     2.4060    65.9110    14.5740    13.3410     9.0210    25.0920 
  263.8750    -5.2780     2.4100    65.2330    14.5420    13.2600     8.1970    25.1050 
  264.0000    -5.2810     2.4340    62.8950    14.6670    13.3300     7.5280    25.0830 
  264.1250    -5.2870     2.4780    60.3230    14.8890    13.5170     7.4960    24.9990 
  264.2500    -5.2740     2.5220    59.8670    15.1600    13.7830     8.0660    24.8500 
  264.3750    -5.2130     2.5440    60.2150    15.4670    14.0870     9.3040    24.7180 
  264.5000    -5.1840     2.5340    60.1510    15.8350    14.4270    11.0690    24.5910 
  264.6250    -5.1700     2.5040    59.6250    16.2710    14.7990    11.9400    24.5350 
  264.7500    -5.1630     2.4750    59.4140    16.7180    15.1700    12.5090    24.5770 
  264.8750    -5.1900     2.4630    59.6180    17.0570    15.4640    13.2910    24.6730 
  265.0000    -5.2130     2.4670    60.1470    17.1750    15.5890    14.1090    24.7010 
  265.1250    -5.2540     2.4740    60.5480    17.0270    15.4900    14.6940    24.6380 
  265.2500    -5.3190     2.4660    61.2860    16.6910    15.2010    14.7640    24.5440 
  265.3750    -5.3930     2.4500    63.0080    16.3910    14.9010    14.2890    24.5240 
