~V
VERS. 2.00: Ver 2.00
~W
STRT.M 40.0000:
STOP.M 276.0000:
STEP.M 0.1250:
NULL. -999.2500:
UWI. F10236:
~C
DEPT.M :
SP.MV :
GR.API :
RML.OHMM :
RI. :
RXO.OHMM :
CALI.CM :
DEN.GM/CC :
~A
# ...
  231.2500   -14.0300    93.5020     8.9010     7.5050     8.1350    24.2680     2.4040 
  231.3750   -14.1360    99.5930     9.0130     7.4380     8.0900    24.2730     2.4030 
  231.5000   -14.2210   101.7550     9.0240     7.2960     8.0890    24.2500     2.4050 
  231.6250   -14.2780   105.0100     8.8590     7.0720     8.1260    23.9690     2.4050 
  231.7500   -14.3290   110.5790     8.6230     6.8420     8.0730    23.3310     2.4010 
  231.8750   -14.3710   114.9920     8.5160     6.7290     8.0110    22.6320     2.3920 
  232.0000   -14.4320   115.6600     8.8200     6.8900     8.0350    22.3410     2.3790 
  232.1250   -14.4950   110.1770    10.0580     7.6290     8.3370    22.3250     2.3650 
  232.2500   -14.5950    99.7940    12.5250     8.7260     9.8160    22.2810     2.3520 
  232.3750   -14.7180    87.6810    16.5490    10.6740    13.8250    22.1690     2.3450 
  232.5000   -14.8800    79.2320    22.2710    14.1640    22.1310    22.0150     2.3460 
  232.6250   -15.0470    76.6920    29.4260    19.0940    32.3110    21.8740     2.3570 
  232.7500   -15.2240    74.0220    36.3750    24.4960    38.2730    21.8490     2.3640 
  232.8750   -15.3860    69.3100    41.3650    29.0240    41.1030    21.9730     2.3590 
  233.0000   -15.5180    66.0370    43.3590    31.5680    41.1530    22.1240     2.3410 
  233.1250   -15.6320    66.3040    42.6790    31.9130    38.7630    22.3890     2.3220 
  233.2500   -15.7090    67.2560    41.4080    31.4160    35.2520    22.9160     2.3070 
  233.3750   -15.7540    67.9540    40.7480    30.9750    32.9110    23.5650     2.2960 
  233.5000   -15.7590    69.4730    41.2940    31.1560    32.5020    23.9350     2.2860 
  233.6250   -15.7230    70.1280    43.2700    32.3100    34.1720    24.1050     2.2770 
  233.7500   -15.6540    68.1310    45.9650    34.1190    37.1340    24.1980     2.2670 
  233.8750   -15.5570    65.0250    48.5830    36.1160    41.2420    24.2410     2.2580 
  234.0000   -15.4510    62.9870    50.2250    37.6780    43.8680    24.2550     2.2530 
  234.1250   -15.3070    62.9640    49.8930    38.0190    41.2900    24.2480     2.2520 
  234.2500   -15.1440    65.1540    47.8230    37.1100    38.8150    24.2360     2.2500 
  234.3750   -14.9730    68.8630    44.5560    35.2120    37.0120    24.2190     2.2470 
  234.5000   -14.7890    72.2150    40.8860    32.8410    34.6140    24.1870     2.2460 
  234.6250   -14.6340    73.2560    37.7720    30.6720    31.1560    24.1340     2.2500 
  234.7500   -14.4910    72.7460    35.7330    29.1510    28.0960    24.1400     2.2580 
  234.8750   -14.3720    72.5660    34.9410    28.4540    25.8950    24.1510     2.2690 
  235.0000   -14.2670    72.9660    35.2240    28.5330    26.1750    24.1250     2.2810 
  235.1250   -14.1930    72.0460    36.0850    29.1480    28.2940    24.1310     2.2890 
  235.2500   -14.1370    70.7040    36.6690    29.7180    30.6840    24.1490     2.2940 
  235.3750   -14.0950    72.2130    36.4500    29.8190    31.1050    24.1310     2.2970 
  235.5000   -14.0560    76.8130    35.3420    29.2750    29.2700    24.1290     2.2970 
  235.6250   -14.0110    79.3360    33.7930    28.2770    26.4590    24.1860     2.2930 
  235.7500   -13.9570    77.7370    32.6070    27.4010    25.0320    24.2230     2.2890 
  235.8750   -13.9210    74.7450    32.2490    27.0400    24.2360    24.2160     2.2850 
  236.0000   -13.8950    73.8810    32.8790    27.4010    24.5080    24.1180     2.2830 
  236.1250   -13.8560    74.6640    34.4640    28.5720    24.3770    23.9950     2.2810 
  236.2500   -13.8170    73.1800    36.3970    30.1430    24.0100    23.8080     2.2780 
  236.3750   -13.7870    68.7120    38.1300    31.6930    23.6530    23.5880     2.2750 
  236.5000   -13.8000    64.4970    39.2470    32.8290    23.6110    23.3600     2.2730 
  236.6250   -13.8120    65.4740    39.5870    33.3180    24.8940    23.1760     2.2730 
  236.7500   -13.8350    69.2220    39.5650    33.4330    24.7930    22.8360     2.2760 
  236.8750   -13.8270    71.7130    39.5350    33.4500    22.7830    22.2930     2.2810 
  237.0000   -13.8090    71.5830    39.7580    33.5910    20.7460    21.9160     2.2890 
  237.1250   -13.7890    69.6890    40.3400    33.9590    22.5000    21.9760     2.2940 
  237.2500   -13.7620    68.0820    41.1000    34.4530    25.0580    22.3460     2.2940 
  237.3750   -13.7120    68.4830    41.9380    35.0220    27.2710    22.8990     2.2930 
  237.5000   -13.6230    70.9050    42.8630    35.7020    30.6090    23.5170     2.2940 
  237.6250   -13.5130    71.1630    44.0260    36.6320    36.0980    24.1070     2.2890 
  237.7500   -13.3900    67.3420    45.5730    37.9000    42.8530    24.4530     2.2820 
  237.8750   -13.2760    62.4920    47.5980    39.5700    48.8780    24.5560     2.2760 
  238.0000   -13.1620    60.0410    49.9590    41.5430    52.9910    24.6930     2.2760 
  238.1250   -13.0370    60.2010    52.0920    43.4160    53.3380    24.8650     2.2780 
  238.2500   -12.9050    61.6610    53.4250    44.7090    55.6240    24.9620     2.2790 
  238.3750   -12.7770    63.9770    53.7440    45.2010    62.1560    24.9930     2.2830 
  238.5000   -12.6410    66.0860    53.2680    44.9990    62.6660    24.9920     2.2880 
  238.6250   -12.4980    68.0240    52.5580    44.4740    56.2600    24.9840     2.2920 
  238.7500   -12.3490    71.8710    52.2320    44.1340    48.4110    24.9940     2.2970 
  238.8750   -12.2050    75.1830    52.5390    44.2380    48.8010    24.9820     2.3080 
  239.0000   -12.0580    74.3520    53.3700    44.8030    58.5740    24.9520     2.3220 
  239.1250   -11.9120    70.6570    54.2800    45.5890    63.9980    24.8830     2.3300 
  239.2500   -11.7600    66.3590    54.7960    46.1890    61.8360    24.8720     2.3220 
  239.3750   -11.5810    62.7700    54.7500    46.4030    61.9030    24.9070     2.3070 
  239.5000   -11.3770    62.6470    54.2160    46.2200    69.3900    24.9000     2.3010 
  239.6250   -11.1720    67.3600    53.3070    45.7120    67.7870    24.8640     2.3150 
  239.7500   -10.9520    69.4220    52.0320    44.9350    64.0020    24.7920     2.3310 
  239.8750   -10.7220    67.4830    50.1260    43.6890    58.6050    24.7440     2.3360 
  240.0000   -10.4830    65.5990    47.3710    41.7410    53.1600    24.7750     2.3300 
  240.1250   -10.2640    64.0790    43.8180    39.0220    45.2930    24.8580     2.3160 
  240.2500   -10.0610    59.9120    40.0980    36.0380    40.7300    24.9020     2.2970 
  240.3750    -9.8660    57.0950    36.6550    33.1860    37.0550    24.9220     2.2750 
  240.5000    -9.6930    59.2310    33.7270    30.6980    34.1030    24.9630     2.2580 
  240.6250    -9.5390    63.3520    31.3980    28.6800    32.4490    24.9850     2.2560 
  240.7500    -9.4260    65.1830    29.4670    26.9930    31.0020    25.0090     2.2610 
  240.8750    -9.3350    65.8450    27.8620    25.5890    29.6210    25.0620     2.2660 
  241.0000    -9.2690    67.1440    26.5450    24.4390    27.5420    25.0660     2.2680 
  241.1250    -9.2180    69.2590    25.4990    23.5260    24.9710    25.0770     2.2680 
  241.2500    -9.1630    70.7000    24.5820    22.7240    24.3700    25.1020     2.2700 
  241.3750    -9.1180    70.8320    23.6750    21.9310    25.5440    25.1280     2.2720 
  241.5000    -9.0890    70.0990    22.7040    21.0700    26.8460    25.1070     2.2740 
  241.6250    -9.0740    69.6250    21.7040    20.1540    23.7860    25.0860     2.2790 
  241.7500    -9.0660    70.9950    20.8290    19.3070    20.8590    25.0330     2.2850 
  241.8750    -9.0530    73.4710    20.2190    18.6530    19.8310    25.0080     2.2900 
  242.0000    -9.0430    74.9150    19.9680    18.2870    20.0720    25.0070     2.2940 
  242.1250    -9.0410    72.4240    20.1530    18.3060    20.6250    25.0260     2.2980 
  242.2500    -9.0470    68.3610    20.6330    18.6160    21.5780    25.0880     2.3010 
  242.3750    -9.0590    67.1500    21.2840    19.1270    23.1690    25.1770     2.2990 
