~V
VERS. 2.00: Ver 2.00
~W
STRT.M 20.0000:
STOP.M 256.0000:
STEP.M 0.1250:
NULL. -999.2500:
UWI. F10201:
~C
DEPT.M :
DEN.GM/CC :
GR.API :
RML.OHMM :
RI. :
RXO.OHMM :
CALI.CM :
SP.MV :
~A
# ...
   42.5000  -999.2500  -999.2500  -999.2500  -999.2500  -999.2500  -999.2500  -999.2500 
   42.6250  -999.2500  -999.2500  -999.2500  -999.2500  -999.2500  -999.2500  -999.2500 
   42.7500  -999.2500  -999.2500  -999.2500  -999.2500  -999.2500  -999.2500  -999.2500 
   42.8750  -999.2500  -999.2500  -999.2500  -999.2500  -999.2500  -999.2500  -999.2500 
   43.0000  -999.2500  -999.2500  -999.2500  -999.2500  -999.2500  -999.2500  -999.2500 
   43.1250  -999.2500  -999.2500  -999.2500  -999.2500  -999.2500  -999.2500  -999.2500 
   43.2500  -999.2500  -999.2500  -999.2500  -999.2500  -999.2500  -999.2500  -999.2500 
   43.3750  -999.2500  -999.2500  -999.2500  -999.2500  -999.2500  -999.2500  -999.2500 
   43.5000  -999.2500  -999.2500  -999.2500  -999.2500  -999.2500  -999.2500  -999.2500 
   43.6250  -999.2500  -999.2500  -999.2500  -999.2500  -999.2500  -999.2500  -999.2500 
   43.7500  -999.2500  -999.2500  -999.2500  -999.2500  -999.2500  -999.2500  -999.2500 
   43.8750  -999.2500  -999.2500  -999.2500  -999.2500  -999.2500  -999.2500  -999.2500 
   44.0000  -999.2500  -999.2500  -999.2500  -999.2500  -999.2500  -999.2500  -999.2500 
   44.1250  -999.2500  -999.2500  -999.2500  -999.2500  -999.2500  -999.2500  -999.2500 
   44.2500  -999.2500  -999.2500  -999.2500  -999.2500  -999.2500  -999.2500  -999.2500 
   44.3750  -999.2500  -999.2500  -999.2500  -999.2500  -999.2500  -999.2500  -999.2500 
   44.5000  -999.2500  -999.2500  -999.2500  -999.2500  -999.2500  -999.2500  -999.2500 
   44.6250  -999.2500  -999.2500  -999.2500  -999.2500  -999.2500  -999.2500  -999.2500 
   44.7500  -999.2500  -999.2500  -999.2500  -999.2500  -999.2500  -999.2500  -999.2500 
   44.8750  -999.2500  -999.2500  -999.2500  -999.2500  -999.2500  -999.2500  -999.2500 
   45.0000  -999.2500  -999.2500  -999.2500  -999.2500  -999.2500  -999.2500  -999.2500 
   45.1250  -999.2500  -999.2500  -999.2500  -999.2500  -999.2500  -999.2500  -999.2500 
   45.2500  -999.2500  -999.2500  -999.2500  -999.2500  -999.2500  -999.2500  -999.2500 
   45.3750  -999.2500  -999.2500  -999.2500  -999.2500  -999.2500  -999.2500  -999.2500 
   45.5000  -999.2500  -999.2500  -999.2500  -999.2500  -999.2500  -999.2500  -999.2500 
   45.6250  -999.2500  -999.2500  -999.2500  -999.2500  -999.2500  -999.2500  -999.2500 
   45.7500  -999.2500  -999.2500  -999.2500  -999.2500  -999.2500  -999.2500  -999.2500 
   45.8750  -999.2500  -999.2500  -999.2500  -999.2500  -999.2500  -999.2500  -999.2500 
   46.0000  -999.2500  -999.2500  -999.2500  -999.2500  -999.2500  -999.2500  -999.2500 
   46.1250  -999.2500    36.9460  6419.3690     0.2340     0.1600    25.3050  -999.2500 
   46.2500  -999.2500    36.9460  6419.3690     0.2340     0.1600    25.3050  -999.2500 
   46.3750  -999.2500    36.9460  6419.3690     0.2340     0.1600    25.3050  -999.2500 
   46.5000  -999.2500    36.9460  6419.3690     0.2340     0.1600    25.3050  -999.2500 
   46.6250  -999.2500    36.4580  6419.3690     0.2270     0.1800    25.3050  -999.2500 
   46.7500  -999.2500    37.9760  6419.3690     0.2210     0.1750    25.3050  -999.2500 
   46.8750  -999.2500    39.9780  6419.3690     0.2180     0.1410    25.3040  -999.2500 
   47.0000  -999.2500    41.5760  6419.3690     0.2230     0.1200    25.3010  -999.2500 
   47.1250  -999.2500    42.8930  6419.3690     0.2330     0.1480    25.2950  -999.2500 
   47.2500  -999.2500    44.8750  6419.3690     0.2440     0.1900    25.2850  -999.2500 
   47.3750  -999.2500    46.7990  6419.3690     0.2490     0.2340    25.2810  -999.2500 
   47.5000  -999.2500    47.0240  6419.3690     0.2480     0.2100    25.2920  -999.2500 
   47.6250  -999.2500    45.3510  6419.3690     0.2420     0.2400    25.3010  -999.2500 
   47.7500  -999.2500    46.1740  6419.3690     0.2380     0.3270    25.3050  -999.2500 
   47.8750  -999.2500    48.7340  6419.3690     0.2390     0.3140    25.3050  -999.2500 
   48.0000  -999.2500    49.9050  6419.3690     0.2430     0.1940    25.3050  -999.2500 
   48.1250  -999.2500    49.5920  6419.3690     0.2450     0.1790    25.3070  -999.2500 
   48.2500  -999.2500    47.9070  6419.3690     0.2430     0.1730    25.3090  -999.2500 
   48.3750  -999.2500    45.7150  6419.3690     0.2410     0.1820    25.3100  -999.2500 
   48.5000  -999.2500    44.1240  6419.3690     0.2390     0.2140    25.3100  -999.2500 
   48.6250  -999.2500    44.3540  6419.3690     0.2390     0.2350    25.3100  -999.2500 
   48.7500  -999.2500    43.9140  6419.3690     0.2390     0.2140    25.3100  -999.2500 
   48.8750  -999.2500    41.6650  6419.3690     0.2360     0.1850    25.3100  -999.2500 
   49.0000  -999.2500    39.4530  6419.3690     0.2300     0.2550    25.3080   119.7250 
   49.1250  -999.2500    38.1260  6419.3690     0.2240     0.7710    25.3000   119.7250 
   49.2500  -999.2500    37.1710  6419.3690     0.2230     1.0500    25.2860   119.8990 
   49.3750  -999.2500    37.8340  6419.3690     0.2270     0.9150    25.2760   120.3910 
   49.5000  -999.2500    39.7350  6419.3690     0.2360     0.6100    25.2750   120.9740 
   49.6250  -999.2500    41.2330  6419.3690     0.2430     0.4590    25.2750   121.6300 
   49.7500  -999.2500    41.3900  6419.3690     0.2470     0.3460    25.2730   122.3420 
   49.8750  -999.2500    41.7580  6419.3690     0.2470     0.3250    25.2710   122.9890 
   50.0000  -999.2500    42.7730  6419.3690     0.2470     0.3190    25.2690   123.4960 
   50.1250  -999.2500    43.1990  6419.3690     0.2460     0.3410    25.2690   123.8610 
   50.2500  -999.2500    43.7140  6419.3690     0.2400     0.3560    25.2720   124.1040 
   50.3750  -999.2500    44.6250  6419.3690     0.2310     0.3440    25.2740   124.1630 
   50.5000  -999.2500    44.3440  6419.3690     0.2210     0.3230    25.2740   124.0220 
   50.6250  -999.2500    43.0760  6419.3690     0.2140     0.3410    25.2720   123.6710 
   50.7500     2.0920    43.4840  6419.3690     0.2110     0.3840    25.2710   123.1490 
   50.8750     2.0920    45.0620  6419.3690     0.2100     0.4710    25.2710   122.5460 
   51.0000     2.0890    44.8910  6419.3690     0.2100     0.6430    25.2710   121.9480 
   51.1250     2.0930    40.5550  6419.3690     0.2100     0.6300    25.2740   121.4280 
   51.2500     2.1060    36.3760  6419.3690     0.2120     0.4290    25.2770   121.0270 
   51.3750     2.1230    36.0060  6419.3690     0.2130     0.3580    25.2770   120.7770 
   51.5000     2.1360    39.2010  6419.3690     0.2120     0.3510    25.2740   120.7220 
   51.6250     2.1340    41.7330  6419.3690     0.2130     0.3020    25.2690   120.8370 
   51.7500     2.1220    41.3060  6419.3690     0.2140     0.2740    25.2660   121.0640 
   51.8750     2.1040    40.2040  6419.3690     0.2170     0.2610    25.2660   121.3560 
   52.0000     2.0890    39.8830  6419.3690     0.2180     0.2880    25.2660   121.6810 
   52.1250     2.0800    38.8140  6419.3690     0.2190     0.3280    25.2660   121.9650 
   52.2500     2.0770    37.6580  6419.3690     0.2210     0.3700    25.2660   122.1790 
   52.3750     2.0750    37.3260  6419.3690     0.2220     0.3590    25.2650   122.3520 
   52.5000     2.0750    37.1990  6419.3690     0.2200     0.3400    25.2650   122.4330 
   52.6250     2.0760    37.2330  6419.3690     0.2160     0.3560    25.2660   122.4440 
   52.7500     2.0780    38.3040  6419.3690     0.2100     0.4180    25.2650   122.4270 
   52.8750     2.0790    40.0280  6419.3690     0.2060     0.5000    25.2640   122.3970 
   53.0000     2.0780    39.2370  6419.3690     0.2040     0.5320    25.2640   122.3360 
   53.1250     2.0750    36.1000  6419.3690     0.2050     0.5250    25.2640   122.2530 
   53.2500     2.0750    35.2150  6419.3690     0.2040     0.6240    25.2640   122.0990 
   53.3750     2.0790    36.2860  6419.3690     0.2030     0.7410    25.2640   121.8630 
   53.5000     2.0880    37.4510  6419.3690     0.2020     0.6150    25.2640   121.5870 
   53.6250     2.0980    38.0980  6419.3690     0.2040     0.5310    25.2630   121.3000 
