~V
VERS. 2.00: Ver 2.00
~W
STRT.M 52.0000:
STOP.M 271.0000:
STEP.M 0.1250:
NULL. -999.2500:
UWI. F10212:
~C
DEPT.M :
GR.API :
RML.OHMM :
RI. :
RXO.OHMM :
CALI.CM :
SP.MV :
DEN.GM/CC :
~A
# ...
  243.2500    58.0100     8.3750     6.7670     6.8500    24.3910    -4.4740     2.3870 
  243.3750    59.8960     8.5250     6.8790     7.2280    24.4350    -4.4070     2.3780 
  243.5000    59.9230     8.6330     6.9660     7.0360    24.4520    -4.3580     2.3710 
  243.6250    59.4690     8.6580     7.0020     6.8480    24.4550    -4.3460     2.3740 
  243.7500    60.3270     8.6270     7.0010     6.9930    24.4530    -4.3550     2.3850 
  243.8750    61.4340     8.5790     6.9830     7.3130    24.4460    -4.3910     2.3990 
  244.0000    59.9780     8.5530     6.9690     7.1610    24.4270    -4.4490     2.4090 
  244.1250    57.0930     8.5840     6.9810     6.8500    24.3920    -4.5060     2.4100 
  244.2500    56.8450     8.6640     7.0210     6.4920    24.3570    -4.5350     2.4080 
  244.3750    58.8470     8.7790     7.0840     6.1420    24.2850    -4.5360     2.4090 
  244.5000    60.6560     8.9110     7.1630     5.9930    24.1680    -4.5100     2.4130 
  244.6250    60.6080     9.0460     7.2530     6.0470    24.0750    -4.4650     2.4110 
  244.7500    61.1160     9.1640     7.3380     6.0750    24.0320    -4.4220     2.4010 
  244.8750    63.9540     9.2520     7.4110     6.0840    24.0600    -4.3980     2.3860 
  245.0000    68.2320     9.3260     7.4760     6.1330    24.1520    -4.4010     2.3740 
  245.1250    69.1570     9.4570     7.5830     6.5160    24.2570    -4.4370     2.3700 
  245.2500    65.3800     9.7360     7.7930     7.8270    24.3450    -4.5140     2.3760 
  245.3750    61.8990    10.2370     8.1650    10.3790    24.4020    -4.6310     2.3910 
  245.5000    61.9400    10.9880     8.7290    13.1280    24.3950    -4.7670     2.4170 
  245.6250    62.9770    11.9600     9.4960    15.4140    24.2870    -4.9150     2.4550 
  245.7500    63.3680    12.9840    10.3570    17.2300    24.1530    -5.0750     2.4890 
  245.8750    64.3720    13.9270    11.2110    17.5580    24.0770    -5.2120     2.5040 
  246.0000    66.8580    14.6950    11.9610    16.5540    24.1560    -5.3040     2.4980 
  246.1250    68.7590    15.2290    12.5240    15.8380    24.4150    -5.4000     2.4770 
  246.2500    68.7600    15.6060    12.9410    15.6530    24.5710    -5.5110     2.4500 
  246.3750    67.1760    15.8890    13.2610    15.7840    24.5120    -5.6050     2.4270 
  246.5000    65.1590    16.1030    13.5190    16.1400    24.2540    -5.6760     2.4190 
  246.6250    64.9270    16.2020    13.6840    17.1270    23.9280    -5.7170     2.4340 
  246.7500    66.2600    16.1540    13.7200    17.5160    23.6350    -5.7430     2.4590 
  246.8750    67.5970    15.9450    13.6100    17.3250    23.5740    -5.8010     2.4790 
  247.0000    68.0440    15.6080    13.3790    16.8650    23.9300    -5.9080     2.4860 
  247.1250    66.7640    15.2330    13.1010    16.9650    24.2490    -6.0230     2.4790 
  247.2500    64.0420    14.9260    12.8720    15.7550    24.3960    -6.0790     2.4660 
  247.3750    61.7750    14.7410    12.7400    13.7940    24.3950    -6.0810     2.4550 
  247.5000    62.7200    14.6880    12.7260    12.4710    24.3080    -6.0970     2.4510 
  247.6250    66.2770    14.7590    12.8340    11.6810    24.2200    -6.1430     2.4530 
  247.7500    67.8920    14.8750    12.9950    12.1590    24.1700    -6.1890     2.4540 
  247.8750    67.1070    14.9580    13.1420    13.2660    24.0960    -6.2210     2.4580 
  248.0000    65.8430    14.9330    13.2000    14.2740    24.0150    -6.2070     2.4700 
  248.1250    64.8330    14.7200    13.0900    14.8620    23.9120    -6.1400     2.4890 
  248.2500    63.9490    14.3620    12.8400    15.6330    23.8060    -6.0970     2.5040 
  248.3750    63.7290    13.9480    12.5170    15.9960    23.6700    -6.0870     2.5140 
  248.5000    65.0750    13.6150    12.2230    14.7520    23.4290    -6.0610     2.5140 
  248.6250    66.9500    13.5310    12.0960    13.8000    23.0550    -6.0060     2.4940 
  248.7500    68.6600    13.7150    12.1790    14.4970    22.7000    -5.9360     2.4650 
  248.8750    69.8530    14.1270    12.4710    15.7140    22.5220    -5.8380     2.4440 
  249.0000    69.4010    14.6580    12.9140    15.6440    22.5100    -5.7370     2.4360 
  249.1250    67.6080    15.1300    13.3920    13.2990    22.7260    -5.6550     2.4350 
  249.2500    66.2400    15.4210    13.7670    13.0810    23.0540    -5.5880     2.4360 
  249.3750    65.7830    15.5120    13.9810    14.2650    23.4280    -5.5390     2.4390 
  249.5000    66.5200    15.4650    14.0460    14.8810    23.8650    -5.4750     2.4400 
  249.6250    68.2480    15.4060    14.0400    12.6680    24.3210    -5.4080     2.4380 
  249.7500    69.9180    15.4480    14.0750    10.9790    24.6500    -5.3560     2.4430 
  249.8750    69.8530    15.6380    14.2110    11.6670    24.7840    -5.3540     2.4610 
  250.0000    67.1200    15.9650    14.4600    13.3790    24.7320    -5.4140     2.4900 
  250.1250    64.3270    16.3690    14.7870    13.1920    24.3980    -5.4780     2.5140 
  250.2500    63.3690    16.7410    15.1010    12.0750    23.8780    -5.5080     2.5230 
  250.3750    65.0290    17.0040    15.3320    11.6490    23.4980    -5.5160     2.5210 
  250.5000    68.1660    17.1180    15.4380    11.9280    23.4170    -5.5600     2.5170 
  250.6250    69.7330    17.0850    15.4170    12.7900    23.4180    -5.6460     2.5120 
  250.7500    68.3710    17.0050    15.3580    14.2180    23.3060    -5.7310     2.5030 
  250.8750    64.9720    16.9560    15.3370    16.0440    23.1250    -5.7710     2.4960 
  251.0000    62.1120    16.9990    15.4140    16.7960    22.9930    -5.7370     2.4950 
  251.1250    62.1800    17.1900    15.6330    19.0330    23.0160    -5.6750     2.4980 
  251.2500    64.4080    17.5100    15.9650    22.2660    23.2220    -5.6060     2.4990 
  251.3750    67.6830    17.9290    16.3760    21.6720    23.4760    -5.5370     2.4970 
  251.5000    70.4250    18.3800    16.8070    18.6800    23.6290    -5.4630     2.4930 
  251.6250    70.9280    18.7330    17.1510    18.4150    23.8160    -5.3770     2.4900 
  251.7500    69.0590    18.8860    17.3190    19.3170    23.9530    -5.2860     2.4910 
  251.8750    66.4720    18.7750    17.2540    19.9900    23.9560    -5.1940     2.4920 
  252.0000    65.2310    18.4060    16.9590    20.8280    23.8520    -5.1330     2.4890 
  252.1250    65.2900    17.8760    16.5220    22.1310    23.7330    -5.1300     2.4850 
  252.2500    64.7300    17.3870    16.1230    22.7550    23.5580    -5.1540     2.4780 
  252.3750    63.2900    17.0900    15.8850    19.6980    23.2910    -5.2110     2.4680 
  252.5000    62.1320    17.0910    15.9030    15.3340    22.9140    -5.2920     2.4610 
  252.6250    62.9180    17.4740    16.2670    13.4170    22.4800    -5.3680     2.4590 
  252.7500    65.3010    18.0720    16.8620    12.7560    21.9920    -5.4470     2.4610 
  252.8750    68.1180    18.6740    17.5270    12.5290    21.2640    -5.5400     2.4710 
  253.0000    69.7390    19.0300    18.0320    12.6690    20.4430    -5.6270     2.4900 
  253.1250    69.7630    18.8500    18.0620    13.2190    20.0680    -5.7020     2.5170 
  253.2500    69.8350    18.1690    17.5860    14.2660    20.1610    -5.8070     2.5370 
  253.3750    70.7630    17.1300    16.7050    16.4580    20.5020    -5.9040     2.5400 
  253.5000    71.5810    15.9630    15.6310    17.7590    20.9380    -5.9450     2.5250 
  253.6250    71.1640    14.8990    14.5870    15.6600    21.4700    -5.9370     2.4970 
  253.7500    69.7150    14.0300    13.6910    13.3050    21.9070    -5.9330     2.4680 
  253.8750    68.0400    13.3540    12.9650    12.4500    22.1330    -5.9280     2.4460 
  254.0000    67.0080    12.8220    12.3840    12.3800    22.1330    -5.9260     2.4330 
  254.1250    67.4600    12.4040    11.9360    12.1200    22.0040    -5.8990     2.4340 
  254.2500    67.7530    12.1070    11.6110    11.2470    21.9600    -5.8440     2.4420 
  254.3750    66.8450    12.0120    11.4640    10.4790    21.9900    -5.7710     2.4540 
