~V
VERS. 2.00: Ver 2.00
~W
STRT.M 60.0000:
STOP.M 271.0000:
STEP.M 0.1250:
NULL. -999.2500:
UWI. F10237:
~C
DEPT.M :
GR.API :
RML.OHMM :
RI. :
RXO.OHMM :
CALI.CM :
DEN.GM/CC :
SP.MV :
~A
# ...
  172.5000    59.3200   138.8060   112.3030    59.0780    24.4760     2.2690   -33.3560 
  172.6250    61.8870   130.4800   105.5670    60.0860    24.5970     2.2640   -33.2410 
  172.7500    59.4510   121.7460    98.5000    57.8450    24.5730     2.2630   -33.1800 
  172.8750    55.0560   112.9180    91.3580    50.8410    24.4660     2.2680   -33.0580 
  173.0000    53.4980   104.8890    84.8610    41.3330    24.3260     2.2720   -32.9590 
  173.1250    55.2250    99.0110    80.1060    36.9710    24.2300     2.2720   -32.9540 
  173.2500    56.7470    95.3690    77.1600    38.7050    24.2490     2.2710   -32.8700 
  173.3750    58.1000    93.5770    75.7100    41.3490    24.3210     2.2730   -32.7800 
  173.5000    59.4380    92.8150    75.0930    45.4690    24.3960     2.2780   -32.7910 
  173.6250    60.5290    92.1060    74.5190    53.1950    24.4650     2.2830   -32.7420 
  173.7500    60.0790    91.0790    73.6880    52.9990    24.5030     2.2890   -32.7070 
  173.8750    59.0920    90.1840    72.9640    46.8060    24.5500     2.2950   -32.7680 
  174.0000    60.4320    90.1200    72.9130    45.1050    24.6510     2.3020   -32.7690 
  174.1250    62.2900    91.6310    74.1350    51.7200    24.7880     2.3060   -32.8100 
  174.2500    60.8070    94.6360    76.5660    63.2990    24.9140     2.3060   -32.9510 
  174.3750    57.9150    99.0160    80.1100    73.0420    24.9920     2.3010   -33.0570 
  174.5000    57.1970   104.3940    84.4610    73.2710    25.0000     2.2970   -33.1320 
  174.6250    60.0880   110.1200    89.0940    69.0260    24.9290     2.2920   -33.2910 
  174.7500    62.3970   115.3370    93.3150    74.3920    24.8530     2.2860   -33.3910 
  174.8750    62.1060   119.2020    96.4420    91.5540    24.8040     2.2820   -33.4910 
  175.0000    60.7870   120.8330    97.7610    99.3720    24.7870     2.2850   -33.6690 
  175.1250    63.3130   119.2380    96.4710    85.8740    24.8180     2.2910   -33.7320 
  175.2500    67.8100   115.2740    93.2640    74.2710    24.8310     2.2950   -33.7820 
  175.3750    68.2170   110.1410    89.1110    66.2430    24.7990     2.2970   -33.8860 
  175.5000    61.7030   105.3970    85.2730    60.6290    24.7300     2.2980   -33.9490 
  175.6250    54.0060   102.7280    83.1130    56.3290    24.6480     2.2990   -34.0330 
  175.7500    52.4500   102.3520    82.8090    52.9550    24.5630     2.3010   -34.1450 
  175.8750    56.3210   104.0480    84.1810    49.8130    24.4500     2.3000   -34.2280 
  176.0000    60.0570   107.2180    86.7460    48.1520    24.3270     2.2980   -34.3220 
  176.1250    60.0990   110.8160    89.6570    49.3680    24.2210     2.2940   -34.4400 
  176.2500    60.2840   113.4970    91.8260    48.1930    24.1700     2.2890   -34.5440 
  176.3750    63.6120   114.4860    92.6260    46.5740    24.1510     2.2860   -34.6620 
  176.5000    66.4880   113.8360    92.1010    44.2020    24.1690     2.2830   -34.7760 
  176.6250    63.3270   112.8130    91.2730    42.8500    24.1830     2.2800   -34.8350 
  176.7500    58.8700   113.4960    91.8250    43.0270    24.1910     2.2770   -34.9390 
  176.8750    57.4190   117.6470    95.1830    45.7800    24.2060     2.2730   -35.0090 
  177.0000    57.7550   126.6410   102.4610    49.9820    24.2420     2.2680   -35.0110 
  177.1250    57.2720   140.3500   114.7770    59.4940    24.2550     2.2620   -35.0790 
  177.2500    57.0090   154.9560   130.0130    67.9850    24.2340     2.2550   -35.0730 
  177.3750    56.0410   173.8790   144.8220    71.4720    24.1920     2.2510   -34.9920 
  177.5000    54.1870   186.7070   154.9980    73.5360    24.1530     2.2500   -34.9430 
  177.6250    53.4310   189.2170   156.8730    74.8960    24.1350     2.2540   -34.7850 
  177.7500    53.8600   186.1100   153.6560    72.0120    24.1300     2.2590   -34.5620 
  177.8750    54.5630   183.0400   149.7310    67.6380    24.1180     2.2630   -34.2980 
  178.0000    54.8040   184.3440   149.0300    69.1830    24.1250     2.2630   -33.9420 
  178.1250    53.3140   192.2310   154.0920    90.3850    24.1700     2.2630   -33.5410 
  178.2500    50.7760   203.4580   162.7100   100.6460    24.1960     2.2650   -33.0840 
  178.3750    49.5150   213.3000   171.4050    96.8970    24.2800     2.2710   -32.5590 
  178.5000    50.0860   215.7380   175.5070    87.5890    24.4350     2.2810   -32.0160 
  178.6250    51.6850   204.5610   169.4830    81.6660    24.5220     2.2930   -31.4610 
  178.7500    55.5010   184.2770   155.3350    79.5680    24.5390     2.3020   -30.8520 
  178.8750    62.4820   161.3670   137.4260    79.6350    24.5500     2.3010   -30.2630 
  179.0000    67.7120   141.4010   120.4750    71.4610    24.6040     2.2890   -29.6600 
  179.1250    66.1580   128.1400   108.2580    56.8600    24.6320     2.2720   -28.9950 
  179.2500    63.3240   120.8100   100.9010    49.1600    24.6020     2.2580   -28.4180 
  179.3750    62.5800   118.3920    97.8450    51.8610    24.5110     2.2510   -27.8200 
  179.5000    62.4650   119.4450    97.9900    59.9950    24.4670     2.2500   -27.1480 
  179.6250    61.8140   122.5340   100.2220    69.7070    24.6140     2.2510   -26.5750 
  179.7500    61.2470   125.9040   102.9750    76.8770    24.8380     2.2530   -26.0020 
  179.8750    59.4870   128.6100   105.3200    80.7100    24.9990     2.2570   -25.4560 
  180.0000    54.9110   130.0210   106.5590    81.8720    25.0530     2.2630   -25.0480 
  180.1250    53.1400   129.3940   105.9640    86.9000    25.0570     2.2700   -24.6350 
  180.2500    55.6690   126.7230   103.6260    92.9080    25.0350     2.2770   -24.2360 
  180.3750    57.8480   122.0820    99.7370    87.1280    25.0190     2.2820   -23.9470 
  180.5000    55.8060   116.0520    94.8500    67.5010    24.9770     2.2810   -23.6530 
  180.6250    52.6240   109.7050    89.8540    50.3170    24.8930     2.2710   -23.3640 
  180.7500    53.4110   104.2900    85.6480    44.4220    24.8940     2.2540   -23.1250 
  180.8750    57.8180   100.7910    82.9520    44.9400    25.1300     2.2350   -22.8450 
  181.0000    60.6730   100.0030    82.4590    48.5430    25.3650     2.2240   -22.5610 
  181.1250    60.1780   102.3220    84.9080    49.8920    25.2320     2.2340   -22.3170 
  181.2500    60.2780   105.1650    88.7000    48.2660    24.8250     2.2530   -22.0280 
  181.3750    60.5460   104.2760    90.5790    50.2950    24.4340     2.2650   -21.7520 
  181.5000    57.4730    94.8900    85.9610    58.4480    24.1660     2.2700   -21.4950 
  181.6250    53.6920    75.2380    71.3410    64.4100    24.0160     2.2930   -21.2080 
  181.7500    55.7800    53.4240    52.8130    51.5690    23.9500     2.3380   -20.9580 
  181.8750    63.5500    35.5440    36.4190    26.8090    23.9110     2.3890   -20.7350 
  182.0000    73.3530    24.9010    25.0140    13.4590    23.8670     2.4280   -20.5030 
  182.1250    80.2040    18.5140    18.8490     9.4080    23.6040     2.4400   -20.3080 
  182.2500    81.4140    15.3300    15.5860     8.8660    23.2710     2.4380   -20.1310 
  182.3750    79.8990    14.0770    14.1410     8.9910    23.0730     2.4330   -19.9880 
  182.5000    80.1990    13.9300    13.8250     9.2020    22.9590     2.4340   -19.9410 
  182.6250    81.0370    14.3420    14.1850     9.2710    22.9110     2.4360   -19.9290 
  182.7500    78.7100    14.7910    14.6710     9.1810    22.9660     2.4350   -19.9760 
  182.8750    78.1570    15.0630    14.9980     8.7990    23.1730     2.4290   -20.0920 
  183.0000    82.5010    15.1640    15.0730     8.6060    23.5430     2.4220   -20.1850 
  183.1250    84.4550    15.4520    15.0920     8.6910    24.0110     2.4120   -20.3720 
  183.2500    81.5490    16.4950    15.4970     8.8410    24.4370     2.4000   -20.6320 
  183.3750    79.0840    18.9810    16.7770     9.2120    24.7120     2.3820   -20.8720 
  183.5000    79.1840    23.6800    19.5120    10.6930    24.8400     2.3550   -21.1710 
  183.6250    77.0000    31.3170    24.7780    16.4670    24.8760     2.3210   -21.4990 
