~V
VERS. 2.00: Ver 2.00
~W
STRT.M 50.0000:
STOP.M 270.0000:
STEP.M 0.1250:
NULL. -999.2500:
UWI. F10223:
~C
DEPT.M :
GR.API :
RML.OHMM :
RI. :
RXO.OHMM :
CALI.CM :
DEN.GM/CC :
SP.MV :
~A
# ...
  117.5000    59.6050     8.6930     7.1640     9.1740    20.9190     2.1760   -25.2850 
  117.6250    62.6330     8.5750     7.1190     8.8500    20.8010     2.1770   -24.9710 
  117.7500    64.4050     8.4130     7.0340     8.6310    20.7790     2.1760   -24.6640 
  117.8750    65.3260     8.2540     6.9370     8.5380    20.7970     2.1730   -24.3430 
  118.0000    67.4890     8.1640     6.8800     8.3810    20.8040     2.1690   -24.0250 
  118.1250    69.3580     8.2360     6.9390     8.2600    20.8300     2.1690   -23.6750 
  118.2500    69.2990     8.4410     7.1050     8.2610    20.9050     2.1720   -23.3100 
  118.3750    67.6240     8.6830     7.3200     8.3720    21.0360     2.1830   -22.9210 
  118.5000    65.3440     8.8290     7.4940     8.5130    21.1930     2.2040   -22.4960 
  118.6250    64.9330     8.7300     7.5180     8.5790    21.2990     2.2380   -22.0520 
  118.7500    69.0500     8.4110     7.3830     8.4180    21.3660     2.2800   -21.6190 
  118.8750    76.7570     7.9600     7.1320     8.4240    21.4040     2.3180   -21.2190 
  119.0000    82.5190     7.5110     6.8420     8.4840    21.4420     2.3410   -20.8890 
  119.1250    81.1240     7.1940     6.6050     8.7510    21.5350     2.3410   -20.6300 
  119.2500    78.1170     7.0140     6.4520     8.9190    21.6870     2.3340   -20.3990 
  119.3750    77.3760     6.9350     6.3830     7.9430    21.8250     2.3290   -20.2140 
  119.5000    77.7230     6.8940     6.3610     6.8540    21.9310     2.3250   -20.0870 
  119.6250    76.1960     6.7960     6.3150     6.4600    21.9850     2.3170   -19.9760 
  119.7500    75.4140     6.5970     6.1950     6.7480    22.0170     2.3080   -19.8650 
  119.8750    77.5300     6.3150     6.0030     7.0330    22.0340     2.3050   -19.7500 
  120.0000    82.3430     6.0040     5.7790     6.7920    22.0870     2.3100   -19.6380 
  120.1250    87.5770     5.7480     5.5800     6.1970    22.3980     2.3240   -19.5630 
  120.2500    88.9080     5.6120     5.4520     5.4630    22.8510     2.3420   -19.5180 
  120.3750    86.0170     5.6210     5.4240     5.3800    23.2050     2.3540   -19.4960 
  120.5000    80.8530     5.7590     5.5040     5.9460    23.2930     2.3480   -19.4770 
  120.6250    76.8060     6.0140     5.6950     6.6070    23.1780     2.3270   -19.4900 
  120.7500    73.9190     6.4100     5.9950     6.8470    23.1240     2.3060   -19.5060 
  120.8750    70.5950     7.0540     6.4560     7.0150    22.9810     2.2940   -19.5180 
  121.0000    67.4440     8.0340     7.1450     7.5920    22.7570     2.2930   -19.4870 
  121.1250    64.9010     9.3100     8.1010     8.5890    22.6240     2.3050   -19.3730 
  121.2500    63.5450    10.5110     9.1180    10.7270    22.6990     2.3310   -19.2440 
  121.3750    62.2400    11.2410     9.8950    14.8320    22.9940     2.3770   -19.1020 
  121.5000    60.9660    11.2810    10.1730    17.7680    23.4460     2.4430   -18.9590 
  121.6250    62.7790    10.8640     9.9760    15.1500    23.8570     2.5030   -18.8440 
  121.7500    65.6840    10.7780     9.8340    10.9280    24.0450     2.5260   -18.7500 
  121.8750    66.9510    11.6250    10.1890    10.4730    24.1050     2.5170   -18.6800 
  122.0000    65.0230    13.7190    11.3700    14.2710    24.1380     2.5140   -18.6390 
  122.1250    59.3710    14.4260    13.7390    21.7480    24.1560     2.5480   -18.6450 
  122.2500    51.6120    17.8230    16.9740    26.5280    24.1480     2.6000   -18.6500 
  122.3750    46.0110    21.4040    20.3850    27.9620    24.1290     2.6410   -18.6420 
  122.5000    45.7080    24.0640    22.9180    27.2410    24.1110     2.6590   -18.6240 
  122.6250    45.6320    24.9780    23.7880    25.0770    24.1130     2.6580   -18.5930 
  122.7500    43.2290    24.9870    23.7970    24.8620    24.1330     2.6500   -18.5830 
  122.8750    43.4140    24.8580    23.6740    24.6570    24.1860     2.6420   -18.5850 
  123.0000    46.8650    25.0160    23.8250    24.3990    24.2590     2.6340   -18.6000 
  123.1250    48.3760    25.6090    24.3900    27.0560    24.2470     2.6260   -18.6380 
  123.2500    46.6190    26.4050    25.1480    30.7050    24.1880     2.6230   -18.6910 
  123.3750    46.1260    27.1120    25.8210    30.6840    24.1620     2.6320   -18.7480 
  123.5000    47.4340    27.4460    26.1390    27.3370    24.1480     2.6460   -18.8050 
  123.6250    48.2030    27.2020    25.9060    25.6270    24.1040     2.6490   -18.8690 
  123.7500    48.2670    26.5640    25.2990    25.0760    23.9560     2.6330   -18.9140 
  123.8750    46.8300    25.7650    24.5380    22.7170    23.7350     2.6010   -18.9320 
  124.0000    45.2910    25.0380    23.8450    19.3710    23.4650     2.5660   -18.9370 
  124.1250    45.5850    24.5480    23.3790    16.8690    23.1570     2.5470   -18.9160 
  124.2500    46.8350    24.2560    23.1010    16.6930    23.0210     2.5470   -18.8930 
  124.3750    48.3880    24.1200    22.9710    17.4160    22.9470     2.5630   -18.8830 
  124.5000    47.9220    24.0780    22.9310    17.9080    22.8130     2.5850   -18.8920 
  124.6250    46.2750    24.0400    22.8950    17.1540    22.6790     2.6050   -18.9050 
  124.7500    45.8390    23.9310    22.7920    16.1790    22.6250     2.6140   -18.9240 
  124.8750    46.3050    23.7300    22.6000    15.6870    22.6570     2.6130   -18.9340 
  125.0000    46.5120    23.4460    22.3300    15.8650    22.6820     2.6080   -18.9200 
  125.1250    47.4060    23.1190    22.0180    16.1790    22.6540     2.6080   -18.8840 
  125.2500    51.1870    22.8290    21.7420    16.1370    22.5770     2.6070   -18.8390 
  125.3750    54.1600    22.6390    21.5610    15.5020    22.5190     2.6030   -18.7940 
  125.5000    53.6110    22.5970    21.5210    14.4540    22.4880     2.5990   -18.7700 
  125.6250    51.7840    22.7480    21.6650    14.6960    22.5640     2.6040   -18.7680 
  125.7500    49.8430    23.0180    21.9220    16.2620    22.6570     2.6160   -18.7780 
  125.8750    45.8480    23.3030    22.1930    16.9990    22.6990     2.6250   -18.7980 
  126.0000    40.2790    23.4830    22.3650    16.1770    22.6710     2.6260   -18.8230 
  126.1250    37.7360    23.4480    22.3310    15.3150    22.5950     2.6230   -18.8710 
  126.2500    39.3120    23.2450    22.1390    14.6870    22.5310     2.6220   -18.9040 
  126.3750    42.2040    22.9450    21.8520    14.1730    22.5050     2.6240   -18.9140 
  126.5000    43.6900    22.6070    21.5300    14.2110    22.4860     2.6270   -18.9000 
  126.6250    43.1460    22.2510    21.1910    13.9970    22.4500     2.6320   -18.8640 
  126.7500    42.6600    21.8720    20.8310    13.8360    22.4550     2.6340   -18.8190 
  126.8750    42.8140    21.4650    20.4430    13.5900    22.4850     2.6330   -18.7790 
  127.0000    44.3870    21.0420    20.0400    13.4010    22.5190     2.6330   -18.7690 
  127.1250    46.1290    20.6460    19.6630    13.3620    22.5460     2.6310   -18.7860 
  127.2500    46.6360    20.3160    19.3480    14.0120    22.6350     2.6250   -18.8470 
  127.3750    46.5170    20.0840    19.1270    14.3140    22.7510     2.6140   -18.9440 
  127.5000    46.8940    19.9800    19.0280    13.9160    22.7680     2.6020   -19.0470 
  127.6250    45.6840    20.0340    19.0800    13.9130    22.6530     2.5930   -19.1420 
  127.7500    42.4610    20.1770    19.2160    14.5360    22.5580     2.5860   -19.2350 
  127.8750    40.9390    20.3290    19.3610    15.2470    22.5530     2.5830   -19.3090 
  128.0000    42.6200    20.4200    19.4480    15.6200    22.5750     2.5840   -19.3560 
  128.1250    45.8920    20.4430    19.4690    14.9610    22.6370     2.5840   -19.3810 
  128.2500    48.5750    20.5090    19.5320    15.1270    22.6310     2.5760   -19.3970 
  128.3750    49.5260    20.7360    19.7490    16.2260    22.5650     2.5640   -19.4180 
  128.5000    48.4190    21.1920    20.1830    17.6140    22.5940     2.5550   -19.4630 
  128.6250    46.5470    21.8510    20.8110    18.6170    22.9010     2.5550   -19.5280 
