~V
VERS. 2.00: Ver 2.00
~W
STRT.M 53.0000:
STOP.M 276.0000:
STEP.M 0.1250:
NULL. -999.2500:
UWI. F10245:
~C
DEPT.M :
GR.API :
RML.OHMM :
RI. :
RXO.OHMM :
CALI.CM :
DEN.GM/CC :
SP.MV :
~A
# ...
  199.2500    60.4220    37.3310    33.7340    26.3610    23.3420     2.3020   -13.3650 
  199.3750    60.4640    40.2830    35.9360    28.5130    23.6940     2.2940   -12.9370 
  199.5000    58.4500    42.4680    37.5020    31.7330    24.0260     2.2930   -12.4690 
  199.6250    55.0790    41.7790    36.6270    37.8280    24.2430     2.3150   -11.9830 
  199.7500    52.6320    37.6310    32.7550    45.6100    24.2280     2.3550   -11.5150 
  199.8750    53.6190    30.6600    26.4880    57.5380    23.9940     2.3960   -11.0750 
  200.0000    59.8510    22.8390    19.7010    58.7310    23.7440     2.4150   -10.7020 
  200.1250    66.8510    16.6240    14.4920    29.4110    23.6210     2.3940   -10.4050 
  200.2500    69.3500    12.6120    11.1040    13.2960    23.5840     2.3570   -10.2570 
  200.3750    69.9230    10.4920     9.1900     8.4040    23.6830     2.3280   -10.2420 
  200.5000    72.9330     9.6880     8.3100     7.6140    23.8160     2.3140   -10.3500 
  200.6250    76.6690     9.7570     8.1820     8.0590    23.8060     2.3090   -10.5850 
  200.7500    77.1310    10.1730     8.4150     8.3140    23.7770     2.3020   -10.9160 
  200.8750    75.5090    10.6830     8.8030     8.4140    23.9050     2.2960   -11.3240 
  201.0000    73.8710    11.0960     9.1670     8.5870    24.0620     2.2960   -11.7680 
  201.1250    73.1340    11.2310     9.3290     8.8760    24.0430     2.3050   -12.2200 
  201.2500    75.5860    11.0860     9.2440     9.2820    23.9620     2.3170   -12.6270 
  201.3750    81.4280    10.6280     8.9370     9.3320    23.8730     2.3260   -13.0430 
  201.5000    85.9310    10.0200     8.4980     8.9450    23.6410     2.3320   -13.4860 
  201.6250    87.6870     9.3680     8.0730     7.9820    23.2760     2.3340   -13.9810 
  201.7500    89.5900     8.8180     7.7780     7.6030    23.2170     2.3330   -14.4630 
  201.8750    90.3540     8.7200     7.6670     7.9120    23.5800     2.3310   -14.8820 
  202.0000    86.1500     9.1200     7.7570     8.5540    24.0690     2.3290   -15.2270 
  202.1250    79.5580     9.7750     8.0850     9.0130    24.2850     2.3330   -15.5000 
  202.2500    76.8310    10.6250     8.6110     9.6370    24.3380     2.3410   -15.7110 
  202.3750    77.3390    11.6630     9.3320    10.6110    24.3450     2.3430   -15.8400 
  202.5000    77.5560    12.9040    10.2450    11.9400    24.3570     2.3310   -15.8520 
  202.6250    74.3010    14.4230    11.3900    13.1290    24.3960     2.3030   -15.6770 
  202.7500    70.3000    16.1680    12.7150    14.5890    24.4780     2.2740   -15.3500 
  202.8750    67.5600    17.9930    14.1160    15.6520    24.5920     2.2590   -14.9400 
  203.0000    65.6570    19.5510    15.3500    16.2930    24.5610     2.2720   -14.4630 
  203.1250    63.4260    20.1260    15.8940    17.1280    24.3990     2.3250   -13.9420 
  203.2500    63.7070    19.3840    15.4600    18.4240    24.2040     2.3990   -13.3960 
  203.3750    69.1200    17.3350    13.9990    19.8690    24.0250     2.4710   -12.8050 
  203.5000    77.5060    14.4980    11.8810    19.7990    23.8920     2.5150   -12.1770 
  203.6250    82.7590    11.8150     9.8030    14.3990    23.8480     2.5140   -11.5490 
  203.7500    84.5770     9.9640     8.2730     9.3400    23.8390     2.4880   -11.0030 
  203.8750    84.5650     9.1500     7.4510     7.4240    23.8390     2.4560   -10.5530 
  204.0000    84.3660     9.2980     7.3290     7.5470    23.8410     2.4360   -10.2080 
  204.1250    85.4970    10.2610     7.8810     8.2970    23.8750     2.4390    -9.9470 
  204.2500    85.6970    11.5490     8.8010     9.5580    23.9490     2.4600    -9.7360 
  204.3750    81.5300    12.7600     9.8080    11.3190    24.0100     2.4960    -9.6020 
  204.5000    74.6040    13.4890    10.5670    13.2660    24.0160     2.5400    -9.5570 
  204.6250    72.6450    13.2880    10.6580    14.1970    23.9760     2.5770    -9.5950 
  204.7500    77.5920    12.2760    10.0740    13.4430    23.9000     2.5920    -9.6680 
  204.8750    82.5330    10.7220     8.9800    12.0140    23.7750     2.5740    -9.7220 
  205.0000    82.8840     9.0170     7.6840    10.8350    23.6500     2.5280    -9.7540 
  205.1250    79.9050     7.5860     6.5260     8.8220    23.5160     2.4660    -9.7530 
  205.2500    74.0520     6.5850     5.6590     6.7290    23.3390     2.4080    -9.7040 
  205.3750    65.7590     6.0200     5.1150     5.3810    23.1900     2.3640    -9.5900 
  205.5000    58.4430     5.8250     4.8690     4.8170    23.0890     2.3410    -9.3840 
  205.6250    57.3570     5.9300     4.8970     4.8800    22.9840     2.3450    -9.0580 
  205.7500    60.0930     6.1660     5.0760     5.0580    22.9390     2.3660    -8.6290 
  205.8750    63.5890     6.4290     5.3260     5.2670    23.0610     2.3920    -8.1490 
  206.0000    67.0420     6.6310     5.5650     5.4980    23.3500     2.4120    -7.6470 
  206.1250    68.9490     6.7000     5.7110     5.6560    23.5390     2.4160    -7.1470 
  206.2500    71.2230     6.6510     5.7480     5.7250    23.5460     2.4090    -6.6720 
  206.3750    76.4940     6.5110     5.6850     5.6600    23.5080     2.3990    -6.2240 
  206.5000    82.8800     6.3310     5.5520     5.4880    23.5780     2.3910    -5.8370 
  206.6250    84.9430     6.1780     5.4030     5.3710    23.6540     2.3840    -5.5450 
  206.7500    82.4110     6.1060     5.2920     5.2690    23.6220     2.3790    -5.3250 
  206.8750    78.8480     6.1430     5.2510     5.1970    23.5690     2.3760    -5.1570 
  207.0000    76.6450     6.2840     5.2860     5.2250    23.5790     2.3740    -5.0400 
  207.1250    77.0150     6.4900     5.3780     5.3870    23.7300     2.3710    -5.0140 
  207.2500    80.1370     6.6800     5.4720     5.7270    23.9210     2.3670    -5.0710 
  207.3750    84.5360     6.8050     5.5310     6.1090    24.0190     2.3620    -5.1830 
  207.5000    86.4960     6.8590     5.5460     6.2480    24.0220     2.3590    -5.3170 
  207.6250    84.1810     6.8950     5.5470     6.1900    23.9710     2.3600    -5.4870 
  207.7500    83.4480     6.9990     5.5930     6.2000    23.9280     2.3640    -5.6840 
  207.8750    85.9870     7.2370     5.7350     6.2400    23.9140     2.3680    -5.9040 
  208.0000    87.1530     7.6480     6.0080     6.5890    23.9430     2.3670    -6.1190 
  208.1250    81.9760     8.2840     6.4620     7.3870    24.0180     2.3600    -6.3040 
  208.2500    76.0680     9.1350     7.0910     8.3320    24.0890     2.3500    -6.4710 
  208.3750    74.5870    10.2380     7.9200     9.1890    24.1280     2.3400    -6.6380 
  208.5000    76.4150    11.6240     8.9710    10.2080    24.1570     2.3330    -6.8230 
  208.6250    75.1980    13.3120    10.2780    11.8340    24.2010     2.3290    -6.9840 
  208.7500    70.8460    15.1080    11.7230    14.1540    24.2350     2.3250    -7.1230 
  208.8750    67.2780    16.7600    13.1430    16.8120    24.2470     2.3210    -7.2670 
  209.0000    67.2250    17.9660    14.3090    18.8920    24.2440     2.3200    -7.4050 
  209.1250    68.7670    18.4000    14.9260    19.9870    24.2350     2.3210    -7.5310 
  209.2500    68.5300    18.2890    15.0650    20.6150    24.2200     2.3280    -7.6410 
  209.3750    67.2260    18.0670    14.9900    20.5640    24.2060     2.3380    -7.7470 
  209.5000    66.2230    18.3220    15.1150    19.9160    24.2000     2.3490    -7.8590 
  209.6250    66.5750    19.8030    16.0190    19.2570    24.2000     2.3570    -7.9860 
  209.7500    66.8080    22.6160    17.9150    20.2320    24.2000     2.3580    -8.1380 
  209.8750    66.1210    26.6640    20.8980    25.3160    24.2000     2.3510    -8.2940 
  210.0000    65.1550    31.5280    24.8240    35.5070    24.2010     2.3380    -8.4780 
  210.1250    63.5880    36.4340    29.2590    42.8350    24.2320     2.3210    -8.6980 
  210.2500    60.9220    40.5410    33.3900    44.6940    24.3100     2.3040    -8.9460 
  210.3750    59.0580    43.4000    36.6310    44.4240    24.4040     2.2870    -9.1890 
