~V
VERS. 2.00: Ver 2.00
~W
STRT.M 52.0000:
STOP.M 271.0000:
STEP.M 0.1250:
NULL. -999.2500:
UWI. F10212:
~C
DEPT.M :
GR.API :
RML.OHMM :
RI. :
RXO.OHMM :
CALI.CM :
SP.MV :
DEN.GM/CC :
~A
   52.0000  -999.2500  -999.2500  -999.2500  -999.2500  -999.2500    78.0700  -999.2500 
   52.1250  -999.2500  -999.2500  -999.2500  -999.2500  -999.2500    77.7070  -999.2500 
   52.2500  -999.2500  -999.2500  -999.2500  -999.2500  -999.2500    77.4870  -999.2500 
   52.3750  -999.2500  -999.2500  -999.2500  -999.2500  -999.2500    77.4140  -999.2500 
   52.5000  -999.2500  -999.2500  -999.2500  -999.2500  -999.2500    77.5020  -999.2500 
   52.6250  -999.2500  -999.2500  -999.2500  -999.2500  -999.2500    77.6910  -999.2500 
   52.7500    39.8550     0.7220     0.4460     7.5050    25.5860    77.9230  -999.2500 
   52.8750    39.8550     0.7220     0.4460     7.5050    25.5860    78.2790  -999.2500 
   53.0000    39.8550     0.7220     0.4460     7.5050    25.5860    78.8270  -999.2500 
   53.1250    39.5960     0.7040     0.4480     7.8410    25.5710    79.4630  -999.2500 
   53.2500    38.4140     0.6330     0.4600     9.1750    25.5050    80.0470  -999.2500 
   53.3750    38.3460     0.6110     0.4680    10.8260    25.4560    80.4990  -999.2500 
   53.5000    40.1580     0.6110     0.4710     6.4260    25.4330    80.7370  -999.2500 
   53.6250    41.5770     0.6180     0.4690     5.2040    25.4190    80.6390     1.9810 
   53.7500    40.3210     0.6240     0.4650     4.2310    25.4030    80.2580     1.9810 
   53.8750    38.8340     0.6310     0.4590     3.3940    25.3770    79.6840     1.9810 
   54.0000    39.6540     0.6390     0.4520     4.2870    25.3550    79.0040     1.9800 
   54.1250    42.5480     0.6540     0.4480     4.1570    25.3560    78.3250     1.9810 
   54.2500    43.7540     0.6800     0.4500     4.3330    25.3790    77.7650     1.9860 
   54.3750    42.0320     0.7250     0.4570     4.8400    25.3970    77.3830     1.9910 
   54.5000    39.6420     0.7980     0.4650     5.9240    25.3960    77.2340     1.9910 
   54.6250    39.9570     0.9320     0.4630     5.3530    25.3730    77.2830     1.9890 
   54.7500    41.2230     1.1690     0.4470     4.7260    25.3560    77.4050     1.9900 
   54.8750    40.6750     1.5570     0.4220     4.6940    25.3490    77.6000     1.9930 
   55.0000    37.9430     2.0950     0.4010     5.2200    25.3480    77.8200     1.9950 
   55.1250    37.1860     2.5250     0.3990     4.8150    25.3480    78.0670     1.9960 
   55.2500    38.9230     2.4610     0.4180     5.4470    25.3460    78.3810     1.9980 
   55.3750    40.9280     1.9660     0.4540     7.5270    25.3400    78.8140     2.0040 
   55.5000    41.4500     1.4210     0.4940    14.1540    25.3350    79.4070     2.0190 
   55.6250    41.4320     1.0720     0.5230     7.8510    25.3370    80.1860     2.0450 
   55.7500    43.5290     0.8770     0.5360     4.6940    25.3430    81.0790     2.0750 
   55.8750    47.4390     0.7780     0.5370     2.6450    25.3450    81.8300     2.1050 
   56.0000    49.9930     0.7390     0.5350     1.8490    25.3480    82.3360     2.1330 
   56.1250    51.2050     0.7390     0.5370     2.5460    25.3560    82.6460     2.1500 
   56.2500    54.3040     0.7590     0.5410     2.3930    25.3520    82.9280     2.1520 
   56.3750    58.9910     0.7940     0.5460     1.5380    25.3490    83.2520     2.1460 
   56.5000    62.6040     0.8390     0.5490     0.9640    25.3480    83.6610     2.1440 
   56.6250    61.9440     0.8890     0.5500     0.7950    25.3480    84.3900     2.1420 
   56.7500    58.1370     0.9380     0.5500     1.1050    25.3480    85.4250     2.1340 
   56.8750    52.5390     0.9860     0.5500     1.0820    25.3480    86.7840     2.1230 
   57.0000    47.1750     1.0350     0.5520     0.6700    25.3470    88.4760     2.1130 
   57.1250    43.8770     1.0910     0.5610     1.2920    25.3420    90.4140     2.1110 
   57.2500    41.5700     1.1470     0.5790     2.6060    25.3340    92.3580     2.1240 
   57.3750    40.2860     1.1890     0.6040     3.5410    25.3320    94.2380     2.1600 
   57.5000    40.3080     1.2050     0.6280     3.1240    25.3310    96.0200     2.2210 
   57.6250    40.8230     1.1870     0.6430     1.5920    25.3380    97.4470     2.3060 
   57.7500    41.9840     1.1480     0.6470     1.4520    25.3340    98.5040     2.3780 
   57.8750    42.2310     1.1030     0.6460     1.6420    25.3180    99.2320     2.4030 
   58.0000    41.5970     1.0700     0.6440     2.6660    25.2260    99.6950     2.3900 
   58.1250    42.6550     1.0670     0.6460     2.9650    24.9150    99.8850     2.3870 
   58.2500    44.5600     1.0850     0.6500     3.7850    24.4280    99.9420     2.4040 
   58.3750    45.4770     1.1060     0.6520     3.3280    24.0280    99.8110     2.4260 
   58.5000    45.2930     1.1070     0.6510     2.6190    23.8770    99.4260     2.4420 
   58.6250    46.2220     1.0560     0.6500     2.2750    23.9440    98.8430     2.4450 
   58.7500    47.3310     0.9580     0.6530     1.9690    24.1180    98.2630     2.4300 
   58.8750    46.7930     0.8300     0.6660     1.8900    24.3270    97.8350     2.4030 
   59.0000    46.0880     0.6960     0.6930     1.9200    24.5490    97.4970     2.3690 
   59.1250    47.1450     0.5920     0.7300     1.8800    24.8030    97.1280     2.3360 
   59.2500    48.1870     0.5130     0.7410     1.9240    25.0570    96.6820     2.3080 
   59.3750    47.7420     0.4230     0.6810     2.1250    25.2870    96.1180     2.2910 
   59.5000    47.7350     0.3040     0.5350     2.4110    25.5080    95.3430     2.2930 
   59.6250    51.3230     0.1970     0.3590     2.8730    25.7840    94.0310     2.3180 
   59.7500    54.4520     0.1400     0.2290     3.4920    26.0050    91.7330     2.3590 
   59.8750    54.8780     0.1400     0.1690     3.9800    26.0910    87.6170     2.4120 
   60.0000    56.2840     0.2090     0.1870     2.9930    26.1100    80.9870     2.4680 
   60.1250    64.8770     0.3980     0.3320     3.0740    26.6240    71.6380     2.4960 
   60.2500    73.6900     0.7720     0.6610     3.9820    28.7630    60.9800     2.4230 
   60.3750    77.5400     1.4660     1.2860     5.3130    32.7350    49.7080     2.2310 
   60.5000    77.8110     2.6040     2.3000     6.0540    35.9430    38.1470     2.0200 
   60.6250    80.2280     4.0220     3.5840     5.9780    34.9750    26.6920     1.9070 
   60.7500    85.0410     4.9760     4.6260     5.9050    31.4640    15.9390     1.8980 
   60.8750    90.0000     5.1970     5.1650     5.9920    27.7560     6.7570     1.9590 
   61.0000    93.8630     5.0400     5.3270     6.3840    25.3050    -0.0790     2.0440 
   61.1250    97.6800     4.8810     5.3550     6.4190    24.4000    -4.2970     2.1300 
   61.2500   101.7760     4.8210     5.3820     6.3570    24.1520    -7.3330     2.2070 
   61.3750   102.9190     4.8470     5.4220     6.5600    24.1320    -9.7980     2.2620 
   61.5000    99.0390     4.9560     5.5110     7.0630    24.1670   -11.9140     2.2820 
   61.6250    92.9460     5.2540     5.7900     7.2040    24.2710   -13.8240     2.2780 
   61.7500    90.6450     5.8430     6.3630     7.5440    24.3510   -15.6400     2.2760 
   61.8750    91.0010     6.8020     7.2840     7.7520    24.4450   -17.4700     2.2850 
   62.0000    89.1360     8.1170     8.4980     8.5040    24.5960   -19.3910     2.3030 
   62.1250    83.4430     9.5090     9.7070    12.5160    24.6180   -21.4200     2.3290 
   62.2500    79.8010    10.3850    10.4340    17.0050    24.3860   -23.5110     2.3570 
   62.3750    81.1990    10.4040    10.4190    14.3400    24.0070   -25.6740     2.3780 
   62.5000    82.9320     9.7880     9.8150    10.9170    23.6940   -27.8380     2.3750 
   62.6250    80.0820     9.1200     9.0680    10.1330    23.6160   -29.8660     2.3360 
   62.7500    77.7880     8.7820     8.5580    10.5830    23.5870   -31.7470     2.2840 
   62.8750    79.3660     8.8180     8.3870    10.9430    23.5720   -33.4270     2.2390 
   63.0000    82.2960     9.0860     8.4800    10.8720    23.9810   -34.8080     2.2110 
   63.1250    81.7160     9.3160     8.6330    10.5980    24.8110   -35.8030     2.2020 
