~V
VERS. 2.00: Ver 2.00
~W
STRT.M 54.0000:
STOP.M 277.0000:
STEP.M 0.1250:
NULL. -999.2500:
UWI. F10247:
~C
DEPT.M :
GR.API :
RML.OHMM :
RI. :
RXO.OHMM :
CALI.CM :
DEN.GM/CC :
SP.MV :
~A
# ...
  234.0000    92.5500    10.2050     7.7410     9.9710    24.7270     2.4280   -17.8430 
  234.1250    96.7920    10.0200     7.5950     9.4270    24.7290     2.4280   -17.8990 
  234.2500    95.7320     9.8580     7.4050     8.7330    24.7430     2.4190   -17.9780 
  234.3750    95.2640     9.7360     7.2130     8.3250    24.7370     2.4070   -18.0670 
  234.5000   102.2130     9.6620     7.0460     8.4080    24.7620     2.3950   -18.1890 
  234.6250   114.7190     9.6490     6.9360     8.7180    24.7900     2.3850   -18.3220 
  234.7500   122.6340     9.7440     6.9480     8.8570    24.8010     2.3750   -18.4630 
  234.8750   122.4010     9.9810     7.1070     8.8960    24.8010     2.3650   -18.6280 
  235.0000   116.1970    10.4190     7.4400     9.0310    24.8010     2.3540   -18.7750 
  235.1250   108.0100    11.1280     7.9650     9.7650    24.8010     2.3440   -18.9340 
  235.2500   102.7060    12.1650     8.7170    11.3280    24.8000     2.3390   -19.0550 
  235.3750   100.4500    13.3490     9.6110    12.8050    24.7990     2.3390   -19.1430 
  235.5000    98.1730    14.4210    10.5120    13.6700    24.7970     2.3430   -19.1570 
  235.6250    94.5770    15.0880    11.2080    14.7200    24.7900     2.3490   -19.1260 
  235.7500    91.5960    15.1030    11.4400    15.9880    24.7660     2.3520   -19.0440 
  235.8750    91.1200    14.7390    11.2990    16.1040    24.7460     2.3540   -18.8920 
  236.0000    93.3660    14.3180    10.9760    13.9460    24.7640     2.3540   -18.7350 
  236.1250    97.0990    14.0740    10.6600    11.5530    24.7900     2.3540   -18.5720 
  236.2500    98.0510    14.0170    10.4260    11.6300    24.7900     2.3560   -18.4400 
  236.3750    98.0240    13.8930    10.1820    13.6270    24.7730     2.3620   -18.3230 
  236.5000    98.5950    13.5210     9.8380    15.5010    24.7650     2.3690   -18.2430 
  236.6250    98.5030    12.9330     9.4050    14.4770    24.7460     2.3770   -18.2020 
  236.7500    96.3470    12.5430     9.0750    11.2970    24.7600     2.3800   -18.2070 
  236.8750    95.4780    12.9180     9.1170    10.1270    24.7580     2.3770   -18.2670 
  237.0000    96.9190    14.5990     9.8190    11.6810    24.7160     2.3650   -18.3780 
  237.1250    98.5120    18.0920    11.5230    16.3520    24.5230     2.3480   -18.5100 
  237.2500    97.6190    24.2780    14.9850    24.7540    24.2620     2.3320   -18.6610 
  237.3750    92.6770    32.9210    20.4380    31.8260    24.1980     2.3190   -18.8190 
  237.5000    82.3270    43.3720    27.8410    39.7770    24.4140     2.3080   -18.9900 
  237.6250    69.9240    53.9000    36.1870    53.6750    24.6790     2.2950   -19.1830 
  237.7500    63.4120    61.2210    43.0020    74.8830    24.7780     2.2770   -19.3590 
  237.8750    62.8250    63.9830    46.6380    93.3250    24.8000     2.2590   -19.5440 
  238.0000    63.4290    62.8800    47.0950    84.7960    24.7980     2.2410   -19.7060 
  238.1250    62.3580    60.2480    45.7670    62.6620    24.7760     2.2280   -19.8630 
  238.2500    62.3590    59.0030    44.7020    54.9220    24.7210     2.2180   -19.9760 
  238.3750    64.2510    60.3370    45.1480    59.3650    24.6490     2.2120   -20.1110 
  238.5000    64.0780    64.2260    47.3960    59.9220    24.6240     2.2080   -20.2370 
  238.6250    60.6090    69.7090    51.0890    62.1010    24.6480     2.2070   -20.3470 
  238.7500    57.2960    74.6250    55.0960    72.7920    24.7260     2.2060   -20.4560 
  238.8750    58.3090    76.9440    57.8930    76.5110    24.8040     2.2030   -20.5620 
  239.0000    62.9850    76.1770    58.8100    68.9100    24.8400     2.1980   -20.6580 
  239.1250    66.6210    73.3680    58.1710    64.1740    24.8700     2.1940   -20.7400 
  239.2500    66.3650    70.3450    56.9560    63.8150    24.8780     2.1950   -20.8150 
  239.3750    65.4730    68.5950    56.3040    62.9080    24.8840     2.1990   -20.8660 
  239.5000    65.0970    68.6990    56.8270    62.7910    24.8720     2.2050   -20.9030 
  239.6250    63.8920    70.3740    58.5840    64.5560    24.8440     2.2090   -20.9370 
  239.7500    60.7870    72.1000    60.7030    69.1970    24.8010     2.2100   -20.9590 
  239.8750    58.3070    71.6510    61.4440    72.6610    24.6850     2.2110   -20.9660 
  240.0000    58.5390    67.5820    59.3930    76.6480    24.5180     2.2150   -20.9630 
  240.1250    61.6340    60.0270    54.1770    74.5850    24.3600     2.2240   -20.9330 
  240.2500    66.4830    51.0010    46.9580    59.1790    24.3140     2.2360   -20.9350 
  240.3750    71.4860    43.3080    40.2720    43.5470    24.4560     2.2480   -20.9280 
  240.5000    75.3770    38.2480    35.4860    34.4800    24.6680     2.2570   -20.9350 
  240.6250    76.5910    36.2740    33.1540    30.7530    24.7490     2.2620   -20.9350 
  240.7500    73.2470    37.9960    33.8740    31.9800    24.7260     2.2610   -20.9690 
  240.8750    68.9010    42.7600    37.2630    39.4760    24.7340     2.2510   -21.0220 
  241.0000    66.2970    50.0890    43.1410    53.3640    24.7680     2.2330   -21.0830 
  241.1250    64.7580    58.9820    50.8250    66.6200    24.7030     2.2080   -21.2000 
  241.2500    63.0700    67.7150    58.9060    72.9610    24.5050     2.1790   -21.3120 
  241.3750    62.0460    74.7910    65.8200    80.2050    24.3830     2.1590   -21.4730 
  241.5000    62.3760    79.8910    71.0220    77.5710    24.3920     2.1630   -21.6520 
  241.6250    63.4010    83.7690    74.9240    62.4100    24.5370     2.2110   -21.8550 
  241.7500    63.6990    87.7450    78.5260    66.8170    24.7240     2.3070   -22.0490 
  241.8750    64.3190    92.5410    82.6190    89.1850    24.8000     2.4060   -22.2470 
  242.0000    67.3890    98.0190    87.2530   120.4700    24.7780     2.4600   -22.4490 
  242.1250    72.7690   103.6020    92.0620   126.4490    24.7350     2.4520   -22.6450 
  242.2500    77.6990   108.5330    96.4670   122.6670    24.6500     2.3950   -22.8190 
  242.3750    78.1050   112.7080   100.2830   125.2340    24.6230     2.3310   -22.9630 
  242.5000    74.3680   116.4320   103.6870   138.3490    24.6450     2.2790   -23.0700 
  242.6250    69.2960   119.9670   106.9250   163.0390    24.7170     2.2530   -23.1530 
  242.7500    67.8980   122.7290   109.6540   178.1280    24.7600     2.2620   -23.1840 
  242.8750    69.2290   123.7610   111.0690   176.9730    24.7110     2.2970   -23.1820 
  243.0000    70.8220   122.5680   110.5900   165.6630    24.5880     2.3410   -23.1790 
  243.1250    72.3020   119.7970   108.5470   138.7110    24.4070     2.3700   -23.1310 
  243.2500    73.1220   117.2970   106.3320   116.3420    24.2080     2.3640   -23.0980 
  243.3750    72.0280   116.8010   105.5500   109.5730    24.0550     2.3390   -23.0380 
  243.5000    69.1400   119.1830   107.1040   114.6590    24.0370     2.3110   -22.9910 
  243.6250    66.8050   124.6200   111.3280   124.3280    24.1380     2.2930   -22.9320 
  243.7500    66.0530   132.9510   118.3700   140.8480    24.2900     2.2850   -22.9110 
  243.8750    65.2630   142.3650   126.8930   165.1990    24.3560     2.2730   -22.8930 
  244.0000    64.6830   150.7090   135.2240   186.7340    24.3310     2.2490   -22.8530 
  244.1250    64.7770   155.1540   140.8990   197.8120    24.3410     2.2130   -22.8300 
  244.2500    64.7790   152.2960   140.5370   185.0950    24.4260     2.1790   -22.7900 
  244.3750    63.8400   143.8450   134.7880   176.7490    24.5450     2.1590   -22.7550 
  244.5000    63.8740   132.9770   125.9550   163.2780    24.6870     2.1560   -22.7160 
  244.6250    66.0450   123.3160   117.2890   132.5980    24.7710     2.1650   -22.6680 
  244.7500    66.5760   118.0770   112.1310   106.6460    24.7900     2.1730   -22.6090 
  244.8750    63.5820   116.9540   110.8540   108.1220    24.7830     2.1750   -22.5470 
  245.0000    59.0260   118.4290   112.4200   128.8360    24.7660     2.1710   -22.4940 
  245.1250    56.3110   119.9350   114.6010   153.2920    24.7190     2.1650   -22.4440 
