~V
VERS. 2.00: Ver 2.00
~W
STRT.M 60.0000:
STOP.M 276.0000:
STEP.M 0.1250:
NULL. -999.2500:
UWI. F10216:
~C
DEPT.M :
DEN.GM/CC :
GR.API :
RML.OHMM :
RI. :
RXO.OHMM :
CALI.CM :
SP.MV :
~A
# ...
  105.0000     2.2870    82.8790     5.7750     4.3230     4.9920    24.1610   -14.6040 
  105.1250     2.2870    88.2110     5.0750     3.6470     4.2330    24.3540   -14.5830 
  105.2500     2.2720    88.7440     5.0280     3.3580     4.3730    24.3710   -14.6140 
  105.3750     2.2520    84.8490     5.5500     3.4330     5.0140    24.2750   -14.6960 
  105.5000     2.2360    80.2990     6.5770     3.8470     5.8140    24.0530   -14.8510 
  105.6250     2.2240    77.4000     8.0420     4.6000     6.8370    23.6950   -15.0720 
  105.7500     2.2120    73.3970     9.6410     5.5450     7.6710    23.4630   -15.3310 
  105.8750     2.1970    67.5340    11.0880     6.5350     8.6560    23.3490   -15.6030 
  106.0000     2.1820    62.1460    12.1270     7.3950     9.6420    23.3040   -15.8480 
  106.1250     2.1740    60.1810    12.5650     7.9360     9.9590    23.2930   -16.0430 
  106.2500     2.1730    60.8220    12.6010     8.1900     9.9810    23.2660   -16.1670 
  106.3750     2.1730    60.4540    12.4370     8.2350    10.0660    23.1970   -16.2500 
  106.5000     2.1680    58.3890    12.2440     8.1670    10.4240    23.0830   -16.2600 
  106.6250     2.1550    58.4750    12.1200     8.0540    10.7600    23.0030   -16.2180 
  106.7500     2.1400    59.7680    12.0510     7.9390    10.7240    22.9170   -16.1360 
  106.8750     2.1270    59.9000    12.0020     7.8360    10.4300    22.8060   -16.0270 
  107.0000     2.1210    58.5680    11.9560     7.7540    10.0380    22.7140   -15.8970 
  107.1250     2.1240    59.6830    11.9370     7.7190     9.8850    22.7180   -15.7610 
  107.2500     2.1310    61.1510    11.9790     7.7370     9.9340    22.7300   -15.6170 
  107.3750     2.1390    60.9860    12.0920     7.8040    10.1730    22.7430   -15.4460 
  107.5000     2.1450    60.8820    12.2330     7.8950    10.4280    22.7500   -15.2590 
  107.6250     2.1550    60.6310    12.2520     7.9310    10.7080    22.8210   -15.0350 
  107.7500     2.1690    58.3840    12.0180     7.8310    10.8920    22.9690   -14.7870 
  107.8750     2.1840    56.1190    11.4610     7.5500    10.9680    23.1700   -14.5070 
  108.0000     2.1970    58.2390    10.6200     7.0960    10.5220    23.3910   -14.2050 
  108.1250     2.2080    64.7670     9.6500     6.5330     8.9970    23.6150   -13.8950 
  108.2500     2.2220    70.0980     8.7820     5.9860     7.2860    23.8220   -13.5900 
  108.3750     2.2370    72.7780     8.1460     5.5400     6.6690    23.8910   -13.3040 
  108.5000     2.2470    75.2910     7.7780     5.2350     6.4830    23.8190   -13.0360 
  108.6250     2.2420    78.3890     7.6730     5.1000     6.1640    23.7560   -12.8230 
  108.7500     2.2270    80.6900     7.7100     5.0770     5.9090    23.8130   -12.6470 
  108.8750     2.2150    81.5700     7.8060     5.1180     6.0580    23.9170   -12.5210 
  109.0000     2.2160    81.8310     7.8870     5.1710     6.3790    24.0280   -12.4230 
  109.1250     2.2350    82.6910     7.8910     5.1880     6.2390    24.1640   -12.3550 
  109.2500     2.2610    82.8300     7.7910     5.1450     6.1480    24.2680   -12.3200 
  109.3750     2.2870    83.0530     7.5760     5.0260     6.0380    24.2530   -12.3360 
  109.5000     2.3090    83.7280     7.2870     4.8490     6.0740    24.1770   -12.3890 
  109.6250     2.3250    82.5610     7.0610     4.6820     6.0600    24.0860   -12.4610 
  109.7500     2.3330    79.6850     7.0320     4.6120     5.9640    24.0280   -12.5830 
  109.8750     2.3240    78.0420     7.2800     4.7030     5.8750    23.9380   -12.7540 
  110.0000     2.2940    79.0190     7.8090     4.9760     6.2950    23.6880   -12.9840 
  110.1250     2.2510    77.9810     8.5480     5.4180     7.9920    23.1180   -13.2470 
  110.2500     2.2140    74.4580     9.2990     5.9140     9.7010    22.5240   -13.5070 
  110.3750     2.1920    71.6230     9.9250     6.3760     9.7290    22.2420   -13.7260 
  110.5000     2.1820    69.7330    10.3550     6.7410     8.7910    22.2360   -13.9200 
  110.6250     2.1720    67.2040    10.5350     6.9540     8.1890    22.3350   -14.0600 
  110.7500     2.1600    64.9610    10.4740     7.0010     8.6330    22.4890   -14.1200 
  110.8750     2.1590    64.1210    10.1190     6.8440     9.6740    22.7190   -14.1030 
  111.0000     2.1770    64.0020     9.4470     6.4720     9.9880    23.0070   -14.0030 
  111.1250     2.2110    64.2990     8.5500     5.9370     8.8470    23.3410   -13.8370 
  111.2500     2.2330    68.3910     7.7280     5.4150     7.1170    23.6970   -13.6410 
  111.3750     2.2290    75.9320     7.2280     5.0460     6.0400    24.0690   -13.4490 
  111.5000     2.2100    81.6550     7.1910     4.9220     6.2180    24.1870   -13.2550 
  111.6250     2.2070    82.5520     7.6410     5.1040     6.9700    23.9780   -13.0970 
  111.7500     2.2350    83.1210     8.2680     5.4600     7.6630    23.6490   -12.9690 
  111.8750     2.2830    83.8470     8.7630     5.8330     7.6590    23.5090   -12.8690 
  112.0000     2.3270    81.5580     8.8640     6.0450     7.5140    23.4520   -12.8060 
  112.1250     2.3440    77.3420     8.4560     5.9500     7.7410    23.4710   -12.7530 
  112.2500     2.3360    77.6060     7.8300     5.6590     7.0400    23.5990   -12.7250 
  112.3750     2.3120    83.3040     7.2320     5.3100     6.1950    23.8840   -12.7100 
  112.5000     2.2820    90.8830     6.8130     5.0120     5.6830    24.1780   -12.7230 
  112.6250     2.2590    95.0500     6.6430     4.8380     5.6740    24.3350   -12.7470 
  112.7500     2.2510    94.3500     6.6460     4.7770     5.8270    24.3060   -12.8070 
  112.8750     2.2630    91.2760     6.7570     4.8100     6.1590    24.1300   -12.8860 
  113.0000     2.2890    89.9480     6.8980     4.8960     6.3710    24.0120   -12.9700 
  113.1250     2.3150    90.6160     6.9960     4.9810     6.5850    24.1260   -13.0880 
  113.2500     2.3240    90.2360     7.0420     5.0340     6.8960    24.2000   -13.2250 
  113.3750     2.3140    89.0740     7.0560     5.0610     7.0840    24.0880   -13.3840 
  113.5000     2.2920    88.2590     7.0770     5.0860     7.0510    23.9620   -13.5470 
  113.6250     2.2710    86.4040     7.1810     5.1570     6.5680    23.9820   -13.7340 
  113.7500     2.2570    82.2850     7.4330     5.3140     6.4210    23.8930   -13.9300 
  113.8750     2.2490    76.1600     7.8570     5.5750     6.8920    23.5530   -14.1390 
  114.0000     2.2380    70.1350     8.4290     5.9270     7.5340    23.1460   -14.3430 
  114.1250     2.2210    68.5960     9.0850     6.3390     7.8620    22.8560   -14.5220 
  114.2500     2.2020    71.9330     9.7190     6.7420     8.3150    22.7960   -14.6920 
  114.3750     2.1850    76.5270    10.2420     7.0770     8.9140    22.8870   -14.8260 
  114.5000     2.1730    76.5220    10.5540     7.2810     8.9980    23.0440   -14.9320 
  114.6250     2.1660    73.0220    10.4750     7.2470     9.0480    23.1090   -14.9660 
  114.7500     2.1630    71.9140     9.9910     6.9720     9.1860    23.1300   -14.9580 
  114.8750     2.1670    72.9550     9.2140     6.5120     9.1080    23.1220   -14.9030 
  115.0000     2.1880    73.9690     8.4780     6.0360     8.4720    23.1430   -14.8610 
  115.1250     2.2440    75.4150     8.4030     5.8560     7.4960    23.2330   -14.8350 
  115.2500     2.3430    77.6910     9.3910     6.1890     7.6650    23.4530   -14.8230 
  115.3750     2.4700    75.7490    11.7680     7.2440     9.8410    23.7450   -14.8350 
  115.5000     2.5720    68.7670    15.6420     9.2090    16.0590    24.0880   -14.8830 
  115.6250     2.5780    65.0830    20.5410    12.1790    28.6590    24.2190   -14.9890 
  115.7500     2.5110    67.7260    24.4470    15.1720    34.5910    24.1920   -15.1250 
  115.8750     2.4070    71.9340    25.2750    16.7240    30.6750    24.0290   -15.2940 
  116.0000     2.3020    72.8860    22.5910    16.0060    22.6540    23.7030   -15.4590 
  116.1250     2.2190    70.9180    18.3000    13.7190    15.4850    23.1530   -15.6250 
