~V
VERS. 2.00: Ver 2.00
~W
STRT.M 50.0000:
STOP.M 284.0000:
STEP.M 0.1250:
NULL. -999.2500:
UWI. F10254:
~C
DEPT.M :
GR.API :
RML.OHMM :
RI. :
RXO.OHMM :
CALI.CM :
DEN.GM/CC :
SP.MV :
~A
# ...
   83.7500    95.7960     8.2870     6.2700     6.8380    25.6530     2.1840    -1.7800 
   83.8750    93.7270     8.4060     6.3200     6.6460    25.8040     2.1610    -1.8840 
   84.0000    92.7130     8.5970     6.4230     6.6810    25.6790     2.1520    -1.9750 
   84.1250    91.7730     8.7760     6.5370     7.0470    25.2220     2.1660    -2.0390 
   84.2500    87.9970     8.8520     6.6060     7.4490    24.7130     2.1940    -2.1740 
   84.3750    84.4050     8.7970     6.6050     7.0310    24.3890     2.2220    -2.4750 
   84.5000    85.2550     8.6720     6.5520     6.4350    24.2720     2.2420    -2.9130 
   84.6250    87.5710     8.5790     6.4930     6.2820    24.2580     2.2520    -3.4110 
   84.7500    89.0730     8.5520     6.4570     6.8230    24.2690     2.2600    -3.9000 
   84.8750    90.9220     8.5640     6.4410     7.1710    24.2960     2.2690    -4.3340 
   85.0000    91.8320     8.5680     6.4310     7.0040    24.3140     2.2770    -4.6840 
   85.1250    88.5390     8.5290     6.4140     7.3920    24.3380     2.2690    -4.9920 
   85.2500    83.1380     8.4830     6.4020     7.3960    24.3950     2.2410    -5.3810 
   85.3750    79.2260     8.5040     6.4300     7.0120    24.5430     2.1960    -5.7800 
   85.5000    76.5160     8.6420     6.5270     7.2090    24.8490     2.1470    -6.1170 
   85.6250    73.6580     8.8810     6.6910     7.6140    25.2030     2.1160    -6.3760 
   85.7500    71.2330     9.1150     6.8640     7.7620    25.3840     2.1090    -6.4330 
   85.8750    70.0230     9.2510     6.9880     7.9410    25.3980     2.1230    -6.2410 
   86.0000    70.2290     9.2230     7.0100     7.9110    25.3550     2.1460    -5.9220 
   86.1250    71.8470     9.0080     6.8970     7.5120    25.2070     2.1680    -5.4290 
   86.2500    75.1930     8.7160     6.7060     6.9510    24.9380     2.1870    -4.7040 
   86.3750    79.1890     8.4280     6.4890     6.6350    24.7140     2.2050    -3.8180 
   86.5000    83.6160     8.1790     6.2760     6.5090    24.5880     2.2240    -2.9460 
   86.6250    86.9560     7.9420     6.0690     6.3590    24.5230     2.2450    -2.1480 
   86.7500    87.5900     7.6800     5.8570     6.2100    24.4850     2.2670    -1.5290 
   86.8750    85.5070     7.4230     5.6560     6.0610    24.4490     2.2860    -1.1300 
   87.0000    83.7110     7.2630     5.5160     5.8440    24.4010     2.2970    -0.9140 
   87.1250    85.9480     7.3450     5.5180     5.6750    24.3260     2.2900    -0.9480 
   87.2500    88.8190     7.6460     5.6570     5.7630    24.2670     2.2710    -1.2390 
   87.3750    88.2000     8.0620     5.8900     6.5880    24.2300     2.2490    -1.7210 
   87.5000    82.5070     8.4160     6.1280     8.5450    24.2400     2.2390    -2.2230 
   87.6250    75.5270     8.5150     6.2560     8.3950    24.4160     2.2480    -2.5940 
   87.7500    74.4740     8.3980     6.2690     7.3860    24.7330     2.2640    -2.9290 
   87.8750    78.8220     8.2150     6.2310     6.3800    24.9580     2.2720    -3.4650 
   88.0000    81.3040     8.1640     6.2440     5.9540    24.9580     2.2610    -4.2290 
   88.1250    76.1630     8.4460     6.4270     6.2720    24.8820     2.2290    -5.1110 
   88.2500    69.1530     9.0210     6.7890     7.1460    25.0300     2.1890    -5.9280 
   88.3750    65.3640     9.7390     7.2690     8.0990    25.3590     2.1490    -6.5940 
   88.5000    65.5850    10.3440     7.7270     8.4920    25.5300     2.1140    -7.0810 
   88.6250    66.6980    10.4880     7.9180     8.4530    25.4470     2.0960    -7.4000 
   88.7500    67.8820    10.1310     7.7630     8.2980    25.2570     2.1020    -7.5080 
   88.8750    69.6540     9.3940     7.3140     7.8300    24.9380     2.1330    -7.1800 
   89.0000    73.0490     8.5170     6.7240     6.9460    24.4590     2.1850    -6.4360 
   89.1250    77.2700     7.7810     6.1810     6.2720    24.1430     2.2410    -5.4820 
   89.2500    81.8010     7.3260     5.7980     6.0880    23.9520     2.2830    -4.4990 
   89.3750    85.8040     7.1980     5.6170     6.3280    23.8340     2.2980    -3.5990 
   89.5000    87.1560     7.3700     5.6400     6.6570    23.8080     2.2880    -2.9460 
   89.6250    85.5610     7.7800     5.8530     7.1070    23.8900     2.2580    -2.7580 
   89.7500    82.7030     8.2520     6.1570     7.3220    23.9790     2.2210    -2.8940 
   89.8750    80.3920     8.6600     6.4700     7.4500    24.0560     2.1850    -3.3020 
   90.0000    77.9180     8.9070     6.7200     7.5340    24.1620     2.1560    -3.8700 
   90.1250    74.0390     8.9360     6.8420     7.7080    24.3500     2.1410    -4.4060 
   90.2500    70.5320     8.8520     6.8730     7.8150    24.5540     2.1440    -4.8860 
   90.3750    69.9030     8.7680     6.8730     7.8950    24.7040     2.1610    -5.3080 
   90.5000    72.6030     8.7740     6.9000     7.8220    24.8300     2.1800    -5.6290 
   90.6250    74.2850     8.9140     6.9870     7.6720    24.9970     2.1910    -5.7040 
   90.7500    74.0960     9.1030     7.0990     7.7090    25.1880     2.1940    -5.5470 
   90.8750    73.4310     9.2250     7.1710     8.3320    25.3520     2.2020    -5.1760 
   91.0000    75.2900     9.1450     7.1180     8.6700    25.4070     2.2270    -4.6320 
   91.1250    81.1710     8.7410     6.8560     8.1030    25.3470     2.2730    -3.9140 
   91.2500    86.0540     8.1220     6.4470     7.4520    25.2670     2.3230    -3.1280 
   91.3750    88.2200     7.4360     5.9840     7.3000    25.1490     2.3630    -2.3760 
   91.5000    88.5370     6.8460     5.5680     7.8690    24.9210     2.3840    -1.6500 
   91.6250    88.6560     6.5300     5.3150     6.1730    24.6680     2.3870    -0.9380 
   91.7500    87.6210     6.4960     5.2490     5.7010    24.3520     2.3810    -0.3440 
   91.8750    86.9400     6.7230     5.3740     5.8710    24.0450     2.3710     0.0700 
   92.0000    89.8020     7.1570     5.6730     6.3280    23.8110     2.3580     0.3630 
   92.1250    92.4600     7.7300     6.1150     6.6380    23.7420     2.3400     0.4570 
   92.2500    90.0560     8.3000     6.5860     6.9190    23.7910     2.3210     0.4410 
   92.3750    84.2040     8.7480     6.9830     7.2290    23.8990     2.3040     0.4540 
   92.5000    81.3640     8.9700     7.2080     7.6910    24.0200     2.2890     0.4670 
   92.6250    84.1930     8.8410     7.1520     7.7630    24.1230     2.2790     0.3610 
   92.7500    87.3370     8.3930     6.8430     7.1510    24.1820     2.2720     0.1930 
   92.8750    88.5380     7.7010     6.3450     6.7000    24.2200     2.2690     0.0310 
   93.0000    88.7440     6.9700     5.8110     6.2950    24.3220     2.2700    -0.1710 
   93.1250    90.2350     6.5860     5.4910     5.7540    24.6200     2.2860    -0.4190 
   93.2500    92.5460     6.7810     5.5240     5.5240    24.9140     2.3240    -0.7700 
   93.3750    92.5590     7.6610     5.9870     6.0360    24.9450     2.3830    -1.3220 
   93.5000    86.7690     9.1480     6.8810     7.9560    24.6140     2.4420    -2.0470 
   93.6250    77.7880    10.8290     8.0640    11.7580    24.1940     2.4620    -2.8610 
   93.7500    72.5610    11.9500     9.0520    12.3350    23.8440     2.4250    -3.7340 
   93.8750    71.4890    12.0440     9.4320     9.6920    23.6780     2.3410    -4.6800 
   94.0000    71.0700    11.2000     9.1290     8.2450    23.6540     2.2400    -5.6290 
   94.1250    70.8250     9.9470     8.4080     8.2810    23.8380     2.1660    -6.3680 
   94.2500    71.9370     8.8730     7.7000     8.3260    24.2480     2.1340    -6.8040 
   94.3750    74.7980     8.1660     7.1770     8.0130    24.7390     2.1360    -6.9380 
   94.5000    77.1930     7.8140     6.8790     7.4720    25.0730     2.1580    -6.8210 
   94.6250    78.4050     7.7500     6.7920     7.1370    25.1140     2.1820    -6.5160 
   94.7500    79.5750     7.8460     6.8330     6.9060    24.9970     2.1980    -6.1200 
   94.8750    81.1840     8.0320     6.9620     7.0610    24.8110     2.2080    -5.6760 
