~V
VERS. 2.00: Ver 2.00
~W
STRT.M 57.0000:
STOP.M 259.0000:
STEP.M 0.1250:
NULL. -999.2500:
UWI. F10209:
~C
DEPT.M :
SP.MV :
DEN.GM/CC :
GR.API :
RML.OHMM :
RI. :
RXO.OHMM :
CALI.CM :
~A
# ...
  124.5000    -1.9630     2.5420    55.8830    21.4150    17.7440    22.4390    24.2790 
  124.6250    -1.9310     2.5510    58.5480    24.1480    20.2860    21.2800    24.3270 
  124.7500    -1.9970     2.5700    58.1130    26.8470    22.7650    29.0960    24.2800 
  124.8750    -2.1690     2.5970    52.8040    29.1680    24.9190    37.6100    24.2540 
  125.0000    -2.3990     2.6150    47.0340    30.6430    26.4180    37.7010    24.2260 
  125.1250    -2.6340     2.6110    45.0950    30.9130    26.9610    30.4940    24.2250 
  125.2500    -2.8330     2.5840    45.8800    30.0660    26.5310    26.9030    24.2650 
  125.3750    -3.0100     2.5440    47.8260    28.7470    25.5170    27.8350    24.2670 
  125.5000    -3.1900     2.5110    51.9830    27.8090    24.6340    27.8520    24.2390 
  125.6250    -3.3290     2.4960    56.0760    27.5130    24.1840    26.4690    24.1890 
  125.7500    -3.3940     2.5000    55.1830    27.6850    24.1350    25.1630    24.0850 
  125.8750    -3.4260     2.5130    50.7260    27.8890    24.2310    23.0560    24.0200 
  126.0000    -3.4130     2.5240    49.1110    27.7390    24.1520    24.0050    24.0340 
  126.1250    -3.3350     2.5240    50.3800    27.1000    23.7530    24.5880    24.0940 
  126.2500    -3.1930     2.5150    50.4690    26.0680    23.0510    23.6940    24.1350 
  126.3750    -2.9410     2.5000    49.0800    24.9330    22.2230    20.1800    24.1600 
  126.5000    -2.6130     2.4860    49.0280    24.0070    21.5070    19.5030    24.2460 
  126.6250    -2.2760     2.4740    50.0880    23.4450    21.0410    20.7310    24.3280 
  126.7500    -1.9840     2.4630    50.7160    23.3140    20.9060    22.0380    24.2860 
  126.8750    -1.7280     2.4550    50.2910    23.6130    21.1480    23.9140    24.1120 
  127.0000    -1.4870     2.4520    49.8100    24.1040    21.5980    23.8520    23.9910 
  127.1250    -1.2640     2.4560    50.5410    24.6310    22.1270    23.0730    23.8880 
  127.2500    -1.0750     2.4710    52.7610    25.1160    22.6460    24.3970    23.8080 
  127.3750    -0.9470     2.4960    52.6880    25.5530    23.1250    26.7840    23.7740 
  127.5000    -0.8640     2.5260    48.9810    26.0030    23.5930    25.3340    23.8540 
  127.6250    -0.7960     2.5540    44.5270    26.5190    24.0860    23.0770    23.8650 
  127.7500    -0.7150     2.5760    42.8310    27.0960    24.6080    22.9560    23.9010 
  127.8750    -0.6170     2.5930    46.7790    27.5870    25.0620    24.7500    23.9950 
  128.0000    -0.5440     2.6030    53.7340    27.7830    25.2920    25.9450    24.0740 
  128.1250    -0.5390     2.6050    58.7310    27.5120    25.1540    26.7280    24.1510 
  128.2500    -0.6170     2.5960    57.9230    26.7270    24.5870    25.5350    24.1830 
  128.3750    -0.7580     2.5790    53.0710    25.5720    23.6660    23.6840    24.1570 
  128.5000    -0.9160     2.5610    50.2050    24.4950    22.7440    22.2070    24.1630 
  128.6250    -1.0930     2.5510    49.3720    23.8310    22.1030    20.7850    24.1950 
  128.7500    -1.2760     2.5500    48.8300    23.7640    21.9220    19.6420    24.1950 
  128.8750    -1.4600     2.5460    46.6610    24.3610    22.3080    20.0840    24.1640 
  129.0000    -1.6430     2.5320    42.5950    25.2820    23.0270    20.8240    24.1090 
  129.1250    -1.8070     2.5060    40.4890    26.1490    23.7920    22.5630    24.0560 
  129.2500    -1.9110     2.4790    42.2980    26.5540    24.2440    24.1150    24.0040 
  129.3750    -1.9430     2.4680    46.4790    26.1300    24.0170    23.5410    23.9490 
  129.5000    -1.9360     2.4770    48.5470    25.1130    23.2470    22.9600    23.8420 
  129.6250    -1.8780     2.4990    47.8990    23.8530    22.2000    21.1880    23.7250 
  129.7500    -1.7890     2.5200    47.3970    22.7420    21.2040    19.7260    23.6100 
  129.8750    -1.6980     2.5270    48.5620    22.1620    20.5940    19.8420    23.5780 
  130.0000    -1.5970     2.5240    49.3570    22.1390    20.4440    20.0150    23.6220 
  130.1250    -1.4600     2.5200    49.0640    22.6120    20.7490    19.8890    23.7030 
  130.2500    -1.2890     2.5220    49.1290    23.4010    21.4000    20.8020    23.7820 
  130.3750    -1.0860     2.5260    50.7620    24.1900    22.1620    23.0280    23.8540 
  130.5000    -0.8770     2.5200    53.2900    24.6770    22.7370    25.2070    23.9260 
  130.6250    -0.7360     2.5010    54.3560    24.7360    22.9680    25.6680    23.9620 
  130.7500    -0.6900     2.4770    51.9380    24.3920    22.8300    23.7770    23.9460 
  130.8750    -0.7030     2.4680    48.7610    23.7880    22.3940    20.9910    23.8190 
  131.0000    -0.7480     2.4810    48.2050    23.1890    21.8840    19.9620    23.7600 
  131.1250    -0.8450     2.5080    50.4670    22.7300    21.4330    20.5480    23.7430 
  131.2500    -1.0020     2.5350    51.5960    22.4540    21.1080    21.6140    23.7600 
  131.3750    -1.2310     2.5490    50.0790    22.3550    20.9390    21.0860    23.8550 
  131.5000    -1.4900     2.5510    49.6920    22.3660    20.8890    19.8420    23.9860 
  131.6250    -1.7310     2.5480    50.0330    22.4650    20.9470    20.0700    24.1140 
  131.7500    -1.9420     2.5460    49.9770    22.6430    21.1120    21.4380    24.2020 
  131.8750    -2.1370     2.5490    48.5380    22.9180    21.3950    22.6730    24.2440 
  132.0000    -2.3050     2.5520    48.2260    23.2670    21.7620    23.1970    24.2700 
  132.1250    -2.4360     2.5500    49.5260    23.6610    22.1780    23.6740    24.3160 
  132.2500    -2.5340     2.5410    51.4940    24.0510    22.5940    24.6660    24.3600 
  132.3750    -2.5440     2.5260    53.9750    24.3370    22.9260    23.2450    24.3050 
  132.5000    -2.4940     2.5100    55.8670    24.4220    23.0870    23.3770    24.0830 
  132.6250    -2.4120     2.4930    56.4180    24.2170    22.9890    24.5130    23.7770 
  132.7500    -2.2900     2.4740    56.2320    23.7070    22.6020    25.0310    23.6040 
  132.8750    -2.1080     2.4540    55.6540    22.9740    21.9800    23.0430    23.6000 
  133.0000    -1.9020     2.4410    53.2650    22.2560    21.3320    20.7730    23.7710 
  133.1250    -1.6960     2.4390    50.8880    21.7310    20.8160    20.1180    24.0980 
  133.2500    -1.4780     2.4470    51.3660    21.5030    20.5360    20.6080    24.3450 
  133.3750    -1.2990     2.4600    54.9530    21.6010    20.5380    20.4570    24.3330 
  133.5000    -1.1850     2.4720    57.4300    21.8260    20.6710    20.5700    24.3130 
  133.6250    -1.1070     2.4850    56.4220    21.9720    20.7580    21.0710    24.4480 
  133.7500    -1.0570     2.5020    53.5400    21.8520    20.6270    21.9870    24.6220 
  133.8750    -1.0080     2.5180    54.0230    21.3370    20.1520    21.2320    24.7480 
  134.0000    -0.9410     2.5280    57.0790    20.5970    19.4770    19.6050    24.7650 
  134.1250    -0.8460     2.5260    58.0130    19.8520    18.7890    18.2590    24.7420 
  134.2500    -0.7520     2.5160    54.3870    19.3290    18.2830    17.0360    24.7510 
  134.3750    -0.7030     2.5060    50.8600    19.2450    18.1410    16.7930    24.8230 
  134.5000    -0.6870     2.4990    50.8700    19.5330    18.3260    17.3600    24.8470 
  134.6250    -0.7230     2.4980    50.9060    20.0730    18.7590    19.0460    24.7930 
  134.7500    -0.8060     2.4980    48.7260    20.6810    19.3070    21.0330    24.6690 
  134.8750    -0.9820     2.4940    46.6160    21.1170    19.7750    21.3150    24.4790 
  135.0000    -1.2310     2.4870    45.9660    21.2740    20.0370    20.6830    24.3640 
  135.1250    -1.5110     2.4770    47.3020    21.1670    20.0710    20.6000    24.2350 
  135.2500    -1.7890     2.4670    49.8980    20.9040    19.9460    21.2560    24.0510 
  135.3750    -2.0160     2.4630    52.8530    20.6380    19.7780    20.6010    23.8500 
  135.5000    -2.2440     2.4660    52.6300    20.4600    19.6590    20.6160    23.7710 
  135.6250    -2.4890     2.4750    49.6090    20.3490    19.5860    19.9090    23.7810 
