~V
VERS. 2.00: Ver 2.00
~W
STRT.M 50.0000:
STOP.M 274.0000:
STEP.M 0.1250:
NULL. -999.2500:
UWI. F10208:
~C
DEPT.M :
SP.MV :
DEN.GM/CC :
GR.API :
RML.OHMM :
RI. :
RXO.OHMM :
CALI.CM :
~A
# ...
  117.5000   -13.4390     2.3270    92.7880     4.5320     3.6030     4.9370    23.9320 
  117.6250   -13.5270     2.3250    95.4920     4.6030     3.6400     4.9380    23.9130 
  117.7500   -13.5910     2.3190    94.7650     4.9400     3.8360     4.9940    23.9850 
  117.8750   -13.6550     2.3150    88.9730     5.7010     4.2960     5.1980    24.0360 
  118.0000   -13.7500     2.3220    81.9060     6.9500     5.1040     5.8910    24.0450 
  118.1250   -13.8140     2.3500    76.7620     8.5930     6.3020     8.5190    24.0470 
  118.2500   -13.8600     2.3870    70.4500    10.0930     7.5890    14.5000    23.8940 
  118.3750   -13.9010     2.4140    63.7080    10.8160     8.4890    21.5420    23.7400 
  118.5000   -13.9390     2.4130    61.1050    10.3690     8.5560    19.7260    23.6640 
  118.6250   -13.9900     2.3750    66.5250     9.0140     7.7540    12.1840    23.6860 
  118.7500   -14.0220     2.3210    72.7670     7.6970     6.7610     7.8610    23.4250 
  118.8750   -14.0540     2.2670    74.3670     6.8470     5.9660     6.6860    23.1240 
  119.0000   -14.0860     2.2190    72.1830     6.5390     5.5170     6.7020    22.9640 
  119.1250   -14.1100     2.1750    71.9510     6.7200     5.4620     7.0770    22.9020 
  119.2500   -14.1800     2.1310    73.4510     7.1680     5.6710     7.6360    23.0120 
  119.3750   -14.2410     2.0870    71.5650     7.7940     6.0830     7.9880    23.3260 
  119.5000   -14.2930     2.0520    64.7700     8.5560     6.6630     8.4230    23.6890 
  119.6250   -14.3510     2.0400    58.4110     9.4460     7.4100    10.6910    23.7230 
  119.7500   -14.4180     2.0550    55.8640    10.3970     8.2610    16.6130    23.3410 
  119.8750   -14.5400     2.0930    54.4940    11.3420     9.1470    25.3620    22.9620 
  120.0000   -14.6660     2.1420    52.2090    12.2390    10.0010    30.8410    22.8210 
  120.1250   -14.8290     2.1820    51.4480    13.0650    10.7740    29.1150    22.8930 
  120.2500   -14.9800     2.2050    53.1510    13.7600    11.4440    24.8690    23.4350 
  120.3750   -15.0620     2.2160    55.0390    14.1510    11.9100    20.5020    24.1050 
  120.5000   -15.0930     2.2220    54.0650    13.9870    11.9810    18.9390    24.2260 
  120.6250   -15.0500     2.2320    51.8790    12.9690    11.3660    18.5090    24.1470 
  120.7500   -14.9250     2.2420    53.3440    11.4040    10.2260    15.7720    23.6110 
  120.8750   -14.6990     2.2490    59.7370     9.7900     8.9140    11.6370    22.9030 
  121.0000   -14.4090     2.2530    67.5430     8.6440     7.8450     8.5360    22.3650 
  121.1250   -14.0990     2.2650    69.5460     8.3510     7.3680     7.8040    22.4210 
  121.2500   -13.7650     2.2930    63.9810     8.7220     7.4380     8.0980    22.4840 
  121.3750   -13.4450     2.3350    56.0870     9.4980     7.9370     9.9000    22.8170 
  121.5000   -13.1880     2.3770    52.8770    10.2560     8.6050    13.3270    23.0010 
  121.6250   -12.9760     2.3900    56.0760    10.3970     8.9740    15.0180    22.8990 
  121.7500   -12.8410     2.3680    59.9720     9.8610     8.8260    12.0210    22.6980 
  121.8750   -12.7920     2.3280    61.2060     8.9520     8.2740     9.5090    22.6230 
  122.0000   -12.7430     2.2910    60.0630     8.0650     7.5890     8.5090    22.6810 
  122.1250   -12.6440     2.2740    58.5420     7.4900     7.0280     7.8290    23.0090 
  122.2500   -12.5050     2.2710    57.4870     7.2120     6.6750     7.6850    23.5230 
  122.3750   -12.3480     2.2710    58.3210     7.1710     6.5320     7.9030    23.6870 
  122.5000   -12.1570     2.2640    60.6530     7.3270     6.5800     8.1170    23.6050 
  122.6250   -11.9200     2.2460    61.5130     7.7360     6.8570     8.3130    23.5290 
  122.7500   -11.6870     2.2240    59.6450     8.3980     7.3560     9.0110    23.7030 
  122.8750   -11.4760     2.2040    55.1700     9.3080     8.0850    10.6340    23.7490 
  123.0000   -11.3270     2.1880    49.8390    10.4110     9.0230    12.4580    23.9520 
  123.1250   -11.2410     2.1750    47.1570    11.6310    10.1280    13.8330    24.2480 
  123.2500   -11.2050     2.1580    48.3700    12.8590    11.2770    15.2940    24.4320 
  123.3750   -11.2460     2.1400    51.3180    14.0170    12.3690    16.9130    24.6260 
  123.5000   -11.3390     2.1330    51.5370    15.0550    13.3200    18.2080    24.6270 
  123.6250   -11.5040     2.1540    49.4970    15.9760    14.1000    18.6960    24.2840 
  123.7500   -11.7110     2.2040    49.4420    16.9080    14.8290    18.2730    23.9890 
  123.8750   -11.8640     2.2730    49.9900    17.9980    15.6430    17.2670    23.9360 
  124.0000   -11.9560     2.3400    48.4620    19.3900    16.6870    17.7640    24.0360 
  124.1250   -12.0060     2.3860    43.1190    21.2500    18.1490    21.0070    23.8080 
  124.2500   -11.9980     2.4140    37.2810    23.4220    19.9720    28.0150    23.7380 
  124.3750   -11.9400     2.4330    34.7760    25.6180    21.9740    33.4770    23.6600 
  124.5000   -11.8400     2.4530    35.7430    27.4340    23.8200    33.0640    23.6240 
  124.6250   -11.7400     2.4740    37.1160    28.3370    25.0080    30.3540    23.6950 
  124.7500   -11.6260     2.4950    36.3000    28.3560    25.4360    28.9740    23.7420 
  124.8750   -11.4890     2.5110    36.0130    27.7380    25.2350    30.3730    23.7530 
  125.0000   -11.3760     2.5180    37.7900    26.8700    24.6990    32.1920    23.6440 
  125.1250   -11.2490     2.5130    38.0500    26.0690    24.0850    32.2020    23.6900 
  125.2500   -11.1620     2.5010    36.6370    25.3750    23.4720    31.6510    23.6930 
  125.3750   -11.1390     2.4890    36.1430    24.7140    22.8300    31.9200    23.7970 
  125.5000   -11.1620     2.4830    37.9690    24.0250    22.1460    31.7540    23.9410 
  125.6250   -11.1960     2.4850    38.5580    23.3310    21.4800    27.8960    23.8860 
  125.7500   -11.1740     2.4880    37.2240    22.7530    20.9360    25.4400    23.8580 
  125.8750   -11.1670     2.4860    36.1020    22.4330    20.6210    23.4020    23.9210 
  126.0000   -11.1740     2.4770    36.0330    22.4890    20.6250    23.7820    23.9030 
  126.1250   -11.1790     2.4660    35.3380    23.0470    21.0640    26.4680    23.8580 
  126.2500   -11.2110     2.4620    34.1460    23.9800    21.8570    28.5130    23.8690 
  126.3750   -11.2570     2.4680    33.9520    25.1360    22.9050    28.2250    23.7490 
  126.5000   -11.2660     2.4820    34.3850    26.2860    24.0340    29.7980    23.8580 
  126.6250   -11.2460     2.5000    33.9200    27.0840    24.9520    30.2900    23.7980 
  126.7500   -11.2410     2.5150    33.5860    27.3590    25.4440    28.4690    23.5270 
  126.8750   -11.2510     2.5230    34.9230    27.0720    25.4100    26.0880    23.0700 
  127.0000   -11.2660     2.5230    36.2550    26.3430    24.9080    25.2190    22.8170 
  127.1250   -11.3510     2.5120    35.0490    25.4240    24.1310    23.6430    22.8640 
  127.2500   -11.5040     2.4950    33.0350    24.6120    23.3760    22.1500    22.9640 
  127.3750   -11.6380     2.4790    33.0580    24.0320    22.7750    21.1820    23.2600 
  127.5000   -11.7970     2.4720    35.9140    23.6830    22.3470    21.4140    23.3000 
  127.6250   -11.9480     2.4820    39.6630    23.4700    22.0510    22.8210    23.5370 
  127.7500   -12.0650     2.5040    41.0880    23.2400    21.7920    24.2950    23.6660 
  127.8750   -12.1780     2.5300    39.4280    22.9370    21.5280    23.8400    23.6390 
  128.0000   -12.2610     2.5480    35.7850    22.5950    21.2640    21.9920    23.6970 
  128.1250   -12.2940     2.5500    33.9080    22.2640    21.0260    22.0890    23.7830 
  128.2500   -12.2490     2.5380    35.5180    21.9150    20.7870    22.3700    23.7170 
  128.3750   -12.1300     2.5200    40.1270    21.4740    20.4900    22.0440    23.6590 
  128.5000   -11.9740     2.5050    44.0430    20.9000    20.0900    21.1690    23.6380 
  128.6250   -11.8350     2.4980    43.2930    20.2260    19.5730    20.5040    23.6450 
