~V
VERS. 2.00: Ver 2.00
~W
STRT.M 55.0000:
STOP.M 274.0000:
STEP.M 0.1250:
NULL. -999.2500:
UWI. F10255:
~C
DEPT.M :
GR.API :
RML.OHMM :
RI. :
RXO.OHMM :
CALI.CM :
DEN.GM/CC :
SP.MV :
~A
# ...
  178.7500    68.0630    78.0280    74.1190    41.2410    23.6800     2.2400   -23.6540 
  178.8750    63.7380    79.8840    76.9130    65.5060    24.1200     2.2510   -23.8310 
  179.0000    57.5430    80.3610    78.5480    85.6210    24.8160     2.2720   -23.9980 
  179.1250    52.8600    77.7930    76.8460    78.1340    25.2680     2.2940   -24.1600 
  179.2500    53.6990    73.1400    72.3130    64.6360    25.4370     2.3080   -24.3100 
  179.3750    58.6220    68.1530    66.7600    56.5380    25.5410     2.3130   -24.5280 
  179.5000    62.3150    64.7000    62.4210    54.4530    25.6620     2.3100   -24.8100 
  179.6250    60.7530    64.6970    61.5530    53.0240    25.6740     2.2980   -25.1310 
  179.7500    58.0020    68.4660    64.6340    52.7510    25.5990     2.2830   -25.4910 
  179.8750    55.8730    76.5070    72.1260    59.0170    25.5370     2.2680   -25.8460 
  180.0000    54.0580    88.9370    83.8740    78.9210    25.5430     2.2580   -26.1160 
  180.1250    52.7680   104.8460    98.4970    99.8170    25.5870     2.2550   -26.3250 
  180.2500    52.2380   120.1750   111.9700   111.6960    25.6430     2.2580   -26.5890 
  180.3750    52.4110   131.2300   120.8020   116.7030    25.6800     2.2630   -26.8210 
  180.5000    54.4760   136.2780   123.5230   109.7370    25.7030     2.2650   -26.9160 
  180.6250    59.7870   136.6880   121.8110    95.8680    25.7280     2.2610   -26.8530 
  180.7500    62.8820   137.4090   120.5750    86.9510    25.7350     2.2530   -26.7690 
  180.8750    60.0460   141.7460   122.8410    90.8590    25.7170     2.2440   -26.7500 
  181.0000    54.7690   151.7560   130.3580    97.1570    25.7080     2.2410   -26.7880 
  181.1250    53.2060   169.6260   145.0520   101.3980    25.7160     2.2490   -26.7620 
  181.2500    52.7700   193.6140   165.4240    99.1010    25.6710     2.2640   -26.6530 
  181.3750    51.0770   220.5240   188.9020    96.5900    25.4880     2.2770   -26.5680 
  181.5000    49.9150   244.5450   210.6960    94.1160    25.1160     2.2800   -26.5370 
  181.6250    50.7220   256.9280   223.4160   111.6650    24.6790     2.2660   -26.4750 
  181.7500    51.6110   255.9140   225.3090   132.8080    24.3420     2.2470   -26.3640 
  181.8750    52.7930   243.0590   217.4720   127.8630    24.2400     2.2310   -26.2250 
  182.0000    55.5780   222.2600   202.6690   107.8010    24.2000     2.2270   -26.0680 
  182.1250    59.5300   197.3050   183.3030   100.6420    24.0970     2.2330   -25.8810 
  182.2500    62.1170   171.8960   162.3180   107.7330    23.8960     2.2440   -25.6890 
  182.3750    62.3730   147.9780   141.3440    98.0170    23.8010     2.2550   -25.4790 
  182.5000    60.4710   127.2160   122.0400    75.9740    23.9280     2.2640   -25.2070 
  182.6250    56.9570   111.8010   106.7820    70.0000    24.2490     2.2680   -24.9950 
  182.7500    55.1340   101.5850    96.1090    79.5020    24.6740     2.2650   -24.8620 
  182.8750    56.2090    96.3550    90.2170    81.7060    25.1000     2.2550   -24.7380 
  183.0000    57.2840    95.3450    88.6930    69.6850    25.3040     2.2430   -24.6210 
  183.1250    54.5060    97.2060    90.6040    65.2050    25.1530     2.2390   -24.5310 
  183.2500    51.4160    98.7070    92.8540    78.9740    24.8420     2.2470   -24.4380 
  183.3750    51.7150    97.2100    92.6570    86.9290    24.7020     2.2680   -24.3360 
  183.5000    52.9250    91.4520    88.1720    91.1030    24.8650     2.2950   -24.2910 
  183.6250    52.7700    82.3710    79.5410    86.1630    25.1670     2.3200   -24.2910 
  183.7500    54.4550    73.5620    70.4220    70.8630    25.3180     2.3360   -24.2240 
  183.8750    57.9960    67.3830    63.6180    54.8930    25.2820     2.3460   -24.0750 
  184.0000    60.0280    65.0140    60.7830    44.6830    25.1710     2.3510   -23.9190 
  184.1250    59.7550    67.2080    62.9970    43.6360    25.1400     2.3510   -23.8750 
  184.2500    58.9300    72.1770    68.5210    58.1810    25.1240     2.3490   -23.8890 
  184.3750    57.1900    77.4320    74.9980    83.0980    25.0750     2.3450   -23.8520 
  184.5000    53.9510    79.6900    78.9570    95.7030    25.0370     2.3440   -23.7540 
  184.6250    51.5390    75.9390    76.4730    77.3260    25.0940     2.3450   -23.6340 
  184.7500    51.3220    68.2520    69.0820    63.2080    25.1520     2.3460   -23.5800 
  184.8750    52.6650    59.5510    59.8870    48.2120    25.1580     2.3440   -23.5640 
  185.0000    54.8010    52.2110    51.7500    37.7910    25.1260     2.3380   -23.4920 
  185.1250    58.8620    47.4470    46.3500    35.6400    25.1000     2.3330   -23.3770 
  185.2500    62.7160    44.5110    43.0300    36.7540    25.1110     2.3320   -23.2750 
  185.3750    63.7720    42.7810    41.0970    36.7050    25.0580     2.3340   -23.2050 
  185.5000    62.6900    41.7310    39.9330    36.0680    24.8710     2.3340   -23.1440 
  185.6250    64.1350    41.1190    39.1860    34.8670    24.5710     2.3290   -23.1260 
  185.7500    67.5240    40.9560    38.7910    33.7120    24.2630     2.3190   -23.1130 
  185.8750    67.8430    41.5710    39.0830    32.7660    24.0400     2.3080   -23.0970 
  186.0000    64.4370    43.3930    40.5130    31.6240    23.9030     2.2960   -23.1320 
  186.1250    61.3550    47.0390    43.7180    31.7320    23.8030     2.2850   -23.1940 
  186.2500    60.3670    52.1100    48.3300    36.8040    23.7190     2.2760   -23.2750 
  186.3750    61.8130    57.7230    53.4650    44.9980    23.6030     2.2710   -23.3790 
  186.5000    64.3320    62.4290    57.6010    48.3180    23.4610     2.2710   -23.4740 
  186.6250    65.8600    64.5540    58.8980    44.1480    23.3090     2.2750   -23.5190 
  186.7500    64.7050    64.6390    57.9290    40.8290    23.2040     2.2750   -23.5500 
  186.8750    62.4480    64.1740    56.2880    36.2720    23.1790     2.2680   -23.6350 
  187.0000    61.7470    65.0510    55.9610    30.1270    23.1390     2.2540   -23.7480 
  187.1250    62.6910    69.5160    59.1720    29.4970    23.0750     2.2380   -23.7880 
  187.2500    62.5580    77.9330    66.0880    31.3540    23.0350     2.2240   -23.7630 
  187.3750    60.8300    89.9330    76.1750    36.1680    23.0470     2.2110   -23.7530 
  187.5000    58.0600   103.6740    87.7380    41.3070    23.1210     2.1970   -23.8340 
  187.6250    56.0830   115.4150    97.6000    49.1500    23.2680     2.1840   -23.9370 
  187.7500    55.3850   122.6880   103.7850    59.8290    23.5100     2.1770   -23.9830 
  187.8750    54.5160   125.1600   106.2740    71.7560    23.9110     2.1820   -24.0060 
  188.0000    52.8320   123.7800   106.1750    76.1480    24.4770     2.1980   -24.0470 
  188.1250    52.5850   118.6190   103.7510    79.3750    25.0450     2.2200   -24.1170 
  188.2500    54.7330   109.8400    98.6120    86.8190    25.4770     2.2440   -24.1480 
  188.3750    56.2830    97.5440    90.0110    94.7380    25.6540     2.2670   -24.1600 
  188.5000    54.4160    83.1980    78.4340    88.2480    25.6480     2.2890   -24.1510 
  188.6250    52.7240    69.5780    65.9780    65.5690    25.5380     2.3080   -24.0880 
  188.7500    54.9650    58.6750    55.1830    46.4030    25.2940     2.3220   -24.0320 
  188.8750    59.4790    51.1690    47.2730    36.8800    24.9450     2.3290   -24.0030 
  189.0000    62.4570    47.0110    42.6240    33.7490    24.6130     2.3290   -23.9620 
  189.1250    63.3950    46.3680    41.5990    34.3990    24.4120     2.3220   -23.8950 
  189.2500    64.8830    48.3820    43.3040    36.5040    24.2350     2.3090   -23.8980 
  189.3750    65.9920    52.5870    47.1900    38.5710    24.0440     2.2940   -23.9600 
  189.5000    64.3440    58.1210    52.3230    52.0650    23.8970     2.2800   -24.0470 
  189.6250    61.5700    63.5210    57.1690    64.6010    23.7940     2.2730   -24.2140 
  189.7500    61.0140    67.5770    60.5530    67.4440    23.6660     2.2730   -24.3890 
  189.8750    63.0680    70.1310    62.3770    61.8060    23.5630     2.2750   -24.5370 
