~V
VERS. 2.00: Ver 2.00
~W
STRT.M 50.0000:
STOP.M 274.0000:
STEP.M 0.1250:
NULL. -999.2500:
UWI. F10208:
~C
DEPT.M :
SP.MV :
DEN.GM/CC :
GR.API :
RML.OHMM :
RI. :
RXO.OHMM :
CALI.CM :
~A
# ...
  207.5000   -26.8180     2.3430    86.7360    18.1200    13.3870    17.3990    23.6940 
  207.6250   -26.4320     2.3920    82.1170    18.6320    14.1080    20.6340    23.6830 
  207.7500   -25.9690     2.4240    82.2910    17.1670    13.5590    24.4950    23.7150 
  207.8750   -25.4380     2.4100    85.7290    13.9380    11.6750    21.8070    23.9660 
  208.0000   -24.8460     2.3380    85.7230    10.1290     9.1290    13.2310    24.6950 
  208.1250   -24.1490     2.2200    74.6940     7.1400     6.8650     5.9490    27.8240 
  208.2500   -23.4000     2.0900    56.7660     5.2670     5.2530     3.3030    32.9440 
  208.3750   -22.6230     1.9560    40.1160     4.3300     4.2820     2.4200    38.0640 
  208.5000   -21.8310     1.8140    30.8720     4.0540     3.8230     2.1410    43.0960 
  208.6250   -21.0620     1.6650    29.9900     4.2670     3.7690     2.1090    43.8970 
  208.7500   -20.4180     1.5250    31.1910     4.7160     3.9290     2.2330    44.0820 
  208.8750   -19.9250     1.4160    31.0880     5.2700     4.2260     2.6130    44.0820 
  209.0000   -19.5120     1.3670    29.9530     5.8260     4.6090     3.3470    44.0820 
  209.1250   -19.1610     1.4150    32.6800     6.3120     5.0450     4.0970    43.5760 
  209.2500   -18.9110     1.5520    40.3450     6.7310     5.4680     4.2630    40.4890 
  209.3750   -18.7750     1.7560    49.3750     7.0960     5.8210     4.3180    33.4790 
  209.5000   -18.7060     1.9860    56.3460     7.4110     6.0550     4.7710    26.8590 
  209.6250   -18.6500     2.1730    61.6390     7.5910     6.1180     5.3030    25.3290 
  209.7500   -18.5660     2.2750    66.7380     7.5960     6.0340     6.1180    24.1630 
  209.8750   -18.4540     2.2830    69.5440     7.4500     5.8240     6.6250    23.8330 
  210.0000   -18.3760     2.2160    68.3600     7.2270     5.5310     6.6390    24.0710 
  210.1250   -18.3310     2.1150    62.1470     6.9870     5.2170     6.6080    24.5020 
  210.2500   -18.2270     2.0360    54.5640     6.7640     4.9530     6.3310    24.8810 
  210.3750   -18.0590     2.0140    49.8670     6.5910     4.7920     6.0040    25.4390 
  210.5000   -17.9000     2.0540    50.9540     6.5260     4.7600     5.9530    24.9070 
  210.6250   -17.8100     2.1380    55.9650     6.6650     4.8660     6.0980    23.8100 
  210.7500   -17.7690     2.2180    59.2530     6.9740     5.0570     6.2970    23.4190 
  210.8750   -17.7510     2.2690    58.8830     7.3830     5.3000     6.5990    23.4150 
  211.0000   -17.7110     2.2880    55.2820     7.8090     5.5600     6.8690    23.4720 
  211.1250   -17.6410     2.2930    52.7460     8.1850     5.8210     7.1780    23.4540 
  211.2500   -17.6200     2.3000    53.7070     8.5150     6.0730     7.4860    23.4010 
  211.3750   -17.6530     2.3080    55.6440     8.8080     6.3060     7.6640    23.3110 
  211.5000   -17.6990     2.3130    56.1020     9.0430     6.5020     7.8990    23.3520 
  211.6250   -17.7330     2.3170    56.1700     9.1480     6.6250     8.0580    23.5700 
  211.7500   -17.7390     2.3230    58.6180     9.0760     6.6630     8.1530    23.8460 
  211.8750   -17.7310     2.3340    62.5880     8.8590     6.6080     8.1020    23.8510 
  212.0000   -17.7360     2.3500    65.9540     8.6220     6.4690     8.0780    23.6980 
  212.1250   -17.7340     2.3680    65.3560     8.5170     6.2700     7.9660    23.6650 
  212.2500   -17.6620     2.3860    63.1230     8.5170     6.0510     7.7620    23.9930 
  212.3750   -17.4990     2.4010    61.2830     8.4810     5.8250     7.6040    24.4840 
  212.5000   -17.2720     2.4080    62.1050     8.2950     5.6100     7.7450    24.6530 
  212.6250   -16.9890     2.4030    66.9660     7.9220     5.4320     7.8510    24.4780 
  212.7500   -16.7250     2.3890    71.4450     7.4550     5.3070     7.7580    24.4140 
  212.8750   -16.5070     2.3690    70.9520     6.9900     5.2450     7.5620    24.4590 
  213.0000   -16.3320     2.3500    67.6010     6.6190     5.2480     7.3500    24.4510 
  213.1250   -16.2070     2.3360    66.7840     6.4620     5.3220     7.4040    24.4240 
  213.2500   -16.1180     2.3300    66.4520     6.5380     5.4500     7.6780    24.3920 
  213.3750   -16.0940     2.3320    65.3420     6.8430     5.6570     8.0270    24.5010 
  213.5000   -16.1360     2.3410    65.2700     7.4050     6.0060     8.3400    24.5850 
  213.6250   -16.2080     2.3500    67.5810     8.3350     6.6100     8.7840    24.5610 
  213.7500   -16.2340     2.3530    69.6350     9.5230     7.4500     9.0800    24.4450 
  213.8750   -16.1820     2.3440    69.5870    10.6720     8.4220    10.2710    24.3550 
  214.0000   -16.0820     2.3230    66.7070    11.3240     9.2710    12.7590    24.4380 
  214.1250   -15.9880     2.2980    59.8320    11.0120     9.5430    13.5820    24.4730 
  214.2500   -15.9260     2.2810    55.2150    10.1650     9.1800    11.8550    24.4920 
  214.3750   -15.8730     2.2790    56.7510     9.2330     8.3940     9.1880    24.4820 
  214.5000   -15.7950     2.2900    62.6460     8.2760     7.5230     7.6210    24.4680 
  214.6250   -15.6960     2.3090    67.6090     7.5510     6.8640     7.3270    24.5130 
  214.7500   -15.6020     2.3260    69.6390     7.1040     6.4590     7.5690    24.6000 
  214.8750   -15.5320     2.3350    69.2840     6.8720     6.2480     7.8530    24.6540 
  215.0000   -15.4710     2.3380    67.1430     6.7420     6.1290     7.9150    24.6640 
  215.1250   -15.3580     2.3390    65.2890     6.6200     6.0190     7.9240    24.6340 
  215.2500   -15.1540     2.3430    66.0080     6.5320     5.9380     7.9840    24.6120 
  215.3750   -14.8490     2.3520    66.6350     6.6130     6.0110     8.1450    24.6050 
  215.5000   -14.5130     2.3630    63.4390     7.0780     6.4340     8.5430    24.6000 
  215.6250   -14.1790     2.3720    59.9090     8.4050     7.6410    10.0970    24.5820 
  215.7500   -13.8660     2.3700    58.6880    10.9540     9.9590    14.0380    24.6980 
  215.8750   -13.6130     2.3510    56.7660    16.4290    13.8310    22.0280    24.7590 
  216.0000   -13.4450     2.3150    51.6980    30.6440    19.5040    33.1610    24.8190 
  216.1250   -13.3820     2.2650    45.9190    39.6870    26.3620    43.8310    25.1400 
  216.2500   -13.3990     2.2180    44.0120    45.6850    31.9000    51.0400    25.5830 
  216.3750   -13.4800     2.1880    45.1130    46.7390    34.1750    53.3060    25.9860 
  216.5000   -13.5910     2.1800    48.6620    43.9620    33.3450    48.2610    26.0280 
  216.6250   -13.7420     2.1910    53.3430    40.0750    31.1780    39.2810    25.7810 
  216.7500   -13.9270     2.2030    55.8960    36.9300    29.3350    35.9780    25.5370 
  216.8750   -14.1250     2.2020    54.7480    34.9270    28.2340    34.0810    25.4590 
  217.0000   -14.2870     2.1890    52.3630    34.1030    27.8990    32.6300    25.4140 
  217.1250   -14.3920     2.1700    51.6140    34.6100    28.3730    32.1140    25.3850 
  217.2500   -14.5010     2.1600    51.3490    36.2660    29.5390    33.5140    25.5090 
  217.3750   -14.6500     2.1620    51.2070    39.1570    31.5010    35.5050    25.6960 
  217.5000   -14.8490     2.1750    52.3270    43.4210    34.4270    38.1490    25.7580 
  217.6250   -15.0840     2.1900    53.2790    49.3360    38.6490    42.7520    25.7360 
  217.7500   -15.3460     2.1990    52.5780    56.4210    43.9210    51.1410    25.5840 
  217.8750   -15.6040     2.1970    50.7860    64.0800    49.8910    60.6290    25.4140 
  218.0000   -15.8560     2.1840    51.0930    71.4270    55.9650    64.7570    25.3300 
  218.1250   -16.1750     2.1600    53.6210    77.4290    61.3750    63.6630    25.2180 
  218.2500   -16.5640     2.1370    53.3470    82.1590    65.9190    65.6890    25.0990 
  218.3750   -16.9850     2.1210    49.0340    86.2370    69.7840    71.0120    24.8560 
  218.5000   -17.4000     2.1150    44.7330    90.3570    73.3640    77.2430    24.6590 
  218.6250   -17.7780     2.1220    44.6880    94.6390    76.9610    81.9340    24.6800 
