~V
VERS. 2.00: Ver 2.00
~W
STRT.M 53.0000:
STOP.M 267.0000:
STEP.M 0.1250:
NULL. -999.2500:
UWI. F10211:
~C
DEPT.M :
GR.API :
RML.OHMM :
RI. :
RXO.OHMM :
CALI.CM :
SP.MV :
DEN.GM/CC :
~A
# ...
   64.2500    69.2900     5.1760     7.1130    10.5010    28.9920   -25.7320     2.0870 
   64.3750    71.8720     5.0860     6.9550    10.5870    28.4830   -26.6060     2.1210 
   64.5000    75.2940     5.0540     6.8670    10.5740    28.4490   -27.3550     2.1370 
   64.6250    76.8770     5.1040     6.8880    10.2940    28.6940   -28.0310     2.1450 
   64.7500    73.6430     5.2400     7.0100    10.1150    29.1230   -28.6770     2.1590 
   64.8750    67.3940     5.4300     7.1840    10.7810    29.7570   -29.3250     2.1790 
   65.0000    65.3090     5.6030     7.3210    11.1610    30.6910   -29.9610     2.1930 
   65.1250    67.9120     5.6990     7.3520    10.6770    31.3230   -30.5750     2.1950 
   65.2500    69.9480     5.7050     7.2680     9.7220    31.0800   -31.1590     2.1880 
   65.3750    68.7480     5.6590     7.1130     9.0290    30.6560   -31.6940     2.1720 
   65.5000    68.4910     5.6350     6.9700     9.3500    30.9490   -32.1630     2.1390 
   65.6250    70.7240     5.6860     6.9000     9.7100    31.6730   -32.5860     2.0900 
   65.7500    71.2420     5.8190     6.9150    10.3260    32.1280   -32.9680     2.0400 
   65.8750    67.6120     6.0010     6.9970    10.6490    31.9610   -33.2840     2.0140 
   66.0000    64.5450     6.1640     7.1030    10.8400    31.4140   -33.5030     2.0320 
   66.1250    64.9730     6.2610     7.1870    10.8020    31.0180   -33.6410     2.0770 
   66.2500    66.1010     6.2920     7.2240    10.7600    30.7700   -33.6970     2.1210 
   66.3750    64.9080     6.2920     7.2160    10.8520    30.5810   -33.6860     2.1490 
   66.5000    62.9610     6.3040     7.1800    10.6660    30.4390   -33.6250     2.1520 
   66.6250    63.2330     6.3260     7.1260    10.2600    30.3630   -33.5280     2.1360 
   66.7500    65.1060     6.3310     7.0460     9.7020    30.1510   -33.4240     2.1160 
   66.8750    66.8530     6.2910     6.9250     8.7800    29.6350   -33.3620     2.1050 
   67.0000    69.3070     6.2110     6.7610     7.6890    28.6700   -33.4190     2.0970 
   67.1250    73.8400     6.1350     6.5850     7.0320    27.7730   -33.6350     2.0840 
   67.2500    79.4420     6.0940     6.4350     7.4970    27.3730   -34.0310     2.0830 
   67.3750    82.0580     6.0930     6.3320     8.9580    27.4700   -34.5650     2.1130 
   67.5000    78.5460     6.1180     6.2840    10.6050    27.8070   -35.1750     2.1610 
   67.6250    71.1740     6.1780     6.2880    11.2230    28.0200   -35.8340     2.1880 
   67.7500    64.0190     6.3500     6.3930    11.1360    28.0350   -36.5250     2.1880 
   67.8750    60.6960     6.7470     6.6890    11.0220    27.9520   -37.2180     2.1790 
   68.0000    62.6100     7.5060     7.3000    10.9580    27.9250   -37.8820     2.1740 
   68.1250    67.6390     8.5750     8.2050    11.3060    27.9140   -38.4670     2.1770 
   68.2500    72.1180     9.7460     9.2610    13.4550    27.8800   -38.9470     2.1960 
   68.3750    73.3610    10.6330    10.1600    19.3500    27.8700   -39.3690     2.2420 
   68.5000    71.2350    10.6820    10.4010    30.0830    27.8180   -39.8090     2.2980 
   68.6250    67.9750     9.9270     9.9080    27.2700    27.7690   -40.2800     2.3230 
   68.7500    65.3920     8.7950     8.9610    17.8630    27.7650   -40.7430     2.2960 
   68.8750    63.5850     7.7520     7.9410    12.2730    27.9070   -41.1840     2.2430 
   69.0000    62.2860     7.1120     7.1720    10.5920    28.2740   -41.6110     2.1940 
   69.1250    61.0880     6.8580     6.7210    10.3710    28.8530   -42.0520     2.1440 
   69.2500    58.9950     6.8650     6.5360    10.5400    29.7700   -42.5150     2.0830 
   69.3750    55.1770     7.0030     6.5190    10.7330    31.1780   -42.9640     2.0120 
   69.5000    52.3960     7.1730     6.5890    10.6620    32.4800   -43.3600     1.9560 
   69.6250    52.9950     7.3280     6.6890    10.7230    32.4800   -43.6990     1.9380 
   69.7500    55.8520     7.4590     6.7980    11.2820    31.2200   -44.0160     1.9730 
   69.8750    58.2060     7.5620     6.9020    12.0060    29.7770   -44.3330     2.0430 
   70.0000    58.7530     7.6340     6.9810    12.5290    29.2510   -44.6230     2.0980 
   70.1250    58.7070     7.6800     7.0180    12.8740    29.7560   -44.8440     2.1040 
   70.2500    58.8420     7.7050     6.9990    12.9460    30.9870   -44.9880     2.0650 
   70.3750    59.2100     7.7090     6.9310    12.5240    32.2960   -45.0630     2.0090 
   70.5000    59.6150     7.6910     6.8260    11.7050    32.4210   -45.0850     1.9830 
   70.6250    60.2100     7.6580     6.7130    11.2930    31.3230   -45.0610     2.0060 
   70.7500    61.4800     7.6250     6.6090    11.6710    30.0960   -44.9980     2.0710 
   70.8750    63.0040     7.6100     6.5290    12.3040    29.5570   -44.8960     2.1390 
   71.0000    63.3810     7.6310     6.4840    12.4950    29.7840   -44.7440     2.1660 
   71.1250    62.0180     7.6810     6.4680    12.4470    30.3880   -44.5810     2.1520 
   71.2500    60.0780     7.7400     6.4690    12.4480    31.0740   -44.4140     2.1130 
   71.3750    58.3580     7.7940     6.4760    12.4260    31.5030   -44.2540     2.0700 
   71.5000    57.0260     7.8280     6.4760    12.2960    31.4060   -44.0950     2.0460 
   71.6250    56.4390     7.8400     6.4630    12.2730    31.0140   -43.9140     2.0480 
   71.7500    57.9320     7.8320     6.4360    12.6620    30.7670   -43.6810     2.0720 
   71.8750    61.1940     7.8100     6.3940    12.9570    30.8090   -43.4060     2.1040 
   72.0000    63.5640     7.7830     6.3430    13.0330    30.9740   -43.1480     2.1290 
   72.1250    63.1530     7.7640     6.2910    12.9480    31.1120   -42.9020     2.1460 
   72.2500    60.7840     7.7580     6.2490    12.7950    31.1980   -42.6720     2.1550 
   72.3750    58.0900     7.7710     6.2230    12.7610    31.2550   -42.4640     2.1620 
   72.5000    57.8900     7.8040     6.2170    12.8600    31.3060   -42.2630     2.1680 
   72.6250    59.8030     7.8480     6.2220    12.7490    31.3460   -42.0850     2.1750 
   72.7500    61.2790     7.8940     6.2340    12.0800    31.2600   -41.9530     2.1830 
   72.8750    61.9520     7.9310     6.2470    11.8390    31.0420   -41.8360     2.1870 
   73.0000    62.0860     7.9450     6.2500    12.4600    30.9230   -41.6970     2.1810 
   73.1250    60.2670     7.9320     6.2360    12.8920    30.9550   -41.5330     2.1620 
   73.2500    57.7280     7.8930     6.2040    12.9080    31.0610   -41.3570     2.1390 
   73.3750    58.3090     7.8390     6.1650    12.9460    31.1670   -41.1590     2.1200 
   73.5000    62.3320     7.7860     6.1390    13.0610    31.3260   -40.9240     2.1130 
   73.6250    62.8240     7.7470     6.1370    13.0570    31.5660   -40.6590     2.1120 
   73.7500    58.9110     7.7310     6.1620    12.9750    31.7750   -40.3670     2.1120 
   73.8750    56.9080     7.7360     6.1980    13.0690    31.8460   -40.0530     2.1060 
   74.0000    57.5680     7.7500     6.2200    13.3390    31.8650   -39.7070     2.0870 
   74.1250    56.6690     7.7490     6.2160    13.3950    31.9180   -39.3190     2.0600 
   74.2500    54.7210     7.7120     6.1820    13.0330    31.9000   -38.8580     2.0330 
   74.3750    55.9910     7.6330     6.1240    12.3780    31.6230   -38.3190     2.0190 
   74.5000    60.1740     7.5290     6.0560    11.7500    31.0440   -37.6910     2.0300 
   74.6250    61.0710     7.4310     5.9890    11.6070    30.5700   -36.9680     2.0590 
   74.7500    58.8870     7.3620     5.9310    11.8420    30.3830   -36.1630     2.0900 
   74.8750    56.9140     7.3300     5.8840    12.0390    30.5260   -35.3050     2.1060 
   75.0000    57.4630     7.3220     5.8490    11.8340    31.0030   -34.3960     2.0900 
   75.1250    58.9680     7.3180     5.8240    11.1960    31.5620   -33.4270     2.0510 
   75.2500    59.6490     7.3120     5.8060    10.3760    31.5910   -32.3920     2.0080 
   75.3750    59.8730     7.3000     5.7900    10.0050    30.6640   -31.3100     1.9860 
