~V
VERS. 2.00: Ver 2.00
~W
STRT.M 47.0000:
STOP.M 270.0000:
STEP.M 0.1250:
NULL. -999.2500:
UWI. F10221:
~C
DEPT.M :
SP.MV :
GR.API :
RML.OHMM :
RI. :
RXO.OHMM :
CALI.CM :
DEN.GM/CC :
~A
# ...
  137.0000   -18.0220    64.1510    22.3570    20.3240    17.6940    22.8750     2.3940 
  137.1250   -18.0140    64.2620    22.2690    20.2440    17.5500    22.5310     2.3840 
  137.2500   -17.9930    62.2280    21.8840    19.8950    16.5120    22.5170     2.3660 
  137.3750   -17.9870    60.1360    21.2110    19.2830    15.5220    22.6370     2.3520 
  137.5000   -17.9750    57.3090    20.3540    18.5040    14.6890    22.6030     2.3510 
  137.6250   -17.9470    54.9560    19.5330    17.7570    13.4030    22.4160     2.3590 
  137.7500   -17.9110    54.8200    18.8970    17.1790    12.2980    22.1220     2.3710 
  137.8750   -17.8530    54.9300    18.5270    16.8430    11.6860    21.7360     2.3810 
  138.0000   -17.7670    53.4730    18.4670    16.7880    11.5390    21.3380     2.3840 
  138.1250   -17.7000    52.9310    18.5930    16.9030    11.5230    21.1030     2.3780 
  138.2500   -17.6240    52.6880    18.7930    17.0840    12.0320    21.1380     2.3560 
  138.3750   -17.5350    50.6520    18.9340    17.2130    12.8300    21.6300     2.3160 
  138.5000   -17.4270    46.6090    18.8790    17.1630    13.1750    22.7510     2.2670 
  138.6250   -17.3340    44.7500    18.6400    16.9450    13.3010    24.0490     2.2370 
  138.7500   -17.2500    46.0670    18.2770    16.6160    13.2510    24.9070     2.2420 
  138.8750   -17.1870    47.0780    17.8810    16.2560    12.9830    25.2420     2.2790 
  139.0000   -17.1370    46.0010    17.5520    15.9570    12.5740    25.3110     2.3190 
  139.1250   -17.0650    43.5600    17.3260    15.7500    12.4990    25.3250     2.3390 
  139.2500   -17.0260    43.0340    17.1920    15.6290    12.3620    25.1860     2.3380 
  139.3750   -17.0230    44.9020    17.1120    15.5560    12.3020    24.7800     2.3280 
  139.5000   -17.0520    46.1560    17.0240    15.4760    11.9520    24.1940     2.3150 
  139.6250   -17.0750    47.1540    16.8770    15.3420    11.7540    23.6410     2.2910 
  139.7500   -17.1110    47.6410    16.6360    15.1240    11.6630    23.4610     2.2570 
  139.8750   -17.1390    47.0390    16.2740    14.7940    11.6840    23.4970     2.2350 
  140.0000   -17.1570    46.0670    15.7500    14.3180    11.5830    23.5180     2.2550 
  140.1250   -17.1910    47.1550    15.1110    13.7370    11.5470    23.4660     2.2990 
  140.2500   -17.2100    52.2530    14.4130    13.1030    11.3490    23.4510     2.3380 
  140.3750   -17.2180    58.4090    13.7370    12.4880    10.9810    23.6590     2.3550 
  140.5000   -17.2120    60.9110    13.2080    12.0070    10.3230    23.9690     2.3520 
  140.6250   -17.1910    59.6290    12.8970    11.7250    10.0810    24.1660     2.3460 
  140.7500   -17.1830    57.9640    12.8580    11.6890    10.1300    24.1580     2.3470 
  140.8750   -17.2120    57.5140    13.0950    11.9040    10.5450    24.0940     2.3640 
  141.0000   -17.2560    55.7530    13.5760    12.3420    11.3590    24.0980     2.3930 
  141.1250   -17.3430    56.6280    14.1270    12.8420    12.5390    24.3420     2.4210 
  141.2500   -17.4350    61.8430    14.5930    13.2670    13.8100    24.6240     2.4410 
  141.3750   -17.5290    67.5120    14.8770    13.5240    14.1610    24.7460     2.4460 
  141.5000   -17.6500    71.2170    14.9780    13.6170    13.8270    24.7460     2.4320 
  141.6250   -17.7860    76.1780    15.0410    13.6740    13.4000    24.7500     2.4110 
  141.7500   -17.8760    81.8250    15.1330    13.7570    13.2660    24.7400     2.3970 
  141.8750   -17.9500    84.8700    15.1780    13.7990    13.4250    24.7160     2.3970 
  142.0000   -18.0330    85.4790    14.8270    13.4790    13.8730    24.6700     2.4030 
  142.1250   -18.0850    85.8660    13.8250    12.5680    14.0370    24.5460     2.3980 
  142.2500   -18.0910    82.4850    12.1810    11.0730    13.3210    24.4370     2.3800 
  142.3750   -18.0540    78.0620    10.2280     9.2980    11.5140    24.4480     2.3580 
  142.5000   -17.9720    76.9780     8.4670     7.6970     8.5930    24.2130     2.3440 
  142.6250   -17.8920    78.8220     6.8610     6.4990     6.3450    23.6890     2.3350 
  142.7500   -17.8410    82.4440     5.8880     5.7380     5.5520    23.2050     2.3280 
  142.8750   -17.7980    88.0600     5.7030     5.3500     5.4580    22.9000     2.3240 
  143.0000   -17.7290    94.5520     5.7470     5.2510     5.4890    22.7870     2.3280 
  143.1250   -17.6670    95.6410     5.8110     5.2660     5.4630    22.7470     2.3370 
  143.2500   -17.6410    90.4340     5.8190     5.3040     5.3930    22.6780     2.3460 
  143.3750   -17.6450    85.0500     5.7590     5.3100     5.4060    22.5050     2.3480 
  143.5000   -17.6740    87.1260     5.6560     5.2560     5.3770    22.3200     2.3410 
  143.6250   -17.6850    94.1970     5.5370     5.1650     5.3010    22.2050     2.3330 
  143.7500   -17.6770   101.0970     5.4140     5.0580     5.2480    22.1620     2.3270 
  143.8750   -17.6640   104.9030     5.3020     4.9540     5.2420    22.1770     2.3210 
  144.0000   -17.6640   105.6570     5.2270     4.8710     5.2560    22.1880     2.3170 
  144.1250   -17.6670   102.2640     5.1910     4.8070     5.3000    22.1180     2.3140 
  144.2500   -17.6650    97.0330     5.1740     4.7600     5.3740    21.9490     2.3130 
  144.3750   -17.6450    94.2420     5.1590     4.7250     5.4160    21.7290     2.3120 
  144.5000   -17.6190    95.2500     5.1450     4.6970     5.4480    21.5720     2.3120 
  144.6250   -17.5930    97.0260     5.1470     4.6760     5.4210    21.5010     2.3100 
  144.7500   -17.5670   100.5330     5.1720     4.6600     5.3200    21.4450     2.3120 
  144.8750   -17.5290   105.2240     5.2160     4.6470     5.2220    21.3390     2.3210 
  145.0000   -17.4560   103.8180     5.2650     4.6400     5.1690    21.3870     2.3390 
  145.1250   -17.3610    98.6820     5.3140     4.6420     5.1280    21.6080     2.3570 
  145.2500   -17.2440    98.5050     5.3660     4.6500     5.0930    21.9370     2.3660 
  145.3750   -17.1260   103.2760     5.4280     4.6610     5.0960    22.3110     2.3690 
  145.5000   -17.0180   104.9960     5.4880     4.6670     5.1760    22.5520     2.3750 
  145.6250   -16.9340   102.1610     5.5260     4.6660     5.2660    22.5910     2.3850 
  145.7500   -16.8370    99.7880     5.5340     4.6560     5.2800    22.3480     2.3960 
  145.8750   -16.7420    99.3840     5.5100     4.6350     5.2490    22.0680     2.4010 
  146.0000   -16.6670    99.9670     5.4570     4.5980     5.2010    21.9460     2.4010 
  146.1250   -16.5950   102.0620     5.3890     4.5520     5.1310    22.0520     2.3990 
  146.2500   -16.5370   104.8010     5.3250     4.5060     5.0770    22.3030     2.3980 
  146.3750   -16.5100   107.1700     5.2890     4.4750     5.0800    22.6040     2.3940 
  146.5000   -16.4920   108.9830     5.3040     4.4730     5.0960    22.8390     2.3880 
  146.6250   -16.4920   108.1910     5.3570     4.4930     5.1470    23.0350     2.3820 
  146.7500   -16.5150   105.6530     5.4250     4.5220     5.1870    23.0820     2.3780 
  146.8750   -16.5400   103.7070     5.4850     4.5470     5.2000    22.9860     2.3790 
  147.0000   -16.5820   104.0910     5.5210     4.5610     5.1930    22.8760     2.3820 
  147.1250   -16.6320   103.2730     5.5360     4.5700     5.1790    22.8630     2.3830 
  147.2500   -16.6960    98.2760     5.5470     4.5850     5.2030    22.8180     2.3800 
  147.3750   -16.7480    93.0220     5.5730     4.6150     5.2700    22.5760     2.3770 
  147.5000   -16.7940    93.2220     5.6320     4.6660     5.3150    22.2390     2.3740 
  147.6250   -16.8150    97.8490     5.7200     4.7280     5.2660    22.0730     2.3720 
  147.7500   -16.8690   102.4390     5.8190     4.7910     5.2070    22.1690     2.3700 
  147.8750   -16.9250   102.5040     5.9010     4.8370     5.1800    22.3440     2.3700 
  148.0000   -16.9920   100.2820     5.9250     4.8490     5.1530    22.4770     2.3700 
  148.1250   -17.0620   101.1150     5.8930     4.8330     5.1080    22.4160     2.3650 
