~V
VERS. 2.00: Ver 2.00
~W
STRT.M 58.0000:
STOP.M 277.0000:
STEP.M 0.1250:
NULL. -999.2500:
UWI. F10219:
~C
DEPT.M :
SP.MV :
DEN.GM/CC :
GR.API :
RML.OHMM :
RI. :
RXO.OHMM :
CALI.CM :
~A
# ...
  204.2500   -24.0130     2.5920    78.5520    17.3930    14.8990    16.2080    25.3080 
  204.3750   -24.3890     2.5720    76.2480    15.8570    13.9990    14.9600    24.9660 
  204.5000   -24.7020     2.5250    76.6940    13.3640    12.0740    11.9140    24.5050 
  204.6250   -24.9880     2.4660    77.7530    10.6330     9.7470     8.6420    23.7200 
  204.7500   -25.2710     2.4090    76.4170     8.3780     7.6860     6.3460    22.6920 
  204.8750   -25.5340     2.3640    72.8510     6.9250     6.2320     4.9950    21.7180 
  205.0000   -25.7130     2.3240    69.4060     6.1260     5.3270     4.2950    20.7380 
  205.1250   -25.7290     2.2740    67.3140     5.7670     4.8400     3.9290    19.6360 
  205.2500   -25.5090     2.2000    66.6010     5.6480     4.6340     3.7770    18.8840 
  205.3750   -25.0060     2.1040    66.6100     5.6230     4.5890     3.7830    19.1220 
  205.5000   -24.2630     2.0090    66.6110     5.6140     4.6120     3.8460    20.5460 
  205.6250   -23.3610     1.9380    65.4960     5.6180     4.6780     3.9150    22.9690 
  205.7500   -22.3600     1.9050    63.0230     5.6580     4.7910     3.9620    25.8230 
  205.8750   -21.4070     1.9160    60.6320     5.7580     4.9550     3.9940    28.5160 
  206.0000   -20.6410     1.9710    59.0620     5.9090     5.1550     4.0350    30.8900 
  206.1250   -20.1090     2.0600    57.7520     6.0850     5.3650     4.1170    32.8840 
  206.2500   -19.9200     2.1630    57.5980     6.2420     5.5440     4.2620    33.4130 
  206.3750   -20.0820     2.2580    60.6970     6.3300     5.6550     4.4570    31.6940 
  206.5000   -20.5250     2.3290    67.0260     6.3390     5.6860     4.6420    29.0580 
  206.6250   -21.1470     2.3670    73.4950     6.2620     5.6460     4.7780    26.8880 
  206.7500   -21.7880     2.3690    76.1520     6.1420     5.5620     4.8210    25.6970 
  206.8750   -22.3350     2.3540    74.6040     6.0540     5.4760     4.7660    25.1830 
  207.0000   -22.6540     2.3450    72.9130     6.0000     5.4280     4.7440    25.0070 
  207.1250   -22.7040     2.3470    73.9460     5.9800     5.4320     4.8560    25.0110 
  207.2500   -22.4090     2.3580    76.6470     6.0140     5.4880     5.1180    25.0660 
  207.3750   -21.7100     2.3690    78.3840     6.1030     5.5800     5.4650    25.1230 
  207.5000   -20.6870     2.3700    78.4040     6.2490     5.6880     5.7880    25.1670 
  207.6250   -19.4080     2.3630    77.9330     6.4440     5.8040     5.9860    25.2390 
  207.7500   -18.0550     2.3590    78.4540     6.6670     5.9280     6.1970    25.3910 
  207.8750   -16.7290     2.3640    80.3280     6.9040     6.0570     6.6150    25.5820 
  208.0000   -15.4850     2.3700    82.4840     7.1280     6.1760     7.0370    25.7410 
  208.1250   -14.4000     2.3780    83.8350     7.3070     6.2620     7.3290    25.8950 
  208.2500   -13.5410     2.3880    84.2190     7.4370     6.3060     7.4880    26.1240 
  208.3750   -13.0210     2.4000    83.7980     7.5960     6.3410     7.6340    26.3460 
  208.5000   -12.8330     2.4080    82.6950     7.9730     6.4790     8.0000    26.4430 
  208.6250   -12.9310     2.4080    81.8850     8.8570     6.9040     8.7330    26.4490 
  208.7500   -13.2100     2.4040    82.5120    10.6830     7.9460    10.3680    26.4380 
  208.8750   -13.5510     2.4000    83.5070    13.8700    10.0010    13.8130    26.4440 
  209.0000   -13.9540     2.4000    81.9120    18.5620    13.3680    19.5600    26.4240 
  209.1250   -14.3780     2.3940    76.4810    24.7850    18.2950    27.7690    26.3320 
  209.2500   -14.8040     2.3680    69.2520    32.2850    24.8300    37.3520    26.2140 
  209.3750   -15.2070     2.3280    63.3200    40.3880    32.5060    46.4780    26.1420 
  209.5000   -15.5520     2.2970    59.6860    48.1630    40.3280    55.6380    26.0820 
  209.6250   -15.8520     2.2800    58.2800    54.9660    47.4560    65.7540    25.9980 
  209.7500   -16.0800     2.2630    59.1820    60.4550    53.2920    74.5030    25.9170 
  209.8750   -16.2910     2.2370    60.8040    64.7110    57.7290    79.0230    25.9650 
  210.0000   -16.4820     2.2140    60.5640    68.0420    61.0440    79.9310    26.1890 
  210.1250   -16.6560     2.2060    58.8810    70.4640    63.3320    79.0850    26.4900 
  210.2500   -16.8430     2.2070    58.5090    71.8590    64.6020    78.4810    26.7230 
  210.3750   -17.0220     2.2080    59.7280    72.2510    64.9710    77.4930    26.8150 
  210.5000   -17.2320     2.2050    60.2380    71.9450    64.7540    75.5480    26.8080 
  210.6250   -17.4470     2.2040    59.4440    71.2610    64.2210    73.5660    26.7340 
  210.7500   -17.6700     2.2100    58.4770    70.6860    63.7740    71.3400    26.5870 
  210.8750   -17.9080     2.2230    57.9380    70.7500    63.8850    69.3690    26.3980 
  211.0000   -18.1450     2.2400    57.2270    71.7190    64.8420    68.3890    26.2330 
  211.1250   -18.4020     2.2630    55.9310    73.5060    66.6440    69.8160    26.1070 
  211.2500   -18.6610     2.2790    54.9680    75.5860    68.8960    74.7010    25.9980 
  211.3750   -18.9300     2.2760    55.6220    77.2240    70.8630    81.5880    25.9230 
  211.5000   -19.2000     2.2530    57.1310    77.9150    71.8220    85.4800    25.9710 
  211.6250   -19.4480     2.2260    57.4910    77.5090    71.4020    83.6090    26.1650 
  211.7500   -19.6990     2.2110    56.3300    76.3740    69.6660    77.4190    26.3930 
  211.8750   -19.9070     2.2120    55.0840    74.9530    67.1640    71.1630    26.5370 
  212.0000   -20.0540     2.2180    54.5130    73.0990    64.6150    66.9750    26.5600 
  212.1250   -20.1320     2.2230    54.5870    70.8420    62.3340    64.8530    26.5240 
  212.2500   -20.1180     2.2250    55.8000    68.5850    60.3360    64.3850    26.4900 
  212.3750   -20.0430     2.2260    58.2020    66.4580    58.5000    64.3160    26.4950 
  212.5000   -19.8880     2.2270    60.2200    64.4390    56.8140    63.1640    26.5250 
  212.6250   -19.6940     2.2290    60.5110    62.8010    55.5060    59.4290    26.5590 
  212.7500   -19.4670     2.2300    59.9660    62.1490    54.9640    55.5390    26.5870 
  212.8750   -19.2150     2.2300    60.3760    62.7070    55.4300    55.9020    26.6290 
  213.0000   -19.0150     2.2290    61.6380    64.1600    56.7240    60.8230    26.7100 
  213.1250   -18.8730     2.2270    62.3660    65.9820    58.4610    67.9670    26.7980 
  213.2500   -18.8070     2.2230    61.7150    67.4090    60.0160    72.8730    26.8490 
  213.3750   -18.7620     2.2180    59.9230    67.8160    60.7980    71.6980    26.8540 
  213.5000   -18.7510     2.2100    57.9470    67.1620    60.6460    66.2310    26.8350 
  213.6250   -18.8000     2.2030    56.4070    65.8400    59.7820    60.0470    26.8180 
  213.7500   -18.8820     2.1980    56.1340    64.5740    58.7490    55.5740    26.8130 
  213.8750   -18.9900     2.1970    57.1610    64.0730    58.1770    54.1090    26.8130 
  214.0000   -19.0350     2.1980    58.1100    64.6820    58.4760    55.3900    26.8130 
  214.1250   -19.0400     2.1990    58.8830    66.4940    59.8400    58.0740    26.8130 
  214.2500   -19.0300     2.2030    59.8850    69.4340    62.3400    61.2740    26.8040 
  214.3750   -19.0390     2.2130    60.4600    73.1110    65.7600    65.8020    26.7630 
  214.5000   -19.1000     2.2230    59.4130    76.7350    69.4550    72.0820    26.6890 
  214.6250   -19.1630     2.2260    57.0670    79.4640    72.6700    78.6150    26.6450 
  214.7500   -19.2680     2.2160    54.7880    80.4150    74.4770    82.6940    26.6920 
  214.8750   -19.4290     2.2020    52.6180    79.3710    74.3300    81.6800    26.8090 
  215.0000   -19.6570     2.1960    50.0700    77.1420    72.6220    76.5710    26.9840 
  215.1250   -19.9150     2.2020    48.2660    74.6440    70.1500    70.3080    27.1880 
  215.2500   -20.1480     2.2130    49.1990    72.9440    67.8780    65.6610    27.3250 
  215.3750   -20.3720     2.2190    53.0070    71.9180    66.3580    63.4360    27.2860 
