~V
VERS. 2.00: Ver 2.00
~W
STRT.M 30.0000:
STOP.M 271.0000:
STEP.M 0.1250:
NULL. -999.2500:
UWI. F10210:
~C
DEPT.M :
DEN.GM/CC :
GR.API :
RML.OHMM :
RI. :
RXO.OHMM :
CALI.CM :
SP.MV :
~A
# ...
  142.5000     2.2530   100.8340     6.0280     5.5700     5.3130    23.9630    -3.5880 
  142.6250     2.2590    96.1300     6.1060     5.6240     5.4040    23.9630    -3.7120 
  142.7500     2.2680    93.7410     6.2180     5.6970     5.6200    23.9650    -3.8030 
  142.8750     2.2790    93.5460     6.3400     5.7810     5.6900    23.9830    -3.8520 
  143.0000     2.2770    93.2980     6.4530     5.8570     5.6950    24.0270    -3.8520 
  143.1250     2.2570    92.4410     6.5300     5.8970     5.8340    24.3380    -3.8040 
  143.2500     2.2440    91.4970     6.5640     5.8970     6.0140    24.3820    -3.7100 
  143.3750     2.2430    91.3860     6.5540     5.8650     5.9670    24.3800    -3.5830 
  143.5000     2.2410    94.1840     6.5070     5.8180     5.7600    24.3280    -3.4390 
  143.6250     2.2280    98.6570     6.4220     5.7710     5.7210    24.3130    -3.3090 
  143.7500     2.2210   100.4710     6.3110     5.7240     5.8290    24.3020    -3.2050 
  143.8750     2.2240    98.7430     6.1860     5.6750     5.8990    24.2470    -3.1180 
  144.0000     2.2280    95.9830     6.0720     5.6190     5.8070    24.2290    -3.0560 
  144.1250     2.2260    95.5640     6.0110     5.5590     5.5740    24.2340    -3.0150 
  144.2500     2.2320    97.0990     6.0120     5.5050     5.4650    24.2370    -2.9800 
  144.3750     2.2510   100.3880     6.0650     5.4660     5.4630    24.2250    -2.9410 
  144.5000     2.2770   103.7910     6.1450     5.4520     5.4720    24.2210    -2.9050 
  144.6250     2.2940   103.4080     6.2280     5.4740     5.4340    24.2160    -2.8640 
  144.7500     2.2870   100.8840     6.3000     5.5250     5.4420    24.2500    -2.8200 
  144.8750     2.2610    97.9090     6.3450     5.5910     5.5100    24.3530    -2.7720 
  145.0000     2.2370    94.3550     6.3440     5.6540     5.5880    24.5610    -2.7230 
  145.1250     2.2410    89.9710     6.2940     5.6900     5.6520    25.0880    -2.6860 
  145.2500     2.2640    89.6650     6.2190     5.6880     5.6820    25.2150    -2.6690 
  145.3750     2.2790    94.8790     6.1260     5.6470     5.6390    25.5100    -2.6940 
  145.5000     2.2690    99.6880     6.0120     5.5720     5.5380    25.7790    -2.7250 
  145.6250     2.2420    98.5390     5.8710     5.4730     5.3660    25.6730    -2.7420 
  145.7500     2.2230    97.5800     5.7250     5.3700     5.1590    24.6640    -2.7590 
  145.8750     2.2250    98.8180     5.6030     5.2800     4.9740    24.1280    -2.8090 
  146.0000     2.2410    99.4690     5.5290     5.2160     4.7880    23.9240    -2.8730 
  146.1250     2.2400    98.1350     5.5090     5.1810     4.6820    23.8860    -2.9480 
  146.2500     2.2180    97.7460     5.4950     5.1610     4.7540    23.8720    -3.0290 
  146.3750     2.1950    99.5450     5.4470     5.1370     4.8850    23.8530    -3.0920 
  146.5000     2.1930   100.4450     5.3470     5.0990     4.9220    23.6950    -3.1550 
  146.6250     2.2070    99.5750     5.2210     5.0450     4.8980    23.4470    -3.2320 
  146.7500     2.2070    99.3000     5.1270     4.9900     4.8510    23.3220    -3.3120 
  146.8750     2.1940    99.7820     5.1030     4.9510     4.7990    23.2850    -3.3690 
  147.0000     2.1890    99.1590     5.1560     4.9400     4.8390    23.2890    -3.4130 
  147.1250     2.2060    96.9680     5.2590     4.9720     4.9560    23.2870    -3.4500 
  147.2500     2.2250    97.0640     5.3560     5.0330     5.0480    23.2790    -3.4900 
  147.3750     2.2360    99.6310     5.4400     5.1020     5.1230    23.2840    -3.5440 
  147.5000     2.2450   100.4540     5.5260     5.1550     5.2330    23.2830    -3.6100 
  147.6250     2.2590   100.0670     5.6240     5.1830     5.4070    23.2890    -3.6750 
  147.7500     2.2670   100.4910     5.7160     5.2110     5.4030    23.2820    -3.7390 
  147.8750     2.2610   100.4360     5.7780     5.2600     5.2650    23.2820    -3.8220 
  148.0000     2.2500    99.8520     5.7940     5.3260     5.1980    23.2620    -3.9230 
  148.1250     2.2400   100.3620     5.7560     5.3720     5.5410    23.2870    -4.0230 
  148.2500     2.2290   101.7890     5.6790     5.3620     5.9740    23.2880    -4.1040 
  148.3750     2.2140   101.6670     5.5790     5.3010     6.0030    23.2700    -4.1760 
  148.5000     2.2030   101.4700     5.5140     5.2380     5.5970    23.2410    -4.2600 
  148.6250     2.2120   103.1070     5.6060     5.2700     5.7200    23.1340    -4.3890 
  148.7500     2.2280   103.4500     5.9100     5.4500     6.1730    23.0880    -4.5660 
  148.8750     2.2360   101.3260     6.4490     5.8010     6.8830    23.0360    -4.7710 
  149.0000     2.2360    99.3310     7.1810     6.3100     7.2330    23.0240    -5.0000 
  149.1250     2.2430   101.5120     8.0040     6.9270     7.8130    23.0310    -5.2680 
  149.2500     2.2620   103.4220     8.7620     7.5290     8.3710    23.0360    -5.5840 
  149.3750     2.2890   100.7670     9.3540     8.0260     9.0170    23.0390    -5.9190 
  149.5000     2.3140    95.4940     9.7270     8.3720     9.4420    23.0210    -6.2350 
  149.6250     2.3180    94.4480     9.8410     8.5350    10.0660    23.0350    -6.4690 
  149.7500     2.3010    96.8970     9.7700     8.5610     9.8990    23.0270    -6.6110 
  149.8750     2.2760    97.9550     9.5620     8.4810     9.6070    23.0230    -6.6800 
  150.0000     2.2590    96.5410     9.2670     8.3310     9.2430    23.0200    -6.6820 
  150.1250     2.2590    97.5630     8.9740     8.1670     8.7350    23.0060    -6.6370 
  150.2500     2.2710   100.1260     8.7930     8.0460     8.6070    22.9640    -6.5300 
  150.3750     2.2900    98.5550     8.7810     8.0040     9.3530    22.9470    -6.3920 
  150.5000     2.3040    91.5150     8.9030     8.0400    11.1630    22.9410    -6.2440 
  150.6250     2.3020    84.8850     9.0240     8.1250    10.8330    22.9460    -6.1040 
  150.7500     2.2880    83.7190     9.0000     8.1980     9.8200    22.9480    -5.9730 
  150.8750     2.2730    86.0660     8.7890     8.2140     9.0140    22.9490    -5.8560 
  151.0000     2.2680    87.3100     8.4490     8.1660     8.5150    22.9360    -5.7580 
  151.1250     2.2720    88.0320     8.1040     8.0850     8.3350    22.9550    -5.6420 
  151.2500     2.2740    90.6900     7.8430     8.0290     8.2480    22.9690    -5.5300 
  151.3750     2.2660    94.0430     7.6880     8.0180     7.8740    23.0860    -5.3940 
  151.5000     2.2520    94.5590     7.6180     8.0270     7.7140    23.2340    -5.2220 
  151.6250     2.2470    92.8700     7.5540     7.9500     7.2500    23.5230    -5.0320 
  151.7500     2.2540    92.2460     7.3700     7.6970     6.6720    23.7590    -4.8510 
  151.8750     2.2640    93.8290     6.9800     7.2430     5.6660    23.8690    -4.6790 
  152.0000     2.2720    98.0530     6.3780     6.6360     4.8090    24.1940    -4.5030 
  152.1250     2.2790   101.3490     5.6560     5.9690     4.6880    24.7910    -4.3510 
  152.2500     2.2870    99.7040     5.0060     5.3660     4.7940    25.1850    -4.2200 
  152.3750     2.2980    96.5920     4.5790     4.9170     4.8830    24.3800    -4.1350 
  152.5000     2.3000    95.8830     4.5040     4.7120     4.8210    24.0370    -4.1270 
  152.6250     2.2820    92.7930     5.0540     4.9450     4.9880    24.0010    -4.2280 
  152.7500     2.2500    84.1810     6.3900     5.7420     6.1480    24.1140    -4.4050 
  152.8750     2.2160    75.5870     8.7760     7.3320     8.8720    24.2320    -4.6510 
  153.0000     2.1930    70.0250    12.4490     9.9810    13.1520    24.4510    -4.9640 
  153.1250     2.1840    65.2800    17.6160    14.0730    19.6610    24.5860    -5.3170 
  153.2500     2.1760    61.6510    23.4300    19.0940    26.0020    24.7240    -5.6950 
  153.3750     2.1590    62.4750    28.7460    24.1320    29.7650    24.8550    -6.0720 
  153.5000     2.1350    67.8450    32.5500    28.1330    31.8690    24.9510    -6.4250 
  153.6250     2.1220    70.7960    34.3690    30.3660    31.9230    24.8900    -6.7320 
