~V
VERS. 2.00: Ver 2.00
~W
STRT.M 55.0000:
STOP.M 270.0000:
STEP.M 0.1250:
NULL. -999.2500:
UWI. F10235:
~C
DEPT.M :
GR.API :
RML.OHMM :
RI. :
RXO.OHMM :
CALI.CM :
DEN.GM/CC :
SP.MV :
~A
# ...
  201.2500    86.7320    16.4910    15.4920    16.5030    24.9140     2.3560   -24.0070 
  201.3750    89.4190    17.7590    16.7390    17.6880    24.4210     2.3530   -24.3260 
  201.5000    89.4680    18.8360    17.8020    16.3640    24.2670     2.3520   -24.6300 
  201.6250    86.0010    19.5080    18.4910    17.2950    24.2670     2.3590   -24.8430 
  201.7500    84.1910    19.6720    18.6910    19.5690    24.2670     2.3720   -24.9950 
  201.8750    85.0250    19.2430    18.2740    20.5560    24.2670     2.3890   -25.0720 
  202.0000    87.5950    18.2470    17.2600    18.4610    24.2670     2.4030   -24.9830 
  202.1250    92.2450    16.8210    15.8120    16.6890    24.4000     2.4110   -24.7440 
  202.2500    93.8590    15.3050    14.2950    15.2560    24.8380     2.4130   -24.4680 
  202.3750    92.8420    13.9100    12.9290    13.9400    25.2980     2.4120   -24.1440 
  202.5000    93.7530    12.7520    11.8280    12.7950    25.3210     2.4120   -23.7260 
  202.6250    98.5930    11.9140    11.0350    12.5420    25.3290     2.4180   -23.2710 
  202.7500   102.7700    11.3750    10.4960    12.6680    25.3290     2.4280   -22.8160 
  202.8750   104.0200    11.2300    10.3010    12.9820    25.3270     2.4350   -22.3560 
  203.0000   104.7910    11.7090    10.6490    13.4480    25.3020     2.4310   -21.9480 
  203.1250   104.6570    13.3940    12.1270    14.2650    25.2350     2.4090   -21.6530 
  203.2500   101.0600    17.4200    15.4000    16.9740    25.1720     2.3740   -21.4780 
  203.3750    93.6540    25.6740    21.7520    25.0120    25.1920     2.3360   -21.4460 
  203.5000    83.3560    39.3620    32.8360    50.6090    25.2390     2.3020   -21.5700 
  203.6250    74.3820    58.3640    50.6990    89.5760    25.2590     2.2780   -21.7700 
  203.7500    68.8850    78.7700    72.2100   119.6810    25.2600     2.2630   -21.9450 
  203.8750    67.6500    96.8610    92.0440   123.3240    25.2590     2.2540   -22.0970 
  204.0000    68.9080   109.8860   105.5550   119.7360    25.2380     2.2530   -22.2410 
  204.1250    67.4140   117.4640   112.4290   115.2610    25.3340     2.2720   -22.3110 
  204.2500    61.7470   123.5840   117.9010   119.6680    25.4770     2.3160   -22.2080 
  204.3750    54.7200   129.2650   124.1520   131.2100    25.4290     2.3860   -21.9250 
  204.5000    52.8020   130.9550   129.0540   163.1000    25.2970     2.4760   -21.4870 
  204.6250    56.3420   120.1880   122.7340   190.9270    25.2520     2.5650   -20.9090 
  204.7500    58.2660    97.3660   100.7980   211.1630    25.3330     2.6300   -20.2230 
  204.8750    57.6730    68.9100    70.0570   204.9420    25.4950     2.6570   -19.4030 
  205.0000    58.6850    43.3760    42.6550   134.6220    24.8000     2.6470   -18.4090 
  205.1250    64.6460    26.8300    25.9020    53.1470    24.8000     2.6110   -17.2460 
  205.2500    71.7200    17.1540    16.5790    21.2480    24.8000     2.5730   -16.0830 
  205.3750    77.8040    12.0770    11.8200    12.1980    24.8000     2.5420   -14.9600 
  205.5000    81.9360     9.8210     9.5640    10.3700    24.8000     2.5170   -13.9180 
  205.6250    86.7010     9.2840     8.7920    10.5770    24.8000     2.4900   -13.0340 
  205.7500    94.6490     9.3260     8.6700    10.3980    24.8000     2.4570   -12.3320 
  205.8750   102.1620     9.4940     8.8130     9.5330    24.8670     2.4190   -11.8360 
  206.0000   105.3620     9.5530     8.9290     8.9210    24.8840     2.3790   -11.5590 
  206.1250   105.9850     9.4620     8.9030     8.5260    24.5690     2.3470   -11.5470 
  206.2500   108.7710     9.3820     8.8630     8.3630    24.0830     2.3290   -11.7330 
  206.3750   109.6600     9.4470     8.9250     8.2670    23.6520     2.3280   -12.1120 
  206.5000   103.8290     9.7360     9.1640     8.6760    23.5640     2.3410   -12.6910 
  206.6250    94.0270    10.3320     9.6460    11.2500    23.9480     2.3640   -13.5140 
  206.7500    86.7620    11.2210    10.3520    14.1870    24.4820     2.3920   -14.4210 
  206.8750    84.8940    12.4140    11.2910    15.0740    24.7170     2.4240   -15.2750 
  207.0000    85.8730    13.8500    12.4310    15.3150    24.7790     2.4630   -16.0680 
  207.1250    82.6100    15.2720    13.5930    16.9130    25.2100     2.5030   -16.7860 
  207.2500    75.4770    16.2470    14.4020    20.9110    25.2750     2.5310   -17.3520 
  207.3750    71.7360    16.4010    14.4750    24.1600    25.0670     2.5400   -17.7430 
  207.5000    75.4690    15.5860    13.6380    23.2430    25.0670     2.5350   -17.9540 
  207.6250    84.7170    13.9350    12.0620    16.4110    25.0670     2.5270   -17.8970 
  207.7500    92.6560    12.0930    10.3810    11.4270    25.0670     2.5220   -17.7380 
  207.8750    94.5480    10.4970     8.9530     9.8760    25.0670     2.5100   -17.6160 
  208.0000    90.0010     9.4160     7.9570    10.0380    25.0670     2.4810   -17.5050 
  208.1250    86.6410     9.0600     7.5410     9.8860    25.0670     2.4380   -17.4080 
  208.2500    88.1160     9.3130     7.6280     9.1560    25.0670     2.4040   -17.4270 
  208.3750    89.0780    10.1040     8.1920     8.8620    25.0670     2.4010   -17.6040 
  208.5000    87.8380    11.3020     9.1740    10.5460    25.0670     2.4400   -17.9180 
  208.6250    88.0320    12.6620    10.4670    14.6000    25.0670     2.5210   -18.4360 
  208.7500    88.2720    13.7670    11.7250    17.4220    25.0670     2.6180   -19.0650 
  208.8750    87.5250    14.2410    12.5290    16.0600    25.0670     2.7060   -19.7110 
  209.0000    87.1730    13.8250    12.4620    12.6430    24.9330     2.7510   -20.3010 
  209.1250    88.3490    12.4050    11.2550    11.6980    24.9330     2.7140   -20.7200 
  209.2500    90.0130    10.4820     9.4640    12.3050    24.9330     2.6060   -20.8910 
  209.3750    91.5140     8.4860     7.5920    11.0350    24.9330     2.4610   -20.7700 
  209.5000    89.7860     6.7750     5.9970     7.4720    24.9330     2.3350   -20.3910 
  209.6250    79.4740     5.6480     4.9140     5.5040    24.8000     2.2800   -19.7740 
  209.7500    67.1340     5.0540     4.2730     4.7960    24.8000     2.2850   -19.0230 
  209.8750    58.5690     4.9150     4.0180     4.8880    24.8000     2.3160   -18.2170 
  210.0000    55.0950     5.0970     4.0820     5.1310    24.8000     2.3360   -17.5170 
  210.1250    55.1990     5.4400     4.3990     5.2440    24.8000     2.3270   -17.0650 
  210.2500    57.4670     5.7680     4.8010     5.4140    24.8000     2.3090   -16.8310 
  210.3750    61.6900     6.0270     5.1910     5.6610    24.6650     2.3050   -16.8540 
  210.5000    68.5950     6.2420     5.5380     5.8800    24.5670     2.3300   -17.1280 
  210.6250    79.3320     6.4820     5.8760     6.0330    24.4600     2.3830   -17.6010 
  210.7500    87.6280     6.7610     6.2190     6.4080    24.3310     2.4360   -18.1700 
  210.8750    89.4020     7.0270     6.5240     6.9680    24.3000     2.4650   -18.7920 
  211.0000    88.4400     7.1980     6.7140     7.5860    24.3510     2.4530   -19.2950 
  211.1250    90.4320     7.1890     6.6910     7.7770    24.4290     2.4010   -19.4480 
  211.2500    92.0270     7.0460     6.5000     7.2590    24.7050     2.3430   -19.2380 
  211.3750    89.9450     6.8440     6.2210     6.4510    25.1520     2.3070   -18.6200 
  211.5000    85.8380     6.6630     5.9470     5.9390    25.6620     2.3080   -17.6370 
  211.6250    81.9150     6.5640     5.7520     5.8800    25.7540     2.3350   -16.4090 
  211.7500    77.7310     6.5430     5.6370     6.0300    25.5750     2.3610   -15.0920 
  211.8750    75.4410     6.5950     5.6050     6.1780    25.2090     2.3730   -13.6940 
  212.0000    76.9680     6.7300     5.6600     6.2790    25.1600     2.3740   -12.2600 
  212.1250    80.9890     6.9930     5.8360     6.3020    25.4140     2.3750   -10.8650 
  212.2500    85.3000     7.3820     6.1280     6.7820    25.1380     2.3830    -9.6280 
  212.3750    88.0890     7.8830     6.5310     8.0620    24.8870     2.3950    -8.6700 
