~V
VERS. 2.00: Ver 2.00
~W
STRT.M 50.0000:
STOP.M 275.0000:
STEP.M 0.1250:
NULL. -999.2500:
UWI. F10202:
~C
DEPT.M :
GR.API :
RML.OHMM :
RI. :
RXO.OHMM :
CALI.CM :
SP.MV :
DEN.GM/CC :
~A
# ...
  128.7500    75.8820     8.7830     8.0930    10.2690    21.7210    -9.4020     2.2330 
  128.8750    74.2710     8.6650     8.0280     9.5550    21.4890    -8.1120     2.2620 
  129.0000    72.5620     8.4630     7.8840     7.9360    21.5320    -7.2630     2.2850 
  129.1250    73.8130     8.2060     7.6500     6.6890    21.7170    -6.4320     2.3000 
  129.2500    75.9660     7.9730     7.3860     7.9530    22.0440    -5.5150     2.3070 
  129.3750    77.0750     7.8450     7.1690     8.3970    22.5480    -4.4780     2.3050 
  129.5000    76.2710     7.8990     7.0880     7.8480    22.9290    -3.4850     2.2950 
  129.6250    73.9600     8.2000     7.2530     7.7650    23.0430    -2.9040     2.2790 
  129.7500    73.2870     8.6500     7.6170     8.2710    22.9780    -2.6890     2.2610 
  129.8750    73.5640     9.1180     8.0850     9.5520    22.8350    -2.6930     2.2500 
  130.0000    72.0860     9.4590     8.5110    11.2670    22.7390    -2.7220     2.2530 
  130.1250    72.1460     9.5440     8.7240    12.4400    22.7100    -2.6170     2.2740 
  130.2500    75.3070     9.4410     8.7290    11.0030    22.7090    -2.5090     2.3040 
  130.3750    78.5930     9.2620     8.6090     8.6760    22.7050    -2.5380     2.3300 
  130.5000    79.0290     9.1140     8.4720     7.8200    22.6810    -2.6430     2.3370 
  130.6250    78.9760     9.0520     8.3870     8.7050    22.6220    -2.7600     2.3080 
  130.7500    78.5330     9.0300     8.3310    10.0450    22.5580    -2.9140     2.2560 
  130.8750    80.7970     9.0060     8.2670    10.3350    22.5290    -2.9680     2.2040 
  131.0000    84.6570     8.9810     8.1940     9.3820    22.5980    -2.8560     2.1800 
  131.1250    82.5330     9.0280     8.1790     8.1400    22.7970    -2.7890     2.2050 
  131.2500    75.5260     9.2150     8.2930     7.5630    23.0880    -2.8110     2.2470 
  131.3750    69.8990     9.5780     8.5800     7.9680    23.4670    -2.7590     2.2660 
  131.5000    68.7480    10.0900     9.0330     9.8160    24.1530    -2.6310     2.2290 
  131.6250    68.2290    10.6740     9.6190    11.0610    25.3120    -2.4260     2.1260 
  131.7500    67.9890    11.2170    10.2550    11.2500    26.5960    -2.1910     2.0040 
  131.8750    67.8650    11.6660    10.8950    10.5750    27.5300    -2.1580     1.9080 
  132.0000    64.5840    12.0130    11.4990    10.6660    27.9920    -2.2460     1.8730 
  132.1250    63.0890    12.2600    11.9850    13.9950    28.1350    -2.1360     1.9170 
  132.2500    67.7390    12.4020    12.2770    16.6630    27.9710    -1.8040     2.0090 
  132.3750    73.3550    12.3880    12.2990    16.5380    27.2410    -1.2970     2.1140 
  132.5000    72.1510    12.1700    12.0290    14.4140    25.9380    -0.6230     2.2000 
  132.6250    66.4570    11.7500    11.5070    12.2970    24.4000     0.1570     2.2410 
  132.7500    65.2390    11.2730    10.9200    11.2620    24.0160     1.0100     2.2480 
  132.8750    68.8830    10.8560    10.3960    10.3680    24.3580     1.9590     2.2390 
  133.0000    72.8890    10.5680    10.0070     8.7940    24.7300     2.7280     2.2320 
  133.1250    75.5820    10.4440     9.7840     8.1510    24.6970     3.1100     2.2430 
  133.2500    76.0380    10.4610     9.6900     8.4640    24.4410     3.2960     2.2710 
  133.3750    74.2550    10.6470     9.7370     9.0050    24.1560     3.3450     2.3110 
  133.5000    73.8540    11.0680     9.9720     8.8000    23.9820     3.2900     2.3590 
  133.6250    75.8140    11.8590    10.5280     8.4660    23.9200     3.1920     2.4120 
  133.7500    74.5180    13.0080    11.4310     9.0180    23.9120     3.0730     2.4680 
  133.8750    68.0620    14.4710    12.6920    11.4680    23.9290     2.8400     2.5230 
  134.0000    60.8110    16.1210    14.2420    14.9140    23.9370     2.4410     2.5710 
  134.1250    58.6000    17.7320    15.9100    16.6780    23.8290     1.9810     2.5950 
  134.2500    59.4720    19.0830    17.4210    17.0040    23.5800     1.6480     2.5920 
  134.3750    60.2210    20.0460    18.5790    16.2020    23.3060     1.4850     2.5640 
  134.5000    58.3020    20.5940    19.2980    15.0830    22.9240     1.2510     2.5230 
  134.6250    54.7050    20.7600    19.5640    12.5930    22.2080     0.8320     2.4910 
  134.7500    56.7470    20.7460    19.5850    11.8130    21.6430     0.3970     2.4770 
  134.8750    63.9890    20.6740    19.4940    12.5480    21.6780     0.0530     2.4820 
  135.0000    68.5730    20.6230    19.3950    14.1170    22.2630    -0.1220     2.4960 
  135.1250    64.3550    20.6290    19.3560    15.2040    23.2090    -0.2470     2.5040 
  135.2500    59.0960    20.6490    19.3700    16.2080    23.9620    -0.4730     2.4990 
  135.3750    58.6210    20.6210    19.3930    17.9630    24.1600    -0.8130     2.4810 
  135.5000    59.7690    20.4750    19.3590    19.6540    24.0610    -1.1290     2.4560 
  135.6250    57.6760    20.1460    19.1770    19.6500    24.1090    -1.2730     2.4350 
  135.7500    54.6430    19.6920    18.8620    18.5000    24.1890    -1.3950     2.4270 
  135.8750    53.6920    19.2170    18.4800    18.3980    24.0460    -1.5720     2.4370 
  136.0000    56.0360    18.8730    18.1570    17.6100    23.7960    -1.8430     2.4640 
  136.1250    57.6850    18.8930    18.1080    15.7370    23.6280    -2.1700     2.5010 
  136.2500    56.9900    19.3220    18.4460    14.6790    23.5660    -2.5390     2.5270 
  136.3750    55.6820    20.0720    19.2010    14.9280    23.5920    -2.8630     2.5250 
  136.5000    55.3530    20.8520    20.2000    15.6590    23.7400    -3.1430     2.4810 
  136.6250    55.4350    21.0690    20.8910    16.5580    24.0960    -3.5370     2.3870 
  136.7500    52.9370    20.3760    20.7120    17.6490    24.7670    -3.9580     2.2690 
  136.8750    49.0310    18.7420    19.4400    19.7510    25.8300    -4.2740     2.1580 
  137.0000    47.7130    16.5170    17.3560    18.9630    27.0980    -4.4370     2.0880 
  137.1250    52.7400    14.3880    15.1700    16.4550    27.9850    -4.5560     2.0960 
  137.2500    59.7250    12.9330    13.5580    11.9380    28.3270    -4.6230     2.1610 
  137.3750    63.6790    12.3850    12.8020     9.6360    28.3230    -4.7090     2.2430 
  137.5000    64.0390    12.6710    12.9380    10.4110    28.2580    -4.8160     2.2950 
  137.6250    61.9900    13.4460    13.8220    14.1880    28.3300    -4.8520     2.2790 
  137.7500    59.3210    14.0440    14.7750    16.2690    28.5380    -4.7580     2.2180 
  137.8750    57.1280    13.9950    15.1430    16.0880    28.8400    -4.4340     2.1480 
  138.0000    57.4450    13.0980    14.4770    17.8410    29.0730    -4.0530     2.0920 
  138.1250    61.2290    11.4790    12.7540    16.3570    28.8960    -3.5930     2.0580 
  138.2500    66.8390     9.7750    10.7670    12.1570    28.5010    -3.0240     2.0350 
  138.3750    72.9910     8.4540     9.1040     8.0180    27.8920    -2.3680     2.0190 
  138.5000    78.5830     7.8220     8.1070     6.3440    27.0770    -1.5380     2.0180 
  138.6250    82.6730     8.1620     8.0160     6.2080    26.3490    -0.7200     2.0450 
  138.7500    83.9830     9.3150     8.6830     7.0260    25.7810    -0.1010     2.0890 
  138.8750    79.3650    11.1150    10.0280     9.0470    25.4840     0.2760     2.1340 
  139.0000    68.8340    13.2730    11.8660    13.4160    25.5050     0.6160     2.1660 
  139.1250    60.0300    15.4120    13.8670    16.4860    25.7400     0.9860     2.1810 
  139.2500    58.3130    17.2510    15.6320    16.2560    25.9170     1.2240     2.1960 
  139.3750    60.0720    18.6700    16.9670    15.4360    25.9230     1.3150     2.2280 
  139.5000    59.1140    19.6580    17.8580    16.6220    25.9250     1.2330     2.2810 
  139.6250    54.7780    20.2300    18.3650    18.8130    25.9710     1.1870     2.3380 
  139.7500    52.2800    20.5330    18.6420    20.5010    25.7210     1.2600     2.3600 
  139.8750    53.4560    20.6160    18.7180    20.3710    25.4770     1.2790     2.3230 
