~V
VERS. 2.00: Ver 2.00
~W
STRT.M 60.0000:
STOP.M 271.0000:
STEP.M 0.1250:
NULL. -999.2500:
UWI. F10205:
~C
DEPT.M :
DEN.GM/CC :
GR.API :
RML.OHMM :
RI. :
RXO.OHMM :
CALI.CM :
SP.MV :
~A
# ...
  206.2500     2.5460    97.7580    12.2580    10.1480    12.9430    25.2240   -17.4870 
  206.3750     2.5630    97.4280    13.1100    11.1740    14.9570    25.1950   -17.4740 
  206.5000     2.5740   101.8390    13.1930    11.6460    17.0090    25.1440   -17.6640 
  206.6250     2.5720   106.5980    12.2600    11.1650    14.6900    25.0770   -18.0260 
  206.7500     2.5550   110.1950    10.7580    10.0150    12.2660    25.0470   -18.4000 
  206.8750     2.5250   109.1140     9.1140     8.5700     9.3950    25.1290   -18.6730 
  207.0000     2.4890    99.9700     7.6760     7.1860     6.9970    25.1780   -18.8240 
  207.1250     2.4620    85.0500     6.6800     6.1350     5.5360    24.9930   -18.8740 
  207.2500     2.4530    73.9740     6.0590     5.4190     4.9160    24.7620   -18.8730 
  207.3750     2.4540    71.9650     5.7320     4.9990     4.7350    24.6630   -18.8530 
  207.5000     2.4470    74.1480     5.6010     4.8050     4.5800    24.6590   -18.8300 
  207.6250     2.4100    74.9260     5.5920     4.7760     4.4610    24.5530   -18.8160 
  207.7500     2.3480    76.7140     5.6250     4.8230     4.2800    24.4570   -18.9000 
  207.8750     2.2870    80.1670     5.6750     4.9050     4.1440    24.4730   -19.0670 
  208.0000     2.2550    83.2310     5.7330     5.0010     4.2180    24.5960   -19.2630 
  208.1250     2.2750    85.0690     5.7890     5.0940     4.4470    24.6530   -19.4340 
  208.2500     2.3240    89.5470     5.8250     5.1670     4.6420    24.6030   -19.5040 
  208.3750     2.3780    96.0840     5.8180     5.1980     4.8390    24.6400   -19.3870 
  208.5000     2.4140    98.7620     5.7580     5.1680     4.8700    24.6580   -19.0310 
  208.6250     2.4230    96.4430     5.6550     5.0680     4.8600    24.7640   -18.2810 
  208.7500     2.4180    95.5550     5.5630     4.9400     4.6910    24.8020   -17.0910 
  208.8750     2.4090    97.3050     5.5290     4.8270     4.5360    24.8550   -15.5620 
  209.0000     2.4020    98.4950     5.5900     4.7730     4.4080    24.9320   -13.8430 
  209.1250     2.4010    96.5930     5.7700     4.8170     4.5160    25.0290   -12.0640 
  209.2500     2.4060    94.9650     6.0290     4.9420     5.0030    25.1660   -10.3490 
  209.3750     2.4140    95.2810     6.3310     5.1300     5.7020    25.2740    -8.7850 
  209.5000     2.4220    97.1200     6.6510     5.3610     6.2890    25.3070    -7.4230 
  209.6250     2.4250    98.8240     6.9880     5.6270     6.6800    25.2660    -6.4110 
  209.7500     2.4200    98.6480     7.3580     5.9250     7.0360    25.2010    -5.7560 
  209.8750     2.4060    96.7470     7.7780     6.2640     7.3760    25.0990    -5.3810 
  210.0000     2.3850    93.7060     8.2520     6.6530     8.3320    25.0580    -5.1640 
  210.1250     2.3630    89.1450     8.7810     7.1080     9.5910    25.1570    -5.0420 
  210.2500     2.3440    88.0660     9.3720     7.6290     9.9900    25.2510    -4.9660 
  210.3750     2.3270    92.0700    10.0780     8.2410    10.3400    25.3000    -4.9450 
  210.5000     2.3130    97.0560    10.9730     8.9900    10.4690    25.3240    -4.9930 
  210.6250     2.3020    97.4000    12.1320     9.9660    11.5370    25.3460    -5.0990 
  210.7500     2.3010    94.0230    13.4110    11.1210    13.6530    25.3350    -5.2800 
  210.8750     2.3130    88.2400    14.5510    12.3050    16.1540    25.3060    -5.5260 
  211.0000     2.3380    82.1210    15.2020    13.2230    17.2710    25.2630    -5.8360 
  211.1250     2.3680    82.0930    14.9380    13.4190    19.1260    25.1660    -6.1870 
  211.2500     2.3900    85.8630    13.9200    12.8810    18.2940    25.0710    -6.5250 
  211.3750     2.4020    87.1270    12.4800    11.8160    14.9500    25.0540    -6.8140 
  211.5000     2.4030    87.4390    11.0520    10.5950    12.0750    25.1100    -7.0140 
  211.6250     2.3990    94.5820    10.0540     9.6250     9.8720    25.1470    -7.1590 
  211.7500     2.3920   103.2200     9.5350     9.0460     9.1660    25.1670    -7.2270 
  211.8750     2.3840   105.2720     9.4090     8.8520     9.3400    25.2000    -7.2230 
  212.0000     2.3760   100.2120     9.5110     8.9430    10.2260    25.2560    -7.1420 
  212.1250     2.3710    94.6720     9.6580     9.1680    10.6220    25.2650    -7.0170 
  212.2500     2.3690    93.8570     9.7240     9.3550    10.5870    25.2470    -6.8790 
  212.3750     2.3700    97.2650     9.6870     9.4360    10.4360    25.2000    -6.7420 
  212.5000     2.3720   100.9670     9.5750     9.4070    10.1090    25.0660    -6.6410 
  212.6250     2.3710   100.5390     9.4010     9.2740     9.2680    24.8510    -6.6000 
  212.7500     2.3660    97.0140     9.1600     9.0510     9.1710    24.8360    -6.6630 
  212.8750     2.3600    95.2600     8.8360     8.7210     9.6630    25.0930    -6.8080 
  213.0000     2.3590    97.0390     8.4700     8.3010    10.9420    25.2890    -7.0320 
  213.1250     2.3690    99.2970     8.2720     7.9210     9.8970    25.2800    -7.3260 
  213.2500     2.3890   101.1180     8.5300     7.8010     7.9950    25.2000    -7.6880 
  213.3750     2.4100   103.8390     9.5870     8.2140     7.0820    25.1090    -8.1050 
  213.5000     2.4190   104.7610    11.7780     9.4940     8.2430    24.9620    -8.5760 
  213.6250     2.3990    98.4460    15.5800    12.2850    13.7380    24.8270    -9.0540 
  213.7500     2.3610    89.8720    20.6250    16.6130    25.5710    24.7600    -9.5190 
  213.8750     2.3230    83.5950    26.2330    22.1250    36.3780    24.8290    -9.9940 
  214.0000     2.3020    79.2720    31.3120    27.8000    49.6110    24.9590   -10.4620 
  214.1250     2.3070    76.5630    34.6540    32.1100    43.8150    25.0290   -10.8770 
  214.2500     2.3210    77.6910    36.6720    34.8650    33.5620    24.9480   -11.2190 
  214.3750     2.3260    82.2800    38.4460    36.8840    30.1850    24.9070   -11.5060 
  214.5000     2.3140    86.4070    41.1420    39.3780    34.8740    25.0940   -11.7320 
  214.6250     2.2870    84.3550    45.4940    43.3300    45.0570    25.2980   -11.9390 
  214.7500     2.2630    78.1420    50.6830    48.2400    59.5280    25.4120   -12.0700 
  214.8750     2.2510    73.4360    55.5750    53.1430    75.3400    25.4680   -12.1420 
  215.0000     2.2530    72.4920    59.0660    56.9700    79.9860    25.4420   -12.1960 
  215.1250     2.2610    72.3110    60.3250    58.8020    70.4620    25.3830   -12.2690 
  215.2500     2.2660    71.3560    60.0710    59.1270    57.9160    25.3400   -12.3390 
  215.3750     2.2660    72.3730    59.0250    58.5600    52.3870    25.3360   -12.4050 
  215.5000     2.2630    76.7180    57.7960    57.6960    55.5980    25.2620   -12.4520 
  215.6250     2.2630    81.9110    56.8300    57.0050    60.6430    25.0680   -12.4290 
  215.7500     2.2660    85.0330    56.3810    56.7690    59.7170    24.9670   -12.4120 
  215.8750     2.2690    82.2930    56.7020    57.2300    58.3390    25.0420   -12.4140 
  216.0000     2.2720    75.5510    57.8600    58.5840    60.2440    25.3330   -12.3970 
  216.1250     2.2710    72.0430    60.2850    61.0700    63.5250    25.6000   -12.3280 
  216.2500     2.2640    73.7610    64.4000    64.4070    70.8030    25.6620   -12.2570 
  216.3750     2.2470    76.3800    69.8680    68.3310    73.6210    25.5770   -12.2030 
  216.5000     2.2210    76.8060    75.3270    72.4990    69.3230    25.4460   -12.1650 
  216.6250     2.1960    76.4120    79.2740    76.4150    65.6690    25.4670   -12.1850 
  216.7500     2.1800    75.3400    81.7500    79.5460    71.3000    25.4830   -12.2260 
  216.8750     2.1750    72.9040    82.7480    81.2920    81.7340    25.4730   -12.2580 
  217.0000     2.1790    70.3080    81.8210    81.1600    91.6870    25.6300   -12.3180 
  217.1250     2.1950    69.4570    78.8800    78.8680    92.2680    25.8870   -12.4460 
  217.2500     2.2230    70.5110    75.3360    75.5860    82.4720    26.0040   -12.6530 
  217.3750     2.2640    72.0770    72.5800    72.5970    68.2910    25.8550   -12.8970 
