~V
VERS. 2.00: Ver 2.00
~W
STRT.M 50.0000:
STOP.M 270.0000:
STEP.M 0.1250:
NULL. -999.2500:
UWI. F10223:
~C
DEPT.M :
GR.API :
RML.OHMM :
RI. :
RXO.OHMM :
CALI.CM :
DEN.GM/CC :
SP.MV :
~A
# ...
  207.5000    61.6790     6.5290     5.3990     5.9690    24.2950     2.3900   -17.9690 
  207.6250    66.2510     6.7920     5.6370     6.1410    24.2150     2.4050   -17.8760 
  207.7500    75.2860     6.8630     5.7600     6.1190    24.2120     2.4130   -17.8310 
  207.8750    85.1300     6.7830     5.7670     5.9830    24.2660     2.4140   -17.8180 
  208.0000    92.1830     6.6500     5.7070     5.8600    24.3560     2.4160   -17.8260 
  208.1250    95.1650     6.5550     5.6390     5.6970    24.4330     2.4200   -17.8390 
  208.2500    96.4790     6.5200     5.5900     5.7470    24.5030     2.4270   -17.8680 
  208.3750    94.3740     6.5260     5.5530     5.9780    24.5270     2.4350   -17.9190 
  208.5000    85.6480     6.5340     5.5120     6.1380    24.4940     2.4390   -17.9700 
  208.6250    74.9440     6.5110     5.4470     6.1010    24.5000     2.4330   -18.0140 
  208.7500    70.0980     6.4630     5.3580     5.9540    24.5050     2.4220   -18.0640 
  208.8750    71.7230     6.4180     5.2630     5.8030    24.5310     2.4140   -18.1220 
  209.0000    73.8650     6.4040     5.1910     5.8070    24.5300     2.4120   -18.2000 
  209.1250    73.5760     6.4510     5.1820     6.0680    24.5110     2.4140   -18.2740 
  209.2500    76.8510     6.5620     5.2430     6.3690    24.5000     2.4160   -18.3540 
  209.3750    84.3230     6.7500     5.3790     6.5610    24.5010     2.4170   -18.4300 
  209.5000    90.6490     7.0420     5.5990     6.8240    24.5030     2.4170   -18.4960 
  209.6250    90.6400     7.5050     5.9370     6.9190    24.5100     2.4140   -18.5520 
  209.7500    84.1300     8.1520     6.4050     7.3150    24.5410     2.4060   -18.6020 
  209.8750    76.9760     8.9690     7.0080     8.5410    24.5720     2.3960   -18.6380 
  210.0000    74.3680     9.8620     7.7000    10.4630    24.5330     2.3850   -18.6460 
  210.1250    75.1040    10.5890     8.3260    11.6590    24.2720     2.3770   -18.6500 
  210.2500    74.8450    10.9020     8.6890    12.5400    24.1070     2.3730   -18.6480 
  210.3750    74.9990    10.6450     8.6400    12.3440    24.1700     2.3740   -18.6230 
  210.5000    79.4280     9.8680     8.1810    11.0980    24.3920     2.3790   -18.5950 
  210.6250    83.3620     8.8230     7.4750     9.9240    24.5350     2.3890   -18.5680 
  210.7500    83.4570     7.8810     6.7910     8.4440    24.5920     2.3990   -18.5350 
  210.8750    83.3400     7.2180     6.2600     7.2570    24.5650     2.4080   -18.4840 
  211.0000    84.0350     6.8730     5.9310     6.9550    24.5160     2.4140   -18.4330 
  211.1250    83.5610     6.8870     5.8090     7.2820    24.5280     2.4180   -18.3790 
  211.2500    83.1610     7.2180     5.8000     7.3270    24.5610     2.4180   -18.3070 
  211.3750    83.7410     7.7610     5.8380     7.0930    24.4940     2.4140   -18.2480 
  211.5000    84.3430     8.2460     5.8740     6.8600    24.4080     2.4070   -18.2050 
  211.6250    85.5090     8.2140     5.8770     6.7570    24.3720     2.4010   -18.1680 
  211.7500    87.6230     7.7030     5.8650     6.6330    24.3900     2.3980   -18.1210 
  211.8750    89.0520     7.0780     5.8740     6.5400    24.4320     2.3980   -18.0980 
  212.0000    86.6360     6.6770     5.9390     6.6220    24.4550     2.4010   -18.1050 
  212.1250    81.6920     6.6700     6.0940     6.8130    24.4960     2.4070   -18.1360 
  212.2500    78.8340     6.8930     6.3150     6.9360    24.4720     2.4150   -18.1950 
  212.3750    79.0660     7.1710     6.5660     7.3190    24.4610     2.4250   -18.2670 
  212.5000    80.6760     7.4050     6.7900     7.9110    24.4570     2.4360   -18.3340 
  212.6250    81.5300     7.5140     6.8980     8.1600    24.5620     2.4490   -18.4040 
  212.7500    81.7360     7.4910     6.8700     7.9570    24.6880     2.4580   -18.5010 
  212.8750    82.7390     7.3510     6.7190     7.6550    24.8000     2.4590   -18.6160 
  213.0000    84.3090     7.1290     6.4810     7.5200    24.6110     2.4540   -18.7280 
  213.1250    85.3020     6.8780     6.2150     7.5790    24.4360     2.4500   -18.8390 
  213.2500    84.1870     6.6990     6.0040     7.5510    24.3770     2.4450   -18.9470 
  213.3750    83.1640     6.7360     5.9450     7.4910    24.4920     2.4390   -19.0500 
  213.5000    81.6040     7.2020     6.1630     7.7470    24.7220     2.4320   -19.1590 
  213.6250    76.4050     8.5830     6.9430     8.9800    25.0440     2.4270   -19.3050 
  213.7500    69.0810    11.2010     8.5050    11.6800    25.0860     2.4280   -19.4660 
  213.8750    63.4780    15.4730    11.2300    17.3940    24.7730     2.4330   -19.6130 
  214.0000    60.4040    21.7400    15.6120    28.4630    24.4290     2.4410   -19.7480 
  214.1250    58.5280    30.3010    22.4660    44.9480    24.2760     2.4440   -19.8830 
  214.2500    58.9540    39.8520    31.0900    58.4320    24.2220     2.4280   -20.0310 
  214.3750    60.1510    48.5340    39.8430    62.8480    24.2170     2.3870   -20.2010 
  214.5000    60.0760    54.5090    46.5360    62.7160    24.3380     2.3300   -20.3870 
  214.6250    61.4250    57.0590    49.8090    62.7090    24.4750     2.2860   -20.5380 
  214.7500    62.5340    58.0470    51.1560    61.0280    24.5490     2.2640   -20.6750 
  214.8750    60.8560    58.5940    51.6860    59.5950    24.5930     2.2580   -20.8350 
  215.0000    57.9420    59.1140    51.9870    62.0600    24.6690     2.2590   -21.0310 
  215.1250    57.6150    59.3790    52.0940    72.7680    24.7660     2.2610   -21.2380 
  215.2500    57.3690    59.1240    51.8800    76.0030    24.7780     2.2590   -21.4290 
  215.3750    55.6190    58.3700    51.3420    67.2270    24.7330     2.2520   -21.6160 
  215.5000    55.1540    57.4690    50.7150    56.9190    24.7340     2.2460   -21.8030 
  215.6250    57.3140    57.1560    50.5580    54.4380    24.7600     2.2440   -22.0090 
  215.7500    59.4080    58.0160    51.3630    56.0110    24.7960     2.2450   -22.2320 
  215.8750    62.4020    60.4460    53.5230    57.9860    24.8110     2.2460   -22.4560 
  216.0000    67.0840    64.4960    57.1860    60.1440    24.8050     2.2500   -22.6490 
  216.1250    70.4360    69.8350    62.2120    65.9930    24.8040     2.2530   -22.8330 
  216.2500    68.9790    75.2170    67.5380    76.6180    24.8270     2.2510   -23.0420 
  216.3750    63.7600    79.5330    72.1750    87.7150    24.8490     2.2440   -23.2500 
  216.5000    59.2960    82.0300    75.3650    91.5090    24.8610     2.2370   -23.4460 
  216.6250    57.8420    82.5980    76.8200    87.1860    24.8300     2.2300   -23.6410 
  216.7500    57.9990    82.6400    77.6230    82.0170    24.7280     2.2230   -23.8290 
  216.8750    56.9000    83.3490    78.8600    79.4260    24.6060     2.2190   -24.0000 
  217.0000    53.8040    85.4130    81.3360    89.1060    24.5540     2.2170   -24.1700 
  217.1250    52.0070    88.6030    85.1380   105.2050    24.5310     2.2150   -24.3390 
  217.2500    52.3160    91.2050    88.7840   116.8010    24.5080     2.2120   -24.4860 
  217.3750    54.7670    91.4570    90.5510   118.0630    24.5130     2.2110   -24.6150 
  217.5000    58.4620    88.2200    89.0570   117.6430    24.5660     2.2120   -24.7470 
  217.6250    59.5530    81.4230    83.6800   103.7260    24.6760     2.2150   -24.8700 
  217.7500    57.3980    73.3860    76.4520    84.0230    24.7600     2.2220   -24.9810 
  217.8750    55.3720    65.7580    69.0610    70.4060    24.8170     2.2300   -25.1100 
  218.0000    57.6090    59.5890    62.7390    64.8200    24.8590     2.2380   -25.2630 
  218.1250    60.9050    55.6410    58.4020    60.4500    24.8830     2.2420   -25.4210 
  218.2500    60.4360    53.5530    55.8660    54.7830    24.8910     2.2440   -25.5830 
  218.3750    59.1970    53.0740    54.9730    51.3140    24.8930     2.2440   -25.7340 
  218.5000    61.8310    53.9290    55.4920    54.5930    24.8740     2.2430   -25.8830 
  218.6250    65.3390    56.1500    57.4470    60.9980    24.7780     2.2410   -26.0230 
