~V
VERS. 2.00: Ver 2.00
~W
STRT.M 50.0000:
STOP.M 271.0000:
STEP.M 0.1250:
NULL. -999.2500:
UWI. F10251:
~C
DEPT.M :
DEN.GM/CC :
GR.API :
RML.OHMM :
RI. :
RXO.OHMM :
CALI.CM :
SP.MV :
~A
# ...
  207.5000     2.3300    79.4790     5.7970     4.9710     5.1870    23.8390     4.7720 
  207.6250     2.3180    80.7220     5.8360     5.1000     5.1990    23.9440     4.9660 
  207.7500     2.3350    79.6070     5.8140     5.1740     5.2770    23.8320     5.0080 
  207.8750     2.3670    78.3950     5.7490     5.2010     5.5300    23.5700     4.9760 
  208.0000     2.3930    79.2820     5.6630     5.1960     5.8850    23.4320     4.8650 
  208.1250     2.3990    83.0060     5.6020     5.1800     6.0720    23.5290     4.5390 
  208.2500     2.4010    87.7050     5.6160     5.1860     6.1650    23.6410     4.0690 
  208.3750     2.4020    90.6320     5.7410     5.2390     6.3130    23.6870     3.5630 
  208.5000     2.4020    88.8380     5.9880     5.3530     6.4560    23.6200     2.9620 
  208.6250     2.4010    85.0820     6.3570     5.5440     6.6490    23.4580     2.2560 
  208.7500     2.4000    84.0160     6.7980     5.7930     7.0510    23.1870     1.6630 
  208.8750     2.3920    85.4700     7.2830     6.0870     7.4630    22.9140     1.1380 
  209.0000     2.3810    86.5870     7.7950     6.4230     8.0170    22.7090     0.5710 
  209.1250     2.3770    85.7910     8.3440     6.8150     8.8290    22.4830     0.0630 
  209.2500     2.3810    83.7080     8.9420     7.2670     9.3610    22.3360    -0.2740 
  209.3750     2.3820    80.5640     9.6070     7.7830     9.5100    22.4270    -0.5510 
  209.5000     2.3720    79.0830    10.3310     8.3520     9.8550    22.5730    -0.8070 
  209.6250     2.3570    82.0670    11.0830     8.9490    10.6720    22.6630    -0.9220 
  209.7500     2.3460    86.2820    11.8480     9.5560    11.5940    22.7210    -1.0080 
  209.8750     2.3370    88.3310    12.6800    10.2010    12.5220    22.7350    -1.1520 
  210.0000     2.3320    86.3380    13.6970    10.9610    13.5200    22.6760    -1.2810 
  210.1250     2.3330    81.4470    15.1310    12.0010    14.4540    22.5760    -1.3160 
  210.2500     2.3370    76.4130    17.0480    13.4040    15.8540    22.5050    -1.4150 
  210.3750     2.3380    74.5530    19.4080    15.2110    19.1640    22.4820    -1.5690 
  210.5000     2.3330    76.8940    21.9760    17.3310    22.8180    22.3700    -1.6100 
  210.6250     2.3260    77.6000    24.2830    19.4940    25.2380    22.0790    -1.6010 
  210.7500     2.3250    75.2030    26.0880    21.4040    26.7730    21.7480    -1.6670 
  210.8750     2.3280    74.7890    27.5690    23.0470    27.6560    21.5250    -1.6770 
  211.0000     2.3320    77.7910    29.2740    24.7070    28.4200    21.2630    -1.5650 
  211.1250     2.3320    79.6830    32.1280    27.0230    29.1370    21.0230    -1.4470 
  211.2500     2.3290    76.8470    36.3890    30.3660    32.1170    21.1080    -1.3450 
  211.3750     2.3220    71.7580    41.6010    34.6260    41.7140    21.4710    -1.1870 
  211.5000     2.3090    67.5450    46.1970    38.7810    57.1920    21.9620    -0.9840 
  211.6250     2.2900    65.2680    47.2890    40.5700    65.5330    22.3870    -0.7990 
  211.7500     2.2740    65.0520    44.7240    39.4240    62.2750    22.6440    -0.5470 
  211.8750     2.2680    66.8350    40.4430    36.4910    49.6810    22.7570    -0.2210 
  212.0000     2.2690    69.6280    37.1590    33.7590    31.1300    22.7860     0.0610 
  212.1250     2.2670    71.8420    37.4460    33.3930    20.9210    22.7800     0.3000 
  212.2500     2.2530    71.9540    41.3570    35.9700    23.9090    22.7450     0.6450 
  212.3750     2.2330    70.7170    48.1640    41.3500    42.8600    22.6810     1.0540 
  212.5000     2.2180    71.1220    55.9280    48.3030    74.0870    22.6350     1.3870 
  212.6250     2.2130    73.5760    60.8500    53.8350    88.3430    22.5890     1.7390 
  212.7500     2.2150    75.7150    61.1420    55.6780    94.3500    22.4950     2.0750 
  212.8750     2.2220    74.3280    58.1350    54.1200    83.4630    22.4830     2.2780 
  213.0000     2.2300    69.8290    54.8860    51.4130    58.2680    22.5340     2.4020 
  213.1250     2.2310    66.6480    53.9720    50.0740    44.0850    22.6170     2.5090 
  213.2500     2.2200    66.6410    55.0310    50.4750    49.8660    22.6840     2.5490 
  213.3750     2.2020    68.3630    56.8500    51.8570    66.4060    22.7070     2.4980 
  213.5000     2.1890    68.3920    58.0920    53.1100    77.2530    22.6140     2.3970 
  213.6250     2.1880    67.4030    57.8880    53.2890    78.2300    22.4460     2.2630 
  213.7500     2.1980    65.2810    57.2170    52.8710    72.0740    22.2210     2.0500 
  213.8750     2.2110    62.0990    57.5920    52.9890    67.5250    22.0080     1.8050 
  214.0000     2.2160    59.7840    60.4220    54.9390    65.8970    21.8200     1.6120 
  214.1250     2.2030    61.0390    66.9630    60.1670   102.6080    21.7430     1.4460 
  214.2500     2.1820    62.2700    76.2400    68.2090   246.0970    21.8710     1.1730 
  214.3750     2.1640    61.4620    86.7890    78.0040   464.2700    22.2030     0.8540 
  214.5000     2.1550    61.4420    96.3930    87.6210   478.4080    22.5900     0.6300 
  214.6250     2.1530    63.6270   102.1140    94.2080   317.2640    22.9410     0.3610 
  214.7500     2.1540    64.0340   103.5240    96.7820   294.3720    23.2120     0.0760 
  214.8750     2.1570    62.2900   101.0430    95.4180   278.9550    23.2930    -0.1040 
  215.0000     2.1650    61.8660    95.5410    90.9390   294.3450    23.2990    -0.2530 
  215.1250     2.1760    63.9210    87.7750    82.5470   308.6680    23.2430    -0.4620 
  215.2500     2.1880    64.3700    79.5000    75.3950   299.7190    23.1750    -0.6610 
  215.3750     2.2000    63.8010    72.2440    68.9570   227.7760    23.1170    -0.7690 
  215.5000     2.2130    65.1810    67.3220    64.4190   160.0200    23.0930    -0.8500 
  215.6250     2.2220    69.6940    66.1010    63.1210   124.0300    23.1010    -0.9610 
  215.7500     2.2230    71.7660    68.2500    64.9500    94.3610    23.1800    -1.0170 
  215.8750     2.2190    69.7340    73.4700    69.8400    91.9130    23.3940    -1.0410 
  216.0000     2.2180    66.5900    81.0710    77.3510    99.7940    23.7080    -1.0860 
  216.1250     2.2280    64.9150   103.8570    86.6260   111.2270    23.9650    -1.1820 
  216.2500     2.2470    65.2460   113.2840    95.7110   105.9740    24.0480    -1.2020 
  216.3750     2.2740    66.5530   119.8670   102.8070   101.1900    24.0070    -1.1800 
  216.5000     2.2980    66.2120   121.6380   106.1330   112.9260    23.9260    -1.2500 
  216.6250     2.3000    64.1470   116.4170   103.5920   135.6180    23.8820    -1.2970 
  216.7500     2.2750    64.6200   106.0860    96.3750   141.2600    23.8880    -1.3010 
  216.8750     2.2340    68.8990    93.2180    86.3240   123.7460    23.8680    -1.3510 
  217.0000     2.1930    72.2430    80.7340    75.8200    90.7430    23.8360    -1.4560 
  217.1250     2.1630    70.4390    71.2000    67.2260    65.4150    23.8520    -1.5440 
  217.2500     2.1430    68.9330    64.7730    61.1560    54.4070    23.7930    -1.5950 
  217.3750     2.1380    69.5120    61.1510    57.5690    53.2740    23.6670    -1.6790 
  217.5000     2.1470    69.0000    59.8680    56.1640    57.8460    23.5910    -1.7780 
  217.6250     2.1640    67.6850    60.7460    56.8950    62.0990    23.5610    -1.8050 
  217.7500     2.1840    68.0390    63.0420    59.1070    65.8850    23.5110    -1.8500 
  217.8750     2.2030    68.3800    66.3320    62.4000    71.5550    23.3670    -1.9550 
  218.0000     2.2200    65.3580    70.0550    66.2800    87.2220    23.1340    -2.0450 
  218.1250     2.2280    61.2220    73.3440    70.0150   110.2610    22.8620    -2.0430 
  218.2500     2.2270    61.2140    75.5200    72.8310   109.5340    22.7010    -2.0840 
  218.3750     2.2220    63.7000    76.3220    74.2440    89.6760    22.8020    -2.1930 
  218.5000     2.2230    65.4920    75.9460    74.2310    75.4090    23.1250    -2.2320 
  218.6250     2.2330    66.1220    74.8560    73.1600    74.4290    23.4900    -2.3020 
