~V
VERS. 2.00: Ver 2.00
~W
STRT.M 57.0000:
STOP.M 281.0000:
STEP.M 0.1250:
NULL. -999.2500:
UWI. F10238:
~C
DEPT.M :
GR.API :
RML.OHMM :
RI. :
RXO.OHMM :
CALI.CM :
DEN.GM/CC :
SP.MV :
~A
# ...
  180.7500    59.7950    60.3500    56.4290    40.7570    24.0770     2.2750   -28.0520 
  180.8750    60.1790    58.8580    54.9390    34.8960    23.8100     2.2870   -28.0580 
  181.0000    63.5280    58.3330    54.2240    31.6010    23.5630     2.2890   -28.0960 
  181.1250    66.9430    59.1780    54.6900    32.0170    23.3640     2.2790   -28.1660 
  181.2500    65.8770    61.7110    56.7050    35.3280    23.2720     2.2630   -28.2700 
  181.3750    60.7130    65.8690    60.3310    39.3800    23.2930     2.2480   -28.3860 
  181.5000    56.7740    71.0030    65.0620    42.8200    23.4120     2.2380   -28.5130 
  181.6250    55.9120    76.3410    70.2250    48.8940    23.6750     2.2300   -28.6490 
  181.7500    56.0290    80.8570    74.8330    60.5460    24.0820     2.2240   -28.7890 
  181.8750    56.0580    83.7180    77.9800    73.3060    24.4860     2.2230   -28.9280 
  182.0000    56.6520    84.8030    79.4040    77.0000    24.7260     2.2270   -29.0520 
  182.1250    56.9240    84.2220    79.1480    72.3400    24.7910     2.2340   -29.1650 
  182.2500    56.2370    81.8950    77.1280    65.8520    24.7890     2.2400   -29.2630 
  182.3750    55.7970    77.8090    73.3180    62.1270    24.7800     2.2420   -29.3590 
  182.5000    55.5670    72.6700    68.3560    64.8420    24.7780     2.2440   -29.4340 
  182.6250    54.6700    67.6450    63.2770    71.1290    24.7770     2.2510   -29.4950 
  182.7500    54.4270    64.6660    59.7220    66.9520    24.7710     2.2610   -29.5470 
  182.8750    56.0510    65.8700    59.4860    51.9510    24.7510     2.2630   -29.6160 
  183.0000    58.3140    72.5930    63.8340    46.0800    24.7200     2.2490   -29.7030 
  183.1250    58.9970    85.6610    73.7280    56.7140    24.6960     2.2210   -29.8040 
  183.2500    58.3710   104.9160    89.4240    84.4600    24.7110     2.1920   -29.9140 
  183.3750    57.5830   127.5070   108.7980   120.0440    24.7490     2.1780   -30.0250 
  183.5000    56.8570   147.5100   126.7350   134.5940    24.7670     2.1800   -30.1600 
  183.6250    56.4950   160.0930   138.7470   122.8400    24.7620     2.1910   -30.2960 
  183.7500    56.4470   164.5080   143.5190   107.1320    24.7460     2.2000   -30.4410 
  183.8750    56.6470   164.5770   143.9030   101.6010    24.7170     2.2000   -30.5820 
  184.0000    57.1120   164.2140   143.5690   107.8600    24.6550     2.1930   -30.7060 
  184.1250    57.9510   163.6780   143.2620   120.9710    24.5470     2.1850   -30.8060 
  184.2500    58.9200   161.8550   142.3120   130.3500    24.4040     2.1840   -30.8910 
  184.3750    59.3360   158.6880   140.4520   123.0530    24.2600     2.1940   -30.9640 
  184.5000    58.9700   156.2130   138.9690   103.8060    24.1280     2.2110   -31.0120 
  184.6250    57.6290   156.6420   139.6680    89.1160    24.0050     2.2270   -31.0560 
  184.7500    56.0400   160.3340   143.2660    89.1280    23.8990     2.2330   -31.0830 
  184.8750    55.2220   163.7250   147.3070   106.3130    23.7810     2.2240   -31.0710 
  185.0000    54.6050   160.3500   146.3860   129.7440    23.6270     2.2050   -31.0180 
  185.1250    53.8260   145.9630   136.1700   135.9690    23.5170     2.1880   -30.9270 
  185.2500    54.4140   122.7030   117.0630   114.2590    23.6230     2.1860   -30.7740 
  185.3750    57.3420    98.5740    95.2410    85.5630    24.0150     2.2000   -30.5770 
  185.5000    60.1180    80.4390    77.4620    64.1610    24.4760     2.2160   -30.3560 
  185.6250    61.0980    69.9970    66.1000    45.7250    24.7400     2.2210   -30.1130 
  185.7500    61.0140    66.8530    61.3480    37.9740    24.7940     2.2090   -29.8610 
  185.8750    60.4620    69.6220    62.2000    43.4060    24.7940     2.1900   -29.6010 
  186.0000    58.3270    76.2420    66.8770    54.0460    24.8210     2.1750   -29.3590 
  186.1250    54.6550    85.3890    74.2020    62.4900    24.8560     2.1690   -29.1260 
  186.2500    52.4440    95.6950    82.8620    63.8710    24.8500     2.1700   -28.9290 
  186.3750    53.9530   105.8830    91.5570    65.8360    24.8030     2.1740   -28.7500 
  186.5000    57.2540   115.0640    99.3960    81.1390    24.7770     2.1790   -28.5710 
  186.6250    59.5480   122.6790   105.9340    97.4700    24.7620     2.1830   -28.3940 
  186.7500    60.0640   127.9400   110.5510    99.0000    24.7500     2.1810   -28.2050 
  186.8750    59.8650   130.3110   112.6960    90.1930    24.7410     2.1720   -28.0190 
  187.0000    59.5620   130.3980   112.6860    86.0650    24.7220     2.1610   -27.8240 
  187.1250    59.8200   129.0010   111.1830    84.6140    24.6710     2.1550   -27.6300 
  187.2500    60.7810   125.9570   108.2840    81.2800    24.5470     2.1620   -27.4300 
  187.3750    60.9410   120.0430   103.1950    76.3940    24.3580     2.1790   -27.2270 
  187.5000    59.7280   110.6880    95.3910    76.6070    24.1950     2.1960   -27.0180 
  187.6250    58.8360    98.6740    85.3110    77.1560    24.1450     2.2080   -26.7980 
  187.7500    60.1780    85.9980    74.4340    63.9570    24.2040     2.2160   -26.5590 
  187.8750    62.2440    74.6770    64.4450    43.8520    24.2930     2.2260   -26.3160 
  188.0000    63.1220    65.7150    56.3300    36.0020    24.4160     2.2420   -26.0890 
  188.1250    63.7630    59.3480    50.3690    41.0840    24.5680     2.2630   -25.8780 
  188.2500    64.8220    55.6380    46.6280    47.2680    24.6850     2.2760   -25.6930 
  188.3750    65.3500    54.4400    44.9930    44.6290    24.7530     2.2700   -25.5240 
  188.5000    64.9340    55.1930    45.0270    39.0690    24.7860     2.2470   -25.3920 
  188.6250    64.7510    57.4900    46.4250    40.0010    24.8150     2.2130   -25.2850 
  188.7500    64.6010    60.9190    48.8920    46.7590    24.8040     2.1800   -25.2210 
  188.8750    63.2310    64.9670    52.0590    50.1650    24.6760     2.1620   -25.1760 
  189.0000    61.8770    69.0300    55.4370    48.1340    24.4270     2.1660   -25.1280 
  189.1250    62.2500    72.7580    58.6780    48.3610    24.1420     2.1860   -25.0850 
  189.2500    63.6900    76.1280    61.6420    51.5950    23.9570     2.2080   -25.0300 
  189.3750    64.7360    79.3280    64.4310    55.8270    23.9340     2.2170   -24.9650 
  189.5000    65.6960    82.2070    67.0400    59.5730    24.0480     2.2100   -24.8710 
  189.6250    67.7190    83.7580    68.8400    62.3860    24.2720     2.1950   -24.7610 
  189.7500    69.8770    81.9840    68.2830    64.8140    24.5200     2.1870   -24.6350 
  189.8750    69.5850    75.4710    63.9870    65.9680    24.7050     2.1990   -24.5030 
  190.0000    66.6400    65.3220    56.4390    63.7030    24.7970     2.2290   -24.3640 
  190.1250    64.6370    53.9740    47.4370    54.9450    24.8020     2.2660   -24.2090 
  190.2500    67.6120    44.2660    39.3620    40.6580    24.7410     2.2930   -24.0370 
  190.3750    73.1110    37.6720    33.6310    28.8560    24.6460     2.3020   -23.8610 
  190.5000    74.9960    33.6860    30.0390    23.5790    24.5570     2.2990   -23.7010 
  190.6250    72.6790    31.3220    27.8970    23.4860    24.5170     2.2950   -23.5520 
  190.7500    69.9310    29.4620    26.3580    28.0870    24.4750     2.2970   -23.4220 
  190.8750    69.6920    27.2600    24.6930    30.2810    24.3270     2.3020   -23.2970 
  191.0000    71.7050    24.5400    22.6310    23.7640    24.1160     2.3020   -23.1910 
  191.1250    74.2750    21.6810    20.3930    17.5400    24.0230     2.2950   -23.1080 
  191.2500    74.9590    19.2880    18.4430    16.9440    24.1650     2.2880   -23.0700 
  191.3750    73.5490    17.7700    17.1520    17.6310    24.4330     2.2860   -23.0650 
  191.5000    74.0810    17.1330    16.5960    16.2500    24.6100     2.2900   -23.0700 
  191.6250    77.5660    17.2470    16.7370    14.5750    24.6580     2.2970   -23.1020 
  191.7500    79.8230    17.8480    17.4020    14.6890    24.6520     2.3020   -23.1490 
  191.8750    78.4630    18.5420    18.2460    15.5130    24.6340     2.3030   -23.2260 
