~V
VERS. 2.00: Ver 2.00
~W
STRT.M 50.0000:
STOP.M 275.0000:
STEP.M 0.1250:
NULL. -999.2500:
UWI. F10202:
~C
DEPT.M :
GR.API :
RML.OHMM :
RI. :
RXO.OHMM :
CALI.CM :
SP.MV :
DEN.GM/CC :
~A
# ...
  106.2500    77.6190     7.2220     5.9930     6.5680    26.6850    -2.6520     2.2510 
  106.3750    85.7540     6.4930     5.3530     5.6370    26.8120    -1.0130     2.2860 
  106.5000    88.8640     6.1840     5.0620     5.4730    26.8510     0.5190     2.3070 
  106.6250    86.2960     6.3310     5.1150     5.6420    26.8500     1.6040     2.3140 
  106.7500    82.6560     6.8330     5.4570     6.0610    26.8170     2.1760     2.3220 
  106.8750    79.3920     7.5670     6.0460     6.7370    26.6640     2.1030     2.3320 
  107.0000    74.9990     8.3400     6.7700     8.1090    26.2600     1.5500     2.3360 
  107.1250    69.9150     8.9180     7.4380    10.2920    25.7570     0.7510     2.3210 
  107.2500    66.5600     9.2290     7.8930    11.0360    25.4310    -0.2080     2.2890 
  107.3750    65.9520     9.2970     8.0830    11.1260    25.3150    -1.2120     2.2490 
  107.5000    65.9070     9.2200     8.0690    10.8480    25.2960    -2.1670     2.2160 
  107.6250    65.1850     9.1420     7.9770    10.3820    25.2960    -3.1110     2.1980 
  107.7500    65.9740     9.1480     7.9330    10.5760    25.2960    -4.1290     2.1900 
  107.8750    68.5320     9.2260     7.9570    11.1530    25.2960    -5.0140     2.1880 
  108.0000    71.7100     9.3020     8.0030    11.5990    25.2970    -5.6460     2.1890 
  108.1250    72.3150     9.2780     7.9850    11.9630    25.3080    -6.1320     2.1960 
  108.2500    71.3060     9.1440     7.8810    11.8850    25.3310    -6.4790     2.2110 
  108.3750    70.1980     8.9550     7.7200    10.9910    25.3450    -6.7340     2.2310 
  108.5000    69.0620     8.8050     7.5710     9.7080    25.3330    -6.9400     2.2530 
  108.6250    70.1550     8.8190     7.5290     9.8770    25.3090    -7.0270     2.2690 
  108.7500    74.3930     9.0130     7.6210    10.2780    25.2930    -6.9000     2.2770 
  108.8750    78.5610     9.3480     7.8440    10.7130    25.2680    -6.7180     2.2770 
  109.0000    78.4650     9.7350     8.1500    11.1810    25.2260    -6.5920     2.2740 
  109.1250    75.1860    10.0470     8.4530    11.5960    25.1870    -6.4060     2.2740 
  109.2500    72.8070    10.2080     8.6550    11.9750    25.1720    -6.1830     2.2800 
  109.3750    71.2980    10.1930     8.7050    12.3030    25.1690    -5.8690     2.2900 
  109.5000    74.0200    10.0290     8.5990    12.1240    25.1690    -5.4750     2.3000 
  109.6250    79.9730     9.7920     8.3930    11.4960    25.1790    -5.0020     2.3000 
  109.7500    83.1120     9.6090     8.2130    10.7420    25.2440    -4.4830     2.2880 
  109.8750    81.1760     9.5590     8.1480    10.2130    25.3590    -3.8590     2.2690 
  110.0000    76.8200     9.6570     8.2420    10.1550    25.3710    -3.1980     2.2510 
  110.1250    73.1010     9.8090     8.4570    10.6870    25.2610    -2.5910     2.2440 
  110.2500    69.6570     9.8210     8.6150    11.4240    24.8730    -2.0050     2.2460 
  110.3750    70.0400     9.5410     8.5430    12.2870    24.5330    -1.4510     2.2540 
  110.5000    75.2860     8.9250     8.1410    12.5540    24.5330    -0.8790     2.2660 
  110.6250    80.5090     8.0620     7.4220     9.9390    24.5330    -0.2150     2.2790 
  110.7500    84.9190     7.2340     6.6250     6.7730    24.5330     0.5070     2.2910 
  110.8750    89.6620     6.6410     5.9270     5.5520    24.5330     1.2370     2.3020 
  111.0000    94.1860     6.3730     5.4360     5.4910    24.5330     1.9900     2.3080 
  111.1250    97.3000     6.3880     5.1960     5.5890    24.6770     2.7280     2.3110 
  111.2500    99.3640     6.4450     5.1000     5.5220    25.1020     3.4150     2.3140 
  111.3750   104.8720     6.3860     5.0640     5.4680    25.0870     4.0010     2.3220 
  111.5000   113.0590     6.1670     5.0240     5.3840    25.0620     4.4490     2.3340 
  111.6250   116.1870     5.8660     4.9580     5.1730    25.0490     4.7320     2.3470 
  111.7500   111.0400     5.6310     4.8990     4.9680    25.0180     4.8890     2.3530 
  111.8750   104.0480     5.5210     4.8810     4.7870    24.9410     4.9360     2.3510 
  112.0000   102.1140     5.5220     4.9180     4.8170    24.8510     4.9260     2.3380 
  112.1250   102.5090     5.5700     4.9920     5.1560    24.7920     5.0140     2.3220 
  112.2500   101.0010     5.5900     5.0460     5.4120    24.7660     5.2150     2.3110 
  112.3750   101.8430     5.5440     5.0370     5.3310    24.7410     5.4580     2.3100 
  112.5000   109.7170     5.4280     4.9510     5.0950    24.7070     5.7310     2.3170 
  112.6250   118.5210     5.2680     4.8030     4.8490    24.6590     6.0100     2.3300 
  112.7500   121.3780     5.1280     4.6590     4.6330    24.6090     6.3140     2.3430 
  112.8750   119.1280     5.0530     4.5670     4.4630    24.5850     6.6310     2.3510 
  113.0000   115.0840     5.0640     4.5570     4.5330    24.5820     6.8910     2.3520 
  113.1250   111.8770     5.1600     4.6340     4.7330    24.5800     6.9950     2.3450 
  113.2500   110.6800     5.2820     4.7450     4.9250    24.5830     6.9550     2.3330 
  113.3750   112.7650     5.3800     4.8390     4.9880    24.5770     6.8790     2.3200 
  113.5000   114.4820     5.4120     4.8690     4.9970    24.5370     6.7380     2.3120 
  113.6250   112.8900     5.3470     4.7940     5.0780    24.4330     6.4820     2.3160 
  113.7500   112.5150     5.2120     4.6410     4.9380    24.3340     6.1610     2.3280 
  113.8750   113.4990     5.0450     4.4450     4.8810    24.2770     5.8090     2.3430 
  114.0000   112.4610     4.9040     4.2560     5.0730    24.2560     5.4570     2.3570 
  114.1250   108.6260     4.8850     4.1440     5.1030    24.2290     5.0690     2.3650 
  114.2500   105.3260     5.0620     4.1640     5.0030    24.1790     4.6690     2.3640 
  114.3750   102.3430     5.5160     4.3790     5.1950    24.1390     4.2190     2.3490 
  114.5000    97.4440     6.3180     4.8590     6.2360    24.1260     3.6930     2.3170 
  114.6250    89.1040     7.5520     5.7370     7.6540    24.1940     3.1370     2.2780 
  114.7500    80.9590     9.0460     6.9740     9.3300    24.3730     2.6000     2.2510 
  114.8750    75.2860    10.5510     8.4420    12.1150    24.5940     2.0450     2.2530 
  115.0000    72.4230    11.7150     9.8370    16.7980    24.7180     1.3850     2.2820 
  115.1250    71.7830    12.0810    10.6150    23.5620    24.6990     0.6000     2.3160 
  115.2500    74.0140    11.6790    10.5960    23.5430    24.7080    -0.2140     2.3280 
  115.3750    77.3670    10.7280     9.8910    18.6860    24.8190    -0.8800     2.3090 
  115.5000    78.8490     9.5970     8.8560    12.3790    24.9810    -1.3490     2.2730 
  115.6250    78.2770     8.7020     7.9160     9.3730    25.0070    -1.7620     2.2440 
  115.7500    77.8810     8.1960     7.2840     8.7740    24.9950    -2.2030     2.2330 
  115.8750    77.4750     8.0670     6.9880     9.4560    25.0900    -2.6900     2.2330 
  116.0000    74.3670     8.2000     6.9590    11.1290    25.2700    -3.1620     2.2310 
  116.1250    70.5860     8.4450     7.0940    10.5260    25.3620    -3.5080     2.2170 
  116.2500    69.7070     8.6490     7.2450    10.1550    25.3680    -3.7930     2.1980 
  116.3750    70.5870     8.7530     7.3420     9.8580    25.3430    -4.1380     2.1830 
  116.5000    72.8310     8.7530     7.3650     9.6600    25.2730    -4.5100     2.1790 
  116.6250    74.4380     8.6820     7.3230     9.4390    25.1190    -4.7810     2.1880 
  116.7500    75.2740     8.6000     7.2600     9.2330    24.9220    -5.0050     2.2020 
  116.8750    74.3710     8.5380     7.2020     9.1760    24.8330    -5.1060     2.2090 
  117.0000    72.9220     8.5160     7.1700     9.3280    24.9030    -5.0410     2.2060 
  117.1250    73.8330     8.5490     7.1850     9.4330    25.1260    -4.9580     2.1910 
  117.2500    76.1240     8.6210     7.2440     9.4130    25.2510    -4.9040     2.1730 
  117.3750    76.6900     8.7060     7.3320     9.5810    25.2760    -4.8970     2.1620 
