~V
VERS. 2.00: Ver 2.00
~W
STRT.M 50.0000:
STOP.M 274.0000:
STEP.M 0.1250:
NULL. -999.2500:
UWI. F10206:
~C
DEPT.M :
SP.MV :
DEN.GM/CC :
GR.API :
RML.OHMM :
RI. :
RXO.OHMM :
CALI.CM :
~A
# ...
  117.5000   -15.3190     2.2090    73.4750     6.8240     5.5770     6.7230    24.5620 
  117.6250   -15.5290     2.1900    69.2460     6.7620     5.5540     6.6960    24.5170 
  117.7500   -15.6880     2.1900    67.6310     6.6140     5.4620     6.5680    24.6420 
  117.8750   -15.8240     2.2000    67.8080     6.4240     5.3240     6.2910    24.9560 
  118.0000   -15.9410     2.2080    69.2610     6.2400     5.1620     6.1110    25.3450 
  118.1250   -16.0720     2.2070    71.8430     6.1180     5.0020     6.1640    25.4400 
  118.2500   -16.2620     2.2000    72.1680     6.0790     4.8750     6.1690    25.4950 
  118.3750   -16.5190     2.1900    70.4020     6.1360     4.8240     6.1120    25.2700 
  118.5000   -16.8690     2.1830    69.1930     6.2820     4.8820     6.4120    24.7820 
  118.6250   -17.2890     2.1770    70.1640     6.4900     5.0340     6.6990    23.8570 
  118.7500   -17.7080     2.1740    70.7800     6.7030     5.1890     6.8030    23.6040 
  118.8750   -18.1230     2.1780    69.3020     6.8750     5.2890     6.7910    23.5570 
  119.0000   -18.4800     2.1910    67.3970     6.9720     5.3170     6.7260    23.5540 
  119.1250   -18.7140     2.2050    67.1710     6.9830     5.2940     6.6170    23.5540 
  119.2500   -18.8860     2.2110    68.2350     6.9440     5.2750     6.5160    23.5540 
  119.3750   -18.9720     2.2050    69.5200     6.8810     5.2750     6.5760    23.5540 
  119.5000   -18.9750     2.1890    68.5750     6.8110     5.2760     6.6790    23.5540 
  119.6250   -18.9730     2.1750    65.9050     6.7510     5.2600     6.7410    23.5540 
  119.7500   -18.9560     2.1690    63.0480     6.7150     5.2520     6.7990    23.5540 
  119.8750   -18.9260     2.1720    61.4280     6.7100     5.2680     6.8280    23.5540 
  120.0000   -18.9320     2.1790    62.2570     6.7280     5.2930     6.8310    23.5530 
  120.1250   -18.9720     2.1860    63.5280     6.7450     5.3030     6.8130    23.5350 
  120.2500   -18.9900     2.1930    64.6080     6.7450     5.2980     6.7870    23.4520 
  120.3750   -19.0400     2.2000    65.2990     6.7370     5.2970     6.7520    23.3250 
  120.5000   -19.1090     2.2060    65.6750     6.7300     5.3270     6.7490    23.2090 
  120.6250   -19.2130     2.2040    65.8080     6.7420     5.3990     6.9040    23.0470 
  120.7500   -19.3800     2.1860    66.4470     6.7780     5.4620     7.0030    23.0070 
  120.8750   -19.5710     2.1500    66.7440     6.8300     5.4800     7.0370    23.0170 
  121.0000   -19.7740     2.1060    64.6720     6.8850     5.4570     7.0330    23.1220 
  121.1250   -19.9910     2.0710    62.3410     6.9350     5.4410     7.1040    23.2080 
  121.2500   -20.1830     2.0570    61.9200     6.9810     5.4640     7.1840    23.2290 
  121.3750   -20.3620     2.0650    61.9590     7.0200     5.5200     7.2670    23.2710 
  121.5000   -20.5070     2.0870    60.5100     7.0510     5.5850     7.3410    23.3500 
  121.6250   -20.5720     2.1070    59.6630     7.0840     5.6230     7.4830    23.5220 
  121.7500   -20.5740     2.1200    60.3770     7.1190     5.6490     7.6610    23.5480 
  121.8750   -20.5070     2.1290    62.7080     7.1480     5.6990     7.7480    23.5520 
  122.0000   -20.3480     2.1430    65.6350     7.1620     5.7830     7.6870    23.5440 
  122.1250   -20.1170     2.1660    67.2300     7.1360     5.8510     7.6690    23.5390 
  122.2500   -19.8600     2.1920    67.4590     7.0580     5.8570     7.7340    23.5500 
  122.3750   -19.5420     2.2100    66.3100     6.9280     5.8050     7.6940    23.5930 
  122.5000   -19.2310     2.2130    65.8820     6.7760     5.7320     7.4980    23.6080 
  122.6250   -18.9410     2.1970    65.2160     6.6610     5.6930     7.4000    23.6190 
  122.7500   -18.6210     2.1690    64.3610     6.6220     5.7040     7.4160    23.6210 
  122.8750   -18.3230     2.1350    65.1140     6.6850     5.7430     7.4560    23.6300 
  123.0000   -18.0290     2.1010    67.1500     6.8590     5.7900     7.4430    23.6760 
  123.1250   -17.6720     2.0810    67.6280     7.1480     5.8740     7.5150    23.7670 
  123.2500   -17.2690     2.0870    65.6920     7.4600     6.0150     7.7400    23.7860 
  123.3750   -16.7790     2.1210    64.4670     7.6740     6.1760     8.2700    23.7930 
  123.5000   -16.2040     2.1770    65.6750     7.6990     6.2920     9.2190    23.7910 
  123.6250   -15.5430     2.2350    68.1380     7.6000     6.3390     9.7660    23.7750 
  123.7500   -14.8150     2.2740    71.1050     7.6750     6.4360     9.1970    23.7750 
  123.8750   -14.0600     2.2910    72.6230     8.2300     6.7630     8.4100    23.8130 
  124.0000   -13.3350     2.3000    68.6380    11.3980     7.5280     8.9480    23.9510 
  124.1250   -12.6710     2.3260    57.3170    13.9770     9.0050    12.3590    24.1400 
  124.2500   -12.1170     2.3760    46.3810    17.1050    11.0450    19.3050    24.1630 
  124.3750   -11.6870     2.4420    40.6350    20.0790    13.3040    24.2840    24.1130 
  124.5000   -11.3210     2.5040    39.9300    22.0590    15.1940    23.6400    24.0300 
  124.6250   -11.0630     2.5410    41.9650    22.3650    16.0330    21.8730    23.8400 
  124.7500   -10.9300     2.5510    43.1740    21.7050    16.0450    20.1350    23.7320 
  124.8750   -10.8290     2.5400    42.4970    20.8550    15.6940    18.8510    23.6320 
  125.0000   -10.7410     2.5160    40.9400    20.3540    15.3970    17.9290    23.5550 
  125.1250   -10.7060     2.4880    40.5300    20.4670    15.4320    17.8370    23.5790 
  125.2500   -10.6400     2.4650    41.6440    21.0530    15.8180    18.0800    23.6380 
  125.3750   -10.5840     2.4540    43.4590    21.9830    16.5190    18.4560    23.7080 
  125.5000   -10.5700     2.4600    44.6730    23.0760    17.3930    19.2860    23.7370 
  125.6250   -10.5240     2.4830    43.9900    24.1290    18.2310    20.2110    23.7470 
  125.7500   -10.4540     2.5110    43.5240    24.9780    18.9160    21.6810    23.7440 
  125.8750   -10.4210     2.5360    45.0310    25.5050    19.4180    21.8550    23.7330 
  126.0000   -10.3990     2.5520    46.6780    25.6510    19.7240    21.1390    23.7540 
  126.1250   -10.3790     2.5600    44.5510    25.3200    19.7380    21.6260    23.7030 
  126.2500   -10.3690     2.5650    41.2960    24.5870    19.4050    22.7770    23.6860 
  126.3750   -10.3580     2.5680    38.9870    23.5390    18.7080    21.4280    23.6460 
  126.5000   -10.3630     2.5630    37.9050    22.3650    17.7930    18.6440    23.5400 
  126.6250   -10.3920     2.5470    38.2230    21.3780    16.9760    17.1510    23.4910 
  126.7500   -10.4110     2.5220    40.1840    20.8160    16.5050    16.1590    23.6090 
  126.8750   -10.4360     2.4960    42.3210    20.8120    16.4780    15.6410    23.7790 
  127.0000   -10.4600     2.4770    41.2170    21.3340    16.8630    16.1480    23.7870 
  127.1250   -10.4790     2.4760    38.2820    22.1380    17.5050    17.5350    23.7860 
  127.2500   -10.5090     2.4890    37.7280    22.7990    18.1150    19.2410    23.8370 
  127.3750   -10.5260     2.5100    39.4540    23.0740    18.5380    20.5420    23.9590 
  127.5000   -10.5330     2.5310    40.5990    22.9250    18.7280    19.1660    24.0210 
  127.6250   -10.5670     2.5430    39.4450    22.4970    18.6830    18.1830    24.1280 
  127.7500   -10.6040     2.5450    38.2780    22.0570    18.5120    17.5430    24.4000 
  127.8750   -10.6170     2.5410    37.9370    21.6670    18.2740    18.1700    24.5360 
  128.0000   -10.6370     2.5330    38.1330    21.2350    17.9700    19.3860    24.5480 
  128.1250   -10.6270     2.5250    38.6950    20.5540    17.5000    20.2130    24.5170 
  128.2500   -10.6160     2.5170    39.9190    19.6120    16.8360    18.9910    24.4380 
  128.3750   -10.6100     2.5080    42.1580    18.5530    16.0320    16.8670    24.4040 
  128.5000   -10.5520     2.5000    45.3940    17.6190    15.2300    14.9310    24.4270 
  128.6250   -10.4570     2.4940    46.5840    17.0800    14.6740    14.1710    24.5740 
