~V
VERS. 2.00: Ver 2.00
~W
STRT.M 47.0000:
STOP.M 270.0000:
STEP.M 0.1250:
NULL. -999.2500:
UWI. F10221:
~C
DEPT.M :
SP.MV :
GR.API :
RML.OHMM :
RI. :
RXO.OHMM :
CALI.CM :
DEN.GM/CC :
~A
# ...
  204.5000   -26.1340    61.0080    48.1650    41.7600    42.2300    24.1830     2.2700 
  204.6250   -25.5860    63.6020    54.0240    46.2030    45.6910    24.5790     2.2710 
  204.7500   -25.0610    61.6500    60.2700    51.3830    47.8310    24.9090     2.2720 
  204.8750   -24.5300    59.6260    66.1350    56.4780    54.7270    25.0810     2.2650 
  205.0000   -24.0200    60.6630    71.3430    60.9900    56.8710    25.1260     2.2530 
  205.1250   -23.5140    61.6470    76.2730    65.1340    58.7590    25.1620     2.2430 
  205.2500   -22.9930    59.5040    80.8060    68.8180    66.6130    25.2610     2.2370 
  205.3750   -22.4060    56.3760    84.2160    71.4630    75.9070    25.4160     2.2380 
  205.5000   -21.7620    56.5740    85.2470    72.0870    70.1300    25.5580     2.2500 
  205.6250   -21.0780    58.2450    83.6210    70.5640    56.9360    25.5790     2.2740 
  205.7500   -20.3540    59.1750    79.1720    66.7820    51.5820    25.4540     2.3090 
  205.8750   -19.6350    57.4120    72.4670    61.1460    51.4010    25.2360     2.3570 
  206.0000   -18.8550    56.1360    65.0130    54.8380    51.6550    24.9480     2.4090 
  206.1250   -18.0570    58.5250    58.6200    49.3540    44.6230    24.6190     2.4430 
  206.2500   -17.2130    63.0140    54.1380    45.3730    32.1550    24.2700     2.4650 
  206.3750   -16.3820    65.2560    51.7960    43.0200    24.0820    24.0740     2.5040 
  206.5000   -15.5620    64.1020    51.7960    42.4050    25.3240    23.9730     2.5660 
  206.6250   -14.7580    61.8360    53.2440    42.9630    32.6750    23.9220     2.6160 
  206.7500   -14.0090    60.1630    54.7380    43.7910    39.4870    23.9680     2.6340 
  206.8750   -13.2630    60.5460    53.8470    42.9820    40.1070    24.0210     2.6310 
  207.0000   -12.6020    62.8020    47.4440    37.7780    39.9970    24.0300     2.6250 
  207.1250   -11.9570    66.9320    37.1860    29.5140    53.2240    24.0890     2.6170 
  207.2500   -11.3710    72.8260    26.3490    21.0340    47.9880    24.1480     2.5960 
  207.3750   -10.8280    79.0390    17.6970    14.4460    23.0470    24.1910     2.5580 
  207.5000   -10.3290    85.2410    12.2220    10.5380    10.6070    24.2160     2.5200 
  207.6250    -9.9180    91.1270     8.5470     8.3800     7.1470    24.2320     2.5070 
  207.7500    -9.5580    95.4760     7.8910     7.4460     6.4210    24.2240     2.5170 
  207.8750    -9.2830    95.6500     8.1580     7.3440     6.9600    24.2050     2.5390 
  208.0000    -9.0100    91.5670     8.7410     7.7030     8.5800    24.1670     2.5660 
  208.1250    -8.7860    88.7560     8.9860     7.9400     9.9230    24.0940     2.5930 
  208.2500    -8.5570    88.6700     8.6300     7.7460     9.3640    24.0490     2.6070 
  208.3750    -8.3560    87.8930     7.8150     7.1670     7.4600    24.0470     2.5940 
  208.5000    -8.1540    80.0340     6.9720     6.5250     5.9500    23.9160     2.5530 
  208.6250    -7.9250    67.7630     6.4040     6.0750     5.4570    23.7610     2.5120 
  208.7500    -7.7190    57.4750     6.1150     5.8300     5.6670    23.7680     2.4900 
  208.8750    -7.5130    54.3630     5.9430     5.6640     5.7790    23.8440     2.4800 
  209.0000    -7.3790    59.3810     5.6440     5.3630     5.1670    23.8670     2.4640 
  209.1250    -7.2780    67.8410     5.1430     4.8810     4.3400    23.8410     2.4470 
  209.2500    -7.2600    77.7690     4.5460     4.3260     3.9640    23.8420     2.4400 
  209.3750    -7.2690    86.8000     4.0470     3.8600     3.9000    23.8940     2.4410 
  209.5000    -7.3530    89.6690     3.8690     3.6520     4.0670    24.0070     2.4380 
  209.6250    -7.4830    85.4200     4.0250     3.7090     4.7350    24.1070     2.4260 
  209.7500    -7.5990    78.1090     4.4670     4.0040     5.2930    24.1780     2.4120 
  209.8750    -7.7390    76.4990     5.0840     4.4740     5.6940    24.2690     2.4030 
  210.0000    -7.8430    82.1620     5.6920     5.0150     5.9390    24.3780     2.4050 
  210.1250    -7.9650    87.0200     6.1320     5.4790     5.8470    24.4140     2.4140 
  210.2500    -8.0690    86.1720     6.3560     5.7850     5.5150    24.3910     2.4250 
  210.3750    -8.1970    80.0930     6.4090     5.9330     5.3910    24.3950     2.4330 
  210.5000    -8.3310    76.4640     6.3770     5.9630     5.7520    24.4620     2.4340 
  210.6250    -8.5080    77.7160     6.3280     5.9320     6.0490    24.5080     2.4300 
  210.7500    -8.7170    79.3350     6.2620     5.8500     6.0790    24.4740     2.4230 
  210.8750    -8.9290    77.3210     6.1740     5.7190     5.8590    24.3130     2.4110 
  211.0000    -9.1830    75.2880     6.0620     5.5360     5.5990    24.1030     2.3960 
  211.1250    -9.4480    76.9680     5.9580     5.3400     5.3860    23.9900     2.3800 
  211.2500    -9.7230    79.4910     5.9100     5.1840     5.2850    24.1450     2.3680 
  211.3750    -9.9790    81.6840     5.9830     5.1230     5.3100    24.5020     2.3610 
  211.5000   -10.2340    84.9340     6.2660     5.2260     5.5120    24.8250     2.3610 
  211.6250   -10.4340    88.5820     6.7380     5.4780     6.0430    24.9370     2.3660 
  211.7500   -10.6570    90.2170     7.3580     5.8530     6.7710    24.9050     2.3760 
  211.8750   -10.8640    88.3450     8.0350     6.3020     7.5050    24.8720     2.3830 
  212.0000   -11.0430    84.8530     8.6320     6.7470     7.9980    24.8850     2.3780 
  212.1250   -11.2210    84.0570     9.0740     7.1190     8.3630    24.9070     2.3680 
  212.2500   -11.3950    86.7760     9.3870     7.4110     8.7770    24.9440     2.3620 
  212.3750   -11.5840    87.3900     9.6950     7.6900     9.2770    24.9800     2.3630 
  212.5000   -11.7450    83.9240    10.2530     8.1210     9.9260    25.0130     2.3710 
  212.6250   -11.9720    83.1950    11.2420     8.8360    10.5290    25.0320     2.3830 
  212.7500   -12.1720    83.8840    12.7580     9.9420    11.5220    25.0330     2.3930 
  212.8750   -12.3900    81.7710    14.7350    11.4790    14.1960    25.0220     2.3920 
  213.0000   -12.6300    77.9250    16.8880    13.3860    18.6380    25.0300     2.3780 
  213.1250   -12.8660    77.6110    18.7480    15.3060    20.6800    25.0840     2.3590 
  213.2500   -13.1070    77.7480    19.9940    16.9040    21.0270    25.1530     2.3390 
  213.3750   -13.3420    74.2890    20.5440    17.9650    20.7590    25.2150     2.3210 
  213.5000   -13.6180    73.5060    20.4860    18.4240    20.1740    25.2530     2.3100 
  213.6250   -13.8400    79.5700    20.1370    18.5190    20.4540    25.2680     2.3080 
  213.7500   -14.0840    85.1800    19.6090    18.3490    20.7410    25.2750     2.3140 
  213.8750   -14.3130    83.4270    18.9380    17.9370    20.7370    25.2770     2.3280 
  214.0000   -14.5510    79.2900    18.1430    17.2670    19.3430    25.2790     2.3450 
  214.1250   -14.7800    80.2450    17.3250    16.4740    17.5870    25.2820     2.3580 
  214.2500   -15.0180    81.4100    16.5600    15.6710    15.9750    25.2930     2.3640 
  214.3750   -15.2770    78.1480    15.8560    14.9060    15.3440    25.3160     2.3620 
  214.5000   -15.5330    75.5650    15.0950    14.1130    14.6280    25.3490     2.3550 
  214.6250   -15.8320    76.6020    14.1990    13.2390    13.7410    25.3680     2.3490 
  214.7500   -16.1180    78.6220    13.2790    12.3730    12.8690    25.3340     2.3430 
  214.8750   -16.4120    81.5570    12.6720    11.7520    12.5800    25.1990     2.3360 
  215.0000   -16.7050    85.8500    13.1140    11.8520    11.0410    24.9440     2.3260 
  215.1250   -17.0650    87.6090    15.0830    13.0050    11.2000    24.7190     2.3140 
  215.2500   -17.4390    82.8010    19.0710    15.7200    14.1530    24.7240     2.2990 
  215.3750   -17.8040    74.8010    25.4390    20.6480    22.3940    25.0440     2.2800 
  215.5000   -18.1590    69.2700    34.0320    28.8410    41.1990    25.4910     2.2580 
  215.6250   -18.4870    65.5530    46.4720    39.3830    52.1690    25.8860     2.2380 
