~V
VERS. 2.00: Ver 2.00
~W
STRT.M 50.0000:
STOP.M 274.0000:
STEP.M 0.1250:
NULL. -999.2500:
UWI. F10206:
~C
DEPT.M :
SP.MV :
DEN.GM/CC :
GR.API :
RML.OHMM :
RI. :
RXO.OHMM :
CALI.CM :
~A
# ...
  140.0000   -11.0400     2.3360    70.5120     5.3010     5.1810     5.2060    26.3250 
  140.1250   -11.0780     2.3260    74.4340     5.2550     5.1130     5.1420    26.5120 
  140.2500   -11.1220     2.3220    76.3410     5.2100     5.0530     5.0930    27.2690 
  140.3750   -11.2120     2.3240    75.7250     5.1870     5.0010     5.0720    28.5420 
  140.5000   -11.3390     2.3280    74.0140     5.1760     4.9450     5.1290    29.1080 
  140.6250   -11.5330     2.3300    74.1210     5.1520     4.8740     5.2240    28.2160 
  140.7500   -11.7510     2.3250    75.9340     5.1150     4.8040     5.3270    27.4260 
  140.8750   -12.0060     2.3120    78.2770     5.0850     4.7600     5.3500    26.8280 
  141.0000   -12.2850     2.2900    80.0810     5.0810     4.7440     5.3220    25.9560 
  141.1250   -12.6010     2.2630    78.2470     5.1060     4.7230     5.3350    25.2210 
  141.2500   -12.9290     2.2390    74.3140     5.1310     4.6730     5.4910    24.8950 
  141.3750   -13.2390     2.2240    71.9340     5.1430     4.6100     5.7670    24.7100 
  141.5000   -13.5610     2.2230    74.0480     5.1450     4.5560     6.0460    24.5210 
  141.6250   -13.9030     2.2330    77.2870     5.1560     4.5300     5.8700    24.4920 
  141.7500   -14.2810     2.2470    79.2490     5.2000     4.5370     5.5490    24.4710 
  141.8750   -14.6730     2.2560    79.3080     5.2860     4.5790     5.4650    24.3900 
  142.0000   -15.0560     2.2550    78.0930     5.4070     4.6610     5.6580    24.0650 
  142.1250   -15.3780     2.2430    75.6000     5.5380     4.7840     6.0200    23.6540 
  142.2500   -15.6240     2.2300    73.5910     5.6440     4.9080     6.2570    23.6170 
  142.3750   -15.7960     2.2200    73.3080     5.7000     4.9790     6.5490    23.7330 
  142.5000   -15.8620     2.2170    74.6750     5.6960     4.9730     6.8340    23.7970 
  142.6250   -15.7820     2.2200    76.1820     5.6360     4.9090     6.9490    23.7630 
  142.7500   -15.5900     2.2230    77.3670     5.5470     4.8320     6.8500    23.6770 
  142.8750   -15.2970     2.2230    78.5170     5.4410     4.7490     6.7110    23.5890 
  143.0000   -14.9220     2.2190    80.1240     5.3240     4.6430     6.3840    23.6430 
  143.1250   -14.5130     2.2160    81.0790     5.2010     4.4880     5.8310    24.1260 
  143.2500   -14.1160     2.2200    81.1640     5.0690     4.3100     5.2840    24.8220 
  143.3750   -13.7470     2.2360    83.3950     4.9260     4.1600     5.0300    25.5170 
  143.5000   -13.4200     2.2600    87.7510     4.7850     4.0690     4.9050    25.7570 
  143.6250   -13.1530     2.2840    90.1080     4.6790     4.0300     4.8720    25.7210 
  143.7500   -12.9380     2.2990    88.3570     4.6270     4.0060     4.8400    25.7310 
  143.8750   -12.7730     2.3050    85.3950     4.6320     3.9920     4.7920    25.8290 
  144.0000   -12.6570     2.3030    85.5240     4.6820     4.0000     4.7510    26.0790 
  144.1250   -12.5810     2.2990    87.4820     4.7500     4.0550     4.7540    26.3510 
  144.2500   -12.5170     2.2960    86.1440     4.8180     4.1460     4.8350    26.4870 
  144.3750   -12.4760     2.2950    80.7940     4.8820     4.2370     4.9460    26.5030 
  144.5000   -12.4500     2.2940    76.6320     4.9470     4.2850     5.0080    26.7370 
  144.6250   -12.4420     2.2940    76.9110     5.0130     4.2930     4.9740    26.7340 
  144.7500   -12.4350     2.2960    77.8150     5.0780     4.3120     4.9620    26.6600 
  144.8750   -12.4270     2.3020    78.0610     5.1360     4.3680     4.9710    27.3280 
  145.0000   -12.4190     2.3110    79.6230     5.1850     4.4450     5.0180    28.1010 
  145.1250   -12.4190     2.3220    83.2260     5.2310     4.5010     5.0900    27.6730 
  145.2500   -12.4130     2.3300    84.3210     5.2710     4.5060     5.0810    26.4270 
  145.3750   -12.3890     2.3320    82.5690     5.2950     4.4670     4.9970    25.8130 
  145.5000   -12.3580     2.3260    80.5310     5.2970     4.4190     4.9550    26.0420 
  145.6250   -12.3190     2.3110    80.0670     5.2770     4.3850     4.9460    26.3190 
  145.7500   -12.2760     2.2910    80.2390     5.2480     4.3460     4.9310    26.6330 
  145.8750   -12.2470     2.2730    81.4430     5.2270     4.2960     4.8920    26.5680 
  146.0000   -12.2240     2.2610    82.4300     5.2220     4.2600     4.8550    26.8100 
  146.1250   -12.2260     2.2640    79.3320     5.2300     4.2810     4.8440    27.0450 
  146.2500   -12.2270     2.2820    74.0450     5.2440     4.3540     4.8880    27.2040 
  146.3750   -12.2420     2.3090    71.2180     5.2600     4.4420     4.9500    26.8370 
  146.5000   -12.2670     2.3350    73.1250     5.2740     4.4940     5.0040    25.8230 
  146.6250   -12.2760     2.3480    76.1480     5.2800     4.4680     5.0180    25.1170 
  146.7500   -12.3250     2.3480    75.8700     5.2760     4.4120     5.0130    24.9740 
  146.8750   -12.3740     2.3390    73.2970     5.2610     4.3700     5.0180    24.9280 
  147.0000   -12.4380     2.3260    72.3740     5.2360     4.3510     5.0460    24.8920 
  147.1250   -12.4840     2.3170    76.9840     5.2180     4.3390     5.1120    24.7440 
  147.2500   -12.5450     2.3120    85.3630     5.2160     4.3240     5.1710    24.7100 
  147.3750   -12.6060     2.3100    93.2120     5.2300     4.3150     5.1810    24.7230 
  147.5000   -12.6510     2.3090    93.9010     5.2480     4.3230     5.1640    24.7730 
  147.6250   -12.7250     2.3060    86.4250     5.2480     4.3390     5.1410    24.7960 
  147.7500   -12.7430     2.3020    80.6750     5.2180     4.3300     5.1220    24.8160 
  147.8750   -12.7480     2.2970    82.0780     5.1650     4.2800     5.0510    24.7960 
  148.0000   -12.7310     2.2910    87.6570     5.1090     4.2190     4.9250    24.7850 
  148.1250   -12.6990     2.2830    86.8690     5.0650     4.2030     4.8460    24.7870 
  148.2500   -12.6480     2.2760    80.8730     5.0340     4.2280     4.8290    24.7760 
  148.3750   -12.5980     2.2690    77.5870     5.0100     4.2560     4.9020    24.7440 
  148.5000   -12.5600     2.2650    80.5000     4.9870     4.2560     4.9700    24.8590 
  148.6250   -12.5140     2.2670    84.5440     4.9650     4.2210     4.9550    24.9380 
  148.7500   -12.5020     2.2770    84.1370     4.9540     4.1820     4.9480    24.9370 
  148.8750   -12.5130     2.2920    80.3120     4.9600     4.1710     5.0050    24.8730 
  149.0000   -12.5420     2.3070    75.1050     4.9820     4.2030     5.0400    24.8670 
  149.1250   -12.5480     2.3170    72.5630     5.0060     4.2680     5.0050    24.8680 
  149.2500   -12.5750     2.3200    75.2830     5.0190     4.3190     5.0070    24.8600 
  149.3750   -12.5840     2.3180    80.2590     5.0090     4.3190     5.0780    24.8440 
  149.5000   -12.6090     2.3160    83.3370     4.9700     4.2550     5.0720    24.8190 
  149.6250   -12.6240     2.3150    82.6990     4.9050     4.1500     4.9970    24.9090 
  149.7500   -12.6540     2.3160    80.8840     4.8450     4.0690     4.9240    25.0120 
  149.8750   -12.6800     2.3160    80.1380     4.8210     4.0550     4.8800    25.0720 
  150.0000   -12.6880     2.3150    82.2350     4.8550     4.1180     4.8450    25.1010 
  150.1250   -12.7410     2.3120    84.5740     4.9580     4.2250     4.9100    24.9860 
  150.2500   -12.7670     2.3090    84.3080     5.0740     4.3140     5.0500    25.0050 
  150.3750   -12.7980     2.3080    83.1540     5.1430     4.3540     5.1770    25.0740 
  150.5000   -12.7800     2.3110    83.2150     5.1190     4.3420     5.4090    25.0280 
  150.6250   -12.7540     2.3180    84.3510     4.9690     4.2770     5.7190    25.0100 
  150.7500   -12.7030     2.3270    85.5730     4.7510     4.1800     5.5720    24.7710 
  150.8750   -12.6530     2.3330    85.8230     4.5370     4.0700     5.0210    24.6220 
  151.0000   -12.6030     2.3360    84.1730     4.3990     3.9730     4.6710    24.2990 
  151.1250   -12.5550     2.3330    80.2400     4.4130     3.9310     4.5800    24.0830 
