~V
VERS. 2.00: Ver 2.00
~W
STRT.M 50.0000:
STOP.M 283.0000:
STEP.M 0.1250:
NULL. -999.2500:
UWI. F10256:
~C
DEPT.M :
DEN.GM/CC :
GR.API :
RML.OHMM :
RI. :
RXO.OHMM :
CALI.CM :
SP.MV :
~A
# ...
  196.2500     2.1990    53.8350   137.3540   127.2570   108.8290    24.8400   -19.6100 
  196.3750     2.2060    54.3190   135.7900   125.4460   105.0660    24.8110   -19.6950 
  196.5000     2.2140    55.9500   134.2270   123.6220   101.5590    24.7370   -19.7720 
  196.6250     2.2210    55.6280   133.1530   122.4140   103.0460    24.7560   -19.8220 
  196.7500     2.2280    53.0880   132.5790   121.9120   106.3880    24.8090   -19.8600 
  196.8750     2.2330    50.0310   132.6380   122.2410   108.8070    24.8350   -19.8920 
  197.0000     2.2380    49.0460   133.6620   123.6610   112.7270    24.8760   -19.9270 
  197.1250     2.2460    52.6350   136.4050   126.7790   114.2830    24.9180   -19.9250 
  197.2500     2.2540    56.7510   140.9660   131.4410   115.4770    24.8930   -19.9280 
  197.3750     2.2610    57.1290   146.6360   137.1840   119.5060    24.8460   -19.9770 
  197.5000     2.2650    54.9630   152.3520   143.0050   127.5800    24.8590   -20.1060 
  197.6250     2.2640    55.0380   156.9500   147.2230   138.8170    24.8750   -20.2720 
  197.7500     2.2590    57.2810   158.1740   148.9290   150.5550    24.8390   -20.4130 
  197.8750     2.2510    59.4570   157.7010   147.9010   151.8550    24.8280   -20.5780 
  198.0000     2.2440    59.8230   156.3890   144.7320   139.1950    24.8110   -20.8030 
  198.1250     2.2390    57.3260   153.9510   140.5300   119.7750    24.6990   -21.0370 
  198.2500     2.2380    54.6060   151.0020   136.4800   104.5350    24.5300   -21.2470 
  198.3750     2.2410    55.2380   147.0280   132.8420    97.9030    24.3930   -21.4320 
  198.5000     2.2440    57.8210   142.9320   129.4140   104.1670    24.2300   -21.5840 
  198.6250     2.2410    58.2870   138.9250   125.9780   107.7610    24.0370   -21.7330 
  198.7500     2.2290    58.2280   135.4490   122.8600   108.2120    23.9480   -21.8560 
  198.8750     2.2140    59.8640   133.4890   120.9030    97.4060    23.8250   -21.9350 
  199.0000     2.1990    61.8100   134.2040   121.1820    79.9560    23.6000   -21.9870 
  199.1250     2.1920    59.9850   139.0510   125.1290    69.6510    23.4270   -22.0770 
  199.2500     2.1910    55.9820   147.3500   132.2900    67.9280    23.3650   -22.1880 
  199.3750     2.1960    51.9200   158.0370   141.8180    70.9800    23.3580   -22.2980 
  199.5000     2.2040    48.7650   169.2960   152.1570    79.3110    23.4250   -22.3810 
  199.6250     2.2130    47.5710   178.2610   160.8250    98.8830    23.6530   -22.4430 
  199.7500     2.2230    48.6070   183.0950   166.0770   126.3090    23.9530   -22.5220 
  199.8750     2.2310    51.9680   182.9590   167.0560   142.5780    24.2810   -22.5910 
  200.0000     2.2370    53.7540   178.1520   163.8740   142.7090    24.6280   -22.6440 
  200.1250     2.2430    51.7930   169.4090   157.0070   145.6360    24.8210   -22.6640 
  200.2500     2.2500    50.9410   158.9270   148.3650   143.6960    24.8440   -22.6370 
  200.3750     2.2580    52.4930   148.0530   139.1550   138.2250    24.8240   -22.5650 
  200.5000     2.2650    53.0820   137.8870   130.3990   130.2960    24.8290   -22.4860 
  200.6250     2.2700    51.1700   129.5870   123.1890   117.0380    24.7930   -22.4140 
  200.7500     2.2730    50.9890   123.3790   117.8410   103.6830    24.7660   -22.3430 
  200.8750     2.2730    52.7720   119.2980   114.4640    98.4230    24.7840   -22.2760 
  201.0000     2.2730    53.6710   117.0220   112.7990    97.3870    24.7590   -22.1980 
  201.1250     2.2720    54.1780   115.9730   112.3330    97.9340    24.6880   -22.1390 
  201.2500     2.2700    54.7080   115.0380   111.9890    97.0700    24.6680   -22.1520 
  201.3750     2.2680    54.0630   113.5310   111.0550    97.0790    24.6740   -22.2090 
  201.5000     2.2650    53.4450   111.2100   109.2080    98.0230    24.6420   -22.2640 
  201.6250     2.2610    54.9600   108.6210   106.7940    96.8940    24.6390   -22.3320 
  201.7500     2.2570    57.7020   107.2140   105.1520    88.7300    24.6390   -22.4320 
  201.8750     2.2530    58.2690   108.5950   105.8280    79.0460    24.5780   -22.5640 
  202.0000     2.2480    55.4730   114.2660   110.3640    73.2840    24.5170   -22.6900 
  202.1250     2.2390    51.6500   126.2470   120.8690    68.3080    24.4730   -22.7800 
  202.2500     2.2290    50.2000   143.6670   136.6890    65.3200    24.4010   -22.8500 
  202.3750     2.2170    50.8870   165.0840   156.5300    69.9540    24.2880   -22.9300 
  202.5000     2.2060    51.7870   187.5170   177.5690    87.0410    24.2630   -23.0190 
  202.6250     2.2010    51.5620   205.6970   194.8140   115.6710    24.3260   -23.0790 
  202.7500     2.2030    49.9260   216.1500   204.9290   146.7690    24.4390   -23.1420 
  202.8750     2.2100    46.4260   217.9500   206.9460   172.9160    24.6100   -23.1960 
  203.0000     2.2200    44.4520   213.5730   202.8970   187.1290    24.7270   -23.2570 
  203.1250     2.2270    46.9630   208.0510   197.1360   171.1690    24.7040   -23.3000 
  203.2500     2.2310    48.5840   205.5440   193.8520   150.8670    24.7180   -23.3050 
  203.3750     2.2320    46.9640   206.8160   194.2410   150.3600    24.7970   -23.3080 
  203.5000     2.2300    44.7250   210.3950   197.3650   165.2440    24.8270   -23.3330 
  203.6250     2.2280    44.3610   212.8690   200.3990   184.5260    24.8120   -23.3220 
  203.7500     2.2260    44.0220   211.3470   200.4080   195.0030    24.8220   -23.2470 
  203.8750     2.2250    44.7030   204.8950   196.1690   193.2960    24.7940   -23.1510 
  204.0000     2.2250    47.4430   194.8190   188.4130   181.0710    24.7370   -23.0750 
  204.1250     2.2260    49.6410   184.4060   179.7310   161.8580    24.7200   -23.0230 
  204.2500     2.2280    50.4060   176.6620   173.0640   141.6570    24.6860   -22.9510 
  204.3750     2.2300    50.0530   172.4480   169.5330   131.7940    24.5530   -22.8310 
  204.5000     2.2300    49.3550   171.0330   168.7250   135.3380    24.3840   -22.6650 
  204.6250     2.2260    49.5350   170.4410   168.9370   140.7810    24.3140   -22.5340 
  204.7500     2.2190    51.1190   168.1500   167.7130   143.2850    24.3110   -22.4360 
  204.8750     2.2110    51.2900   162.5840   163.4340   139.6900    24.4470   -22.3060 
  205.0000     2.2060    48.9940   153.1870   155.3730   127.5370    24.7160   -22.1200 
  205.1250     2.2070    47.9370   140.3400   143.5770   115.7830    24.8710   -21.9160 
  205.2500     2.2120    49.8490   126.5280   130.3170   106.8490    24.8770   -21.7290 
  205.3750     2.2200    52.3740   113.7390   117.5320   101.2500    24.8790   -21.5620 
  205.5000     2.2260    54.7850   103.5930   106.9600    96.7020    24.8930   -21.3800 
  205.6250     2.2280    57.9580    97.8020   100.5180    88.5250    24.8490   -21.1550 
  205.7500     2.2270    60.7620    96.0850    98.1690    79.4700    24.8330   -20.9540 
  205.8750     2.2260    60.8310    98.0830    99.6730    79.9800    24.8450   -20.8080 
  206.0000     2.2250    59.2540   102.8120   104.0990    86.1660    24.8110   -20.6890 
  206.1250     2.2270    56.6260   108.6310   109.8240    96.6650    24.7970   -20.6000 
  206.2500     2.2290    53.7390   113.3550   114.5390   108.5740    24.8250   -20.5570 
  206.3750     2.2320    50.8500   115.6920   116.8070   119.9370    24.8420   -20.5190 
  206.5000     2.2350    48.8860   115.4380   116.2670   126.1320    24.8210   -20.4940 
  206.6250     2.2390    48.0520   113.7360   113.8570   118.7430    24.8370   -20.4700 
  206.7500     2.2410    46.7270   112.9420   111.9550   104.3260    24.8420   -20.4050 
  206.8750     2.2420    45.9970   114.5790   112.1810    96.2470    24.8110   -20.3260 
  207.0000     2.2400    46.6540   119.1810   115.2530    98.7000    24.8240   -20.2450 
  207.1250     2.2300    45.9630   126.2260   120.9120   105.8230    24.8350   -20.0880 
  207.2500     2.2130    43.6130   133.2740   126.9410   109.3890    24.8190   -19.8550 
  207.3750     2.1920    42.8170   138.0390   131.2550   110.9160    24.8160   -19.6020 
