~V
VERS. 2.00: Ver 2.00
~W
STRT.M 55.0000:
STOP.M 270.0000:
STEP.M 0.1250:
NULL. -999.2500:
UWI. F10235:
~C
DEPT.M :
GR.API :
RML.OHMM :
RI. :
RXO.OHMM :
CALI.CM :
DEN.GM/CC :
SP.MV :
~A
# ...
  212.5000    88.8890     8.4530     7.0130     9.5440    24.8100     2.4020    -8.0210 
  212.6250    87.1270     9.0350     7.5260    10.4690    24.8270     2.3990    -7.6180 
  212.7500    84.8530     9.5960     8.0230    10.8490    24.8380     2.3900    -7.2900 
  212.8750    85.3650    10.1480     8.5010    11.0090    24.8230     2.3800    -7.0070 
  213.0000    89.7220    10.7130     8.9760    11.2750    24.7990     2.3710    -6.8770 
  213.1250    93.7970    11.2660     9.4470    12.0270    24.7750     2.3670    -7.0210 
  213.2500    92.8570    11.7190     9.8550    12.7700    24.7510     2.3630    -7.3260 
  213.3750    90.5430    11.9770    10.1150    13.2100    24.7420     2.3590    -7.6940 
  213.5000    93.8010    11.9980    10.1760    13.0890    24.7390     2.3530    -8.0090 
  213.6250    99.0990    11.8260    10.0480    12.5590    24.7240     2.3450    -8.1660 
  213.7500    97.6650    11.6460     9.8760    11.7410    24.6950     2.3400    -8.2660 
  213.8750    91.7430    11.5990     9.7830    11.4810    24.6740     2.3400    -8.3710 
  214.0000    87.5090    11.7550     9.8500    12.5290    24.6810     2.3450    -8.4340 
  214.1250    87.1810    12.1230    10.1030    13.0970    24.7030     2.3550    -8.4430 
  214.2500    88.2440    12.6000    10.4630    14.5040    24.6920     2.3630    -8.4700 
  214.3750    89.9180    13.1150    10.8920    15.4450    24.6570     2.3670    -8.5190 
  214.5000    91.0030    13.6110    11.3460    16.4090    24.6090     2.3680    -8.5780 
  214.6250    88.6070    14.0790    11.7810    16.0970    24.6160     2.3680    -8.6780 
  214.7500    86.0200    14.6250    12.2500    17.2090    24.6410     2.3690    -8.7900 
  214.8750    84.6370    15.4230    12.9040    21.2360    24.6780     2.3710    -8.9200 
  215.0000    82.5380    16.6690    13.9090    24.3100    24.6830     2.3700    -9.1100 
  215.1250    81.0330    18.6640    15.5390    21.4950    24.6590     2.3610    -9.3690 
  215.2500    80.3050    21.4350    17.9070    21.9970    24.6090     2.3480    -9.6430 
  215.3750    79.7720    25.0360    21.1460    38.9710    24.5650     2.3330    -9.9080 
  215.5000    78.4940    29.5120    25.2880    60.2860    24.5550     2.3200   -10.2300 
  215.6250    75.8570    35.1410    30.5880    57.6960    24.5710     2.3130   -10.7030 
  215.7500    73.6830    41.7290    37.1020    44.4750    24.5940     2.3080   -11.2570 
  215.8750    72.6220    48.5740    44.4730    51.1010    24.6290     2.3020   -11.8470 
  216.0000    72.3300    53.8980    51.0930    65.8390    24.7130     2.2950   -12.4690 
  216.1250    70.6920    54.7990    53.3590    88.5300    24.8640     2.2910   -13.0880 
  216.2500    68.4500    51.4250    50.1760    97.3090    24.9770     2.2910   -13.6520 
  216.3750    68.9710    45.2560    43.0900    75.1000    24.9700     2.2930   -14.2120 
  216.5000    73.0820    38.5460    35.4160    40.1480    24.9490     2.2940   -14.7570 
  216.6250    78.1060    33.9130    30.3760    22.1690    25.0090     2.2910   -15.2160 
  216.7500    80.3470    32.5860    28.5310    20.6110    25.1190     2.2830   -15.6730 
  216.8750    79.5730    35.1210    29.9560    28.1730    25.3360     2.2720   -16.1790 
  217.0000    77.7020    41.5570    34.9140    37.2850    25.2650     2.2570   -16.7030 
  217.1250    75.9630    52.3170    44.5110    43.4450    25.2400     2.2370   -17.2470 
  217.2500    71.9530    65.6080    57.5230    57.9270    25.2600     2.2180   -17.8640 
  217.3750    68.1430    78.9810    71.5300    86.0290    25.3350     2.2070   -18.4940 
  217.5000    67.9360    89.2250    82.8900   109.9060    25.3690     2.2050   -19.0980 
  217.6250    69.7850    92.7940    87.5950   100.6050    25.3690     2.2130   -19.6830 
  217.7500    68.8450    90.8400    86.4170    80.3100    25.3350     2.2210   -20.2230 
  217.8750    65.3950    85.7810    81.6170    66.7730    25.2940     2.2260   -20.6920 
  218.0000    64.3080    80.5260    76.1900    65.7980    25.2830     2.2260   -21.0970 
  218.1250    67.6220    77.6440    72.7650    69.2190    25.3120     2.2230   -21.5050 
  218.2500    72.3800    77.5820    71.8860    73.3890    25.3470     2.2180   -21.9900 
  218.3750    76.2650    80.2100    73.5650    74.5230    25.3880     2.2120   -22.5910 
  218.5000    76.3400    85.0340    77.5210    75.2080    25.4440     2.2030   -23.2950 
  218.6250    70.6870    91.3730    83.3170    89.1520    25.5020     2.1940   -24.0570 
  218.7500    65.0140    97.8890    89.6780   105.4260    25.5550     2.1860   -24.9000 
  218.8750    63.3550   103.6570    95.6420   115.7960    25.5740     2.1820   -25.7920 
  219.0000    65.6250   108.1160   100.4790   117.8960    25.5650     2.1840   -26.7020 
  219.1250    68.3740   111.1350   103.8460   108.7350    25.5300     2.1920   -27.6750 
  219.2500    69.2920   113.5110   106.5040   107.2490    25.4860     2.2000   -28.6660 
  219.3750    69.9970   115.7490   109.0290   122.1520    25.4580     2.2060   -29.5940 
  219.5000    71.5240   117.9700   111.5930   141.9790    25.4460     2.2070   -30.4560 
  219.6250    71.2320   119.7680   113.7880   146.9090    25.4410     2.2040   -31.3020 
  219.7500    67.9610   120.7480   115.1620   144.0000    25.4280     2.1990   -32.0970 
  219.8750    64.7790   120.7610   115.5100   140.1460    25.3900     2.1960   -32.8330 
  220.0000    64.0650   119.9700   114.9880   137.2040    25.3080     2.1940   -33.5220 
  220.1250    64.3440   118.7100   113.9740   137.7260    25.2660     2.1930   -34.1800 
  220.2500    65.1110   117.4330   112.9370   136.3480    25.2570     2.1920   -34.7820 
  220.3750    68.2700   116.4060   112.0810   133.0770    25.2680     2.1910   -35.3030 
  220.5000    71.5510   115.9130   111.6500   128.8430    25.2830     2.1930   -35.7430 
  220.6250    70.9170   116.4820   112.1930   125.5260    25.2880     2.1960   -36.1050 
  220.7500    67.4830   118.2630   113.9130   130.0960    25.3050     2.2000   -36.4580 
  220.8750    63.5080   121.3290   116.8880   132.7640    25.3170     2.2040   -36.8790 
  221.0000    62.4030   125.5610   121.0060   136.5570    25.3240     2.2070   -37.3900 
  221.1250    65.2090   130.8800   126.1690   147.5270    25.3480     2.2100   -37.8280 
  221.2500    67.6970   136.9750   132.0420   158.5120    25.3990     2.2130   -38.1410 
  221.3750    67.1930   143.8120   138.6320   159.9980    25.4480     2.2150   -38.4310 
  221.5000    64.8470   151.2730   145.9430   160.1980    25.4840     2.2140   -38.7550 
  221.6250    63.6420   158.7560   153.5630   175.3390    25.4760     2.2120   -39.0650 
  221.7500    63.0220   165.0950   160.3570   194.3520    25.4610     2.2110   -39.2340 
  221.8750    63.0280   169.1620   165.1160   212.1720    25.4300     2.2130   -39.2230 
  222.0000    64.6070   170.3440   166.9820   213.3450    25.4170     2.2180   -39.0300 
  222.1250    66.5560   168.6110   165.7030   191.8900    25.4080     2.2210   -38.6020 
  222.2500    66.0670   165.4040   162.9000   176.9050    25.3760     2.2190   -38.0540 
  222.3750    63.6360   161.3100   159.3590   183.8380    25.3530     2.2090   -37.4120 
  222.5000    62.6600   156.1990   154.9730   196.4940    25.3920     2.1970   -36.6050 
  222.6250    64.5200   149.2470   148.7250   198.6210    25.4510     2.1880   -35.6070 
  222.7500    66.1020   140.6660   140.6230   179.6590    25.4730     2.1890   -34.5630 
  222.8750    66.7660   131.2610   131.4270   148.5850    25.4350     2.2000   -33.4710 
  223.0000    66.5120   122.3240   122.5030   122.1760    25.3830     2.2170   -32.2820 
  223.1250    65.4150   115.5620   115.6400   114.3420    25.3400     2.2310   -31.0550 
  223.2500    62.9000   111.5080   111.4890   112.1150    25.3230     2.2370   -29.8360 
  223.3750    60.4210   110.3220   110.2980   114.6720    25.3510     2.2350   -28.6900 
  223.5000    59.1130   111.7230   111.8470   118.7930    25.3860     2.2290   -27.7260 
  223.6250    59.3890   115.1530   115.6840   120.5420    25.4120     2.2220   -26.9740 
