~V
VERS. 2.00: Ver 2.00
~W
STRT.M 53.0000:
STOP.M 282.0000:
STEP.M 0.1250:
NULL. -999.2500:
UWI. F10240:
~C
DEPT.M :
GR.API :
RML.OHMM :
RI. :
RXO.OHMM :
CALI.CM :
DEN.GM/CC :
SP.MV :
~A
# ...
  255.5000    46.8920     5.9680     5.3220     5.4830    25.0940     2.2970   -11.6760 
  255.6250    46.5160     6.0180     5.2790     5.4790    25.0530     2.2990   -11.6610 
  255.7500    44.8880     6.1130     5.2900     5.4830    24.9860     2.3010   -11.6690 
  255.8750    43.3320     6.1760     5.2890     5.4290    24.9340     2.2990   -11.6890 
  256.0000    43.6240     6.1810     5.2490     5.3200    24.9030     2.2970   -11.7180 
  256.1250    45.6360     6.1530     5.1890     5.2550    24.8580     2.3010   -11.7510 
  256.2500    46.0900     6.1220     5.1300     5.1840    24.8380     2.3120   -11.7830 
  256.3750    43.2430     6.1130     5.0900     5.1460    24.8200     2.3260   -11.8000 
  256.5000    40.9850     6.1400     5.0790     5.3040    24.8070     2.3360   -11.8140 
  256.6250    41.8540     6.1890     5.0880     5.3970    24.7640     2.3380   -11.8250 
  256.7500    42.6720     6.2460     5.1030     5.3970    24.6880     2.3330   -11.8360 
  256.8750    41.4410     6.3040     5.1190     5.5140    24.5510     2.3230   -11.8560 
  257.0000    41.8040     6.3650     5.1340     5.6240    24.4330     2.3100   -11.8710 
  257.1250    45.5530     6.4290     5.1500     5.6260    24.4950     2.2990   -11.8960 
  257.2500    49.1830     6.4960     5.1680     5.5980    24.6280     2.2940   -11.9300 
  257.3750    49.6650     6.5600     5.1830     5.6050    24.6980     2.2990   -11.9730 
  257.5000    47.0730     6.6100     5.1890     5.6280    24.6640     2.3050   -12.0020 
  257.6250    43.9100     6.6470     5.1840     5.6390    24.6340     2.3070   -12.0280 
  257.7500    42.3800     6.6730     5.1710     5.6610    24.5840     2.3060   -12.0400 
  257.8750    43.0200     6.6960     5.1560     5.5580    24.5080     2.3070   -12.0410 
  258.0000    44.1540     6.7300     5.1480     5.4980    24.4420     2.3150   -12.0420 
  258.1250    44.6500     6.7970     5.1600     5.5510    24.3680     2.3280   -12.0440 
  258.2500    46.2120     6.9200     5.2060     5.6680    24.2680     2.3400   -12.0180 
  258.3750    49.4110     7.1190     5.3010     5.7750    24.2100     2.3490   -11.9870 
  258.5000    51.4500     7.4150     5.4640     6.0460    24.1930     2.3570   -11.9580 
  258.6250    53.1910     7.7830     5.6840     6.5180    24.1930     2.3670   -11.9440 
  258.7500    56.0180     8.1940     5.9510     7.0510    24.1960     2.3800   -11.9260 
  258.8750    58.3220     8.6110     6.2440     7.5550    24.2290     2.3930   -11.9140 
  259.0000    56.4860     8.9860     6.5320     7.8930    24.3210     2.4020   -11.9100 
  259.1250    52.5790     9.3000     6.7930     8.1620    24.4020     2.4070   -11.9120 
  259.2500    49.4890     9.5630     7.0250     8.4200    24.4270     2.4130   -11.9450 
  259.3750    47.3760     9.8100     7.2480     8.8380    24.3710     2.4280   -11.9940 
  259.5000    45.8880    10.1120     7.5040     9.3200    24.2980     2.4560   -12.0680 
  259.6250    45.3980    10.5290     7.8270     9.9660    24.2160     2.4880   -12.1410 
  259.7500    46.2150    11.0890     8.2420    11.4100    24.2010     2.5100   -12.2380 
  259.8750    48.8260    11.7740     8.7490    13.0990    24.2850     2.5160   -12.3490 
  260.0000    51.3360    12.5020     9.3140    14.7560    24.3980     2.5110   -12.4640 
  260.1250    51.4140    13.1200     9.8330    16.7240    24.4470     2.5060   -12.5760 
  260.2500    50.0440    13.4910    10.1970    19.2610    24.4520     2.5050   -12.6550 
  260.3750    49.8400    13.5340    10.3250    19.4160    24.4320     2.5010   -12.7040 
  260.5000    49.9510    13.2490    10.1870    16.4670    24.3810     2.4890   -12.7550 
  260.6250    47.9720    12.8420     9.9250    13.0940    24.3610     2.4770   -12.7900 
  260.7500    45.6270    12.4830     9.6610    11.4160    24.3490     2.4750   -12.8070 
  260.8750    44.9260    12.3050     9.4970    11.4190    24.3490     2.4860   -12.7970 
  261.0000    46.0060    12.4030     9.5140    11.9430    24.3250     2.5040   -12.7720 
  261.1250    46.9430    12.6860     9.6750    14.1840    24.3360     2.5170   -12.7510 
  261.2500    47.3140    13.0620     9.9260    17.6250    24.3590     2.5180   -12.7530 
  261.3750    46.8830    13.4460    10.2080    18.0150    24.3970     2.5110   -12.7910 
  261.5000    46.6150    13.7980    10.4860    17.2600    24.3790     2.5020   -12.8450 
  261.6250    46.6400    14.1570    10.7670    19.3950    24.3730     2.4980   -12.9140 
  261.7500    46.8320    14.5990    11.0960    20.8390    24.3850     2.4970   -13.0010 
  261.8750    47.8660    15.2030    11.5250    19.9490    24.4310     2.4950   -13.0970 
  262.0000    48.5340    16.0130    12.1030    19.1010    24.4470     2.4920   -13.1940 
  262.1250    46.8180    16.8950    12.7540    19.3960    24.4470     2.4890   -13.2900 
  262.2500    44.2290    17.6580    13.3550    19.7060    24.4440     2.4880   -13.4140 
  262.3750    44.3270    18.0890    13.7510    20.3590    24.4410     2.4890   -13.5560 
  262.5000    47.3340    17.9810    13.7670    20.3540    24.4500     2.4880   -13.6870 
  262.6250    49.9780    17.5030    13.4870    19.1860    24.4340     2.4810   -13.7880 
  262.7500    50.4750    16.8950    13.0640    16.6580    24.4130     2.4660   -13.8660 
  262.8750    48.7740    16.4070    12.6750    15.1090    24.3950     2.4470   -13.9410 
  263.0000    47.3380    16.2600    12.4930    16.6260    24.4060     2.4340   -14.0150 
  263.1250    47.8810    16.4240    12.5340    19.0820    24.3660     2.4320   -14.0700 
  263.2500    49.5970    16.8020    12.7610    20.3110    24.3810     2.4420   -14.0840 
  263.3750    51.3630    17.2420    13.0880    20.0270    24.4220     2.4590   -14.0580 
  263.5000    52.6330    17.5680    13.3990    19.8530    24.4520     2.4760   -14.0040 
  263.6250    53.5660    17.7080    13.6160    18.3910    24.4590     2.4870   -13.9490 
  263.7500    53.4280    17.6590    13.7110    16.6070    24.4720     2.4890   -13.8800 
  263.8750    53.1600    17.4530    13.6760    15.1500    24.5060     2.4790   -13.7780 
  264.0000    52.7660    17.1000    13.4930    14.5380    24.5290     2.4590   -13.6550 
  264.1250    51.3720    16.6450    13.2010    14.3140    24.5400     2.4390   -13.5320 
  264.2500    49.7120    16.1070    12.8270    14.4830    24.5360     2.4300   -13.4080 
  264.3750    49.1240    15.5230    12.4050    14.5350    24.5300     2.4340   -13.2850 
  264.5000    50.2090    14.9420    11.9770    13.1740    24.5170     2.4500   -13.1710 
  264.6250    51.6460    14.4140    11.5770    12.0980    24.5480     2.4640   -13.0630 
  264.7500    53.7840    13.9610    11.2260    11.0990    24.6320     2.4700   -12.9590 
  264.8750    56.5160    13.5790    10.9270    10.3080    24.7000     2.4670   -12.8650 
  265.0000    56.7270    13.2460    10.6710     9.9470    24.7270     2.4590   -12.7730 
  265.1250    53.6580    12.9210    10.4260     9.5680    24.7250     2.4480   -12.6970 
  265.2500    50.7320    12.5820    10.1750     8.9250    24.7050     2.4350   -12.6490 
  265.3750    51.8920    12.2190     9.9120     8.4830    24.6770     2.4210   -12.6210 
  265.5000    55.6140    11.8570     9.6540     8.1850    24.6370     2.4090   -12.5940 
  265.6250    56.5130    11.5480     9.4360     7.8440    24.6160     2.3990   -12.5520 
  265.7500    53.8820    11.3400     9.2940     7.7160    24.6120     2.3950   -12.5140 
  265.8750    50.3860    11.2480     9.2400     8.0940    24.6580     2.3980   -12.5120 
  266.0000    50.1130    11.2390     9.2560     8.6380    24.7560     2.4080   -12.5490 
  266.1250    52.2190    11.2060     9.2640     8.9630    24.8030     2.4170   -12.5830 
  266.2500    54.9500    11.0690     9.1990     9.5020    24.8170     2.4210   -12.6030 
  266.3750    56.0140    10.7870     9.0210    10.2190    24.8210     2.4190   -12.5990 
  266.5000    53.9060    10.3680     8.7170    10.9300    24.8110     2.4190   -12.5910 
  266.6250    51.2750     9.9120     8.3560    10.6540    24.8060     2.4250   -12.5930 
