~V
VERS. 2.00: Ver 2.00
~W
STRT.M 50.0000:
STOP.M 278.0000:
STEP.M 0.1250:
NULL. -999.2500:
UWI. F10217:
~C
DEPT.M :
SP.MV :
DEN.GM/CC :
GR.API :
RML.OHMM :
RI. :
RXO.OHMM :
CALI.CM :
~A
# ...
  218.7500   -21.5360     2.1470    62.7040    70.7240    66.7040    53.4240    24.5250 
  218.8750   -21.5590     2.1700    57.2910    63.6030    60.3370    47.7730    24.4330 
  219.0000   -21.5640     2.2030    52.8850    57.0100    54.2580    39.9160    24.2650 
  219.1250   -21.5730     2.2290    54.9900    51.8140    49.3120    37.2670    24.2150 
  219.2500   -21.5790     2.2360    59.3120    48.1020    45.6710    37.5880    24.2640 
  219.3750   -21.5990     2.2250    61.1780    45.8960    43.3920    37.5170    24.3680 
  219.5000   -21.6310     2.2040    60.3670    45.1260    42.4420    36.8200    24.5060 
  219.6250   -21.6930     2.1860    60.2100    45.8300    42.8980    35.8720    24.6300 
  219.7500   -21.7590     2.1760    62.2230    47.5220    44.3470    35.7480    24.7140 
  219.8750   -21.8340     2.1710    64.1560    49.8380    46.4990    37.4120    24.7730 
  220.0000   -21.8990     2.1680    63.3090    52.2600    48.9240    40.2680    24.8130 
  220.1250   -21.9590     2.1670    60.5310    53.9490    50.8470    42.7610    24.8220 
  220.2500   -22.0180     2.1680    60.4160    54.4370    51.6680    42.9270    24.8140 
  220.3750   -22.0730     2.1730    63.2480    53.6730    51.2020    42.0980    24.8240 
  220.5000   -22.0950     2.1810    66.6780    51.9980    49.7000    41.3850    24.8510 
  220.6250   -22.0870     2.1890    68.1260    49.8860    47.5990    39.8310    24.8680 
  220.7500   -22.0490     2.1920    67.1420    47.7840    45.4180    37.4480    24.8480 
  220.8750   -21.9970     2.1890    64.1640    45.8350    43.3570    35.9510    24.7900 
  221.0000   -21.9480     2.1860    63.2660    44.0940    41.5010    37.5510    24.7110 
  221.1250   -21.9190     2.1960    67.2400    42.7280    39.9840    36.5900    24.6170 
  221.2500   -21.8990     2.2220    70.6900    41.8940    38.9220    34.6460    24.5140 
  221.3750   -21.8980     2.2560    70.0420    41.7980    38.4830    34.3880    24.4200 
  221.5000   -21.9480     2.2810    68.0470    42.6040    38.8140    36.6250    24.3700 
  221.6250   -22.0170     2.2810    69.9700    44.5830    40.1960    38.0170    24.3970 
  221.7500   -22.1130     2.2620    72.0370    47.5270    42.5220    38.3610    24.4960 
  221.8750   -22.2140     2.2330    70.6340    51.2340    45.6690    38.9050    24.5410 
  222.0000   -22.3450     2.2080    66.1020    55.3770    49.3570    40.7910    24.4480 
  222.1250   -22.4440     2.1910    62.4460    59.5160    53.1790    43.3350    24.2870 
  222.2500   -22.5430     2.1820    60.5780    63.1810    56.6590    45.4980    24.1750 
  222.3750   -22.6380     2.1800    59.6500    65.9670    59.4100    47.3990    24.1310 
  222.5000   -22.7230     2.1870    60.4380    67.5680    61.1450    50.0920    24.1510 
  222.6250   -22.7890     2.2020    62.4550    67.6730    61.5770    53.7120    24.2280 
  222.7500   -22.8450     2.2180    64.1030    66.6670    61.0240    58.1940    24.3110 
  222.8750   -22.9060     2.2260    64.5730    64.8110    59.6780    61.1680    24.3520 
  223.0000   -22.9430     2.2230    65.1680    62.3040    57.6740    55.9940    24.3880 
  223.1250   -23.0060     2.2100    66.2170    59.1950    54.9770    50.3710    24.4680 
  223.2500   -23.0740     2.1970    66.5040    55.7600    51.8110    49.2150    24.5110 
  223.3750   -23.1340     2.1910    66.5610    52.3520    48.4840    49.2420    24.5330 
  223.5000   -23.1690     2.1960    65.4040    49.4840    45.4810    45.4410    24.5340 
  223.6250   -23.2190     2.2140    63.3830    47.9600    43.5410    39.0440    24.5260 
  223.7500   -23.2570     2.2360    62.3790    48.0030    42.9170    36.6290    24.4880 
  223.8750   -23.2680     2.2550    62.3800    49.7190    43.7430    38.4660    24.4390 
  224.0000   -23.2540     2.2630    63.9750    52.9690    45.9590    43.2890    24.3730 
  224.1250   -23.2020     2.2550    66.9920    57.5000    49.4120    47.6710    24.2490 
  224.2500   -23.1260     2.2410    69.1270    62.5400    53.3780    51.5170    24.1680 
  224.3750   -23.0500     2.2300    69.5050    67.6880    57.4040    53.2350    24.1880 
  224.5000   -22.9920     2.2280    68.7130    72.8410    61.2980    55.5600    24.2600 
  224.6250   -22.9340     2.2350    67.1490    78.2530    65.2090    56.0370    24.3380 
  224.7500   -22.8880     2.2430    65.1310    84.1800    69.4110    55.2380    24.4060 
  224.8750   -22.8700     2.2470    62.0520    90.7700    74.0670    56.0030    24.4150 
  225.0000   -22.8700     2.2460    59.9770    98.0220    79.2030    61.0660    24.3680 
  225.1250   -22.8960     2.2410    59.3930   105.8870    84.7850    66.7130    24.3330 
  225.2500   -22.9280     2.2360    59.5240   114.0290    90.5800    73.6770    24.3550 
  225.3750   -22.9420     2.2320    60.5690   122.0930    96.3610    79.6200    24.3810 
  225.5000   -22.9250     2.2290    61.3290   129.5310   101.7840    83.5790    24.4000 
  225.6250   -22.9190     2.2270    61.0970   135.3600   106.2060    83.3860    24.4250 
  225.7500   -22.8880     2.2230    60.5020   139.0880   109.2730    83.5700    24.4460 
  225.8750   -22.8530     2.2200    62.2690   140.2180   110.5860    85.3760    24.4470 
  226.0000   -22.8030     2.2160    67.2020   138.5480   109.8640    88.8220    24.4320 
  226.1250   -22.7600     2.2160    69.1500   134.2360   106.9400    91.6350    24.4080 
  226.2500   -22.6960     2.2180    65.8720   129.1180   103.0290    91.5250    24.3990 
  226.3750   -22.6270     2.2230    61.1750   124.8090    99.3720    88.8910    24.3840 
  226.5000   -22.5340     2.2300    59.4300   122.5460    97.0940    87.0950    24.3610 
  226.6250   -22.4090     2.2390    59.2360   123.1370    97.0890    87.9820    24.3500 
  226.7500   -22.2590     2.2520    57.8530   125.4680    98.6790    94.0190    24.3330 
  226.8750   -22.0730     2.2680    58.3170   128.1300   100.8680    95.4660    24.2620 
  227.0000   -21.8630     2.2810    60.7490   129.3940   102.3710    92.7280    24.0900 
  227.1250   -21.5670     2.2830    61.1890   127.1770   101.6490    93.6670    24.0060 
  227.2500   -21.2400     2.2750    60.0750   121.4340    98.4970    98.8800    24.0730 
  227.3750   -20.8910     2.2640    60.9820   112.5340    92.9840    86.4090    24.1690 
  227.5000   -20.5260     2.2580    64.3330   101.4100    85.5160    75.0560    24.1810 
  227.6250   -20.1050     2.2660    65.2190    89.7090    76.9910    72.9810    24.1760 
  227.7500   -19.7110     2.2800    64.2440    79.4360    69.0620    73.6690    24.2250 
  227.8750   -19.3220     2.2930    62.2340    71.6110    62.7720    64.6150    24.3180 
  228.0000   -18.9330     2.2960    60.4170    66.3580    58.4600    51.8170    24.3690 
  228.1250   -18.5730     2.2940    60.1420    63.3040    56.0480    50.4170    24.3350 
  228.2500   -18.2400     2.3010    60.2660    60.6280    54.1960    65.2440    24.1900 
  228.3750   -17.9350     2.3300    60.2100    56.4040    51.2670    90.3840    23.9380 
  228.5000   -17.6700     2.3850    59.5480    49.0000    45.5570   113.1830    23.7100 
  228.6250   -17.4930     2.4580    58.8840    38.1840    36.3940   102.9450    23.6210 
  228.7500   -17.3520     2.5240    59.9830    27.0750    26.5580    59.8850    23.5670 
  228.8750   -17.2760     2.5610    65.3970    18.1180    18.3410    25.5380    23.4660 
  229.0000   -17.2850     2.5580    74.1420    12.2410    12.6650    11.5170    23.3570 
  229.1250   -17.3860     2.5160    78.6190     9.3040     9.5460     7.3190    23.2890 
  229.2500   -17.5410     2.4610    78.7310     7.9160     7.8850     6.5210    23.2970 
  229.3750   -17.7340     2.4120    78.0130     7.4690     7.1890     6.8210    23.3130 
  229.5000   -17.9630     2.3800    75.8380     7.5790     7.1340     7.2920    23.3170 
  229.6250   -18.2130     2.3740    72.2850     7.9500     7.4730     7.4930    23.3200 
  229.7500   -18.4750     2.3840    73.6050     8.2800     7.8750     7.4730    23.3760 
  229.8750   -18.7470     2.3970    80.3330     8.4520     8.1730     7.3010    23.4600 
