~V
VERS. 2.00: Ver 2.00
~W
STRT.M 55.0000:
STOP.M 270.0000:
STEP.M 0.1250:
NULL. -999.2500:
UWI. F10235:
~C
DEPT.M :
GR.API :
RML.OHMM :
RI. :
RXO.OHMM :
CALI.CM :
DEN.GM/CC :
SP.MV :
~A
# ...
  133.7500    51.8740    22.3930    21.2230    23.0400    24.6000     2.5360    -7.1760 
  133.8750    55.2470    22.2670    21.1750    23.3750    24.5330     2.5220    -7.1690 
  134.0000    57.9010    22.2080    21.1750    22.4180    24.5330     2.5090    -7.1520 
  134.1250    57.9940    22.2100    21.2330    21.4970    24.5330     2.5030    -7.2020 
  134.2500    57.4700    22.1880    21.2640    21.2450    24.5330     2.5050    -7.2570 
  134.3750    58.1290    22.0560    21.1670    22.5410    24.4330     2.5100    -7.2810 
  134.5000    60.1740    21.7520    20.8820    24.6930    24.4000     2.5160    -7.2960 
  134.6250    60.3730    21.2280    20.3580    24.5350    24.4000     2.5180    -7.2870 
  134.7500    56.8160    20.5660    19.6750    22.9150    24.4000     2.5170    -7.2180 
  134.8750    54.1570    19.8680    18.9320    21.9210    24.4000     2.5130    -7.0960 
  135.0000    56.7380    19.2670    18.2650    20.7390    24.4000     2.5080    -6.9730 
  135.1250    60.6910    18.9430    17.8560    19.8540    24.3330     2.5050    -6.9170 
  135.2500    60.5400    18.9370    17.7590    18.3550    24.1330     2.5040    -6.9190 
  135.3750    58.6450    19.2330    17.9780    18.3620    24.2030     2.5070    -6.9430 
  135.5000    58.8110    19.7420    18.4370    19.7090    24.3220     2.5090    -7.0210 
  135.6250    60.0960    20.3450    19.0110    21.4040    24.4900     2.5060    -7.2660 
  135.7500    60.6780    20.9260    19.5710    21.9430    24.5120     2.4970    -7.6610 
  135.8750    60.3260    21.4570    20.0790    21.3440    24.4220     2.4870    -8.1190 
  136.0000    59.3960    21.9400    20.5360    21.0020    24.3170     2.4840    -8.5360 
  136.1250    59.2900    22.3260    20.9070    21.1430    24.3170     2.4940    -8.8140 
  136.2500    59.6130    22.5110    21.1030    21.7500    24.3940     2.5130    -8.9760 
  136.3750    59.1110    22.3640    20.9880    23.4380    24.4790     2.5290    -9.0520 
  136.5000    56.5390    21.8290    20.4880    23.7090    24.5520     2.5330    -9.0510 
  136.6250    53.1790    20.9880    19.6760    21.8500    24.5210     2.5190    -8.8990 
  136.7500    53.4150    20.1560    18.8590    18.7770    24.2670     2.4970    -8.6160 
  136.8750    55.6430    19.5720    18.2580    17.4570    24.2670     2.4780    -8.2570 
  137.0000    56.3360    19.3670    18.0030    17.8300    24.2670     2.4700    -7.9070 
  137.1250    53.3640    19.5370    18.1430    19.6980    24.2670     2.4760    -7.6230 
  137.2500    50.9560    19.8060    18.4560    21.2620    24.2670     2.4890    -7.3830 
  137.3750    51.1300    19.9390    18.7160    20.7530    24.2670     2.5000    -7.1840 
  137.5000    50.6090    19.7760    18.7310    20.7770    24.2670     2.5050    -7.0030 
  137.6250    49.0380    19.2830    18.3990    20.9270    24.2670     2.5010    -6.8070 
  137.7500    47.3180    18.7120    17.9280    20.0120    24.6440     2.4920    -6.6080 
  137.8750    45.6170    18.3160    17.5670    18.0870    24.9370     2.4840    -6.4350 
  138.0000    44.9780    18.2670    17.5140    16.9390    24.8470     2.4810    -6.3320 
  138.1250    46.1050    18.5920    17.8390    16.9870    24.8070     2.4850    -6.2810 
  138.2500    47.4820    18.9770    18.2760    17.6810    24.8360     2.4930    -6.2420 
  138.3750    47.6160    19.0970    18.5100    19.8010    24.8210     2.5020    -6.2300 
  138.5000    48.3140    18.6990    18.2390    22.4030    24.8090     2.5080    -6.2780 
  138.6250    53.9280    17.6580    17.2800    19.3670    24.8740     2.5070    -6.4230 
  138.7500    61.2700    16.3030    15.9800    15.5820    25.0080     2.4980    -6.5660 
  138.8750    66.3080    14.9550    14.6710    14.5970    25.1850     2.4860    -6.6670 
  139.0000    66.7760    13.8870    13.6120    14.6520    25.1310     2.4730    -6.7090 
  139.1250    63.5360    13.3540    13.0250    14.2070    25.0620     2.4660    -6.6700 
  139.2500    60.6330    13.3310    12.8980    12.9820    24.9350     2.4660    -6.6470 
  139.3750    58.3890    13.7980    13.2180    12.8960    24.9110     2.4750    -6.6850 
  139.5000    57.4480    14.6900    13.9400    14.5750    24.9010     2.4910    -6.7390 
  139.6250    58.9720    15.9210    15.0260    17.5650    24.8910     2.5110    -6.7410 
  139.7500    61.7070    17.2360    16.2590    19.0880    25.0130     2.5290    -6.7810 
  139.8750    62.4210    18.4070    17.4160    19.9340    25.2290     2.5410    -6.9020 
  140.0000    59.3570    19.2290    18.2590    20.0720    25.0930     2.5490    -7.0690 
  140.1250    56.2940    19.5360    18.5620    20.1710    24.9950     2.5530    -7.2530 
  140.2500    57.2410    19.4800    18.4640    19.3010    24.9360     2.5530    -7.4100 
  140.3750    62.0930    19.2250    18.1360    18.6820    24.8490     2.5480    -7.5310 
  140.5000    68.1650    18.9350    17.7320    17.8920    24.7290     2.5320    -7.6610 
  140.6250    73.5250    18.7910    17.4010    18.0370    24.6540     2.5040    -7.8520 
  140.7500    78.3380    18.9020    17.2710    18.6700    24.6700     2.4770    -8.0930 
  140.8750    82.9460    19.3580    17.4430    20.0620    24.7750     2.4590    -8.3340 
  141.0000    86.2970    20.2060    17.9770    19.6180    24.9510     2.4600    -8.5540 
  141.1250    87.1490    21.4470    18.9300    19.8930    24.9740     2.4800    -8.8480 
  141.2500    86.4840    22.8420    20.1210    23.5210    24.8900     2.5040    -9.2300 
  141.3750    86.2730    24.1630    21.3360    29.4260    24.7850     2.5230    -9.6390 
  141.5000    88.6260    25.2270    22.3650    29.1570    24.7810     2.5310   -10.0560 
  141.6250    88.2390    25.9250    23.0840    28.5560    24.8840     2.5290   -10.4670 
  141.7500    82.5220    26.3850    23.5780    26.9290    24.9670     2.5250   -10.8050 
  141.8750    76.4640    26.6950    23.9140    26.4060    24.9910     2.5190   -11.0670 
  142.0000    75.2720    26.8730    24.1330    28.5010    24.9640     2.5090   -11.3200 
  142.1250    76.3540    26.7890    24.1440    32.6440    25.0600     2.4900   -11.5190 
  142.2500    76.7690    26.3630    23.8380    32.2400    25.0470     2.4670   -11.6100 
  142.3750    80.9110    25.5980    23.1910    26.7740    25.0680     2.4460   -11.6030 
  142.5000    87.8260    24.6350    22.3280    24.3920    25.1300     2.4340   -11.5170 
  142.6250    90.9350    23.7390    21.4760    24.4630    25.1740     2.4340   -11.3140 
  142.7500    89.3610    23.1190    20.8350    25.5990    25.2620     2.4430   -10.9760 
  142.8750    86.4590    22.8350    20.5010    25.2520    25.2390     2.4600   -10.5340 
  143.0000    84.7810    22.7880    20.4140    24.1940    25.1750     2.4810   -10.0030 
  143.1250    83.2180    22.7120    20.3290    22.2760    25.1800     2.4960    -9.4020 
  143.2500    81.2470    22.3530    19.9770    22.6350    25.2840     2.4960    -8.8080 
  143.3750    79.2430    21.6240    19.2610    23.4730    25.3810     2.4780    -8.2320 
  143.5000    77.2830    20.6230    18.2670    22.3320    25.4860     2.4500    -7.6250 
  143.6250    77.0730    19.6230    17.2730    17.4230    25.2700     2.4280    -7.0210 
  143.7500    78.1990    18.8820    16.5390    15.4190    25.0160     2.4220    -6.5510 
  143.8750    79.0440    18.5030    16.1490    15.8410    24.7040     2.4290    -6.2650 
  144.0000    76.9130    18.4810    16.0890    17.6450    24.4570     2.4390    -6.0570 
  144.1250    76.3010    18.8350    16.3870    19.7360    24.3910     2.4430    -5.8550 
  144.2500    79.4660    19.5180    16.9810    20.4190    24.3660     2.4410    -5.7120 
  144.3750    81.6680    20.5500    17.8670    19.6210    24.3920     2.4420    -5.6420 
  144.5000    81.2130    21.8520    19.0190    20.4660    24.4240     2.4530    -5.5780 
  144.6250    81.7410    22.9740    20.1860    25.7490    24.5160     2.4740    -5.5130 
  144.7500    83.2260    23.1900    20.6630    29.5010    24.6580     2.4940    -5.4370 
  144.8750    82.2040    21.9040    19.6660    26.6440    24.6910     2.5020    -5.2710 
