~V
VERS. 2.00: Ver 2.00
~W
STRT.M 50.0000:
STOP.M 281.0000:
STEP.M 0.1250:
NULL. -999.2500:
UWI. F10234:
~C
DEPT.M :
DEN.GM/CC :
GR.API :
RML.OHMM :
RI. :
RXO.OHMM :
CALI.CM :
SP.MV :
~A
# ...
  196.2500     2.2280    46.2890   125.0070   127.8290   110.5940    22.8280   -11.5630 
  196.3750     2.2220    50.8930    96.0090    97.6820    80.4880    22.8470   -11.6880 
  196.5000     2.2160    55.5010    77.6640    78.4110    59.9360    22.9130   -11.8040 
  196.6250     2.2280    54.8650    67.0310    67.5970    49.0710    23.0290   -11.9670 
  196.7500     2.2650    51.3580    60.1640    60.9290    56.5380    23.1640   -12.0640 
  196.8750     2.3250    49.4410    55.7940    56.8360    58.1330    23.2800   -12.1550 
  197.0000     2.3810    50.4930    53.5080    54.7250    45.1850    23.3700   -12.2380 
  197.1250     2.3910    52.5800    53.5910    54.8320    39.4920    23.4300   -12.3060 
  197.2500     2.3480    54.0030    55.4950    56.6950    41.8480    23.4460   -12.3440 
  197.3750     2.2730    54.5410    58.6240    59.7940    47.6810    23.3990   -12.3320 
  197.5000     2.1990    54.7670    61.9010    63.0950    47.9460    23.2910   -12.2990 
  197.6250     2.1690    55.0290    63.5710    64.8060    43.7320    23.1720   -12.2650 
  197.7500     2.1920    54.8140    62.9360    64.1220    41.6330    23.0670   -12.2470 
  197.8750     2.2500    53.5230    60.3890    61.3370    35.0490    22.9650   -12.2420 
  198.0000     2.3040    52.4700    57.2600    57.7160    23.6290    22.8530   -12.2560 
  198.1250     2.3130    53.5310    55.4170    55.0940    15.6910    22.7280   -12.2450 
  198.2500     2.2890    55.9050    55.5600    54.3200    12.8020    22.6230   -12.2190 
  198.3750     2.2590    57.4200    57.4030    55.2300    13.8390    22.5490   -12.1800 
  198.5000     2.2400    57.3300    59.8000    56.8160    18.0920    22.4980   -12.1090 
  198.6250     2.2360    55.3180    60.7290    57.2610    27.9650    22.4730   -12.0210 
  198.7500     2.2430    53.2440    59.2590    55.6180    39.2320    22.4710   -11.9450 
  198.8750     2.2620    54.6740    55.8610    52.2070    42.2140    22.4890   -11.8680 
  199.0000     2.2900    60.7180    52.0820    48.3220    33.6810    22.5080   -11.8410 
  199.1250     2.3070    65.9470    49.9970    45.7700    26.5530    22.5000   -11.8030 
  199.2500     2.3040    65.8630    50.4730    45.3890    28.1260    22.4670   -11.7800 
  199.3750     2.2830    61.2290    53.9090    47.5690    37.0460    22.4180   -11.7750 
  199.5000     2.2570    56.2630    60.3670    52.4220    47.6690    22.3530   -11.8040 
  199.6250     2.2320    53.9790    69.8350    60.0480    45.6580    22.2590   -11.8160 
  199.7500     2.2070    53.9970    80.5910    69.0020    48.0960    22.1630   -11.8410 
  199.8750     2.1810    55.6840    90.4460    77.4510    61.9910    22.1030   -11.8880 
  200.0000     2.1630    56.5440    96.3470    82.8940    81.0450    22.1120   -11.8650 
  200.1250     2.1690    55.9920    94.0660    81.8470    79.8900    22.2080   -11.8760 
  200.2500     2.1980    55.0770    84.9430    74.9750    64.3410    22.3890   -11.8990 
  200.3750     2.2390    53.8630    72.5030    64.7360    46.3890    22.6400   -11.9350 
  200.5000     2.2780    52.9870    52.4540    54.0840    33.9860    22.9320   -11.9630 
  200.6250     2.3170    52.1010    43.5200    44.7590    29.0130    23.2210   -11.9840 
  200.7500     2.3650    51.1790    35.5660    36.4710    28.9020    23.4490   -11.9450 
  200.8750     2.4190    50.0950    30.1790    28.9350    35.5710    23.5890   -11.8550 
  201.0000     2.4590    49.3090    23.6320    22.2810    42.3030    23.6350   -11.7610 
  201.1250     2.4690    51.2250    17.8230    17.0870    27.3470    23.5980   -11.6940 
  201.2500     2.4640    56.4350    13.6060    13.2660    13.2760    23.4780   -11.6330 
  201.3750     2.4520    64.3310    10.7730    10.6210     8.5910    23.3290   -11.5910 
  201.5000     2.4280    72.5620     8.9560     8.8570     7.7130    23.2330   -11.5480 
  201.6250     2.3850    76.9200     7.9170     7.7970     7.2340    23.2400   -11.4840 
  201.7500     2.3340    77.3190     7.3180     7.1600     6.0780    23.3100   -11.4350 
  201.8750     2.2950    75.6970     7.0510     6.8510     4.8380    23.4090   -11.4180 
  202.0000     2.2900    73.5030     7.0710     6.8230     4.3920    23.5140   -11.4870 
  202.1250     2.3290    71.8360     7.3920     7.0940     5.4530    23.6190   -11.5770 
  202.2500     2.3820    71.0420     7.9110     7.5720     7.0390    23.7120   -11.7430 
  202.3750     2.4200    70.6090     8.5110     8.1540     8.3210    23.7590   -11.9600 
  202.5000     2.4320    68.5360     9.0370     8.6960     8.8440    23.7360   -12.2440 
  202.6250     2.4280    65.3520     9.3110     9.0130     8.5680    23.6670   -12.5820 
  202.7500     2.4280    64.4510     9.3500     9.0760     7.9840    23.6000   -13.0280 
  202.8750     2.4370    67.2950     9.2290     8.9340     7.6310    23.5090   -13.4920 
  203.0000     2.4510    71.1620     9.0380     8.6720     7.5820    23.3590   -13.8980 
  203.1250     2.4590    71.8770     8.8190     8.3550     7.4590    23.1030   -14.3100 
  203.2500     2.4560    72.0910     8.5900     8.0330     7.2860    22.7830   -14.6940 
  203.3750     2.4510    75.6950     8.3490     7.7120     6.9570    22.4680   -15.0790 
  203.5000     2.4520    81.1580     8.0960     7.3900     6.3080    22.2120   -15.4540 
  203.6250     2.4460    83.4700     7.8510     7.0650     5.7640    22.0570   -15.8610 
  203.7500     2.4220    83.8110     7.6480     6.7620     5.5160    22.0030   -16.2050 
  203.8750     2.3790    83.6060     7.5190     6.5140     5.4140    22.0870   -16.5440 
  204.0000     2.3390    81.6240     7.4810     6.3530     5.0090    22.3490   -16.8820 
  204.1250     2.3290    78.1100     7.5500     6.3130     5.1930    22.7890   -17.1680 
  204.2500     2.3390    76.0400     7.6910     6.3670     5.9970    23.3230   -17.3710 
  204.3750     2.3450    75.8880     7.8690     6.4890     6.8430    23.8420   -17.4910 
  204.5000     2.3300    76.4920     8.0600     6.6500     7.1070    24.2720   -17.5540 
  204.6250     2.2850    77.5820     8.2950     6.8560     6.7510    24.5790   -17.5260 
  204.7500     2.2290    76.0410     8.6550     7.1480     6.5290    24.7570   -17.4350 
  204.8750     2.1840    72.1370     9.2310     7.5870     6.8890    24.7700   -17.2740 
  205.0000     2.1690    68.6690    10.0830     8.2170     7.3070    24.6190   -17.0230 
  205.1250     2.2080    66.3110    11.1900     9.0430     7.6300    24.3790   -16.7360 
  205.2500     2.2890    64.6210    12.2550     9.8750     9.7140    24.1610   -16.4610 
  205.3750     2.3820    64.4120    12.9080    10.4430    11.5670    24.0330   -16.1910 
  205.5000     2.4410    65.7110    12.8550    10.4900    10.9620    24.0150   -15.8870 
  205.6250     2.4380    67.3270    11.9690     9.8520     9.6510    24.0480   -15.5260 
  205.7500     2.4070    69.4290    10.6770     8.8300     8.1670    24.0750   -15.1640 
  205.8750     2.3670    73.4640     9.3370     7.7080     6.9900    24.1110   -14.7520 
  206.0000     2.3260    76.7550     8.2220     6.7230     6.5570    24.1500   -14.3620 
  206.1250     2.2890    76.4370     7.5210     6.0570     6.0160    24.1720   -13.9370 
  206.2500     2.2600    73.3160     7.2130     5.7120     5.2600    24.1720   -13.5070 
  206.3750     2.2440    70.9170     7.3500     5.7140     5.1800    24.1490   -13.0860 
  206.5000     2.2490    73.2220     8.0080     6.1000     5.9490    24.1120   -12.7010 
  206.6250     2.2850    78.4470     9.3220     6.9750     6.6650    24.0770   -12.3490 
  206.7500     2.3500    78.8950    11.0710     8.2210     7.8730    24.0410   -12.0180 
  206.8750     2.4410    74.1910    12.8780     9.6250     9.9490    23.9850   -11.7550 
  207.0000     2.5430    71.2410    14.1450    10.7770    12.2860    23.8990   -11.4990 
  207.1250     2.5900    75.4580    14.0830    11.0480    14.3270    23.7500   -11.2590 
  207.2500     2.5430    79.8430    12.8930    10.4410    12.6760    23.4910   -10.9920 
  207.3750     2.4320    79.2000    11.1340     9.2870     9.4120    23.1610   -10.6890 
