~V
VERS. 2.00: Ver 2.00
~W
STRT.M 50.0000:
STOP.M 284.0000:
STEP.M 0.1250:
NULL. -999.2500:
UWI. F10254:
~C
DEPT.M :
GR.API :
RML.OHMM :
RI. :
RXO.OHMM :
CALI.CM :
DEN.GM/CC :
SP.MV :
~A
# ...
  230.0000    57.8900    65.1050    59.9410   105.6520    24.5700     2.2850   -25.9610 
  230.1250    58.0040    69.2380    64.1730   106.6080    24.5890     2.2670   -26.2750 
  230.2500    56.3660    71.3250    66.3780   106.0810    24.5900     2.2490   -26.4980 
  230.3750    54.1540    71.3600    66.5740   109.4940    24.5960     2.2350   -26.6040 
  230.5000    52.6250    69.0390    64.5450   117.7810    24.6130     2.2280   -26.6900 
  230.6250    51.5980    64.2140    60.1690   116.4700    24.6400     2.2290   -26.8820 
  230.7500    50.9980    58.3270    54.7320    93.8890    24.6410     2.2350   -27.1130 
  230.8750    52.6500    52.4740    49.2070    69.0680    24.6130     2.2430   -27.2810 
  231.0000    56.9340    47.3470    44.2400    55.6300    24.5930     2.2510   -27.3870 
  231.1250    59.4160    43.3090    40.2190    52.9840    24.5990     2.2580   -27.4860 
  231.2500    57.3770    40.1150    36.9980    56.7040    24.6340     2.2650   -27.5820 
  231.3750    53.0330    37.7170    34.5600    52.9920    24.6470     2.2710   -27.6540 
  231.5000    51.5980    36.2290    32.9820    42.9750    24.6330     2.2750   -27.6860 
  231.6250    55.5090    36.1150    32.6030    38.0930    24.6940     2.2720   -27.6540 
  231.7500    60.3950    37.3970    33.4010    39.1810    24.7420     2.2640   -27.5630 
  231.8750    62.4600    40.0100    35.3560    46.8920    24.7700     2.2530   -27.4370 
  232.0000    60.5520    43.4700    38.1380    59.0560    24.7710     2.2450   -27.3740 
  232.1250    57.0900    46.7070    40.9200    70.3780    24.7530     2.2400   -27.2920 
  232.2500    54.7000    48.8080    42.8500    75.6960    24.7320     2.2380   -27.1490 
  232.3750    54.8570    49.6980    43.7420    76.9320    24.7310     2.2380   -27.0740 
  232.5000    56.4010    50.1740    44.1360    68.4430    24.7520     2.2380   -27.1000 
  232.6250    55.2680    51.7680    45.1960    62.9800    24.7650     2.2370   -27.1410 
  232.7500    51.3860    55.2510    47.6320    67.6880    24.7570     2.2370   -27.1980 
  232.8750    48.3100    60.4940    51.4400    82.8580    24.7390     2.2350   -27.2940 
  233.0000    48.4610    66.3290    55.7830   100.7300    24.7390     2.2290   -27.3740 
  233.1250    49.4070    70.2170    58.7590   123.3160    24.7590     2.2160   -27.5280 
  233.2500    48.6020    70.6190    59.1330   134.2710    24.7570     2.1980   -27.8430 
  233.3750    47.4590    67.6090    56.8390   130.5970    24.7350     2.1800   -28.1620 
  233.5000    46.3680    62.6550    52.8760   107.0600    24.6960     2.1710   -28.4030 
  233.6250    45.8010    57.6180    48.6330    90.2310    24.6190     2.1740   -28.6240 
  233.7500    46.4570    53.4990    45.0200    88.4220    24.5240     2.1830   -28.9240 
  233.8750    48.5470    50.3770    42.1970    88.3330    24.4730     2.1860   -29.3010 
  234.0000    51.3560    47.9600    40.0000    72.3780    24.4550     2.1790   -29.6400 
  234.1250    51.8880    45.8240    38.1170    57.2750    24.4150     2.1610   -29.8700 
  234.2500    50.3320    43.4670    36.1100    54.8090    24.3060     2.1440   -30.0860 
  234.3750    49.6160    40.5530    33.6760    54.6220    24.1120     2.1370   -30.3270 
  234.5000    51.2280    36.9280    30.6660    50.3190    23.8580     2.1420   -30.5390 
  234.6250    52.2090    32.6830    27.1660    43.4930    23.7000     2.1590   -30.6540 
  234.7500    50.9500    27.2650    23.7030    35.6030    23.6650     2.1810   -30.6950 
  234.8750    49.5390    22.5990    20.7220    27.7680    23.6930     2.2090   -30.6720 
  235.0000    49.5720    20.1660    18.4910    22.4110    23.7500     2.2420   -30.5710 
  235.1250    50.1070    18.8690    17.1650    20.6300    23.8340     2.2720   -30.4220 
  235.2500    50.0720    18.2970    16.4400    22.4320    23.8850     2.2860   -30.1900 
  235.3750    49.7240    18.1070    16.0830    26.9580    23.9730     2.2770   -29.8620 
  235.5000    49.4060    17.9980    15.8680    21.2160    24.1990     2.2470   -29.4840 
  235.6250    49.2890    17.8470    15.6850    18.0120    24.4520     2.2130   -29.1470 
  235.7500    50.1810    17.7440    15.5550    16.6090    24.5500     2.1930   -28.8160 
  235.8750    53.5020    17.7610    15.5120    17.1090    24.5410     2.1910   -28.4710 
  236.0000    57.7540    17.8550    15.5250    18.1180    24.6290     2.2020   -28.1750 
  236.1250    57.3860    17.8210    15.4570    20.1840    24.6530     2.2140   -27.9110 
  236.2500    54.1440    17.4640    15.1550    21.8880    24.6330     2.2220   -27.6960 
  236.3750    53.8410    16.7260    14.5560    18.5230    24.5560     2.2250   -27.5790 
  236.5000    58.8840    15.7580    13.7570    14.4710    24.4740     2.2280   -27.5430 
  236.6250    62.7750    14.8770    12.9880    13.3150    24.4190     2.2330   -27.4500 
  236.7500    61.3360    14.2830    12.4220    13.8200    24.3830     2.2350   -27.2630 
  236.8750    57.8460    14.0250    12.1210    14.0470    24.3410     2.2350   -27.0510 
  237.0000    56.9910    14.0670    12.0860    13.5200    24.2660     2.2320   -26.8330 
  237.1250    58.8030    14.3520    12.2910    13.7860    24.0350     2.2350   -26.5320 
  237.2500    59.6550    14.7450    12.6170    13.9910    23.7830     2.2480   -26.0220 
  237.3750    58.2940    15.1670    12.9850    13.4720    23.7050     2.2690   -25.3270 
  237.5000    55.7130    15.5360    13.3220    12.9420    23.8800     2.2880   -24.5800 
  237.6250    53.4900    15.6910    13.4990    12.6530    24.1040     2.2960   -23.9630 
  237.7500    53.5410    15.5550    13.4460    12.6430    24.2330     2.2920   -23.4140 
  237.8750    55.6380    15.1320    13.1520    12.6620    24.2680     2.2800   -22.8660 
  238.0000    57.7630    14.5200    12.6850    12.9970    24.2660     2.2670   -22.3790 
  238.1250    58.0680    13.8740    12.1560    13.5560    24.2180     2.2570   -22.0170 
  238.2500    57.8770    13.3400    11.6910    13.4220    24.2000     2.2500   -21.7960 
  238.3750    57.7860    13.0000    11.3580    12.6030    24.1920     2.2480   -21.7500 
  238.5000    57.9080    12.8630    11.1830    12.2990    24.1800     2.2500   -21.8510 
  238.6250    59.0130    12.8910    11.1600    12.5330    24.1780     2.2560   -21.9510 
  238.7500    61.1050    12.9740    11.2160    12.5620    24.2070     2.2620   -22.0400 
  238.8750    62.9230    13.0460    11.3010    12.2400    24.2480     2.2640   -22.1930 
  239.0000    63.4640    13.0660    11.3750    12.0790    24.2830     2.2580   -22.3980 
  239.1250    62.1830    13.0160    11.4110    12.0370    24.3250     2.2470   -22.6100 
  239.2500    59.9540    12.9390    11.4280    12.0490    24.3750     2.2380   -22.8150 
  239.3750    58.8010    12.8700    11.4500    12.0170    24.4050     2.2360   -22.9760 
  239.5000    60.5830    12.8280    11.4940    11.9670    24.4280     2.2390   -23.0690 
  239.6250    63.7590    12.8180    11.5660    12.0360    24.4280     2.2410   -23.2010 
  239.7500    63.4010    12.8210    11.6470    12.0390    24.4180     2.2370   -23.4040 
  239.8750    60.0300    12.8210    11.7230    12.1060    24.4100     2.2260   -23.5540 
  240.0000    58.2560    12.8100    11.7810    12.0960    24.4170     2.2130   -23.6030 
  240.1250    60.2690    12.8090    11.8240    12.0060    24.4020     2.2040   -23.6420 
  240.2500    60.9230    12.8570    11.8770    11.8410    24.3940     2.2060   -23.7590 
  240.3750    59.7020    12.9810    11.9630    11.7570    24.3970     2.2190   -23.8910 
  240.5000    59.8380    13.1810    12.0840    11.8330    24.4130     2.2400   -23.9610 
  240.6250    61.0760    13.4030    12.2060    12.3600    24.4320     2.2620   -23.9400 
  240.7500    60.4660    13.5520    12.2620    13.4600    24.4320     2.2760   -23.9160 
  240.8750    58.4660    13.5400    12.1870    14.5230    24.4370     2.2800   -23.9210 
  241.0000    57.4480    13.3200    11.9470    14.3490    24.4380     2.2740   -23.8700 
  241.1250    59.0460    12.9420    11.5840    13.2030    24.4200     2.2640   -23.6840 
