~V
VERS. 2.00: Ver 2.00
~W
STRT.M 57.0000:
STOP.M 259.0000:
STEP.M 0.1250:
NULL. -999.2500:
UWI. F10209:
~C
DEPT.M :
SP.MV :
DEN.GM/CC :
GR.API :
RML.OHMM :
RI. :
RXO.OHMM :
CALI.CM :
~A
# ...
  248.2500    -6.5250     2.3380    71.4410    12.0810    10.5600    13.9580    24.2930 
  248.3750    -6.3930     2.3410    69.8590    12.2070    10.6040    15.7220    24.2560 
  248.5000    -6.3240     2.3480    69.0300    12.3460    10.6680    15.6720    24.2240 
  248.6250    -6.2640     2.3510    69.0300    12.4850    10.7350    12.8190    24.1620 
  248.7500    -6.2690     2.3450    69.0300    12.6290    10.8070    10.7480    24.1170 
  248.8750    -6.3100     2.3280    69.0300    12.7990    10.9020    10.3830    24.2380 
  249.0000    -6.3670     2.3070    69.0300    13.0180    11.0450    10.1030    24.4190 
  249.1250    -6.4920     2.2920    69.0300    13.3050    11.2510    10.3590    24.4080 
  249.2500    -6.5990     2.2850    69.0300    13.6680    11.5250    10.9280    24.2930 
  249.3750    -6.7500     2.2880    69.0300    14.1030    11.8660    12.0050    24.2140 
  249.5000    -6.9040     2.2930    69.0300    14.5620    12.2360    12.1750    24.2240 
  249.6250    -7.0080     2.2970    69.0300    14.9980    12.5960    12.2790    24.1860 
  249.7500    -7.0630     2.2990    69.0300    15.3660    12.9070    12.9230    24.1220 
  249.8750    -6.9940     2.3010    69.0300    15.6230    13.1320    13.2590    24.1660 
  250.0000    -6.8370     2.3040    69.0300    15.7880    13.2870    13.0440    24.3180 
  250.1250    -6.6250     2.3130    69.0300    15.8810    13.3840    13.8150    24.3180 
  250.2500    -6.3970     2.3280    69.0300    15.9150    13.4320    15.5140    24.2050 
  250.3750    -6.0430     2.3510    69.0300    15.8850    13.4130    16.7220    24.1400 
  250.5000    -5.6400     2.3760    69.0300    15.8030    13.3350    16.3470    24.1330 
  250.6250    -5.3200     2.3990    69.0300    15.6890    13.2160    14.7970    24.1400 
  250.7500    -4.9870     2.4180    69.0300    15.5780    13.0920    12.4080    24.1620 
  250.8750    -4.6700     2.4350    69.0300    15.5200    13.0070     9.9870    24.2150 
  251.0000    -4.4320     2.4510    69.0300    15.5250    12.9730     8.4300    24.2580 
  251.1250    -4.1850     2.4650    69.0300    15.5820    12.9900     8.1050    24.2790 
  251.2500    -3.9380     2.4780    69.0300    15.6630    13.0450     8.6380    24.2690 
  251.3750    -3.8060     2.4890    69.0300    15.7520    13.1290     8.9530    24.2300 
  251.5000    -3.7820     2.4990    69.0300    15.8570    13.2400     9.0750    24.1620 
  251.6250    -3.8030     2.5050    69.0300    15.9990    13.3860     9.3950    24.1050 
  251.7500    -3.8890     2.5050    69.0300    16.1900    13.5670     9.9440    24.0900 
  251.8750    -3.9830     2.5000    69.0300    16.4280    13.7800    10.4620    24.0930 
  252.0000    -4.0290     2.4940    69.0300    16.6660    13.9930    10.3820    24.0860 
  252.1250    -4.0840     2.4910    69.0300    16.8440    14.1600     9.9650    24.0930 
  252.2500    -4.1690     2.4910    69.0300    16.8930    14.2230     9.8990    24.1210 
  252.3750    -4.2870     2.4930    69.0300    16.7110    14.0920    10.2150    24.1600 
  252.5000    -4.3650     2.4960    69.0300    16.3040    13.7690    10.2360    24.1860 
  252.6250    -4.3970     2.4950    69.0300    15.7170    13.2880     9.7610    24.2040 
  252.7500    -4.4690     2.4910    69.0300    15.0710    12.7530     9.1310    24.1950 
  252.8750    -4.6670     2.4790    69.0300    14.5960    12.3500     8.9550    24.2120 
  253.0000    -4.9350     2.4610    69.0300    14.4400    12.2010     9.0970    24.2090 
  253.1250    -5.2040     2.4410    69.0300    14.6640    12.3570     9.8680    24.1950 
  253.2500    -5.4210     2.4230    69.0300    15.2230    12.8020    12.0920    24.1830 
  253.3750    -5.5840     2.4150    69.0300    15.9650    13.4530    15.7650    24.1700 
  253.5000    -5.7170     2.4160    69.0300    16.5950    14.0770    17.5370    24.1840 
  253.6250    -5.8270     2.4250    69.0300    16.9180    14.4900    16.7610    24.1940 
  253.7500    -5.9330     2.4370    69.0300    16.8970    14.6150    15.8920    24.2050 
  253.8750    -6.0110     2.4450    69.0300    16.6610    14.5130    16.0390    24.1890 
  254.0000    -6.0680     2.4460    69.0300    16.4570    14.3820    16.4830    24.1100 
  254.1250    -6.1290     2.4430    69.0300    16.3930    14.3310    16.4150    24.0170 
  254.2500    -6.1840     2.4390    69.0300    16.4660    14.3790    16.8260    23.9790 
  254.3750    -6.2860     2.4410    69.0300    16.5630    14.4560    18.5550    23.9600 
  254.5000    -6.4340     2.4460    69.0300    16.5630    14.4560    18.9920    23.9590 
  254.6250    -6.5680     2.4530    69.0300    16.5630    14.4560    19.8300    23.9690 
  254.7500    -6.6840     2.4600    69.0300    16.5630    14.4560    23.2830    23.9740 
  254.8750    -6.8060     2.4680    69.0300    16.5630    14.4560    26.6450    24.0100 
  255.0000    -6.9250     2.4770    69.0300    16.5630    14.4560    24.9610    24.0530 
  255.1250    -7.0300     2.4800    69.0300    16.5630    14.4560    23.2600    24.0870 
  255.2500    -7.1720     2.4720    69.0300    16.5630    14.4560    21.4540    24.0240 
  255.3750    -7.3600     2.4520    69.0300    16.5630    14.4560    19.3300    23.9830 
  255.5000    -7.5540     2.4310    69.0300    16.5630    14.4560    17.4410    23.9470 
  255.6250    -7.7930     2.4180    69.0300    16.5630    14.4560    18.3050    23.9190 
  255.7500    -7.9840     2.4140    69.0300    16.5630    14.4560    20.6230    23.5380 
  255.8750    -8.1430     2.4180    69.0300    16.5630    14.4560    19.0970    23.1320 
  256.0000    -8.3080     2.4220    69.0300    16.5630    14.4560    18.7520    22.8160 
  256.1250    -8.4630     2.4180    69.0300    16.5630    14.4560    18.6550    22.7390 
  256.2500    -8.6250     2.4040    69.0300    16.5630    14.4560    18.9500    22.6950 
  256.3750    -8.6750     2.3770    69.0300    16.5630    14.4560    19.3240    22.5450 
  256.5000    -8.6070     2.3450    69.0300    16.5630    14.4560    19.2090    22.2390 
  256.6250    -8.4420     2.3130    69.0300    16.5630    14.4560    18.4080    21.8080 
  256.7500    -8.3020     2.2810    69.0300    16.5630    14.4560    17.8560    21.2980 
  256.8750    -8.1990     2.2430    69.0300    16.5630    14.4560    16.9450    20.7950 
  257.0000    -8.1030     2.1980    69.0300    16.5630    14.4560    15.5010    20.1230 
  257.1250    -8.0570     2.1480    69.0300    16.5630    14.4560    14.3270    19.3230 
  257.2500    -7.9840     2.1020    69.0300    16.5630    14.4560    13.8360    18.5680 
  257.3750    -7.8990     2.0660    69.0300    16.5630    14.4560    14.1590    18.0890 
  257.5000    -7.8930     2.0430    69.0300    16.5630    14.4560    14.3320    17.8900 
  257.6250    -7.9890     2.0300    69.0300    16.5630    14.4560    14.4950    17.8560 
  257.7500    -8.0480     2.0260    69.0300    16.5630    14.4560    14.7180    17.8550 
  257.8750    -8.0760     2.0280    69.0300    16.5630    14.4560    14.8640    17.8620 
  258.0000    -8.1000     2.0310    69.0300    16.5630    14.4560    14.4740    17.7790 
  258.1250    -8.1310     2.0350    69.0300    16.5630    14.4560    14.1450    17.6010 
  258.2500    -8.1490     2.0370    69.0300    16.5630    14.4560    13.8410    17.3620 
  258.3750    -8.1490     2.0370    69.0300    16.5630    14.4560    13.4620    17.0480 
  258.5000    -8.1490     2.0360    69.0300    16.5630    14.4560    12.0220    16.6520 
  258.6250  -999.2500     2.0330    69.0300    16.5630    14.4560    10.8080    16.2500 
  258.7500  -999.2500     2.0310    69.0300    16.5630    14.4560    10.6580    15.7910 
  258.8750  -999.2500     2.0280    69.0300    16.5630    14.4560    10.6580    15.0520 
  259.0000  -999.2500     2.0240    69.0300    16.5630    14.4560    10.6560    14.3150 
