~V
VERS. 2.00: Ver 2.00
~W
STRT.M 52.0000:
STOP.M 271.0000:
STEP.M 0.1250:
NULL. -999.2500:
UWI. F10212:
~C
DEPT.M :
GR.API :
RML.OHMM :
RI. :
RXO.OHMM :
CALI.CM :
SP.MV :
DEN.GM/CC :
~A
# ...
  108.2500    66.2590    14.0120    10.8020    17.8060    23.8270   -28.2780     2.1020 
  108.3750    65.3360    14.1780    10.9480    16.5800    23.5310   -27.9280     2.0950 
  108.5000    64.4890    14.3180    11.0280    16.0660    23.3560   -27.4410     2.1040 
  108.6250    65.5040    14.2080    10.9020    15.9010    23.3090   -26.7710     2.1160 
  108.7500    67.0310    13.6170    10.4220    15.8330    23.2990   -25.9890     2.1230 
  108.8750    67.7180    12.4740     9.5460    15.4180    23.3080   -25.1510     2.1280 
  109.0000    69.3200    11.0010     8.4350    13.9960    23.3800   -24.3220     2.1360 
  109.1250    76.2520     9.7060     7.4260    10.8710    23.6380   -23.6100     2.1500 
  109.2500    83.7490     8.9850     6.7640     8.1320    24.0380   -23.0650     2.1690 
  109.3750    85.1520     8.9950     6.5580     7.7190    24.3860   -22.6670     2.1870 
  109.5000    80.8660     9.6770     6.8190    10.3040    24.5860   -22.3270     2.1960 
  109.6250    76.1000    10.8410     7.5310    14.3480    24.6370   -21.9910     2.1850 
  109.7500    73.4240    12.1160     8.4770    16.5530    24.6460   -21.6460     2.1630 
  109.8750    72.0150    13.3360     9.5010    16.9140    24.6520   -21.2550     2.1480 
  110.0000    71.3940    14.4810    10.4950    16.3370    24.6670   -20.7400     2.1500 
  110.1250    72.0480    15.5590    11.3730    15.1390    24.7220   -19.9510     2.1680 
  110.2500    72.6190    16.3820    12.0180    14.6780    24.7830   -18.9270     2.1950 
  110.3750    73.1630    16.5230    12.1620    16.0500    24.8250   -17.7470     2.2320 
  110.5000    74.4020    15.5800    11.5400    18.0750    24.7790   -16.5770     2.2770 
  110.6250    78.9030    13.5310    10.1420    15.5560    24.6240   -15.6250     2.3150 
  110.7500    87.4320    11.2830     8.5870    10.4900    24.2320   -14.9600     2.3310 
  110.8750    95.2400     9.5550     7.3250     7.4820    23.7570   -14.5460     2.3260 
  111.0000    97.1880     8.7550     6.6000     7.0190    23.3360   -14.3370     2.3130 
  111.1250    92.7650     9.0970     6.5760     7.6820    23.0460   -14.3250     2.2960 
  111.2500    86.3010    10.1770     7.0930     8.8790    22.9300   -14.3400     2.2710 
  111.3750    77.9320    11.5690     7.9680    11.0240    23.1100   -14.2640     2.2460 
  111.5000    69.1430    12.6950     8.8590    13.6610    23.5640   -13.9890     2.2240 
  111.6250    66.5760    12.8300     9.2000    14.3770    24.0730   -13.3580     2.2090 
  111.7500    72.0330    11.9790     8.8270    12.6770    24.4810   -12.3900     2.2030 
  111.8750    83.8460    10.4870     7.9050     9.8490    24.7310   -11.1980     2.2140 
  112.0000    98.2430     8.8510     6.7770     7.4920    24.8800    -9.9000     2.2380 
  112.1250   106.3590     7.5370     5.7850     6.5260    24.9610    -8.5770     2.2670 
  112.2500   106.9730     6.6770     5.0700     5.8960    25.0620    -7.3610     2.2870 
  112.3750   105.9850     6.2780     4.6640     5.3730    25.1110    -6.3600     2.2880 
  112.5000   109.3540     6.2940     4.5550     5.1470    24.8360    -5.6460     2.2680 
  112.6250   113.7280     6.6650     4.7270     5.3550    24.1580    -5.2720     2.2290 
  112.7500   113.2610     7.1650     5.0460     5.8010    23.4610    -5.0960     2.1990 
  112.8750   107.9580     7.6040     5.3900     6.1840    23.0850    -5.0260     2.2000 
  113.0000   102.8090     7.8080     5.6310     6.5560    22.9640    -5.0050     2.2340 
  113.1250   104.8350     7.6450     5.6380     6.6450    22.9840    -5.0030     2.2790 
  113.2500   110.2110     7.2430     5.4510     6.1820    23.0590    -4.9870     2.3100 
  113.3750   112.4650     6.7530     5.1520     5.7180    23.1720    -4.9240     2.3260 
  113.5000   112.0860     6.3100     4.8330     5.5760    23.2560    -4.7790     2.3320 
  113.6250   112.5480     6.0050     4.5710     5.6130    23.2970    -4.5580     2.3280 
  113.7500   111.4460     5.8240     4.3850     5.5020    23.6510    -4.3550     2.3150 
  113.8750   106.3720     5.7370     4.2740     5.1460    24.3170    -4.1980     2.2940 
  114.0000   103.6270     5.7100     4.2240     4.9070    24.6400    -4.0470     2.2630 
  114.1250   106.3890     5.7370     4.2340     4.9500    24.2740    -3.8500     2.2340 
  114.2500   107.4590     5.8240     4.3000     5.1490    23.7200    -3.6380     2.2240 
  114.3750   106.7560     5.9760     4.4220     5.3440    23.3150    -3.4760     2.2360 
  114.5000   107.7030     6.1650     4.5840     5.3750    23.1260    -3.4000     2.2610 
  114.6250   107.7810     6.3330     4.7480     5.4220    23.1070    -3.4230     2.2840 
  114.7500   104.5390     6.4330     4.8740     5.5820    23.2630    -3.4730     2.3060 
  114.8750   103.0430     6.4490     4.9420     5.7010    23.6950    -3.5050     2.3340 
  115.0000   106.8240     6.3970     4.9560     5.7130    24.2640    -3.5460     2.3660 
  115.1250   109.0690     6.3080     4.9280     5.7370    24.6840    -3.6850     2.3830 
  115.2500   107.6400     6.2030     4.8840     5.7730    24.8520    -3.9090     2.3790 
  115.3750   106.7510     6.0830     4.8280     5.6950    24.8850    -4.1700     2.3640 
  115.5000   108.6080     5.9430     4.7610     5.5960    24.8950    -4.4250     2.3530 
  115.6250   110.4680     5.7860     4.6840     5.6000    24.9020    -4.6420     2.3590 
  115.7500   108.6070     5.6340     4.6050     5.4980    24.9960    -4.8370     2.3690 
  115.8750   105.3870     5.5150     4.5400     5.3190    25.0510    -5.0410     2.3680 
  116.0000   103.4910     5.4560     4.5070     5.1940    24.9080    -5.2670     2.3520 
  116.1250   104.5290     5.4760     4.5220     5.1540    24.7540    -5.4950     2.3390 
  116.2500   107.7200     5.5500     4.5730     5.0140    24.6630    -5.7100     2.3370 
  116.3750   112.3690     5.6500     4.6400     4.8980    24.5520    -5.9160     2.3380 
  116.5000   117.7210     5.7430     4.6970     4.8590    24.3350    -6.1340     2.3350 
  116.6250   120.5300     5.7980     4.7150     4.9260    24.1480    -6.3770     2.3320 
  116.7500   119.6080     5.8090     4.6870     5.0010    24.0620    -6.6530     2.3370 
  116.8750   116.9990     5.7700     4.6100     5.0320    24.0420    -6.9660     2.3460 
  117.0000   115.0260     5.6590     4.4800     5.0420    24.0400    -7.3360     2.3550 
  117.1250   114.8270     5.4600     4.3000     5.0610    24.0400    -7.7540     2.3600 
  117.2500   114.6470     5.2770     4.1380     5.0630    24.0400    -8.2090     2.3640 
  117.3750   112.2650     5.3460     4.1220     5.0800    24.0390    -8.7140     2.3720 
  117.5000   109.4120     6.0440     4.4370     5.2560    24.0330    -9.3380     2.3840 
  117.6250   106.1310     8.0810     5.4800     6.1010    24.0270   -10.1710     2.3980 
  117.7500    99.4090    11.7000     7.5270     9.0570    24.0310   -11.1360     2.4130 
  117.8750    87.7190    16.9380    10.9390    17.4820    24.0390   -12.1550     2.4300 
  118.0000    76.2900    23.0010    15.7290    35.2060    24.0110   -13.1230     2.4480 
  118.1250    71.1050    26.9710    20.2750    52.5090    23.9210   -13.9480     2.4370 
  118.2500    67.9090    26.5600    21.8100    50.4360    23.8460   -14.5930     2.3760 
  118.3750    65.8620    22.5690    19.9980    40.1450    23.9030   -15.0370     2.2840 
  118.5000    66.6110    17.7860    16.8290    28.7710    24.0220   -15.2470     2.2100 
  118.6250    69.2450    14.4410    14.2100    20.0570    23.9960   -15.1020     2.1800 
  118.7500    70.1530    12.6970    12.6140    14.9530    23.8300   -14.6510     2.1780 
  118.8750    70.2760    12.4220    12.0790    14.1400    23.7040   -13.9500     2.1910 
  119.0000    70.7010    13.6190    12.6640    14.0610    23.8270   -13.0800     2.2130 
  119.1250    67.9050    16.7090    14.7970    14.0020    24.1070   -12.1580     2.2520 
  119.2500    62.4030    21.3490    18.4260    17.8800    24.3270   -11.3100     2.3100 
  119.3750    56.8450    26.7400    23.1730    29.6860    24.4000   -10.5620     2.3870 
