~V
VERS. 2.00: Ver 2.00
~W
STRT.M 49.0000:
STOP.M 279.0000:
STEP.M 0.1250:
NULL. -999.2500:
UWI. F10243:
~C
DEPT.M :
GR.API :
RML.OHMM :
RI. :
RXO.OHMM :
CALI.CM :
DEN.GM/CC :
SP.MV :
~A
# ...
  105.2500    68.2930     8.6040     8.3280     8.4960    23.8820     2.2110   -17.2460 
  105.3750    67.4750     8.6370     8.4740     8.7000    23.8830     2.2130   -17.2060 
  105.5000    64.6870     8.6840     8.5800     8.7150    23.8800     2.2080   -17.1290 
  105.6250    61.7970     8.6430     8.5900     8.5980    23.8660     2.1990   -16.9640 
  105.7500    62.5560     8.4180     8.4380     8.2880    23.8330     2.1930   -16.7480 
  105.8750    68.2470     7.9450     8.0650     7.8740    23.7960     2.1940   -16.5020 
  106.0000    73.2850     7.2150     7.4300     7.6840    23.8010     2.2060   -16.1300 
  106.1250    75.9890     6.3810     6.6570     7.7500    23.9460     2.2230   -15.6600 
  106.2500    78.4830     5.5820     5.8650     7.1580    24.2780     2.2420   -15.1620 
  106.3750    81.1760     4.9330     5.1640     5.3510    24.6610     2.2580   -14.6920 
  106.5000    85.1790     4.5590     4.6850     4.8040    24.8900     2.2710   -14.3290 
  106.6250    90.9070     4.4590     4.4590     4.9000    25.0350     2.2850   -14.1420 
  106.7500    94.4490     4.6390     4.5120     5.1670    25.1440     2.3040   -14.0730 
  106.8750    92.0340     5.0840     4.8480     5.4050    25.1700     2.3280   -14.0760 
  107.0000    86.1110     5.7580     5.4550     6.7090    24.9090     2.3460   -14.2800 
  107.1250    80.6940     6.5060     6.1760     9.3240    24.3800     2.3480   -14.6570 
  107.2500    75.2780     7.2320     6.9030    10.1120    23.8720     2.3310   -15.1480 
  107.3750    70.2250     7.9190     7.6060     9.4000    23.5930     2.3040   -15.6790 
  107.5000    69.8770     8.6740     8.3830     8.6460    23.5560     2.2880   -16.1630 
  107.6250    74.2650     9.6110     9.3270     9.1700    23.6600     2.2960   -16.5180 
  107.7500    79.5360    10.7210    10.4340    11.6020    23.8690     2.3200   -16.7550 
  107.8750    81.6930    11.7530    11.5200    18.3310    24.0620     2.3450   -16.9930 
  108.0000    78.1180    12.2240    12.0840    24.6720    24.0130     2.3480   -17.2140 
  108.1250    73.3030    12.0790    11.8620    20.5980    23.7720     2.3280   -17.3540 
  108.2500    70.8190    11.4700    10.9700    13.3040    23.5180     2.2950   -17.4280 
  108.3750    70.5970    10.6330     9.8140     9.4530    23.3880     2.2600   -17.4830 
  108.5000    70.6750     9.8360     8.8280     8.5420    23.3660     2.2340   -17.6120 
  108.6250    70.4950     9.2950     8.1730     8.4120    23.3640     2.2170   -17.7940 
  108.7500    71.0830     9.0740     7.8480     8.4500    23.3640     2.2060   -17.9720 
  108.8750    71.6410     9.0820     7.7750     8.4420    23.3640     2.1980   -18.0800 
  109.0000    71.2630     9.2310     7.8780     8.3970    23.3640     2.1970   -18.1350 
  109.1250    71.7490     9.4390     8.0560     8.3690    23.3720     2.2000   -18.1780 
  109.2500    73.7620     9.6710     8.2740     8.3690    23.3870     2.2040   -18.1590 
  109.3750    74.9110     9.8890     8.4960     8.5310    23.4040     2.2030   -18.0800 
  109.5000    73.0100    10.0220     8.6710     8.6900    23.4240     2.1910   -17.9770 
  109.6250    70.8410    10.0330     8.7590     8.9030    23.4850     2.1710   -17.8670 
  109.7500    70.8130     9.9250     8.7410     9.2390    23.5300     2.1490   -17.7750 
  109.8750    72.8310     9.7380     8.6290     9.3420    23.5320     2.1330   -17.7410 
  110.0000    73.4750     9.5490     8.4610     9.1580    23.4970     2.1280   -17.7360 
  110.1250    70.4500     9.4220     8.3040     8.7560    23.4470     2.1310   -17.7060 
  110.2500    65.7910     9.3890     8.2030     8.5480    23.3490     2.1400   -17.6860 
  110.3750    63.7630     9.4500     8.1750     8.6220    23.2100     2.1530   -17.7280 
  110.5000    65.8550     9.5910     8.2350     9.6000    23.0720     2.1720   -17.8510 
  110.6250    67.9890     9.7540     8.3530    10.4290    22.9970     2.1940   -17.9950 
  110.7500    68.8910     9.8860     8.4850     9.0350    22.9730     2.2180   -18.1350 
  110.8750    69.8330     9.9420     8.5690     8.2790    22.9640     2.2400   -18.2190 
  111.0000    71.5820     9.8840     8.5360     8.1750    22.9480     2.2540   -18.2250 
  111.1250    72.8840     9.7490     8.3960     8.5790    22.9460     2.2550   -18.2470 
  111.2500    73.1440     9.5760     8.1840     8.6850    22.9800     2.2420   -18.3300 
  111.3750    71.5980     9.4130     7.9670     8.7440    22.9880     2.2180   -18.4010 
  111.5000    67.5760     9.3050     7.8250     8.3710    22.8870     2.1920   -18.3790 
  111.6250    63.1200     9.2630     7.7780     8.1340    22.8100     2.1740   -18.3380 
  111.7500    60.7770     9.2880     7.8170     9.0330    22.8460     2.1660   -18.3300 
  111.8750    60.7290     9.3720     7.9170    12.7050    22.9170     2.1670   -18.3690 
  112.0000    62.0440     9.4930     8.0430    16.0130    22.9590     2.1700   -18.4060 
  112.1250    63.7130     9.6130     8.1560    13.7040    22.9700     2.1680   -18.3730 
  112.2500    65.4860     9.7080     8.2450    10.4300    22.9740     2.1600   -18.2970 
  112.3750    65.4600     9.7540     8.3050     9.1250    22.9840     2.1520   -18.2370 
  112.5000    63.0340     9.6860     8.2930     9.4280    23.0090     2.1500   -18.1180 
  112.6250    62.3000     9.4780     8.1700     9.7800    23.0410     2.1590   -17.9140 
  112.7500    65.3480     9.1300     7.9190    12.7670    23.0950     2.1780   -17.6860 
  112.8750    70.7350     8.7000     7.5720    14.3670    23.2000     2.2020   -17.4580 
  113.0000    75.2290     8.2980     7.2020    10.4680    23.3250     2.2210   -17.2500 
  113.1250    78.4330     8.0210     6.9050     7.8240    23.4030     2.2290   -17.1280 
  113.2500    80.8970     7.9190     6.7430     7.1640    23.4360     2.2260   -17.0760 
  113.3750    80.9080     7.9950     6.7360     7.3630    23.4770     2.2160   -17.0240 
  113.5000    78.5240     8.2160     6.8660     7.5240    23.5690     2.2050   -17.0070 
  113.6250    76.5480     8.4690     7.0400     7.5570    23.6580     2.1970   -17.0810 
  113.7500    75.6300     8.6630     7.1800     7.7570    23.7400     2.1910   -17.2390 
  113.8750    75.3360     8.7260     7.2310     7.8270    23.8110     2.1840   -17.4260 
  114.0000    74.6310     8.6230     7.1710     7.5150    23.8590     2.1750   -17.5760 
  114.1250    74.9540     8.4370     7.0600     7.1960    23.8770     2.1650   -17.6090 
  114.2500    76.9540     8.2440     6.9430     7.1320    23.8820     2.1530   -17.4960 
  114.3750    77.4080     8.1060     6.8490     7.2360    23.8760     2.1400   -17.3260 
  114.5000    75.7360     8.0610     6.8010     7.2080    23.8560     2.1280   -17.2050 
  114.6250    75.1970     8.0750     6.7900     7.1890    23.8280     2.1190   -17.0780 
  114.7500    76.9000     8.1140     6.7950     7.2350    23.8020     2.1170   -16.8610 
  114.8750    78.5150     8.1510     6.7970     7.3130    23.7560     2.1270   -16.5710 
  115.0000    77.0750     8.1640     6.7880     7.3230    23.6680     2.1470   -16.2960 
  115.1250    75.7550     8.1440     6.7790     7.3290    23.6290     2.1700   -16.1220 
  115.2500    75.4170     8.0970     6.8010     7.3120    23.6190     2.1880   -16.0180 
  115.3750    75.9210     8.0560     6.8900     7.4170    23.6210     2.1960   -15.8740 
  115.5000    77.4540     8.1100     7.1020     7.5350    23.6310     2.1970   -15.6140 
  115.6250    77.6300     8.2890     7.4220     7.6460    23.6750     2.2040   -15.2800 
  115.7500    77.4950     8.5430     7.7900     7.9170    23.7750     2.2250   -14.9120 
  115.8750    79.2470     8.7330     8.0810     8.5170    23.9130     2.2610   -14.4720 
  116.0000    83.4270     8.6520     8.0830     9.2080    24.0960     2.3000   -13.9580 
  116.1250    89.0370     8.2930     7.7580     9.0270    24.3100     2.3260   -13.4190 
  116.2500    95.3740     7.7490     7.1730     7.5720    24.5560     2.3310   -12.8660 
  116.3750   101.3750     7.1660     6.4810     5.9850    24.7970     2.3180   -12.3590 
