~V
VERS. 2.00: Ver 2.00
~W
STRT.M 58.0000:
STOP.M 273.0000:
STEP.M 0.1250:
NULL. -999.2500:
UWI. F10226:
~C
DEPT.M :
SP.MV :
DEN.GM/CC :
GR.API :
RML.OHMM :
RI. :
RXO.OHMM :
CALI.CM :
~A
# ...
  249.2500   -12.2820     2.3540    62.2820    16.2730    16.2140    14.4160    23.8200 
  249.3750   -12.2680     2.3280    59.6730    13.1910    13.3560     9.5460    23.7720 
  249.5000   -12.2840     2.3190    56.9120    11.1450    11.3610     8.1280    23.7660 
  249.6250   -12.3670     2.3180    55.6390     9.9880    10.1230     7.7400    23.7870 
  249.7500   -12.4610     2.3170    55.4370     9.4300     9.4400     7.6290    23.7830 
  249.8750   -12.5000     2.3160    57.2840     9.2030     9.1330     7.8720    23.7560 
  250.0000   -12.5360     2.3180    60.8550     9.1030     9.0130     8.0880    23.7060 
  250.1250   -12.6400     2.3210    63.9860     9.1130     9.0310     8.0110    23.6610 
  250.2500   -12.8090     2.3170    65.9840     9.2630     9.1860     7.8840    23.6710 
  250.3750   -12.9490     2.3000    69.2790     9.5360     9.4610     9.3410    23.6480 
  250.5000   -13.0160     2.2770    72.9010     9.8060     9.7430    14.2260    23.6060 
  250.6250   -13.0820     2.2680    74.0790     9.9600     9.9200    18.1960    23.6160 
  250.7500   -13.2260     2.2870    72.5160     9.9660     9.9400    14.7940    23.6620 
  250.8750   -13.3850     2.3380    69.8470     9.8860     9.8300     9.7540    23.7000 
  251.0000   -13.4500     2.3950    66.6250     9.8330     9.6990     8.0780    23.7380 
  251.1250   -13.4230     2.4390    63.4800     9.8620     9.6140     8.2580    23.7820 
  251.2500   -13.3880     2.4550    62.1110     9.9680     9.5900     8.8710    23.7940 
  251.3750   -13.3860     2.4430    62.9750    10.0860     9.5940     9.0800    23.7910 
  251.5000   -13.3730     2.4180    63.7620    10.1490     9.5650     8.8060    23.7830 
  251.6250   -13.2840     2.3900    62.9250    10.1460     9.4780     8.2430    23.7680 
  251.7500   -13.1340     2.3670    60.6200    10.1020     9.3510     8.1690    23.7370 
  251.8750   -13.0320     2.3500    58.6290    10.0420     9.2110     8.3450    23.7280 
  252.0000   -13.0100     2.3420    58.3630     9.9750     9.0830     8.2710    23.7380 
  252.1250   -12.9870     2.3440    59.3990     9.9180     8.9870     7.7760    23.7300 
  252.2500   -12.8810     2.3610    61.0300     9.9020     8.9510     6.8620    23.6550 
  252.3750   -12.7600     2.3910    62.0360     9.9920     9.0300     6.4400    23.5910 
  252.5000   -12.7240     2.4240    62.7090    10.2220     9.2380     6.7620    23.6290 
  252.6250   -12.7690     2.4510    63.7560    10.5960     9.5810     8.3830    23.7360 
  252.7500   -12.8020     2.4640    63.3320    11.0700    10.0220    11.5980    23.8630 
  252.8750   -12.7540     2.4640    61.3910    11.5410    10.4780    13.8630    23.8920 
  253.0000   -12.6630     2.4570    61.5540    11.9010    10.8470    13.8700    23.8490 
  253.1250   -12.6020     2.4460    63.2870    12.0750    11.0440    12.6990    23.7660 
  253.2500   -12.6200     2.4320    63.1510    12.0280    11.0260    12.0670    23.7110 
  253.3750   -12.6330     2.4180    61.7480    11.7560    10.7710    13.1760    23.7110 
  253.5000   -12.5440     2.4050    64.1910    11.3670    10.3800    16.4260    23.7670 
  253.6250   -12.3580     2.3960    69.9170    10.9530     9.9460    20.5240    23.8080 
  253.7500   -12.1280     2.3890    72.6770    10.5980     9.5530    16.5980    23.7930 
  253.8750   -11.9840     2.3870    69.3970    10.3780     9.2770    11.5830    23.7800 
  254.0000   -11.9240     2.3900    64.0370    10.2750     9.1160     8.8290    23.7910 
  254.1250   -11.8790     2.4000    61.7110    10.2430     9.0410     8.2680    23.7790 
  254.2500   -11.7760     2.4160    64.3680    10.2330     9.0220     8.8320    23.7750 
  254.3750   -11.6120     2.4320    67.1130    10.2250     9.0460     9.3510    23.8070 
  254.5000   -11.4560     2.4390    66.4560    10.2610     9.1250     8.8990    23.8380 
  254.6250   -11.3510     2.4360    64.0320    10.4080     9.2950     8.2500    23.9370 
  254.7500   -11.3400     2.4230    61.5890    10.7150     9.5890     8.0650    24.0610 
  254.8750   -11.3370     2.4120    59.3570    11.2050    10.0290     8.5870    24.1190 
  255.0000   -11.2810     2.4080    56.5160    11.7800    10.5560     9.4110    24.1530 
  255.1250   -11.1900     2.4120    54.5670    12.3370    11.0960    10.1580    24.2170 
  255.2500   -11.1140     2.4160    53.2650    12.7820    11.5590    10.2690    24.2280 
  255.3750   -11.1050     2.4150    51.9580    13.0470    11.8630    10.7180    24.1990 
  255.5000   -11.1610     2.4130    52.0010    13.1850    12.0290    11.7400    24.1960 
  255.6250   -11.2560     2.4190    52.8390    13.2700    12.1130    12.8780    24.2480 
  255.7500   -11.3390     2.4360    52.9180    13.3830    12.1860    13.4560    24.2970 
  255.8750   -11.3950     2.4590    49.9840    13.5830    12.3130    13.0250    24.3120 
  256.0000   -11.4510     2.4780    46.7780    13.8510    12.4970    13.8300    24.3500 
  256.1250   -11.5290     2.4890    46.7190    14.1300    12.7090    17.1640    24.3710 
  256.2500   -11.6530     2.4920    48.9450    14.3570    12.9020    21.5170    24.3430 
  256.3750   -11.7950     2.4900    49.6040    14.4660    13.0180    22.7650    24.2850 
  256.5000   -11.9300     2.4840    48.1290    14.4560    13.0420    21.4060    24.2300 
  256.6250   -12.0390     2.4710    47.0750    14.3490    12.9810    18.8040    24.1820 
  256.7500   -12.1260     2.4570    47.6810    14.1960    12.8700    16.3570    24.1710 
  256.8750   -12.2360     2.4500    48.0470    14.0600    12.7620    14.9810    24.1720 
  257.0000   -12.3550     2.4510    47.9360    13.9740    12.6880    13.9050    24.2210 
  257.1250   -12.4090     2.4570    47.5470    13.9440    12.6590    12.9110    24.2860 
  257.2500   -12.3690     2.4630    47.9190    13.9510    12.6680    13.2370    24.3150 
  257.3750   -12.3010     2.4640    49.1430    13.9570    12.6950    14.2020    24.3000 
  257.5000   -12.1800     2.4660    48.9310    13.9350    12.7140    14.0860    24.2880 
  257.6250   -12.0470     2.4710    47.5550    13.8910    12.7210    13.2510    24.2800 
  257.7500   -11.9010     2.4770    47.8900    13.8470    12.7300    12.8070    24.2550 
  257.8750   -11.6700     2.4820    50.4790    13.8310    12.7560    12.6750    24.1900 
  258.0000   -11.4380     2.4830    52.6360    13.8470    12.8010    12.9010    24.1200 
  258.1250   -11.2640     2.4820    52.7680    13.8850    12.8600    13.3280    24.0940 
  258.2500   -11.1650     2.4790    51.9530    13.9210    12.9150    13.7060    24.1030 
  258.3750   -11.0980     2.4750    52.7280    13.9190    12.9390    13.4330    24.1620 
  258.5000   -11.0960     2.4670    55.0630    13.8730    12.9290    13.0920    24.1670 
  258.6250   -11.1280     2.4560    56.4390    13.7910    12.8900    12.8260    24.1510 
  258.7500   -11.1830     2.4480    54.9280    13.7010    12.8420    12.5210    24.2210 
  258.8750   -11.3120     2.4470    52.6740    13.6460    12.8140    12.3180    24.3610 
  259.0000   -11.4450     2.4530    52.6740    13.6380    12.8190    12.0750    24.5130 
  259.1250   -11.5950     2.4590    53.6500    13.6560    12.8490    11.7530    24.5870 
  259.2500   -11.7320     2.4650    53.8030    13.6620    12.8730    11.5630    24.6180 
  259.3750   -11.8770     2.4630    52.4130    13.6090    12.8500    11.9150    24.6380 
  259.5000   -12.0120     2.4560    49.8620    13.4940    12.7650    12.4960    24.6630 
  259.6250   -12.1470     2.4480    47.7780    13.3260    12.6200    12.3450    24.6820 
  259.7500   -12.2530     2.4410    47.8840    13.1150    12.4250    11.8320    24.6600 
  259.8750   -12.3330     2.4450    50.0950    12.8780    12.1990    11.7140    24.6510 
  260.0000   -12.3570     2.4560    52.5380    12.6590    11.9890    11.3510    24.6860 
  260.1250   -12.3610     2.4730    53.4120    12.5210    11.8450    10.8440    24.8130 
  260.2500   -12.3320     2.4870    52.5170    12.5090    11.8120    10.3170    24.9160 
  260.3750   -12.2120     2.4940    50.9830    12.6500    11.9170    10.3630    24.8930 
