~V
VERS. 2.00: Ver 2.00
~W
STRT.M 50.0000:
STOP.M 283.0000:
STEP.M 0.1250:
NULL. -999.2500:
UWI. F10256:
~C
DEPT.M :
DEN.GM/CC :
GR.API :
RML.OHMM :
RI. :
RXO.OHMM :
CALI.CM :
SP.MV :
~A
   50.0000     2.1230  -999.2500  -999.2500  -999.2500  -999.2500  -999.2500  -999.2500 
   50.1250     2.1130  -999.2500  -999.2500  -999.2500  -999.2500  -999.2500  -999.2500 
   50.2500     2.1040  -999.2500  -999.2500  -999.2500  -999.2500  -999.2500  -999.2500 
   50.3750     2.1000  -999.2500  -999.2500  -999.2500  -999.2500  -999.2500  -999.2500 
   50.5000     2.1020  -999.2500  -999.2500  -999.2500  -999.2500  -999.2500  -999.2500 
   50.6250     2.1040  -999.2500  -999.2500  -999.2500  -999.2500  -999.2500  -999.2500 
   50.7500     2.1030  -999.2500  -999.2500  -999.2500  -999.2500  -999.2500  -999.2500 
   50.8750     2.0980  -999.2500  -999.2500  -999.2500  -999.2500  -999.2500  -999.2500 
   51.0000     2.0920     0.0000     0.0000     0.0000     0.0000     0.0000  -999.2500 
   51.1250     2.0920     0.0000     0.0000     0.0000     0.0000     0.0000     0.0000 
   51.2500     2.1000     0.0000     0.0000     0.0000     0.0000     0.0000     0.0000 
   51.3750     2.1160     0.0000     0.0000     0.0000     0.0000     0.0000    91.7870 
   51.5000     2.1380    47.0880     3.6610     0.4520     0.7980    25.2840   121.9330 
   51.6250     2.1590    48.5210     3.6150     0.4530     0.8080    25.2510   121.3730 
   51.7500     2.1760    49.6490     3.5810     0.4550     0.8280    25.2400   120.8030 
   51.8750     2.1860    50.0890     3.5470     0.4580     0.8570    25.2610   120.2390 
   52.0000     2.1940    51.2350     3.4970     0.4600     0.8670    25.2950   119.6950 
   52.1250     2.2050    53.7420     3.4180     0.4610     0.8600    25.2880   119.2030 
   52.2500     2.2200    55.3390     3.3120     0.4610     0.8300    25.2630   118.8590 
   52.3750     2.2330    55.1710     3.1800     0.4620     0.8160    25.2500   118.5240 
   52.5000     2.2320    54.3750     3.0310     0.4620     0.8180    25.2490   118.1090 
   52.6250     2.1990    52.6920     2.8700     0.4640     0.8260    25.2440   117.7150 
   52.7500     2.1410    49.1780     2.7150     0.4670     0.8160    25.2080   117.3190 
   52.8750     2.0720    43.5400     2.5850     0.4690     0.8060    25.1560   116.9380 
   53.0000     2.0100    38.4410     2.5030     0.4710     0.8020    25.1190   116.5360 
   53.1250     1.9660    37.0620     2.4940     0.4700     0.8010    25.0990   116.1200 
   53.2500     1.9350    37.9480     2.5380     0.4680     0.8000    25.0670   115.7210 
   53.3750     1.9080    38.8860     2.6090     0.4650     0.8020    25.0100   115.3380 
   53.5000     1.8800    38.9670     2.6770     0.4640     0.8030    24.9550   114.9370 
   53.6250     1.8590    39.5560     2.7080     0.4660     0.7990    24.9490   114.5970 
   53.7500     1.8550    40.1570     2.6990     0.4700     0.7930    24.9570   114.2930 
   53.8750     1.8760    39.9740     2.6590     0.4750     0.7870    24.9460   113.9610 
   54.0000     1.9170    39.5940     2.6000     0.4800     0.7820    24.9060   113.5750 
   54.1250     1.9640    39.3570     2.5340     0.4870     0.7790    24.8820   113.0790 
   54.2500     1.9960    39.8710     2.4750     0.4940     0.7780    24.8810   112.5070 
   54.3750     2.0080    40.4040     2.4290     0.5030     0.7780    24.8830   111.8940 
   54.5000     2.0030    40.4850     2.3990     0.5120     0.7760    24.8690   111.2760 
   54.6250     1.9900    39.0640     2.3800     0.5200     0.7750    24.8330   110.6670 
   54.7500     1.9780    36.8160     2.3650     0.5240     0.7730    24.8000   110.1330 
   54.8750     1.9720    34.8860     2.3530     0.5260     0.7720    24.7940   109.7480 
   55.0000     1.9690    34.7600     2.3430     0.5240     0.7710    24.8130   109.5570 
   55.1250     1.9710    37.4660     2.3360     0.5200     0.7670    24.8070   109.5660 
   55.2500     1.9770    40.8250     2.3290     0.5170     0.7640    24.7570   109.6930 
   55.3750     1.9870    43.7920     2.3200     0.5130     0.7620    24.7050   109.9110 
   55.5000     2.0040    47.1410     2.3040     0.5110     0.7620    24.6840   110.2010 
   55.6250     2.0300    50.8970     2.2720     0.5090     0.7660    24.6650   110.5780 
   55.7500     2.0550    52.7100     2.2280     0.5080     0.7710    24.6240   111.0190 
   55.8750     2.0630    52.1500     2.1740     0.5080     0.7740    24.5710   111.5530 
   56.0000     2.0450    49.7570     2.1120     0.5080     0.7750    24.5410   112.2020 
   56.1250     1.9980    45.6250     2.0470     0.5070     0.7750    24.5500   112.9500 
   56.2500     1.9500    40.7410     1.9830     0.5060     0.7760    24.5550   113.7230 
   56.3750     1.9270    37.4080     1.9250     0.5050     0.7790    24.5280   114.4360 
   56.5000     1.9430    36.9030     1.8780     0.5050     0.7830    24.4920   115.0520 
   56.6250     2.0000    37.5970     1.8690     0.5080     0.7850    24.4870   115.4510 
   56.7500     2.0700    38.0830     1.9370     0.5130     0.7860    24.5040   115.6250 
   56.8750     2.1270    37.6340     2.1240     0.5190     0.7870    24.5120   115.5020 
   57.0000     2.1630    36.3920     2.4020     0.5210     0.7840    24.4930   115.0040 
   57.1250     2.1960    35.5220     2.6140     0.5070     0.7810    24.4420   114.0910 
   57.2500     2.2520    36.9170     2.5810     0.4690     0.7790    24.3960   112.7560 
   57.3750     2.3370    39.4090     2.1590     0.4030     0.7740    24.3710   110.9490 
   57.5000     2.4320    40.7650     1.4120     0.3180     0.7590    24.3270   108.5290 
   57.6250     2.4830    40.9920     0.7920     0.2440     0.7470    24.2130   105.0280 
   57.7500     2.4610    42.5950     0.5020     0.2120     0.7880    24.0970   100.1470 
   57.8750     2.3830    46.0590     0.4980     0.2540     0.9600    24.0570    93.5180 
   58.0000     2.2850    50.1380     0.7630     0.4220     1.3820    24.0500    84.9720 
   58.1250     2.2010    53.0550     1.4000     0.8360     2.3520    24.0070    74.5530 
   58.2500     2.1450    53.9550     2.3760     1.5400     4.0340    23.9220    63.2560 
   58.3750     2.1160    53.1150     3.5970     2.5360     6.1080    23.7820    51.5700 
   58.5000     2.1030    52.4810     4.8370     3.7230     7.9020    23.6010    39.9120 
   58.6250     2.0970    53.6090     5.6590     4.8340     8.5190    23.4920    28.8950 
   58.7500     2.0910    55.6260     5.9020     5.6180     8.8330    23.4880    19.0080 
   58.8750     2.0870    58.1280     5.7700     6.0400     8.9930    23.5210    10.7420 
   59.0000     2.0830    61.3950     5.5750     6.2280     9.1330    23.5810     4.4030 
   59.1250     2.0770    63.2140     5.4890     6.3100     9.1770    23.7010     0.0340 
   59.2500     2.0720    61.8590     5.5010     6.3760     9.2060    23.8890    -3.2220 
   59.3750     2.0700    59.6250     5.5840     6.4540     9.3030    24.1670    -5.7170 
   59.5000     2.0730    58.2700     5.7170     6.5650     9.4270    24.5460    -7.6790 
   59.6250     2.0860    56.4060     5.8910     6.7250     9.6300    24.8910    -9.2100 
   59.7500     2.1030    54.3490     6.0980     6.9210    10.0570    24.9780   -10.4460 
   59.8750     2.1220    55.9620     6.3200     7.1260    10.9380    24.8020   -11.4830 
   60.0000     2.1370    59.3350     6.5160     7.2960    12.2130    24.5420   -12.3930 
   60.1250     2.1430    58.8940     6.6290     7.3750    14.5620    24.4360   -13.1500 
   60.2500     2.1420    58.1120     6.6510     7.3580    17.2930    24.5090   -13.8050 
   60.3750     2.1370    60.0180     6.6060     7.2700    16.1920    24.6460   -14.3830 
   60.5000     2.1350    60.8680     6.5490     7.1630    11.8910    24.7430   -14.9020 
   60.6250     2.1380    56.7920     6.5450     7.1020    10.1020    24.7970   -15.3770 
   60.7500     2.1450    54.5550     6.6060     7.1080     9.6970    24.8350   -15.8090 
   60.8750     2.1540    57.9750     6.7070     7.1650     9.7790    24.8370   -16.1720 
   61.0000     2.1630    61.9830     6.8060     7.2340     9.8910    24.8120   -16.4610 
   61.1250     2.1680    60.5850     6.8520     7.2640    10.0330    24.7990   -16.6890 
