~V
VERS. 2.00: Ver 2.00
~W
STRT.M 53.0000:
STOP.M 296.0000:
STEP.M 0.1250:
NULL. -999.2500:
UWI. F10258:
~C
DEPT.M :
GR.API :
RML.OHMM :
RI. :
RXO.OHMM :
CALI.CM :
DEN.GM/CC :
SP.MV :
~A
# ...
  221.7500    65.4790    55.0000    53.4350    65.8520    25.0360     2.1730   -29.2510 
  221.8750    62.4790    56.0220    54.3920    66.7840    25.2260     2.1430   -29.1690 
  222.0000    59.3220    57.0110    55.3290    69.0930    25.3220     2.1340   -29.0700 
  222.1250    57.5630    57.9900    56.2580    70.1140    25.3290     2.1530   -28.9600 
  222.2500    56.2240    58.9380    57.2190    72.5230    25.2900     2.1860   -28.8490 
  222.3750    56.7450    59.7300    58.1460    73.3800    25.2080     2.2220   -28.7260 
  222.5000    59.0470    60.1310    58.8270    76.4230    25.1490     2.2550   -28.5930 
  222.6250    61.2810    59.6850    58.7980    79.3500    25.1860     2.2780   -28.4890 
  222.7500    61.4130    58.2440    57.7990    80.8300    25.3040     2.2910   -28.4240 
  222.8750    60.3440    55.7690    55.6610    81.4000    25.4250     2.2890   -28.4060 
  223.0000    59.8630    52.4780    52.5180    78.9280    25.4640     2.2730   -28.4200 
  223.1250    60.6900    48.8300    48.8240    72.2980    25.4810     2.2440   -28.4260 
  223.2500    61.1190    45.4540    45.3050    63.3200    25.5610     2.2130   -28.3970 
  223.3750    60.8610    42.7520    42.4150    54.8780    25.7090     2.1900   -28.3330 
  223.5000    60.8100    40.9420    40.4380    47.3620    25.8380     2.1780   -28.2360 
  223.6250    62.9140    40.1100    39.6010    47.9420    25.9230     2.1780   -28.0760 
  223.7500    66.8400    39.7090    39.4270    52.7050    25.9800     2.1840   -27.8620 
  223.8750    70.1060    39.1200    39.2660    53.8930    26.0420     2.1930   -27.6050 
  224.0000    70.8550    37.7020    38.2830    57.1020    26.0840     2.2040   -27.3180 
  224.1250    69.1170    34.9120    35.5820    60.8020    26.1020     2.2200   -27.0200 
  224.2500    68.6660    31.2400    31.6280    51.9030    26.0630     2.2410   -26.7350 
  224.3750    69.0750    27.3730    27.2980    39.1330    25.8730     2.2660   -26.4670 
  224.5000    68.4450    24.0390    23.4950    29.5250    25.5010     2.2910   -26.2070 
  224.6250    68.5900    21.9640    20.9670    26.5760    25.0880     2.3100   -25.9350 
  224.7500    70.7070    21.1640    19.6800    27.9280    24.8810     2.3210   -25.6270 
  224.8750    72.5070    21.5990    19.6070    31.5560    24.8150     2.3200   -25.2630 
  225.0000    70.9510    23.0890    20.6580    34.9990    24.7930     2.3070   -24.8410 
  225.1250    66.5620    25.3570    22.7360    34.3610    24.7700     2.2830   -24.3620 
  225.2500    62.5500    27.7010    25.2010    38.3660    24.7570     2.2570   -23.8230 
  225.3750    60.1990    29.4890    27.3820    42.6360    24.7720     2.2340   -23.2180 
  225.5000    58.9850    30.1590    28.5480    43.0270    24.7900     2.2200   -22.5240 
  225.6250    57.3600    29.2390    27.9720    42.2410    24.7960     2.2160   -21.6920 
  225.7500    55.7430    27.2540    26.1210    41.5930    24.7980     2.2210   -20.7420 
  225.8750    57.0320    24.8070    23.6510    33.0920    24.8060     2.2390   -19.6980 
  226.0000    61.3760    22.5160    21.2380    22.6380    24.8340     2.2700   -18.6140 
  226.1250    65.9960    19.7570    19.4160    19.8630    24.8800     2.3090   -17.5970 
  226.2500    68.2830    18.8600    18.2220    17.9830    24.9270     2.3400   -16.6900 
  226.3750    68.2040    18.4920    17.5820    18.4190    24.9720     2.3510   -15.8930 
  226.5000    67.5590    18.4600    17.3540    19.6200    25.0330     2.3400   -15.2250 
  226.6250    67.6000    18.5730    17.3880    20.5570    25.0830     2.3160   -14.7460 
  226.7500    68.9400    18.6620    17.4710    20.9260    25.1080     2.2930   -14.4410 
  226.8750    69.5380    18.6760    17.5010    21.3420    25.0820     2.2750   -14.3030 
  227.0000    67.7850    18.6330    17.4520    21.1780    25.0820     2.2600   -14.3080 
  227.1250    64.8840    18.5950    17.3640    20.2840    25.1800     2.2460   -14.3710 
  227.2500    62.4790    18.5900    17.2940    19.4440    25.2740     2.2340   -14.4140 
  227.3750    62.4720    18.5780    17.2260    19.3260    25.2780     2.2290   -14.4240 
  227.5000    65.3460    18.4650    17.0870    19.9000    25.2150     2.2310   -14.3980 
  227.6250    69.6240    18.1130    16.7450    20.7580    25.1940     2.2400   -14.3450 
  227.7500    72.5600    17.5320    16.1790    20.8460    25.2120     2.2550   -14.2640 
  227.8750    74.0010    16.8170    15.4570    20.4190    25.2300     2.2800   -14.1480 
  228.0000    74.5920    16.1420    14.7350    19.6060    25.2180     2.3160   -13.9750 
  228.1250    73.5180    15.7810    14.2450    18.5070    25.1590     2.3480   -13.7460 
  228.2500    71.4080    15.7400    14.0790    17.6050    25.1250     2.3530   -13.4970 
  228.3750    69.6960    15.8780    14.2400    16.5030    25.1830     2.3210   -13.2550 
  228.5000    68.3280    16.0670    14.6300    16.4300    25.3420     2.2680   -13.0340 
  228.6250    67.2810    16.2440    15.0320    17.0770    25.5350     2.2400   -12.8480 
  228.7500    66.8550    16.2950    15.2100    18.4730    25.5860     2.2650   -12.6890 
  228.8750    66.6620    16.0810    15.0610    18.8780    25.5760     2.3310   -12.5640 
  229.0000    67.9620    15.5930    14.6230    17.1670    25.6140     2.3940   -12.4900 
  229.1250    71.2900    15.0050    14.0490    16.1180    25.6910     2.3880   -12.4840 
  229.2500    72.4010    14.4910    13.5280    15.4290    25.8080     2.3060   -12.5240 
  229.3750    72.1040    14.1030    13.1190    14.6340    25.9770     2.1800   -12.5900 
  229.5000    73.6800    13.8050    12.7950    14.8480    26.1480     2.0660   -12.6600 
  229.6250    78.4600    13.5180    12.4810    15.4380    26.1390     2.0350   -12.7180 
  229.7500    81.7420    13.1970    12.1330    15.1660    25.8730     2.0940   -12.7770 
  229.8750    83.6390    12.8700    11.7760    13.3370    25.5430     2.2100   -12.8310 
  230.0000    85.5030    12.5990    11.4640    12.0350    25.3600     2.3260   -12.8720 
  230.1250    83.2820    12.4560    11.2690    12.1110    25.3510     2.3730   -12.9130 
  230.2500    77.0550    12.4140    11.1820    12.7860    25.5120     2.3450   -12.9850 
  230.3750    70.9820    12.4250    11.1700    13.1240    25.9070     2.2730   -13.0930 
  230.5000    67.8660    12.4390    11.1860    12.8400    26.4260     2.2000   -13.2330 
  230.6250    66.5840    12.4230    11.1830    11.6280    26.6950     2.1670   -13.3930 
  230.7500    64.9970    12.3870    11.1520    10.5830    26.5980     2.1700   -13.5470 
  230.8750    65.3640    12.3510    11.1070    10.5210    26.4020     2.1940   -13.6870 
  231.0000    68.2040    12.3280    11.0670    11.1610    26.2820     2.2210   -13.8100 
  231.1250    70.5990    12.3190    11.0380    11.6980    26.1860     2.2410   -13.8890 
  231.2500    69.4690    12.3060    10.9960    12.0370    26.1490     2.2530   -13.9350 
  231.3750    66.6080    12.2800    10.9220    12.3810    26.1490     2.2540   -13.9660 
  231.5000    65.6830    12.2490    10.8210    12.8270    26.1170     2.2450   -13.9750 
  231.6250    68.3220    12.2480    10.7370    12.7740    26.1660     2.2320   -13.9830 
  231.7500    72.2660    12.3090    10.7240    12.4410    26.4720     2.2280   -14.0120 
  231.8750    74.9280    12.4440    10.8190    12.2780    26.7860     2.2410   -14.0750 
  232.0000    75.0200    12.6390    11.0250    12.2240    26.5630     2.2640   -14.1600 
  232.1250    73.3420    12.8490    11.3090    12.7710    25.8870     2.2790   -14.2800 
  232.2500    70.3310    13.0210    11.5770    13.0560    25.5000     2.2780   -14.3500 
  232.3750    66.9990    13.1170    11.7610    13.2400    25.4490     2.2710   -14.3870 
  232.5000    64.7380    13.1250    11.8190    12.5700    25.7130     2.2720   -14.3940 
  232.6250    64.4440    13.0420    11.7430    11.0390    26.2620     2.2900   -14.4020 
  232.7500    64.3600    12.9140    11.6020     9.5750    26.6930     2.3070   -14.4140 
  232.8750    63.8510    12.7700    11.4450     8.7130    26.7490     2.3070   -14.4250 
