~V
VERS. 2.00: Ver 2.00
~W
STRT.M 56.0000:
STOP.M 275.0000:
STEP.M 0.1250:
NULL. -999.2500:
UWI. F10253:
~C
DEPT.M :
GR.API :
RML.OHMM :
RI. :
RXO.OHMM :
CALI.CM :
DEN.GM/CC :
SP.MV :
~A
# ...
  134.7500    61.8300     5.9110     6.0060     6.2900    23.3730     2.3060    -9.7640 
  134.8750    62.5720     5.7850     5.8010     6.3370    23.2860     2.3060    -9.7820 
  135.0000    65.4550     5.7170     5.6680     6.4050    23.2370     2.3040    -9.7960 
  135.1250    69.1580     5.6230     5.5320     6.3440    23.2250     2.3050    -9.8250 
  135.2500    71.7790     5.4670     5.3530     5.8430    23.2450     2.3100    -9.8650 
  135.3750    72.9380     5.2670     5.1330     5.3770    23.2760     2.3170    -9.9250 
  135.5000    75.4280     5.0880     4.9260     5.0720    23.3330     2.3240   -10.0010 
  135.6250    78.5320     4.9860     4.7830     4.8820    23.4400     2.3280   -10.0760 
  135.7500    78.1950     5.0260     4.7600     4.7670    23.5610     2.3280   -10.1430 
  135.8750    73.9110     5.3650     4.9780     4.9610    23.6190     2.3280   -10.2360 
  136.0000    70.5140     6.1130     5.5200     5.4330    23.5230     2.3340   -10.3700 
  136.1250    68.5040     7.3960     6.4970     6.5870    23.2520     2.3530   -10.5400 
  136.2500    65.2690     9.2460     7.9660     9.4950    22.9660     2.3890   -10.7310 
  136.3750    60.4370    11.5050     9.8790    14.4890    22.8930     2.4370   -10.9400 
  136.5000    57.6660    13.6100    11.8140    20.1850    22.9910     2.4750   -11.1450 
  136.6250    59.6730    15.0080    13.3000    24.7380    23.1380     2.4800   -11.3730 
  136.7500    64.8260    15.2910    13.9070    23.9750    23.3110     2.4450   -11.6130 
  136.8750    67.5870    14.3470    13.3780    17.4930    23.5230     2.3780   -11.8060 
  137.0000    66.0040    12.9610    12.3170    12.8700    23.7450     2.3100   -11.9540 
  137.1250    61.7640    11.7560    11.2680    11.2890    23.9490     2.2550   -12.0870 
  137.2500    59.1330    11.0650    10.5550    11.0040    24.1180     2.2180   -12.2020 
  137.3750    60.5430    10.9450    10.2910    11.0990    24.2020     2.1970   -12.2780 
  137.5000    61.5500    11.0940    10.2860    11.2740    24.2440     2.1820   -12.3560 
  137.6250    58.7080    11.3180    10.3970    11.4240    24.2710     2.1720   -12.3850 
  137.7500    53.9050    11.4880    10.5110    11.4150    24.2650     2.1660   -12.3820 
  137.8750    51.9590    11.5360    10.5500    11.2680    24.2150     2.1650   -12.3890 
  138.0000    51.8630    11.5010    10.5180    11.1070    24.1650     2.1690   -12.4080 
  138.1250    52.2840    11.4310    10.4460    10.9980    24.1600     2.1740   -12.4270 
  138.2500    53.0600    11.3760    10.3740    10.9580    24.1940     2.1790   -12.4460 
  138.3750    54.8970    11.3790    10.3390    10.9150    24.1870     2.1820   -12.4480 
  138.5000    56.0530    11.4390    10.3470    10.9760    24.1680     2.1840   -12.4050 
  138.6250    55.3260    11.5430    10.3970    11.2030    24.1990     2.1860   -12.3480 
  138.7500    53.0470    11.6800    10.4830    11.5290    24.2790     2.1880   -12.2720 
  138.8750    50.3030    11.8530    10.6120    11.7380    24.3220     2.1920   -12.1890 
  139.0000    47.6230    12.0660    10.7890    11.8630    24.3120     2.2010   -12.0840 
  139.1250    46.0010    12.3370    11.0290    12.0190    24.2350     2.2180   -11.9480 
  139.2500    46.9150    12.6760    11.3450    12.3450    24.0760     2.2420   -11.7810 
  139.3750    50.5360    13.0800    11.7490    12.9250    23.8620     2.2680   -11.6010 
  139.5000    53.4800    13.5080    12.2060    13.6720    23.7310     2.2880   -11.4220 
  139.6250    55.5150    13.9260    12.6830    14.3220    23.6800     2.2980   -11.2470 
  139.7500    56.5280    14.3100    13.1490    14.6950    23.6540     2.3000   -11.0880 
  139.8750    56.8950    14.6550    13.5760    14.9290    23.5970     2.2980   -10.9390 
  140.0000    57.5990    14.9580    13.9420    14.8500    23.4680     2.2980   -10.7870 
  140.1250    58.0970    15.1600    14.1840    14.6070    23.3370     2.3010   -10.6350 
  140.2500    57.7640    15.1180    14.1790    14.1400    23.4120     2.3070   -10.4930 
  140.3750    56.3390    14.5290    13.6640    13.5700    23.5720     2.3170   -10.3440 
  140.5000    55.2550    13.3510    12.5820    12.9470    23.7130     2.3290   -10.2010 
  140.6250    56.2090    11.6720    10.9970    12.0110    23.8460     2.3410   -10.0630 
  140.7500    61.3740     9.8050     9.1700    10.6270    23.8870     2.3510    -9.9100 
  140.8750    69.8930     8.2590     7.5540     8.7660    23.7990     2.3540    -9.7760 
  141.0000    76.0610     7.3520     6.4550     7.0170    23.6450     2.3480    -9.6910 
  141.1250    76.9400     7.0740     6.0070     6.0880    23.5430     2.3270    -9.6660 
  141.2500    72.2310     7.6420     6.2410     6.5280    23.5740     2.2930    -9.7050 
  141.3750    64.9600     9.0430     7.2180     8.0820    23.7850     2.2520    -9.7910 
  141.5000    59.9740    10.8920     8.6980    10.1210    24.1290     2.2170    -9.9140 
  141.6250    59.2690    12.8320    10.4480    12.0830    24.4950     2.1960   -10.0690 
  141.7500    59.5750    14.4440    12.1320    12.9470    24.7280     2.1860   -10.2760 
  141.8750    57.0570    15.2050    13.2530    12.8290    24.7690     2.1830   -10.4700 
  142.0000    51.8390    15.0700    13.5980    12.8600    24.7330     2.1800   -10.6280 
  142.1250    45.9940    14.1300    13.1310    12.9440    24.6680     2.1750   -10.7540 
  142.2500    42.9300    12.6190    11.9950    12.6280    24.5840     2.1730   -10.8460 
  142.3750    47.6410    10.8230    10.4230    11.5240    24.5240     2.1840   -10.9250 
  142.5000    57.1930     9.0890     8.7970    10.0280    24.5220     2.2090   -10.9910 
  142.6250    65.7200     7.6250     7.3490     8.2310    24.4770     2.2450   -11.0480 
  142.7500    70.4040     6.5590     6.2260     6.5240    24.3540     2.2830   -11.0750 
  142.8750    72.2620     5.9980     5.5490     5.5380    24.2970     2.3090   -11.0940 
  143.0000    73.6690     5.8140     5.2280     5.2700    24.3000     2.3170   -11.1100 
  143.1250    74.3050     5.9280     5.2070     5.3620    24.3230     2.3090   -11.1170 
  143.2500    72.9710     6.2580     5.4200     5.6570    24.3390     2.2900   -11.0900 
  143.3750    68.9600     6.7310     5.8110     6.0960    24.3490     2.2680   -11.0650 
  143.5000    63.9520     7.2440     6.2760     6.5810    24.3540     2.2470   -11.0430 
  143.6250    60.2020     7.7370     6.7530     7.0170    24.3640     2.2300   -11.0070 
  143.7500    59.4700     8.1710     7.1940     7.4420    24.3880     2.2150   -10.9650 
  143.8750    60.8480     8.5310     7.5650     7.8910    24.4320     2.2020   -10.9110 
  144.0000    61.0260     8.8640     7.8930     8.2980    24.4610     2.1880   -10.8780 
  144.1250    59.3350     9.2440     8.2310     8.5580    24.4530     2.1710   -10.8680 
  144.2500    58.9410     9.7600     8.6520     8.7530    24.4130     2.1460   -10.8890 
  144.3750    61.4150    10.5310     9.2600     9.3120    24.3590     2.1120   -10.8910 
  144.5000    62.0480    11.5350    10.0600    10.6300    24.3170     2.0760   -10.8840 
  144.6250    59.0700    12.6890    11.0060    12.6820    24.2660     2.0510   -10.8730 
  144.7500    57.2160    13.8230    11.9810    15.0490    24.1780     2.0440   -10.8670 
  144.8750    58.4150    14.6440    12.7520    17.6790    23.9900     2.0600   -10.8660 
  145.0000    58.9410    15.0170    13.1710    19.1780    23.6870     2.0900   -10.8750 
  145.1250    57.8270    14.9470    13.1990    19.3910    23.3170     2.1230   -10.8790 
  145.2500    57.0010    14.5940    12.9380    18.9430    23.1380     2.1490   -10.9010 
  145.3750    59.0660    14.2280    12.5970    17.6100    23.3990     2.1610   -10.9750 
  145.5000    61.0040    14.0570    12.3810    15.7310    23.8790     2.1630   -11.0550 
  145.6250    59.5160    14.1250    12.3640    14.6590    24.3780     2.1580   -11.1390 
  145.7500    55.2080    14.3730    12.5300    14.4470    24.7220     2.1500   -11.2270 
  145.8750    52.9380    14.6920    12.8190    14.7190    24.8690     2.1440   -11.3180 
