~V
VERS. 2.00: Ver 2.00
~W
STRT.M 50.0000:
STOP.M 258.0000:
STEP.M 0.1250:
NULL. -999.2500:
UWI. F10200:
~C
DEPT.M :
SP.MV :
GR.API :
RML.OHMM :
RI. :
RXO.OHMM :
CALI.CM :
DEN.GM/CC :
~A
# ...
  140.0000    -1.4110    42.3640    22.0440    21.2680    20.5430    23.3750     2.5520 
  140.1250    -1.4020    43.3750    21.7750    21.1240    21.7550    23.4020     2.5590 
  140.2500    -1.3930    45.1900    21.0020    20.5170    21.1660    23.4240     2.5560 
  140.3750    -1.3890    48.1390    19.9380    19.6040    19.7640    23.4360     2.5450 
  140.5000    -1.3840    52.4480    18.9130    18.6650    17.7740    23.4570     2.5300 
  140.6250    -1.3690    56.0530    18.3320    18.0670    16.9910    23.5180     2.5170 
  140.7500    -1.3450    56.9770    18.3110    17.9500    17.5750    23.6310     2.5110 
  140.8750    -1.3040    55.0070    18.8350    18.3370    18.6960    23.6730     2.5080 
  141.0000    -1.2570    51.7440    19.7310    19.1140    19.2910    23.6880     2.5080 
  141.1250    -1.2230    50.5020    20.6330    19.9910    20.7770    23.7340     2.5120 
  141.2500    -1.1810    51.6830    21.1090    20.5450    22.4850    23.7730     2.5200 
  141.3750    -1.1280    53.2190    20.8960    20.4830    23.7410    23.7880     2.5280 
  141.5000    -1.0840    53.7210    19.9640    19.7100    24.7720    23.7840     2.5310 
  141.6250    -1.0480    54.9920    18.5300    18.3700    23.0950    23.7680     2.5200 
  141.7500    -1.0160    57.0980    17.1250    16.9710    18.5330    23.7500     2.4990 
  141.8750    -1.0060    57.1570    16.0780    15.8450    15.3270    23.7480     2.4750 
  142.0000    -0.9970    55.1940    15.5340    15.1550    14.6290    23.7550     2.4570 
  142.1250    -0.9800    53.7730    15.5230    14.9720    15.1770    23.7660     2.4520 
  142.2500    -0.9810    53.0930    15.8280    15.1230    15.5440    23.7580     2.4550 
  142.3750    -1.0040    52.4570    16.3230    15.4990    16.0250    23.7480     2.4620 
  142.5000    -1.0410    51.8060    16.9280    16.0170    16.3770    23.7360     2.4680 
  142.6250    -1.0800    51.1330    17.6270    16.6430    16.9940    23.7500     2.4740 
  142.7500    -1.1250    50.3500    18.3980    17.3370    17.3330    23.7750     2.4770 
  142.8750    -1.1650    52.1830    19.1940    18.0550    18.6660    23.7850     2.4750 
  143.0000    -1.1920    56.1060    19.9260    18.7150    20.3760    23.7780     2.4690 
  143.1250    -1.2060    56.1490    20.4460    19.1760    22.0840    23.7390     2.4620 
  143.2500    -1.2070    54.0390    20.7140    19.3940    22.5220    23.6860     2.4590 
  143.3750    -1.2010    54.3880    20.7390    19.3650    22.4280    23.6150     2.4630 
  143.5000    -1.1720    56.6010    20.5840    19.1430    21.4640    23.5770     2.4710 
  143.6250    -1.1160    56.3760    20.3400    18.8100    20.6120    23.4870     2.4790 
  143.7500    -1.0600    54.7820    20.1010    18.4700    20.1050    23.3540     2.4810 
  143.8750    -0.9990    53.7500    19.8890    18.1600    19.4920    23.2620     2.4780 
  144.0000    -0.9400    52.9650    19.6940    17.8900    19.0600    23.2690     2.4700 
  144.1250    -0.8940    52.0160    19.4900    17.6590    19.3840    23.3510     2.4630 
  144.2500    -0.8370    51.3120    19.2710    17.4640    19.9570    23.4520     2.4620 
  144.3750    -0.7640    49.1230    19.0710    17.3260    20.3340    23.5960     2.4710 
  144.5000    -0.6830    44.6370    18.9640    17.2880    19.6240    23.7310     2.4870 
  144.6250    -0.6140    41.9500    19.0350    17.3980    19.2730    23.8340     2.5050 
  144.7500    -0.5660    42.7680    19.1800    17.5580    19.3220    23.8750     2.5210 
  144.8750    -0.5440    45.1510    19.1590    17.5660    19.4290    23.8790     2.5350 
  145.0000    -0.5410    47.2020    18.6320    17.1290    19.6050    23.8870     2.5480 
  145.1250    -0.5500    48.3670    17.1610    15.8520    20.0400    23.8680     2.5490 
  145.2500    -0.5800    49.6130    14.9030    13.8500    19.4230    23.8670     2.5260 
  145.3750    -0.6280    52.5680    12.2250    11.4370    16.9810    23.9440     2.4800 
  145.5000    -0.6850    58.3310     9.6370     9.0700    12.9650    24.1190     2.4220 
  145.6250    -0.7450    66.0930     7.6710     7.2160     8.5020    24.2650     2.3750 
  145.7500    -0.7940    72.4550     6.3960     5.9450     5.6660    24.1810     2.3480 
  145.8750    -0.8310    77.1710     5.7570     5.2240     4.6580    24.0000     2.3410 
  146.0000    -0.8830    79.9320     5.6270     4.9710     4.3520    23.8470     2.3450 
  146.1250    -0.9500    78.8050     5.9220     5.1380     4.3350    23.7970     2.3460 
  146.2500    -1.0050    76.4580     6.4390     5.5510     4.6270    23.8140     2.3390 
  146.3750    -1.0610    76.2970     7.0460     6.0920     5.2860    23.8920     2.3290 
  146.5000    -1.1210    78.6620     7.5980     6.6240     6.0280    23.9740     2.3240 
  146.6250    -1.1840    81.2170     7.9100     6.9700     6.5440    23.9300     2.3370 
  146.7500    -1.2210    83.2730     7.9240     7.0520     6.9430    23.8280     2.3610 
  146.8750    -1.2490    84.1820     7.6490     6.8580     7.2260    23.7840     2.3800 
  147.0000    -1.2460    80.5450     7.1840     6.4630     6.8660    23.7490     2.3760 
  147.1250    -1.2250    74.6900     6.7080     6.0090     6.2790    23.8390     2.3450 
  147.2500    -1.2230    74.6120     6.4010     5.6620     5.7320    23.9990     2.3100 
  147.3750    -1.2250    78.8660     6.3740     5.5250     5.4210    24.0050     2.2880 
  147.5000    -1.2350    79.3630     6.6770     5.6570     5.2920    23.8720     2.2850 
  147.6250    -1.2370    75.0400     7.3130     6.0940     5.7010    23.7870     2.3000 
  147.7500    -1.2470    71.1290     8.0740     6.6940     6.4270    23.7800     2.3160 
  147.8750    -1.2490    68.0610     8.7410     7.2980     7.5280    23.7750     2.3270 
  148.0000    -1.2570    66.1460     9.0930     7.7180     8.5420    23.7650     2.3300 
  148.1250    -1.2550    69.4000     8.9050     7.7390     9.0930    23.7760     2.3280 
  148.2500    -1.2410    74.5760     8.3020     7.3970     9.2350    23.8500     2.3250 
  148.3750    -1.2140    76.4800     7.4860     6.8240     8.4160    23.8860     2.3240 
  148.5000    -1.1700    74.0880     6.7110     6.2170     7.0170    23.8610     2.3240 
  148.6250    -1.1360    69.6910     6.2220     5.7900     6.3270    23.8250     2.3270 
  148.7500    -1.1100    67.9050     6.0410     5.6020     5.9960    23.8240     2.3310 
  148.8750    -1.1010    70.0590     6.1130     5.6330     5.8180    23.8760     2.3350 
  149.0000    -1.1100    73.5490     6.3190     5.8020     6.2550    23.9090     2.3410 
  149.1250    -1.1320    73.6720     6.4780     5.9600     6.6190    23.8960     2.3450 
  149.2500    -1.1640    72.3210     6.4640     5.9750     6.5890    23.8540     2.3490 
  149.3750    -1.2150    72.9850     6.2430     5.7960     6.3810    23.8070     2.3530 
  149.5000    -1.2860    77.5540     5.8680     5.4500     5.9280    23.7580     2.3590 
  149.6250    -1.3480    84.9140     5.4590     5.0270     5.0690    23.7000     2.3690 
  149.7500    -1.4330    88.7160     5.1320     4.6460     4.4510    23.6650     2.3800 
  149.8750    -1.5340    86.7320     4.9230     4.3570     4.2960    23.6530     2.3880 
  150.0000    -1.6340    84.1280     4.8250     4.1730     4.3330    23.6510     2.3900 
  150.1250    -1.7430    86.3680     4.8570     4.1210     4.4410    23.6510     2.3860 
  150.2500    -1.8770    89.8280     5.0610     4.2220     4.6230    23.6490     2.3810 
  150.3750    -2.0270    89.9970     5.5550     4.5570     4.8420    23.6370     2.3760 
  150.5000    -2.1840    88.4990     6.5010     5.2430     5.2920    23.6080     2.3720 
  150.6250    -2.3840    86.7000     8.1520     6.5150     6.7840    23.5660     2.3620 
  150.7500    -2.5990    83.3560    10.4130     8.3790     9.7550    23.5150     2.3390 
  150.8750    -2.8110    78.0430    13.0980    10.7790    14.2940    23.4860     2.3050 
  151.0000    -3.0380    71.7110    15.8850    13.5080    20.7190    23.4940     2.2690 
  151.1250    -3.3050    66.9100    18.3320    16.1830    27.6280    23.5040     2.2440 
