~V
VERS. 2.00: Ver 2.00
~W
STRT.M 50.0000:
STOP.M 275.0000:
STEP.M 0.1250:
NULL. -999.2500:
UWI. F10202:
~C
DEPT.M :
GR.API :
RML.OHMM :
RI. :
RXO.OHMM :
CALI.CM :
SP.MV :
DEN.GM/CC :
~A
# ...
  196.2500    54.7960     3.5060     2.6490     2.9470    24.5570   -13.9190     2.4140 
  196.3750    55.9330     3.4180     2.4350     3.1420    24.4710   -14.2040     2.4100 
  196.5000    56.5130     3.4900     2.5450     2.8610    24.4650   -14.4900     2.4150 
  196.6250    54.9640     3.6720     2.9970     2.4200    24.5830   -14.7260     2.4140 
  196.7500    52.1210     3.9910     3.6980     2.8460    24.7290   -14.8770     2.4100 
  196.8750    49.3910     4.4690     4.5530     4.0950    24.7140   -14.8860     2.4100 
  197.0000    48.8960     5.0090     5.4040     5.1230    24.5730   -14.8380     2.4150 
  197.1250    51.4800     5.4100     6.0210     5.3560    24.5550   -14.8060     2.4250 
  197.2500    55.7830     5.6030     6.3250     5.5220    24.6950   -14.7770     2.4320 
  197.3750    59.6420     5.6420     6.3430     5.7190    24.8050   -14.8670     2.4340 
  197.5000    61.8130     5.6250     6.1820     5.9080    24.8340   -15.1920     2.4290 
  197.6250    61.7940     5.6410     5.9670     5.8950    24.8000   -15.5850     2.4180 
  197.7500    60.3140     5.7170     5.7910     5.7910    24.7480   -15.8260     2.4050 
  197.8750    58.7570     5.8500     5.6810     5.7560    24.7220   -15.8840     2.3960 
  198.0000    58.0170     6.0260     5.6380     5.9590    24.7410   -15.7410     2.3950 
  198.1250    57.2440     6.2300     5.6650     6.2020    24.7380   -15.4660     2.4020 
  198.2500    56.8690     6.4400     5.7340     6.4950    24.7750   -15.1610     2.4140 
  198.3750    57.4500     6.6330     5.8290     6.6940    24.9070   -14.7320     2.4240 
  198.5000    59.0870     6.7890     5.9250     6.7230    24.9850   -14.1600     2.4280 
  198.6250    59.1920     6.8830     5.9980     6.6600    25.0160   -13.5530     2.4230 
  198.7500    57.6210     6.9350     6.0420     6.4110    24.9640   -13.0520     2.4140 
  198.8750    56.7930     6.9730     6.0690     6.3200    24.8980   -12.6530     2.4070 
  199.0000    58.1000     7.0390     6.1040     6.5440    24.8410   -12.3290     2.4060 
  199.1250    62.0040     7.1890     6.1910     6.7090    24.8480   -12.1020     2.4150 
  199.2500    64.4030     7.4330     6.3480     6.8470    24.8130   -12.0760     2.4300 
  199.3750    65.7240     7.7590     6.5790     7.1510    24.7560   -12.2830     2.4460 
  199.5000    69.2210     8.1240     6.8610     7.4260    24.7640   -12.5730     2.4610 
  199.6250    75.9720     8.4500     7.1410     7.6460    24.9940   -12.9680     2.4760 
  199.7500    81.8570     8.6730     7.3530     8.0480    25.1070   -13.5310     2.4880 
  199.8750    85.9540     8.7610     7.4550     8.4010    25.1250   -14.2270     2.4960 
  200.0000    90.3100     8.7300     7.4420     8.4420    25.1240   -15.0080     2.5020 
  200.1250    93.6320     8.6370     7.3480     8.0240    25.1330   -15.8460     2.5040 
  200.2500    93.3660     8.5770     7.2610     7.7460    25.1720   -16.7570     2.4980 
  200.3750    92.1170     8.6070     7.2390     7.7710    25.1870   -17.8150     2.4720 
  200.5000    93.6250     8.7460     7.3140     7.8670    25.1890   -19.1100     2.4220 
  200.6250    95.3900     8.9690     7.4830     7.9880    25.1710   -20.6070     2.3590 
  200.7500    94.2360     9.1900     7.6810     8.4450    25.1710   -22.2660     2.3130 
  200.8750    93.7480     9.3400     7.8500     9.3070    25.0870   -24.2450     2.3030 
  201.0000    99.7570     9.3740     7.9460    10.3630    24.8340   -26.4590     2.3280 
  201.1250   115.2590     9.2730     7.9400     9.0200    24.6970   -28.5380     2.3660 
  201.2500   132.4430     9.0990     7.8640     8.3130    24.7530   -30.3920     2.3890 
  201.3750   136.3970     8.9040     7.7500     8.2250    24.9380   -31.9720     2.3920 
  201.5000   121.2890     8.7350     7.6310     8.3030    25.1270   -33.2400     2.3800 
  201.6250   100.2790     8.6340     7.5440     8.2770    25.1870   -34.3400     2.3640 
  201.7500    91.0960     8.5970     7.5040     8.1950    25.2010   -35.1990     2.3500 
  201.8750    92.2270     8.6090     7.5130     8.0480    25.2180   -35.5960     2.3400 
  202.0000    90.4500     8.6490     7.5580     7.9170    25.2100   -35.6380     2.3360 
  202.1250    86.0310     8.6850     7.6080     8.0720    25.1920   -35.5480     2.3410 
  202.2500    82.0510     8.6940     7.6320     8.4540    25.2740   -35.2140     2.3500 
  202.3750    78.6590     8.6760     7.6200     8.7660    25.4130   -34.6100     2.3580 
  202.5000    75.0580     8.6590     7.5910     8.8350    25.4050   -33.9660     2.3590 
  202.6250    74.4900     8.7090     7.5940     8.8130    25.2760   -33.2950     2.3490 
  202.7500    78.2760     8.8840     7.6850     8.8980    25.2580   -32.6320     2.3360 
  202.8750    82.7040     9.2220     7.9030     9.1370    25.3810   -32.0570     2.3310 
  203.0000    84.2290     9.7060     8.2590     9.3140    25.4530   -31.5180     2.3410 
  203.1250    81.5000    10.2210     8.7040     9.5030    25.2700   -30.8620     2.3730 
  203.2500    76.9450    10.5670     9.0770     9.8230    24.9150   -30.0870     2.4130 
  203.3750    75.4500    10.5860     9.2140    10.4600    24.7040   -29.2110     2.4460 
  203.5000    80.1440    10.2270     9.0170    11.4380    24.7920   -28.1800     2.4610 
  203.6250    86.4250     9.5760     8.4950    10.7020    25.0020   -26.9420     2.4560 
  203.7500    89.3740     8.9330     7.9000     9.2010    25.0770   -25.6010     2.4490 
  203.8750    91.2090     8.5220     7.4420     7.9090    25.0580   -24.2460     2.4510 
  204.0000    93.9770     8.4750     7.2750     7.6130    25.0800   -22.9430     2.4650 
  204.1250    95.6580     8.8410     7.5140     8.4730    25.1270   -21.9860     2.4820 
  204.2500    97.4450     9.3960     8.0300     9.9060    25.1810   -21.4020     2.4910 
  204.3750   102.1250     9.9120     8.6440    10.5970    25.2030   -21.0510     2.4900 
  204.5000   106.6900    10.1450     9.1080    10.6020    25.1860   -20.8190     2.4830 
  204.6250   105.2500     9.8790     9.1200    10.5090    25.1270   -20.7260     2.4750 
  204.7500    99.8160     9.2610     8.6850    10.1720    25.0700   -20.5990     2.4700 
  204.8750    95.6870     8.4930     7.9330     9.0040    25.0590   -20.3400     2.4690 
  205.0000    94.2290     7.7480     7.0740     7.2620    25.1290   -19.9710     2.4670 
  205.1250    91.1120     7.1160     6.3210     5.8360    25.4160   -19.3980     2.4430 
  205.2500    84.0830     6.5990     5.7600     5.4900    25.9970   -18.6100     2.3780 
  205.3750    75.6700     6.2290     5.4050     5.7460    26.7800   -17.6970     2.2730 
  205.5000    69.9510     6.0310     5.2340     6.0400    27.3630   -16.6750     2.1590 
  205.6250    68.2570     6.0150     5.2310     5.8680    27.3370   -15.4980     2.0960 
  205.7500    68.0320     6.1090     5.3300     5.1880    26.7380   -14.4680     2.1140 
  205.8750    70.1790     6.2730     5.4940     4.6440    25.9690   -13.7820     2.2010 
  206.0000    76.9940     6.4750     5.6940     5.0210    25.4550   -13.3970     2.3120 
  206.1250    85.7630     6.6790     5.8950     5.9100    25.1450   -13.2870     2.3930 
  206.2500    90.1810     6.8530     6.0670     6.4130    24.9600   -13.3450     2.4260 
  206.3750    88.5940     6.9740     6.1870     6.5320    24.8880   -13.5860     2.4210 
  206.5000    86.1220     7.0310     6.2360     6.3970    24.9060   -13.9650     2.3920 
  206.6250    88.4190     7.0360     6.2480     6.3840    24.9500   -14.2610     2.3570 
  206.7500    90.8250     7.0460     6.2870     6.1920    25.0200   -14.3250     2.3280 
  206.8750    90.1000     7.0950     6.3630     5.9280    25.0800   -14.0640     2.3120 
  207.0000    88.4460     7.1870     6.4670     5.6560    24.9960   -13.4830     2.3120 
  207.1250    91.8180     7.3000     6.5810     5.8030    24.9180   -12.6330     2.3260 
  207.2500    97.0690     7.4120     6.6810     5.8240    24.9380   -11.7160     2.3440 
  207.3750    98.3050     7.5280     6.7580     5.9440    24.9750   -10.8490     2.3590 
