~V
VERS. 2.00: Ver 2.00
~W
STRT.M 50.0000:
STOP.M 274.0000:
STEP.M 0.1250:
NULL. -999.2500:
UWI. F10206:
~C
DEPT.M :
SP.MV :
DEN.GM/CC :
GR.API :
RML.OHMM :
RI. :
RXO.OHMM :
CALI.CM :
~A
# ...
  151.2500   -12.5260     2.3250    78.8480     4.5760     3.9690     4.5440    24.3490 
  151.3750   -12.4970     2.3140    81.0900     4.8640     4.1030     4.7610    24.5760 
  151.5000   -12.4870     2.3000    82.9030     5.2110     4.3260     5.1210    24.6150 
  151.6250   -12.4650     2.2840    81.1590     5.4920     4.5860     5.4710    24.6350 
  151.7500   -12.4440     2.2710    79.2560     5.6020     4.7830     5.5060    24.7870 
  151.8750   -12.4130     2.2640    79.5000     5.4960     4.8410     5.3170    24.9040 
  152.0000   -12.4070     2.2650    81.7860     5.2340     4.7400     5.0220    24.8270 
  152.1250   -12.3570     2.2750    82.7260     4.9790     4.5350     4.7420    24.8830 
  152.2500   -12.3400     2.2860    81.1940     4.8460     4.3420     4.6280    25.0640 
  152.3750   -12.3460     2.2940    79.5310     4.8460     4.2260     4.4540    25.1020 
  152.5000   -12.3650     2.2980    79.9390     4.9190     4.1990     4.3390    24.8790 
  152.6250   -12.4240     2.2990    82.2840     4.9580     4.2130     4.7620    24.7390 
  152.7500   -12.4740     2.2990    82.7740     4.8880     4.1830     5.0330    24.5960 
  152.8750   -12.5160     2.2990    81.1450     4.7040     4.0600     4.7310    24.4720 
  153.0000   -12.5420     2.2980    80.1100     4.4560     3.8520     4.1650    24.4040 
  153.1250   -12.6090     2.3000    80.6860     4.2350     3.6340     3.9630    24.3750 
  153.2500   -12.6510     2.3070    80.8610     4.1300     3.5130     3.9750    24.3420 
  153.3750   -12.6850     2.3170    79.8200     4.2230     3.5630     4.0370    24.3080 
  153.5000   -12.7490     2.3290    78.5340     4.5670     3.8060     4.1920    24.3050 
  153.6250   -12.8090     2.3370    78.7020     5.2030     4.2370     4.7630    24.3420 
  153.7500   -12.9110     2.3360    77.8150     5.9920     4.7700     6.0460    24.4180 
  153.8750   -13.0540     2.3320    75.1820     6.7620     5.3340     7.8110    24.5880 
  154.0000   -13.2130     2.3290    71.1270     7.3180     5.8390    10.1140    24.6910 
  154.1250   -13.3810     2.3330    68.4550     7.4700     6.1610    10.4430    24.7340 
  154.2500   -13.5850     2.3390    70.4860     7.3510     6.2950     9.3050    24.7850 
  154.3750   -13.7810     2.3380    76.1780     7.1770     6.3170     7.8460    24.8520 
  154.5000   -13.9580     2.3250    80.0180     7.1460     6.3440     7.8280    24.9480 
  154.6250   -14.0840     2.3020    76.5300     7.3400     6.4670     7.7450    24.9370 
  154.7500   -14.1590     2.2820    71.6550     7.6060     6.6350     7.7040    24.9370 
  154.8750   -14.1830     2.2720    70.3280     7.7670     6.7390     8.5580    24.9640 
  155.0000   -14.1770     2.2770    70.9250     7.6630     6.6750    10.1920    24.9190 
  155.1250   -14.1560     2.2910    68.6900     7.2150     6.3850    10.4220    25.1770 
  155.2500   -14.0830     2.3070    65.5320     6.6460     6.0000     7.5340    25.5280 
  155.3750   -14.0280     2.3160    64.1890     6.1690     5.6450     5.6140    25.6660 
  155.5000   -13.9510     2.3160    67.0960     5.9260     5.4050     5.1050    25.5760 
  155.6250   -13.9030     2.3050    74.4750     5.9890     5.3480     5.1890    25.1510 
  155.7500   -13.8630     2.2930    80.0510     6.2160     5.4560     5.6250    24.9850 
  155.8750   -13.8370     2.2830    79.2430     6.4340     5.6690     6.3270    24.9730 
  156.0000   -13.8110     2.2800    73.6630     6.4530     5.8550     6.9460    25.0840 
  156.1250   -13.7360     2.2830    70.8590     6.1490     5.8370     7.1460    24.9380 
  156.2500   -13.6920     2.2880    72.7170     5.7110     5.6280     6.1710    24.8830 
  156.3750   -13.6250     2.2940    76.9110     5.3540     5.3440     5.1510    24.8540 
  156.5000   -13.5910     2.3000    79.9000     5.2300     5.1410     4.7400    24.9010 
  156.6250   -13.5750     2.3060    77.9590     5.4090     5.1730     4.9160    24.8890 
  156.7500   -13.5970     2.3140    73.2530     5.7250     5.3900     5.5840    24.9630 
  156.8750   -13.6290     2.3210    69.5890     5.9820     5.6370     6.7770    24.9890 
  157.0000   -13.7010     2.3260    68.7990     5.9800     5.7030     7.1860    24.9680 
  157.1250   -13.8340     2.3250    71.7590     5.6280     5.4260     6.3280    24.8950 
  157.2500   -13.9670     2.3190    77.9780     5.1800     4.9890     5.3040    24.8080 
  157.3750   -14.1270     2.3120    84.8080     4.8840     4.6250     4.6990    24.7740 
  157.5000   -14.2630     2.3060    88.4200     4.8960     4.5130     4.6500    24.8040 
  157.6250   -14.4050     2.3050    87.0960     5.2920     4.7830     5.3650    24.9290 
  157.7500   -14.4920     2.3060    83.4590     5.9210     5.3420     6.9480    24.9580 
  157.8750   -14.5790     2.3070    79.6920     6.6240     6.0760     8.9420    24.9800 
  158.0000   -14.6410     2.3060    77.5680     7.2180     6.7990    10.4960    25.0050 
  158.1250   -14.6700     2.3030    77.3010     7.5510     7.2650     9.6670    25.0120 
  158.2500   -14.7080     2.2970    77.3380     7.6980     7.4530     8.0860    25.0120 
  158.3750   -14.7100     2.2890    75.3600     7.7470     7.4480     7.8340    24.9960 
  158.5000   -14.7140     2.2810    72.5280     7.7360     7.3480     8.7640    24.9280 
  158.6250   -14.7050     2.2730    71.3300     7.6250     7.1890     9.2870    24.8830 
  158.7500   -14.7390     2.2680    71.5780     7.4040     6.9730     9.2360    24.9110 
  158.8750   -14.7910     2.2660    71.9000     7.1200     6.7140     8.7380    24.9070 
  159.0000   -14.8850     2.2700    71.1180     6.9190     6.5050     6.9010    24.9280 
  159.1250   -15.0650     2.2800    70.0580     7.0970     6.5780     6.9560    24.9360 
  159.2500   -15.2420     2.2920    69.9480     7.8440     7.1060     9.3670    25.0030 
  159.3750   -15.4560     2.3000    70.7930     9.3630     8.2540    13.6030    25.0090 
  159.5000   -15.7030     2.3010    72.0870    11.8890    10.2120    17.4270    25.0120 
  159.6250   -15.9850     2.2890    70.6010    16.8570    13.4880    21.1500    25.0250 
  159.7500   -16.2710     2.2680    66.3280    25.5930    18.2290    27.8940    25.0680 
  159.8750   -16.5610     2.2430    61.8820    33.4290    24.4550    38.3910    25.0970 
  160.0000   -16.8200     2.2190    58.2680    41.6140    31.5630    48.0590    25.1320 
  160.1250   -17.0540     2.2020    54.7510    48.0320    37.8460    50.0350    25.0810 
  160.2500   -17.2630     2.1920    54.0140    51.4120    41.7820    48.4600    25.0490 
  160.3750   -17.4530     2.1880    55.7030    51.9750    43.1270    45.7440    25.0400 
  160.5000   -17.6070     2.1880    55.9450    51.1570    42.8730    44.0930    25.0760 
  160.6250   -17.6900     2.1880    52.9610    50.3760    42.3020    43.1510    25.0720 
  160.7500   -17.7510     2.1860    51.2240    50.0120    42.0270    41.6270    25.0540 
  160.8750   -17.7750     2.1810    52.3180    49.8420    41.9800    41.5090    25.0580 
  161.0000   -17.7780     2.1740    54.2630    49.5180    41.8910    42.6180    25.0540 
  161.1250   -17.7010     2.1660    55.4580    48.7160    41.4240    42.2830    25.0150 
  161.2500   -17.6200     2.1600    57.0850    47.5220    40.5510    39.6900    25.0050 
  161.3750   -17.5110     2.1570    58.0700    46.0850    39.4010    36.8920    24.9990 
  161.5000   -17.3820     2.1570    58.2260    44.5130    38.1530    35.6400    24.9540 
  161.6250   -17.2530     2.1600    57.4540    42.7710    36.9060    35.6960    24.9950 
  161.7500   -17.1010     2.1650    57.2590    40.8020    35.5850    35.8440    25.1230 
  161.8750   -16.9440     2.1720    58.6110    38.6500    34.1000    34.8850    25.1670 
  162.0000   -16.7830     2.1790    59.0700    36.5630    32.4960    33.5410    25.1220 
  162.1250   -16.6580     2.1860    58.5570    35.0230    31.0470    32.8730    24.9950 
  162.2500   -16.5240     2.1920    59.9920    34.1800    30.0010    32.0670    24.9310 
  162.3750   -16.4130     2.1960    61.9160    33.9490    29.4620    31.4300    25.0510 
