~V
VERS. 2.00: Ver 2.00
~W
STRT.M 55.0000:
STOP.M 274.0000:
STEP.M 0.1250:
NULL. -999.2500:
UWI. F10255:
~C
DEPT.M :
GR.API :
RML.OHMM :
RI. :
RXO.OHMM :
CALI.CM :
DEN.GM/CC :
SP.MV :
~A
# ...
  167.5000    61.7580   143.5570   141.4430   112.9790    25.6430     2.2580   -25.1400 
  167.6250    58.2970   141.4000   139.0070   120.1850    25.6190     2.2540   -25.1500 
  167.7500    55.7430   139.6650   136.7620   123.4130    25.5630     2.2400   -25.1640 
  167.8750    57.0460   138.8990   135.2010   117.6160    25.5000     2.2180   -25.2650 
  168.0000    59.4100   140.0600   135.3660   104.3020    25.3730     2.1950   -25.4330 
  168.1250    59.0040   145.1380   139.4060    76.1100    25.1630     2.1870   -25.5440 
  168.2500    58.3200   154.9440   148.1920    53.1490    25.1120     2.1970   -25.5550 
  168.3750    59.0700   170.1840   162.3580    43.8350    25.3500     2.2170   -25.5430 
  168.5000    58.5310   190.4910   181.4870    46.1160    25.7440     2.2350   -25.6160 
  168.6250    54.8790   213.2710   203.3700    67.5410    25.6610     2.2390   -25.7060 
  168.7500    51.5360   232.4230   222.5530    99.2780    25.2430     2.2350   -25.7040 
  168.8750    51.0110   242.2790   233.6650   127.1380    24.8360     2.2290   -25.6570 
  169.0000    51.8600   239.6680   233.1010   139.8990    24.6080     2.2270   -25.5980 
  169.1250    51.6320   224.5960   219.9270   139.9540    24.6080     2.2310   -25.4910 
  169.2500    51.5000   204.2750   200.9530   128.3920    24.8190     2.2360   -25.3720 
  169.3750    52.7380   183.3340   180.9150   115.1570    25.2120     2.2410   -25.2850 
  169.5000    53.7860   164.4900   162.6450   107.7510    25.5550     2.2460   -25.1400 
  169.6250    53.0240   149.3340   147.7050   105.9530    25.6400     2.2490   -24.9830 
  169.7500    52.3160   137.5680   135.8610   108.5640    25.5980     2.2520   -24.8710 
  169.8750    52.5780   129.2990   127.3320   107.0390    25.5710     2.2510   -24.7600 
  170.0000    53.4210   124.6560   122.4230    97.0240    25.5410     2.2460   -24.6640 
  170.1250    53.5360   124.2470   122.0070    88.9160    25.4240     2.2370   -24.6440 
  170.2500    53.5700   126.9090   125.0900    97.3330    25.3020     2.2290   -24.6420 
  170.3750    54.0190   131.1950   130.2970   108.5110    25.2580     2.2250   -24.5490 
  170.5000    54.1650   134.7360   135.1850   117.3330    25.2660     2.2280   -24.4380 
  170.6250    54.3620   134.2280   136.0320   115.8210    25.2920     2.2390   -24.4350 
  170.7500    55.5160   129.2900   131.8280   110.4120    25.3380     2.2530   -24.4750 
  170.8750    57.0470   121.2790   123.6840    99.5940    25.3760     2.2670   -24.4460 
  171.0000    57.9380   112.6100   114.2090    84.7780    25.3710     2.2760   -24.2980 
  171.1250    57.9960   105.8020   106.3110    74.4840    25.2920     2.2770   -24.1040 
  171.2500    58.6430   101.4830   100.9370    76.3650    25.0870     2.2730   -24.0050 
  171.3750    59.8040    99.5240    98.0200    84.6690    24.8080     2.2670   -23.9970 
  171.5000    59.5630    99.5280    97.1450    85.6780    24.6220     2.2610   -23.9500 
  171.6250    58.6870   101.4580    98.2140    78.8630    24.5560     2.2570   -23.7670 
  171.7500    59.1170   105.0840   100.9360    74.6870    24.5320     2.2530   -23.5770 
  171.8750    60.1380   110.6940   105.6050    73.9320    24.5610     2.2480   -23.4800 
  172.0000    59.8640   118.5220   112.4490    78.8630    24.7280     2.2430   -23.4430 
  172.1250    58.9550   128.6530   121.4070    89.3730    25.0800     2.2380   -23.3380 
  172.2500    58.3610   139.7840   131.1640    99.5100    25.2100     2.2330   -23.1680 
  172.3750    55.9620   150.5450   140.6200   108.9130    25.1870     2.2280   -22.9900 
  172.5000    52.2890   159.3470   148.6530   109.5760    25.0650     2.2220   -22.8200 
  172.6250    52.3090   163.7770   153.4050   107.9760    24.8500     2.2180   -22.6720 
  172.7500    55.6620   163.0210   154.0040   102.9570    24.6540     2.2130   -22.5430 
  172.8750    57.3280   156.4600   149.7220   110.1140    24.5840     2.2070   -22.3990 
  173.0000    56.4720   144.3750   140.5110   125.4610    24.7040     2.2030   -22.2530 
  173.1250    58.2040   127.7910   126.6810   126.6860    25.0470     2.2070   -22.1370 
  173.2500    62.5590   110.0460   110.7070   115.2870    25.3510     2.2210   -22.0060 
  173.3750    65.1770    93.6220    94.5980    98.2230    25.4200     2.2470   -21.8740 
  173.5000    64.0920    80.3560    80.4040    85.6840    25.3020     2.2740   -21.8070 
  173.6250    64.3190    71.8340    70.4400    68.5770    25.2040     2.2890   -21.7810 
  173.7500    68.0250    67.3840    64.7900    51.0390    25.0100     2.2860   -21.6820 
  173.8750    71.8880    66.6400    63.2770    41.7950    24.6420     2.2690   -21.5140 
  174.0000    71.1710    69.0550    65.2510    40.5720    24.2110     2.2520   -21.3190 
  174.1250    65.9360    73.9450    69.8100    47.8040    24.1570     2.2440   -21.2270 
  174.2500    62.2540    79.4390    74.9050    53.7420    24.5280     2.2470   -21.2270 
  174.3750    61.0230    84.2190    79.1920    58.5070    25.0280     2.2530   -21.1860 
  174.5000    60.5800    87.6650    82.0960    59.8330    25.3880     2.2570   -21.0690 
  174.6250    59.6090    90.2090    84.1220    61.2350    25.4840     2.2550   -20.9480 
  174.7500    57.8660    93.1550    86.6670    63.4430    25.5080     2.2520   -20.9310 
  174.8750    55.7220    97.0270    90.3170    76.4010    25.5310     2.2500   -20.9790 
  175.0000    54.8680   101.3140    94.5410    90.6650    25.5430     2.2520   -20.9960 
  175.1250    56.2000   104.2160    97.5680    92.1220    25.5410     2.2560   -20.9540 
  175.2500    56.7760   104.3540    98.0110    87.0770    25.5520     2.2600   -20.8980 
  175.3750    56.3570   101.2860    95.3310    87.9050    25.5680     2.2640   -20.8320 
  175.5000    56.4620    95.6530    90.0240    84.6250    25.5380     2.2690   -20.7760 
  175.6250    57.7850    88.7960    83.3450    77.2840    25.4820     2.2790   -20.7530 
  175.7500    59.1940    82.3580    76.9400    70.4620    25.4260     2.2950   -20.7120 
  175.8750    60.9590    77.1910    71.6440    61.7930    25.3590     2.3120   -20.6250 
  176.0000    61.4750    73.7560    67.9870    53.9440    25.2710     2.3220   -20.5620 
  176.1250    59.8370    72.5200    66.5640    52.5470    25.1450     2.3180   -20.5670 
  176.2500    58.1050    73.0250    66.9360    57.4200    24.9790     2.3030   -20.5960 
  176.3750    57.8520    74.9420    68.7450    66.4670    24.7260     2.2860   -20.6480 
  176.5000    59.0290    77.8390    71.5400    72.1610    24.4810     2.2720   -20.7270 
  176.6250    59.5630    81.2610    74.8560    72.9740    24.3480     2.2640   -20.8170 
  176.7500    59.8250    84.6590    78.1620    72.6970    24.2800     2.2580   -20.9130 
  176.8750    60.4720    87.6330    81.1510    68.6070    24.2160     2.2500   -21.0690 
  177.0000    61.4320    89.6920    83.4170    63.8780    24.1500     2.2410   -21.2820 
  177.1250    61.7670    89.9510    84.0540    66.3970    24.0920     2.2370   -21.4230 
  177.2500    60.7210    88.3490    82.7920    70.3280    24.0980     2.2400   -21.4870 
  177.3750    60.3390    85.2760    79.8190    69.9690    24.1060     2.2500   -21.6010 
  177.5000    61.9170    81.7400    76.0500    61.3240    24.0570     2.2610   -21.7950 
  177.6250    63.8680    79.2690    73.1480    51.6040    23.9340     2.2630   -22.0060 
  177.7500    64.6330    78.5440    72.1170    50.4030    23.7270     2.2550   -22.1490 
  177.8750    63.9820    79.3720    72.9110    51.6370    23.4880     2.2430   -22.2600 
  178.0000    63.7130    80.7560    74.5390    56.3500    23.4300     2.2380   -22.4050 
  178.1250    63.4140    81.1450    75.3510    63.1060    23.6230     2.2480   -22.6470 
  178.2500    62.7750    80.0460    74.6320    64.9340    23.7960     2.2610   -22.9150 
  178.3750    63.4400    78.0540    72.8920    51.7210    23.9560     2.2650   -23.1100 
  178.5000    66.2320    76.4070    71.4640    34.4950    23.9740     2.2570   -23.2780 
  178.6250    68.8240    76.4830    71.9300    31.5330    23.7470     2.2430   -23.4630 
