~V
VERS. 2.00: Ver 2.00
~W
STRT.M 60.0000:
STOP.M 271.0000:
STEP.M 0.1250:
NULL. -999.2500:
UWI. F10237:
~C
DEPT.M :
GR.API :
RML.OHMM :
RI. :
RXO.OHMM :
CALI.CM :
DEN.GM/CC :
SP.MV :
~A
# ...
  105.0000    60.8530     8.3780     7.1750     7.3290    22.5670     2.1990   -18.8890 
  105.1250    62.7680     8.4160     7.1970     7.4030    22.5950     2.1850   -18.9230 
  105.2500    66.6840     8.4970     7.2490     7.4700    22.6240     2.1850   -18.9970 
  105.3750    69.4650     8.5970     7.3210     7.5120    22.6440     2.1920   -19.1270 
  105.5000    68.9300     8.6800     7.4050     7.5000    22.6650     2.1980   -19.2700 
  105.6250    66.2330     8.7330     7.4920     7.5180    22.6990     2.1990   -19.3770 
  105.7500    63.4430     8.7700     7.5680     7.5450    22.7100     2.1960   -19.4790 
  105.8750    59.5510     8.7970     7.6310     7.7040    22.6990     2.1930   -19.5680 
  106.0000    54.7350     8.8020     7.6820     7.9290    22.6650     2.1940   -19.6330 
  106.1250    54.2350     8.7630     7.7090     8.0830    22.6450     2.1970   -19.7130 
  106.2500    56.7680     8.6970     7.7030     7.9770    22.6390     2.2020   -19.7460 
  106.3750    58.6700     8.6670     7.6780     7.8550    22.6450     2.2120   -19.7520 
  106.5000    58.6190     8.7490     7.6790     7.8920    22.6690     2.2270   -19.7760 
  106.6250    59.2800     9.0090     7.7830     8.0390    22.7570     2.2430   -19.8210 
  106.7500    61.0320     9.3870     8.0010     8.0920    22.9450     2.2560   -19.8110 
  106.8750    61.2990     9.8000     8.2920     8.1310    23.2060     2.2670   -19.7740 
  107.0000    58.2270    10.1230     8.5570     8.1830    23.3340     2.2690   -19.8010 
  107.1250    54.1770    10.1780     8.6440     8.2500    23.1880     2.2430   -19.8430 
  107.2500    52.8810     9.9730     8.5320     8.1810    23.0580     2.2020   -19.8260 
  107.3750    53.7770     9.6130     8.2800     7.9530    23.0080     2.1690   -19.7550 
  107.5000    54.0480     9.2360     7.9930     7.7200    22.9620     2.1540   -19.6780 
  107.6250    52.1230     8.9570     7.7840     7.4780    22.8320     2.1480   -19.6520 
  107.7500    49.2250     8.7750     7.6840     7.2570    22.6730     2.1450   -19.6120 
  107.8750    47.2810     8.6570     7.6760     7.2540    22.5850     2.1440   -19.5250 
  108.0000    49.3140     8.5720     7.7130     7.4560    22.5690     2.1470   -19.4370 
  108.1250    56.4220     8.5350     7.7430     7.4600    22.5940     2.1570   -19.3380 
  108.2500    62.0460     8.5800     7.7640     6.9340    22.6320     2.1760   -19.2290 
  108.3750    61.5110     8.7270     7.8110     6.1240    22.6940     2.2050   -19.1210 
  108.5000    59.6480     8.9650     7.9220     6.6140    22.8190     2.2410   -18.9850 
  108.6250    63.3970     9.2450     8.1090     7.1000    22.9600     2.2680   -18.8190 
  108.7500    70.5720     9.4800     8.3040     7.9300    23.0170     2.2690   -18.6540 
  108.8750    76.5530     9.5970     8.4270     8.6100    23.0730     2.2420   -18.4810 
  109.0000    79.0370     9.5670     8.4220     8.8580    23.1570     2.2030   -18.2950 
  109.1250    76.5780     9.4430     8.2880     8.6750    23.1690     2.1730   -18.1390 
  109.2500    70.7600     9.3570     8.1200     8.5450    23.1170     2.1550   -18.0190 
  109.3750    63.3150     9.3670     7.9830     8.5530    23.0260     2.1470   -17.8850 
  109.5000    57.8490     9.4500     7.9110     8.6570    22.9580     2.1490   -17.7520 
  109.6250    57.2800     9.5130     7.9070     8.8110    22.9240     2.1610   -17.6340 
  109.7500    61.3480     9.4890     7.9320     8.9810    22.9070     2.1730   -17.5300 
  109.8750    65.6670     9.3980     7.9720     9.2170    22.9110     2.1850   -17.4190 
  110.0000    67.0340     9.3250     8.0280     9.3920    22.9060     2.1940   -17.2810 
  110.1250    67.7770     9.3610     8.1090     9.3620    22.8620     2.2000   -17.1270 
  110.2500    68.1710     9.4930     8.2160     9.3630    22.7910     2.1950   -16.9780 
  110.3750    66.0590     9.6620     8.3450     9.3290    22.7450     2.1820   -16.8280 
  110.5000    64.4360     9.7950     8.4690     9.3270    22.7310     2.1670   -16.6550 
  110.6250    66.0740     9.8360     8.5450     9.3950    22.7220     2.1590   -16.4720 
  110.7500    68.8140     9.8090     8.5610     9.3660    22.6830     2.1570   -16.3200 
  110.8750    70.6330     9.7530     8.5310     9.0630    22.6420     2.1590   -16.1750 
  111.0000    71.4180     9.6920     8.4870     8.4430    22.6100     2.1650   -15.9650 
  111.1250    70.7530     9.6040     8.4380     7.7870    22.6100     2.1800   -15.7110 
  111.2500    70.4290     9.4380     8.3440     7.4370    22.6830     2.2040   -15.4740 
  111.3750    74.2930     9.1300     8.1400     7.3160    22.7980     2.2320   -15.2650 
  111.5000    78.8560     8.6460     7.7890     7.0540    22.9520     2.2570   -15.0560 
  111.6250    77.9970     8.0070     7.3050     6.6080    23.1740     2.2720   -14.8240 
  111.7500    77.4310     7.3630     6.7990     6.1710    23.5070     2.2790   -14.6150 
  111.8750    82.7940     6.8500     6.3720     5.9840    23.8700     2.2840   -14.4400 
  112.0000    90.7090     6.5610     6.0920     5.9330    24.2480     2.2920   -14.3110 
  112.1250    95.3610     6.5450     6.0020     5.9650    24.4390     2.3060   -14.2670 
  112.2500    96.0520     6.6800     6.0360     6.1820    24.4850     2.3240   -14.2630 
  112.3750    91.8850     6.8550     6.1300     6.6830    24.4400     2.3370   -14.2950 
  112.5000    83.8550     6.9840     6.2110     7.4390    24.3550     2.3280   -14.3630 
  112.6250    81.0700     7.0220     6.2180     6.6890    24.2330     2.2980   -14.4760 
  112.7500    86.5610     7.0010     6.1730     6.1690    24.0870     2.2690   -14.6360 
  112.8750    91.4240     6.9580     6.1170     6.0350    23.8850     2.2500   -14.8910 
  113.0000    86.9920     6.9280     6.0810     6.2980    23.6890     2.2370   -15.2110 
  113.1250    77.9180     6.9440     6.0830     6.4830    23.5300     2.2260   -15.4980 
  113.2500    73.9360     6.9990     6.1020     6.4730    23.4090     2.2170   -15.7860 
  113.3750    74.8170     7.0710     6.1110     6.3780    23.3360     2.2090   -16.1350 
  113.5000    76.5250     7.1310     6.1000     6.3390    23.3160     2.2010   -16.4980 
  113.6250    76.4100     7.1640     6.0760     6.3170    23.3070     2.1930   -16.7860 
  113.7500    74.8420     7.1820     6.0520     6.2630    23.2590     2.1870   -16.9770 
  113.8750    72.2340     7.1980     6.0280     6.1780    23.1580     2.1840   -17.0930 
  114.0000    70.2780     7.2180     6.0090     6.0900    23.0530     2.1830   -17.1540 
  114.1250    71.9510     7.2480     6.0170     6.0810    23.0170     2.1820   -17.1280 
  114.2500    75.4710     7.3010     6.0660     6.1180    23.0190     2.1770   -17.0430 
  114.3750    77.9220     7.3910     6.1610     6.1760    23.0180     2.1680   -16.9020 
  114.5000    77.5580     7.5310     6.2910     6.2400    22.9800     2.1590   -16.7660 
  114.6250    73.4010     7.6270     6.4250     6.4370    22.9220     2.1580   -16.6530 
  114.7500    69.2470     7.6070     6.5450     6.6710    22.8560     2.1610   -16.5080 
  114.8750    68.0820     7.6880     6.6440     6.8660    22.7490     2.1660   -16.3560 
  115.0000    68.4480     7.8320     6.7210     6.9700    22.6870     2.1680   -16.2320 
  115.1250    67.9760     7.8450     6.7720     6.9910    22.6790     2.1660   -16.1050 
  115.2500    67.7680     7.9190     6.8080     6.9460    22.6240     2.1640   -15.9370 
  115.3750    68.9420     8.0150     6.8420     6.8220    22.4810     2.1610   -15.7490 
  115.5000    70.4060     8.1660     6.8850     6.6470    22.3870     2.1580   -15.5690 
  115.6250    71.5410     8.3310     6.9370     6.5970    22.4770     2.1590   -15.3920 
  115.7500    73.8330     8.5060     6.9800     6.6640    22.5390     2.1630   -15.2200 
  115.8750    77.0000     8.5890     7.0050     6.7550    22.5560     2.1670   -15.0410 
  116.0000    78.5690     8.6140     7.0180     6.7760    22.5530     2.1680   -14.8340 
  116.1250    76.3230     8.6000     7.0240     6.6280    22.5520     2.1700   -14.6340 
