~V
VERS. 2.00: Ver 2.00
~W
STRT.M 55.0000:
STOP.M 274.0000:
STEP.M 0.1250:
NULL. -999.2500:
UWI. F10255:
~C
DEPT.M :
GR.API :
RML.OHMM :
RI. :
RXO.OHMM :
CALI.CM :
DEN.GM/CC :
SP.MV :
~A
# ...
   66.2500   100.0310     5.6110     6.0150     7.1340    23.8660     2.2740     0.0400 
   66.3750    98.9170     5.6730     6.0480     6.5110    23.9900     2.2550    -0.8810 
   66.5000    89.6750     5.8290     6.2170     6.4360    24.1970     2.2310    -1.7880 
   66.6250    80.0910     6.1600     6.5620     7.1430    24.4740     2.2100    -2.6090 
   66.7500    73.3920     6.6400     7.0090     7.9870    24.6500     2.1950    -3.3840 
   66.8750    68.9880     7.1950     7.4670     8.3700    24.6860     2.1900    -4.1270 
   67.0000    65.4810     7.7010     7.8290     8.4930    24.7260     2.1910    -4.8150 
   67.1250    63.1170     8.0010     7.9860     8.7230    24.7860     2.1920    -5.4680 
   67.2500    63.6730     8.0880     7.9700     8.9010    24.8210     2.1880    -6.0540 
   67.3750    66.1420     8.0190     7.8440     8.9310    24.8320     2.1780    -6.5620 
   67.5000    68.5110     7.8840     7.6780     8.9600    24.8490     2.1650    -6.9640 
   67.6250    67.6060     7.7740     7.5290     9.0710    24.8090     2.1600    -7.2320 
   67.7500    64.4840     7.7220     7.4250     9.1260    24.7340     2.1610    -7.4300 
   67.8750    61.5750     7.7240     7.3710     9.1270    24.7650     2.1580    -7.6150 
   68.0000    60.6380     7.7660     7.3640     9.1850    25.0890     2.1460    -7.8180 
   68.1250    61.3700     7.8730     7.4520     9.3020    25.3280     2.1370    -7.9660 
   68.2500    61.8730     8.1070     7.7010     9.4600    25.4300     2.1610    -8.0560 
   68.3750    61.2890     8.5520     8.1640     9.4880    25.4240     2.2320    -8.1320 
   68.5000    60.4910     9.2380     8.8360     9.4810    25.3560     2.3310    -8.1900 
   68.6250    59.6450    10.0280     9.6070    11.5420    24.8470     2.4040    -8.1930 
   68.7500    58.3680    10.5590    10.1990    17.1560    24.1140     2.4120    -8.1810 
   68.8750    58.4500    10.5570    10.3430    19.9250    23.6050     2.3590    -8.1600 
   69.0000    60.9700     9.9880     9.9440    14.5450    23.5260     2.2820    -8.0680 
   69.1250    64.9460     9.0670     9.1250    10.4430    23.5840     2.2330    -7.9070 
   69.2500    69.2640     8.1700     8.2290     9.2180    23.6770     2.2270    -7.7300 
   69.3750    73.6670     7.4520     7.4320     8.5550    23.8630     2.2500    -7.5300 
   69.5000    79.3590     6.9510     6.8190     7.7250    24.1620     2.2800    -7.3540 
   69.6250    86.1930     6.6740     6.4320     7.3720    24.5280     2.2950    -7.2380 
   69.7500    92.2780     6.5610     6.2200     6.8460    24.7540     2.2930    -7.1530 
   69.8750    95.0280     6.6050     6.1850     6.4460    24.8250     2.2760    -7.0990 
   70.0000    92.1450     6.8040     6.3350     6.5660    24.8030     2.2530    -7.1770 
   70.1250    83.8170     7.1630     6.6670     7.4760    24.7980     2.2320    -7.4660 
   70.2500    74.2760     7.5940     7.0740     8.6430    24.8530     2.2160    -7.8150 
   70.3750    66.8190     8.0110     7.4520     9.1540    24.9050     2.2040    -8.1690 
   70.5000    61.8790     8.3370     7.7130     9.0810    24.8810     2.1960    -8.5140 
   70.6250    58.4050     8.5440     7.8220     8.9620    24.8400     2.1940    -8.9040 
   70.7500    55.9070     8.7290     7.8920     8.9880    24.8330     2.1970    -9.3260 
   70.8750    55.2310     8.9950     8.0330     9.1690    24.8270     2.2020    -9.6830 
   71.0000    56.4990     9.3870     8.3060     9.6310    24.7750     2.2030    -9.9180 
   71.1250    58.1760     9.8180     8.6620    10.6340    24.7040     2.1930   -10.0690 
   71.2500    58.7680    10.1020     8.9180    12.1010    24.6970     2.1740   -10.1590 
   71.3750    59.0260    10.1480     8.9490    12.8790    24.7390     2.1580   -10.1940 
   71.5000    58.6130    10.0210     8.7750    11.2590    24.7850     2.1660   -10.2230 
   71.6250    56.9440     9.9450     8.5880     9.6640    24.8110     2.2210   -10.2320 
   71.7500    55.7480    10.0950     8.5810     8.8130    24.9050     2.3070   -10.1650 
   71.8750    55.9960    10.4820     8.8090     8.7690    24.9330     2.3870   -10.0750 
   72.0000    56.8020    10.9530     9.1990     9.6150    24.7140     2.4230   -10.0210 
   72.1250    58.5870    11.1850     9.5040    11.3820    24.2540     2.3900    -9.9760 
   72.2500    61.7630    11.0290     9.4960    12.3160    23.9560     2.3200    -9.9420 
   72.3750    64.0910    10.5520     9.1480    10.8940    23.9060     2.2500    -9.9450 
   72.5000    64.3090     9.9670     8.6100     9.6320    23.9980     2.2050    -9.9730 
   72.6250    65.0930     9.5250     8.1160     9.2300    24.1320     2.1900   -10.0240 
   72.7500    65.3290     9.2920     7.7990     9.3250    24.2440     2.1900   -10.1130 
   72.8750    61.7860     9.2290     7.6680     9.4540    24.5330     2.1950   -10.2200 
   73.0000    56.8820     9.2470     7.6520     9.4720    24.7450     2.2050   -10.2840 
   73.1250    56.0590     9.2690     7.6590     9.4740    24.8020     2.2130   -10.2960 
   73.2500    58.1620     9.2890     7.6640     9.5660    24.7980     2.2120   -10.3420 
   73.3750    60.2900     9.3530     7.7090     9.6760    24.7530     2.2010   -10.4060 
   73.5000    62.0380     9.5070     7.8420     9.6660    24.6260     2.1820   -10.4240 
   73.6250    61.3550     9.7750     8.0900     9.7330    24.4600     2.1700   -10.3620 
   73.7500    57.2850    10.0990     8.3990     9.7910    24.4240     2.1720   -10.3110 
   73.8750    54.6410    10.4210     8.7090     9.6930    24.4820     2.1840   -10.3110 
   74.0000    57.0430    10.6860     8.9580     9.3350    24.5210     2.1950   -10.3200 
   74.1250    59.9690    10.8460     9.0920     9.3060    24.4940     2.1920   -10.2980 
   74.2500    60.0080    10.9080     9.1210     9.5990    24.3900     2.1800   -10.2840 
   74.3750    58.4740    10.8700     9.0570     9.9680    24.4340     2.1690   -10.2880 
   74.5000    57.2810    10.7230     8.9110    10.1100    24.7860     2.1710   -10.2780 
   74.6250    56.1720    10.4500     8.6770    10.0140    25.4010     2.1880   -10.2670 
   74.7500    55.3300    10.1020     8.3850     9.8810    25.8470     2.2070   -10.2750 
   74.8750    55.3990     9.7450     8.0720     9.9330    25.8480     2.2160   -10.2590 
   75.0000    56.0010     9.4630     7.8010    10.0130    25.5430     2.2080   -10.2050 
   75.1250    56.2170     9.3650     7.6730    10.1230    25.2570     2.1850   -10.1790 
   75.2500    54.6190     9.4640     7.7160    10.3830    25.1220     2.1610   -10.1530 
   75.3750    51.6280     9.7380     7.9130    10.9020    25.0870     2.1470   -10.0670 
   75.5000    50.9250    10.1180     8.2020    11.4990    25.1060     2.1450    -9.9790 
   75.6250    55.7350    10.4800     8.4850    11.8790    25.0910     2.1570    -9.9380 
   75.7500    61.6970    10.7050     8.6710    11.4890    24.9720     2.1740    -9.8780 
   75.8750    65.4160    10.7360     8.7140    10.9450    24.6940     2.1890    -9.8280 
   76.0000    66.6470    10.5890     8.6190    10.5620    24.3390     2.1970    -9.8080 
   76.1250    66.0120    10.3430     8.4360    10.5440    24.2420     2.1930    -9.7470 
   76.2500    63.0720    10.1280     8.2590    10.5700    24.5170     2.1770    -9.6640 
   76.3750    57.5060    10.0150     8.1410    10.5080    24.8860     2.1600    -9.6280 
   76.5000    51.6940    10.0280     8.1090    10.3760    25.0850     2.1530    -9.6120 
   76.6250    50.0460    10.1450     8.1610    10.3200    25.1250     2.1710    -9.5390 
   76.7500    52.1400    10.2660     8.2300    10.3310    25.1220     2.2030    -9.4420 
   76.8750    55.7990    10.3150     8.2590    10.1570    25.0910     2.2340    -9.3300 
   77.0000    58.0070    10.2440     8.2110    10.3420    25.0120     2.2470    -9.2400 
   77.1250    57.5490    10.0360     8.0590    10.5710    24.9600     2.2360    -9.1720 
   77.2500    57.0990     9.7620     7.8380    10.4320    24.9950     2.2170    -9.0600 
   77.3750    57.9020     9.4810     7.5880    10.1560    25.0230     2.2090    -8.9400 
