~V
VERS. 2.00: Ver 2.00
~W
STRT.M 57.0000:
STOP.M 274.0000:
STEP.M 0.1250:
NULL. -999.2500:
UWI. F10215:
~C
DEPT.M :
SP.MV :
DEN.GM/CC :
GR.API :
RML.OHMM :
RI. :
RXO.OHMM :
CALI.CM :
~A
# ...
   68.2500   -36.8120     2.2090    68.4390    11.3450     7.3370     7.2310    22.7450 
   68.3750   -36.7980     2.2180    69.5710    11.4640     7.3180     7.3710    22.8460 
   68.5000   -36.8030     2.2110    70.0630    11.7200     7.3930     7.7470    22.9460 
   68.6250   -36.8230     2.1900    69.5100    11.9520     7.5000     7.8810    22.8980 
   68.7500   -36.8770     2.1670    69.1620    12.0300     7.5650     7.9070    22.7310 
   68.8750   -36.9770     2.1510    69.4630    11.9360     7.5600     7.9830    22.5640 
   69.0000   -37.0730     2.1460    69.7520    11.7480     7.4980     8.0910    22.4890 
   69.1250   -37.1590     2.1510    69.7170    11.6280     7.4360     8.1910    22.5130 
   69.2500   -37.2300     2.1560    69.7470    11.6860     7.4400     8.1450    22.5600 
   69.3750   -37.2820     2.1560    69.7660    11.9410     7.5420     7.9710    22.5860 
   69.5000   -37.3250     2.1540    69.6280    12.3230     7.7310     7.8700    22.5980 
   69.6250   -37.3560     2.1520    69.8730    12.6770     7.9510     7.9760    22.5780 
   69.7500   -37.3680     2.1520    69.5490    12.8680     8.1190     8.2860    22.5760 
   69.8750   -37.3630     2.1530    67.7680    12.8550     8.1940     8.6520    22.5960 
   70.0000   -37.3510     2.1540    66.8530    12.6880     8.1750     8.8520    22.6610 
   70.1250   -37.3390     2.1520    66.8160    12.5070     8.1040     8.9330    22.7980 
   70.2500   -37.2970     2.1490    64.2880    12.4380     8.0470     8.9520    22.8760 
   70.3750   -37.2270     2.1440    60.4580    12.5050     8.0320     8.9330    22.9150 
   70.5000   -37.1260     2.1380    58.9210    12.6460     8.0490     8.8910    22.9580 
   70.6250   -36.9880     2.1280    58.9340    12.7270     8.0490     9.0740    23.0050 
   70.7500   -36.8370     2.1170    57.9690    12.6700     7.9930     9.3830    23.0700 
   70.8750   -36.6870     2.1070    58.5970    12.4770     7.8730     9.3480    23.0500 
   71.0000   -36.5420     2.1040    60.8650    12.2020     7.7060     8.9730    22.9370 
   71.1250   -36.4020     2.1110    62.2730    11.9240     7.5250     8.6110    22.8200 
   71.2500   -36.2770     2.1280    63.0650    11.7060     7.3610     8.5080    22.7200 
   71.3750   -36.1660     2.1480    65.1000    11.5730     7.2310     8.4250    22.6910 
   71.5000   -36.0670     2.1630    68.6750    11.5310     7.1460     8.3070    22.6780 
   71.6250   -35.9940     2.1660    69.8170    11.5800     7.1230     8.1620    22.6850 
   71.7500   -35.9280     2.1580    67.9070    11.6830     7.1460     8.2150    22.7150 
   71.8750   -35.8520     2.1430    65.5880    11.8030     7.2010     8.5060    22.8150 
   72.0000   -35.7570     2.1290    64.5100    11.9030     7.2670     8.9070    22.9100 
   72.1250   -35.6530     2.1220    63.8840    11.9400     7.3170     9.0880    22.9650 
   72.2500   -35.5510     2.1220    63.5280    11.9140     7.3400     9.2250    22.9510 
   72.3750   -35.4490     2.1280    64.5200    11.8450     7.3300     9.0450    22.8960 
   72.5000   -35.3320     2.1360    65.7000    11.7700     7.2940     8.7480    22.7880 
   72.6250   -35.2020     2.1440    65.3340    11.7220     7.2460     8.5960    22.7260 
   72.7500   -35.0670     2.1500    66.1160    11.7040     7.2020     8.6500    22.7500 
   72.8750   -34.9270     2.1540    66.7890    11.7050     7.1680     8.7580    22.8160 
   73.0000   -34.7840     2.1550    64.1250    11.7180     7.1460     8.7520    22.8650 
   73.1250   -34.6410     2.1560    60.4870    11.7360     7.1320     8.6950    22.8590 
   73.2500   -34.4920     2.1570    60.8380    11.7430     7.1150     8.6140    22.8570 
   73.3750   -34.3290     2.1570    61.7260    11.7140     7.0840     8.4340    22.8570 
   73.5000   -34.1570     2.1540    60.3150    11.6350     7.0350     8.2100    22.8620 
   73.6250   -33.9810     2.1500    59.7140    11.5050     6.9630     8.1660    22.8670 
   73.7500   -33.7940     2.1460    61.4510    11.3680     6.8840     8.2110    22.8980 
   73.8750   -33.6020     2.1440    62.7890    11.2650     6.8180     8.2700    22.9310 
   74.0000   -33.4070     2.1450    63.2450    11.2260     6.7840     8.3300    22.9690 
   74.1250   -33.2320     2.1520    64.4150    11.2740     6.8020     8.2510    22.9590 
   74.2500   -33.0540     2.1640    64.7480    11.3820     6.8650     8.1830    22.9540 
   74.3750   -32.8850     2.1760    64.4070    11.5220     6.9550     8.2440    22.9450 
   74.5000   -32.7190     2.1850    64.7730    11.6520     7.0490     8.4000    22.9540 
   74.6250   -32.5410     2.1810    64.5160    11.7100     7.1120     8.2220    22.9160 
   74.7500   -32.3380     2.1650    62.9840    11.6850     7.1370     8.0810    22.8420 
   74.8750   -32.1130     2.1450    60.9680    11.5950     7.1280     8.0620    22.7150 
   75.0000   -31.8540     2.1290    59.0930    11.4870     7.0990     8.1030    22.6000 
   75.1250   -31.5370     2.1240    58.2080    11.4150     7.0670     8.0910    22.5130 
   75.2500   -31.1770     2.1270    59.5960    11.3590     7.0260     8.1300    22.4780 
   75.3750   -30.7720     2.1320    63.5460    11.2430     6.9440     8.2340    22.4260 
   75.5000   -30.3480     2.1330    67.7890    10.9750     6.7770     8.4270    22.3230 
   75.6250   -29.8960     2.1360    69.2180    10.5130     6.5040     8.7050    22.2510 
   75.7500   -29.4420     2.1480    69.4620     9.9770     6.1890     8.7100    22.3400 
   75.8750   -29.0150     2.1760    71.9640     9.4860     5.8940     8.2090    22.6100 
   76.0000   -28.6400     2.2200    77.9480     9.1500     5.6770     7.4630    22.9940 
   76.1250   -28.3280     2.2710    83.3400     9.0930     5.6070     7.7860    23.4040 
   76.2500   -28.1040     2.3080    85.4960     9.3060     5.6900     8.4500    23.6000 
   76.3750   -27.9670     2.3180    85.1260     9.7800     5.9330     7.9980    23.5080 
   76.5000   -27.9030     2.3020    82.7560    10.4650     6.3260     7.0620    23.3000 
   76.6250   -27.8850     2.2750    79.3730    11.1960     6.8090     7.1290    23.0540 
   76.7500   -27.9040     2.2580    77.1080    11.6600     7.2030     8.3180    22.8810 
   76.8750   -27.9000     2.2650    76.2610    11.5930     7.3330     9.7190    22.7810 
   77.0000   -27.8620     2.2930    77.1260    10.9140     7.1020     9.9310    22.7440 
   77.1250   -27.7890     2.3250    80.4250     9.8030     6.5440     9.5740    22.8920 
   77.2500   -27.6760     2.3430    84.2110     8.7390     5.9120     7.6310    23.3110 
   77.3750   -27.5410     2.3440    86.0580     8.0230     5.3920     5.9860    23.7780 
   77.5000   -27.4060     2.3380    86.7770     7.7790     5.0980     5.7160    24.0280 
   77.6250   -27.3070     2.3350    86.7330     8.0350     5.1030     6.3110    24.0670 
   77.7500   -27.2630     2.3310    86.9360     8.5890     5.3210     6.0350    24.0130 
   77.8750   -27.2920     2.3210    87.8210     9.2890     5.6690     6.0200    23.9210 
   78.0000   -27.3950     2.2970    87.0490     9.9460     6.0350     6.5100    23.6810 
   78.1250   -27.5490     2.2610    82.0910    10.2790     6.2600     7.1940    23.3550 
   78.2500   -27.7100     2.2260    76.9880    10.1520     6.2590     7.1810    23.0960 
   78.3750   -27.8660     2.2010    76.6590     9.5560     6.0130     6.9100    22.9940 
   78.5000   -28.0070     2.1930    81.0390     8.7160     5.6070     6.3870    23.0030 
   78.6250   -28.1300     2.2120    87.0190     8.1760     5.2760     5.8190    23.1360 
   78.7500   -28.2510     2.2500    91.3970     8.4130     5.2730     5.6920    23.3370 
   78.8750   -28.3810     2.2960    90.7920     9.7410     5.7900     5.9180    23.6480 
   79.0000   -28.5270     2.3390    83.5510    12.2940     6.9580     7.1350    23.9330 
   79.1250   -28.6810     2.3660    73.9460    15.9210     8.8730    11.7870    23.9050 
   79.2500   -28.8690     2.3660    65.1000    19.3520    11.0140    19.7980    23.8040 
   79.3750   -29.0710     2.3370    58.2500    21.0360    12.5340    22.0320    23.6130 
