~V
VERS. 2.00: Ver 2.00
~W
STRT.M 53.0000:
STOP.M 269.0000:
STEP.M 0.1250:
NULL. -999.2500:
UWI. F10224:
~C
DEPT.M :
DEN.GM/CC :
GR.API :
RML.OHMM :
RI. :
RXO.OHMM :
CALI.CM :
SP.MV :
~A
# ...
   97.8750     2.3040    83.7720     6.5500     5.2820     5.9140    23.3950   -19.4830 
   98.0000     2.3160    86.2560     7.3130     5.5260     6.0460    23.5980   -19.5680 
   98.1250     2.3250    86.5700     8.9130     6.3770     7.1230    23.4420   -19.7140 
   98.2500     2.3360    81.8320    10.9470     7.6780     9.7030    23.2060   -19.9150 
   98.3750     2.3520    73.4260    12.8390     9.1470    15.4970    23.0050   -20.1640 
   98.5000     2.3690    67.2790    13.8330    10.2690    23.2370    22.6820   -20.4460 
   98.6250     2.3580    66.3940    13.3810    10.4600    21.7830    22.3020   -20.7820 
   98.7500     2.3060    65.9040    12.2840    10.0200    15.0990    22.0510   -21.1360 
   98.8750     2.2380    63.6730    11.3370     9.4360    11.3080    22.0260   -21.4770 
   99.0000     2.1910    61.0240    10.9970     9.0830    10.7540    22.1750   -21.7720 
   99.1250     2.1880    59.8480    11.3630     9.1470    12.7290    22.3500   -21.9890 
   99.2500     2.2310    60.1680    11.9820     9.4510    19.3320    22.4810   -22.1370 
   99.3750     2.3140    62.3470    12.4330     9.7550    32.6010    22.5640   -22.2100 
   99.5000     2.4000    65.9900    12.4190     9.8280    36.9480    22.4450   -22.2190 
   99.6250     2.4050    69.6340    11.9120     9.5660    23.0130    22.2260   -22.1940 
   99.7500     2.3410    71.3110    11.3170     9.1780    13.6200    22.1460   -22.1450 
   99.8750     2.2700    69.7930    10.9350     8.8600    10.2740    22.2130   -22.0560 
  100.0000     2.2230    65.5960    10.9200     8.7400     9.9020    22.4060   -21.9530 
  100.1250     2.2000    62.6350    11.2720     8.8780     9.9910    22.6390   -21.8490 
  100.2500     2.1870    64.0940    11.7310     9.1400     9.6130    22.6750   -21.7460 
  100.3750     2.1860    66.1190    12.0690     9.3860     9.0340    22.4450   -21.6560 
  100.5000     2.1970    66.6020    12.1190     9.4880     8.5940    22.1890   -21.6030 
  100.6250     2.2110    67.5530    11.8170     9.3630     8.5750    22.1220   -21.5830 
  100.7500     2.2180    68.7620    11.3660     9.1030     8.7800    22.0710   -21.5750 
  100.8750     2.2170    67.4160    10.9450     8.8070     8.9550    21.9980   -21.5890 
  101.0000     2.2140    63.3220    10.6770     8.5570     8.9830    21.9510   -21.6210 
  101.1250     2.2110    60.5270    10.6070     8.4200     8.8210    21.9360   -21.6710 
  101.2500     2.2060    59.7720    10.6270     8.3780     8.5500    21.9270   -21.7440 
  101.3750     2.2000    59.9160    10.6450     8.3970     8.2230    21.9200   -21.8300 
  101.5000     2.1960    60.8960    10.6130     8.4400     7.8810    21.9210   -21.9120 
  101.6250     2.1940    63.8330    10.5330     8.4670     7.6790    21.9270   -21.9670 
  101.7500     2.1940    66.2740    10.4480     8.4550     7.6550    21.9300   -22.0120 
  101.8750     2.1940    65.4490    10.3810     8.3990     7.7060    21.9250   -22.0580 
  102.0000     2.1960    62.2310    10.3340     8.3070     7.7210    21.9080   -22.0940 
  102.1250     2.2000    59.4710    10.2860     8.1980     7.7040    21.9190   -22.1560 
  102.2500     2.2050    58.2060    10.2270     8.1020     7.7080    21.9570   -22.2360 
  102.3750     2.2050    58.8960    10.1680     8.0330     7.7520    22.0360   -22.2880 
  102.5000     2.2020    61.9540    10.1190     7.9910     7.8800    22.1270   -22.3040 
  102.6250     2.1990    64.4100    10.0630     7.9650     8.2380    22.1730   -22.3150 
  102.7500     2.1960    64.3710     9.9840     7.9360     8.7020    22.1850   -22.3260 
  102.8750     2.1940    63.7400     9.8890     7.8980     8.9670    22.1800   -22.3440 
  103.0000     2.1920    64.3350     9.8010     7.8590     8.9520    22.1720   -22.3850 
  103.1250     2.1910    63.9060     9.7490     7.8320     8.9550    22.1510   -22.3780 
  103.2500     2.1930    60.9880     9.7330     7.8260     9.1260    22.1040   -22.3340 
  103.3750     2.1960    58.3190     9.7360     7.8340     9.3230    22.0450   -22.2900 
  103.5000     2.1980    59.0320     9.7350     7.8430     9.4310    21.9860   -22.2830 
  103.6250     2.2010    60.2460     9.7230     7.8350     9.4000    21.9400   -22.3010 
  103.7500     2.2020    60.1380     9.7100     7.8120     9.1990    21.9950   -22.3560 
  103.8750     2.2000    61.2740     9.7060     7.7890     8.8310    22.1640   -22.4170 
  104.0000     2.1950    63.9160     9.7120     7.7870     8.4270    22.3370   -22.4560 
  104.1250     2.1900    63.7310     9.7220     7.8240     8.1770    22.4350   -22.4760 
  104.2500     2.1880    61.7270     9.7350     7.8860     8.1090    22.4790   -22.4920 
  104.3750     2.1900    60.6040     9.7530     7.9520     8.1470    22.5020   -22.4940 
  104.5000     2.1950    58.9630     9.7670     7.9950     8.1640    22.4980   -22.4640 
  104.6250     2.2030    57.6860     9.7600     7.9890     8.1290    22.4750   -22.4450 
  104.7500     2.2070    59.4360     9.7110     7.9430     8.0890    22.4880   -22.3940 
  104.8750     2.2040    61.5940     9.6210     7.8780     8.0510    22.4500   -22.3440 
  105.0000     2.1980    59.5700     9.5200     7.8190     8.0600    22.2640   -22.2980 
  105.1250     2.1920    55.3770     9.4860     7.7970     8.2070    22.1100   -22.2560 
  105.2500     2.1870    54.6470     9.5390     7.8050     8.5130    22.0940   -22.1780 
  105.3750     2.1830    56.6880     9.6160     7.8050     8.9730    22.1800   -22.0930 
  105.5000     2.1830    58.1660     9.5990     7.7400     9.5460    22.2630   -21.9850 
  105.6250     2.1920    59.6430     9.3430     7.5290    10.0330    22.2810   -21.8220 
  105.7500     2.2110    64.4200     8.8840     7.1930    10.1360    22.2120   -21.6410 
  105.8750     2.2370    73.9500     8.3360     6.7930     9.5670    22.0680   -21.4460 
  106.0000     2.2690    83.2830     7.8460     6.4210     8.4800    21.9520   -21.2520 
  106.1250     2.2950    83.8410     7.5740     6.1920     7.6990    21.9670   -21.0660 
  106.2500     2.3060    79.3130     7.5480     6.1290     7.5970    22.0610   -20.9260 
  106.3750     2.2960    76.2080     7.7550     6.2220     7.9570    22.1090   -20.8140 
  106.5000     2.2730    77.1140     8.1410     6.4340     8.4750    22.1170   -20.7560 
  106.6250     2.2460    76.0760     8.6280     6.7140     9.0830    22.0400   -20.7880 
  106.7500     2.2220    70.8020     9.1030     6.9970     9.6080    21.8800   -20.8700 
  106.8750     2.2070    66.6460     9.5010     7.2570     9.7910    21.6750   -20.9730 
  107.0000     2.2010    67.1110     9.7990     7.4880     9.8340    21.6180   -21.0750 
  107.1250     2.2030    68.1770     9.9940     7.6840    10.1950    21.6300   -21.1890 
  107.2500     2.2080    65.4420    10.1200     7.8430    10.7060    21.6280   -21.3040 
  107.3750     2.2110    62.2240    10.1920     7.9540    11.0430    21.6260   -21.4250 
  107.5000     2.2130    62.6350    10.2230     8.0110    11.0760    21.6290   -21.5590 
  107.6250     2.2110    64.4080    10.2130     8.0160    10.9330    21.6270   -21.6250 
  107.7500     2.2080    62.6210    10.1800     7.9990    10.7270    21.6440   -21.6090 
  107.8750     2.2030    58.9020    10.1430     7.9790    10.4750    21.6840   -21.5240 
  108.0000     2.2020    59.1000    10.1190     7.9640    10.1810    21.7200   -21.4120 
  108.1250     2.2040    62.5360    10.1170     7.9520     9.7990    21.7390   -21.2850 
  108.2500     2.2060    62.0600    10.1240     7.9350     9.3430    21.7360   -21.1590 
  108.3750     2.2060    58.8110    10.1320     7.9090     8.8880    21.7150   -21.0190 
  108.5000     2.2080    58.0660    10.1300     7.8760     8.5860    21.6890   -20.8240 
  108.6250     2.2100    61.5030    10.1110     7.8470     8.6260    21.7220   -20.5860 
  108.7500     2.2110    62.9690    10.0820     7.8300     8.8130    21.7810   -20.3620 
  108.8750     2.2080    61.1000    10.0490     7.8290     8.8090    21.7880   -20.1510 
  109.0000     2.2040    58.0760    10.0130     7.8390     8.5110    21.7130   -19.9440 
