~V
VERS. 2.00: Ver 2.00
~W
STRT.M 53.0000:
STOP.M 269.0000:
STEP.M 0.1250:
NULL. -999.2500:
UWI. F10224:
~C
DEPT.M :
DEN.GM/CC :
GR.API :
RML.OHMM :
RI. :
RXO.OHMM :
CALI.CM :
SP.MV :
~A
# ...
   75.3750     2.2670    90.7880     7.4130     5.6670     6.6370    21.5520   -16.0720 
   75.5000     2.2620    86.5520     7.5490     5.7320     6.5390    21.4820   -16.3070 
   75.6250     2.2480    79.2610     7.8680     5.9270     6.7130    21.5080   -16.5840 
   75.7500     2.2230    72.5170     8.2570     6.1860     7.1320    21.6580   -16.8740 
   75.8750     2.1980    69.4330     8.5960     6.4460     7.5490    21.8430   -17.1850 
   76.0000     2.1840    69.6860     8.7820     6.6450     7.7190    21.9700   -17.5150 
   76.1250     2.1780    70.3220     8.7640     6.7300     7.7200    22.1010   -17.8420 
   76.2500     2.1680    69.4330     8.6460     6.7260     7.7410    22.3220   -18.1180 
   76.3750     2.1500    67.8760     8.5290     6.6750     7.7940    22.6630   -18.2920 
   76.5000     2.1290    65.4370     8.4950     6.6280     7.8750    23.0320   -18.3650 
   76.6250     2.1160    63.3290     8.6040     6.6480     7.9850    23.3530   -18.3300 
   76.7500     2.1140    63.9230     8.8120     6.7520     8.1650    23.5400   -18.2220 
   76.8750     2.1150    64.4360     9.0550     6.9330     8.3430    23.6310   -18.0320 
   77.0000     2.1070    63.9120     9.2470     7.1530     8.3480    23.6280   -17.7780 
   77.1250     2.0820    65.6450     9.2600     7.3300     8.1230    23.5840   -17.4480 
   77.2500     2.0500    69.2970     9.1030     7.4130     7.8970    23.5400   -17.0770 
   77.3750     2.0260    72.0830     8.8700     7.4070     7.8350    23.3960   -16.6990 
   77.5000     2.0230    72.2850     8.7010     7.3740     7.9570    23.0990   -16.3210 
   77.6250     2.0430    70.3090     8.7430     7.4080     8.2680    22.5960   -15.9480 
   77.7500     2.0760    68.0390     8.9640     7.5430     8.7150    22.0740   -15.5920 
   77.8750     2.1110    67.8110     9.2350     7.7360     9.1910    21.7340   -15.2310 
   78.0000     2.1390    69.9630     9.3470     7.8620     9.5140    21.6180   -14.8640 
   78.1250     2.1570    75.2120     9.0510     7.7080     9.5560    21.6830   -14.4860 
   78.2500     2.1740    85.2660     8.3820     7.2380     9.3490    21.8540   -14.0990 
   78.3750     2.2030    96.3510     7.4840     6.5200     8.5560    22.0820   -13.6780 
   78.5000     2.2480   105.0850     6.5550     5.7040     7.1600    22.3060   -13.2420 
   78.6250     2.3010   111.3600     5.7840     4.9600     5.8350    22.4080   -12.8370 
   78.7500     2.3430   114.4140     5.1950     4.3640     5.0980    22.4160   -12.4960 
   78.8750     2.3660   113.0940     4.7850     3.9410     4.8540    22.3730   -12.2850 
   79.0000     2.3750   110.6470     4.5780     3.7060     4.7780    22.3370   -12.2250 
   79.1250     2.3780   113.6200     4.7280     3.7340     4.7440    22.3290   -12.3180 
   79.2500     2.3810   114.1700     5.3770     4.0700     4.8070    22.4000   -12.4900 
   79.3750     2.3900   106.6420     6.7920     4.8570     5.2130    22.6340   -12.7300 
   79.5000     2.4160    93.0830     9.2680     6.3170     6.8950    23.0360   -13.0480 
   79.6250     2.4640    79.9090    13.1520     8.8620    11.6580    23.4150   -13.4550 
   79.7500     2.5230    71.1710    17.7830    12.2980    18.3480    23.5120   -13.8990 
   79.8750     2.5730    66.7030    21.8120    15.8450    23.3730    23.2840   -14.3560 
   80.0000     2.5940    64.1020    23.3560    17.9630    27.7710    22.8510   -14.8130 
   80.1250     2.5710    62.3160    21.1480    17.1720    35.2470    22.3410   -15.2820 
   80.2500     2.5040    61.2300    17.3850    14.8070    33.1750    21.9540   -15.7470 
   80.3750     2.3930    61.5520    13.9060    12.2550    20.4350    21.7280   -16.1970 
   80.5000     2.2740    64.4300    11.5350    10.2550    12.0570    21.5850   -16.6250 
   80.6250     2.2000    69.5480    10.4370     9.0670    10.1070    21.4640   -17.0320 
   80.7500     2.1730    72.1950    10.1250     8.4700    10.0630    21.4160   -17.4160 
   80.8750     2.1760    70.1340    10.2910     8.3110    10.2990    21.4830   -17.8010 
   81.0000     2.1880    66.8930    10.6330     8.4010    10.5230    21.6270   -18.1440 
   81.1250     2.1960    64.5050    10.8660     8.5440    10.6820    21.7820   -18.3840 
   81.2500     2.2020    61.5900    10.8850     8.6100    10.7360    21.9270   -18.5600 
   81.3750     2.2030    58.7830    10.6980     8.5690    10.5730    22.0060   -18.6740 
   81.5000     2.1970    57.2360    10.3740     8.4300    10.0990    21.9990   -18.7280 
   81.6250     2.1870    57.6000    10.0190     8.2200     9.6150    21.9760   -18.7350 
   81.7500     2.1750    59.6590     9.7440     8.0000     9.5150    22.0100   -18.7090 
   81.8750     2.1660    61.3930     9.6080     7.8130     9.7890    21.9800   -18.6290 
   82.0000     2.1620    60.6870     9.6240     7.6950    10.2340    21.9170   -18.5070 
   82.1250     2.1650    58.9610     9.7730     7.6810    10.7330    21.8860   -18.3810 
   82.2500     2.1740    58.8970     9.9650     7.7450    11.2540    21.8630   -18.2500 
   82.3750     2.1830    58.4600    10.1370     7.8560    11.6470    21.8300   -18.1270 
   82.5000     2.1910    56.9380    10.2410     7.9750    11.7740    21.8060   -18.0480 
   82.6250     2.1960    58.5410    10.2550     8.0580    11.6680    21.8000   -17.9890 
   82.7500     2.2000    60.4630    10.2230     8.0930    11.5450    21.8150   -17.9150 
   82.8750     2.2020    58.8510    10.1910     8.0870    11.4640    21.8500   -17.8280 
   83.0000     2.2000    56.8440    10.2000     8.0560    11.2400    21.8820   -17.6990 
   83.1250     2.1880    59.5400    10.2600     8.0190    10.6490    21.8760   -17.5050 
   83.2500     2.1740    62.1300    10.3250     7.9870     9.9550    21.8220   -17.2410 
   83.3750     2.1640    61.1410    10.3550     7.9590     9.4850    21.7460   -16.9230 
   83.5000     2.1620    59.5780    10.3340     7.9240     9.4150    21.7060   -16.5630 
   83.6250     2.1640    61.6650    10.2730     7.8640     9.8320    21.6860   -16.1830 
   83.7500     2.1670    63.4320    10.1870     7.7720    10.4540    21.6410   -15.7890 
   83.8750     2.1660    60.8630    10.0510     7.6390    10.8890    21.6850   -15.3880 
   84.0000     2.1620    55.7090     9.8080     7.4530    10.8930    21.9120   -14.9960 
   84.1250     2.1580    53.0200     9.3960     7.1980    10.6460    22.2310   -14.5930 
   84.2500     2.1570    53.1380     8.9320     6.9190    10.4520    22.4950   -14.1810 
   84.3750     2.1640    54.0360     8.6740     6.7160    10.3400    22.5910   -13.7620 
   84.5000     2.1840    56.7730     9.0110     6.7690    10.2100    22.6070   -13.3290 
   84.6250     2.2200    63.7530    10.6250     7.4600    10.0730    22.6610   -12.8570 
   84.7500     2.2710    69.2890    13.6880     9.0180    10.5550    22.8310   -12.3710 
   84.8750     2.3380    68.9670    18.0980    11.6100    13.7050    23.1130   -11.8650 
   85.0000     2.4260    64.2000    22.8730    14.9380    22.9520    23.4630   -11.3500 
   85.1250     2.5240    60.6980    24.9540    17.2890    44.2030    23.6170   -10.8530 
   85.2500     2.5890    62.6060    22.5650    16.8880    57.7700    23.6060   -10.4160 
   85.3750     2.5920    70.7040    17.2020    14.0700    36.6280    23.4920   -10.0950 
   85.5000     2.5390    85.0990    11.9780    10.6880    15.2720    23.3630    -9.8750 
   85.6250     2.4640    98.8030     8.8680     8.2250     8.4110    23.2180    -9.7260 
   85.7500     2.4010   104.5560     7.3940     6.7430     6.4630    23.1630    -9.6410 
   85.8750     2.3610   102.4660     6.9770     6.0320     6.3610    23.1560    -9.6110 
   86.0000     2.3430    98.6250     7.1190     5.8480     6.4130    23.1600    -9.6360 
   86.1250     2.3390    96.7440     7.4090     5.9720     6.1150    23.1470    -9.7090 
   86.2500     2.3370    94.8030     7.5240     6.1200     5.9300    23.0700    -9.8180 
   86.3750     2.3360    94.1880     7.3680     6.1510     6.0550    22.8990    -9.9760 
   86.5000     2.3330    96.5140     6.9980     6.0250     6.3600    22.7630   -10.1560 
