~V
VERS. 2.00: Ver 2.00
~W
STRT.M 54.0000:
STOP.M 277.0000:
STEP.M 0.1250:
NULL. -999.2500:
UWI. F10247:
~C
DEPT.M :
GR.API :
RML.OHMM :
RI. :
RXO.OHMM :
CALI.CM :
DEN.GM/CC :
SP.MV :
~A
# ...
  222.7500    57.8190   188.7270   173.6910   260.1940    24.7350     2.1730   -24.5580 
  222.8750    57.9130   194.7430   178.8900   187.0070    24.6620     2.1760   -24.5190 
  223.0000    58.1350   198.7400   182.0730   182.2890    24.6370     2.1700   -24.4700 
  223.1250    56.6700   201.7620   184.2320   228.2080    24.6450     2.1570   -24.4070 
  223.2500    57.3190   203.1260   184.9890   310.8200    24.6450     2.1450   -24.3580 
  223.3750    61.0040   201.7680   183.6230   472.0360    24.5690     2.1410   -24.3130 
  223.5000    63.6310   196.9750   179.5000   329.0160    24.5050     2.1440   -24.2680 
  223.6250    62.4340   189.2660   172.8690   146.4600    24.5440     2.1480   -24.2320 
  223.7500    59.9460   180.1290   164.7980   122.6820    24.5780     2.1490   -24.2170 
  223.8750    58.6940   171.2880   156.7710   150.7690    24.4480     2.1450   -24.2270 
  224.0000    57.7710   163.5500   149.5660   164.6410    24.3060     2.1420   -24.2410 
  224.1250    57.9240   157.4840   143.8550   147.8680    24.2990     2.1430   -24.2710 
  224.2500    58.9270   153.8570   140.5070   133.5000    24.3920     2.1480   -24.2960 
  224.3750    59.0670   152.4960   139.3590   136.8020    24.4830     2.1540   -24.2900 
  224.5000    59.0160   152.9820   140.0810   159.1490    24.5000     2.1560   -24.2710 
  224.6250    59.7900   153.8200   141.4540   200.6140    24.4740     2.1530   -24.2120 
  224.7500    59.6800   151.9310   140.8040   203.2480    24.5670     2.1460   -24.1390 
  224.8750    56.8930   145.7980   136.4130   173.7260    24.6820     2.1410   -24.0020 
  225.0000    54.4740   135.8390   128.1560   150.0350    24.7540     2.1410   -23.8750 
  225.1250    56.0140   124.1750   117.5200   134.0380    24.7520     2.1470   -23.7130 
  225.2500    61.7430   113.7110   106.9960   103.0140    24.7540     2.1560   -23.5660 
  225.3750    65.2490   105.6620    98.2590    91.7800    24.7760     2.1660   -23.4180 
  225.5000    63.2040    99.8900    91.5750    92.3450    24.7690     2.1710   -23.2800 
  225.6250    59.9250    95.8310    86.6470    94.4510    24.7140     2.1690   -23.1360 
  225.7500    60.3960    93.3590    83.4950    84.4740    24.6530     2.1640   -22.9820 
  225.8750    61.4080    92.2190    81.8460    78.3360    24.6520     2.1650   -22.8380 
  226.0000    60.4230    92.4170    81.6760    78.4620    24.6900     2.1760   -22.6700 
  226.1250    58.7670    93.9270    82.9590    86.1030    24.7120     2.1950   -22.4850 
  226.2500    57.5170    96.8480    85.8970   102.2940    24.6610     2.2070   -22.2720 
  226.3750    57.0380   100.7610    90.0770   126.4310    24.6480     2.2030   -22.0520 
  226.5000    57.4660   105.6030    95.3060   120.1980    24.6940     2.1860   -21.8380 
  226.6250    57.5560   111.5340   101.5840    92.8270    24.7540     2.1650   -21.6080 
  226.7500    56.2630   117.7670   108.3830    91.2310    24.7440     2.1500   -21.3810 
  226.8750    56.4850   120.1980   112.2180   108.3620    24.6900     2.1400   -21.1730 
  227.0000    58.8190   112.8070   107.3460   124.5140    24.6770     2.1390   -20.9730 
  227.1250    59.6980    92.9000    90.2430   131.5700    24.7460     2.1490   -20.8110 
  227.2500    59.9810    66.3220    65.2870   119.8290    24.7500     2.1820   -20.6480 
  227.3750    62.0670    43.7050    43.3090    85.1480    24.6750     2.2310   -20.5190 
  227.5000    66.4910    28.4930    28.2890    41.3730    24.6090     2.2870   -20.3890 
  227.6250    71.6940    19.9560    19.7230    16.2720    24.6470     2.3360   -20.3300 
  227.7500    75.0970    16.5360    16.0040    10.6890    24.7520     2.3620   -20.3000 
  227.8750    76.8250    15.7390    14.6840     9.6860    24.7910     2.3690   -20.3130 
  228.0000    77.2670    16.7200    15.0390    11.6960    24.7790     2.3630   -20.3760 
  228.1250    76.9270    18.9750    16.7300    15.9590    24.7160     2.3500   -20.4850 
  228.2500    74.0100    22.1770    19.5840    20.4210    24.6500     2.3350   -20.6510 
  228.3750    70.9940    25.8380    23.0310    22.8460    24.6070     2.3210   -20.8250 
  228.5000    70.2970    29.8070    26.7730    24.4860    24.5610     2.3080   -21.0220 
  228.6250    70.6280    33.9370    30.5740    27.0760    24.5060     2.2960   -21.2140 
  228.7500    69.9480    37.5500    33.8520    32.6830    24.4050     2.2860   -21.3840 
  228.8750    68.6580    39.5180    35.6410    38.7350    24.3270     2.2790   -21.5290 
  229.0000    66.0240    38.8940    35.0400    44.5600    24.3770     2.2800   -21.6240 
  229.1250    63.1580    35.7520    32.0750    45.7300    24.5510     2.2850   -21.6860 
  229.2500    63.6130    31.5070    27.9560    37.9890    24.6810     2.2860   -21.6880 
  229.3750    66.3890    28.3690    24.5350    28.5260    24.7390     2.2760   -21.6560 
  229.5000    67.8000    27.7300    22.8240    24.1470    24.7850     2.2590   -21.5970 
  229.6250    65.9510    30.4130    23.4030    27.1990    24.8360     2.2540   -21.4930 
  229.7500    63.9510    37.3400    27.1540    35.9290    24.8880     2.2940   -21.3710 
  229.8750    62.3190    47.1800    33.6510    39.9820    24.8850     2.3800   -21.2160 
  230.0000    60.2150    56.9680    41.3860    67.0080    24.8440     2.4910   -21.0790 
  230.1250    58.1740    60.7670    46.0210   136.8110    24.7930     2.5820   -20.9090 
  230.2500    56.3050    52.0450    41.2620   160.8990    24.7280     2.6080   -20.7720 
  230.3750    55.4110    37.3380    30.9580    74.5290    24.6490     2.5850   -20.6410 
  230.5000    55.2670    23.9520    20.8250    31.0130    24.6210     2.5450   -20.5150 
  230.6250    53.4900    15.0020    13.5910    13.7240    24.6220     2.5090   -20.4290 
  230.7500    48.6540    10.5840     9.5970     7.9980    24.6830     2.4850   -20.3880 
  230.8750    45.5340     8.5350     7.4370     6.6270    24.7020     2.4600   -20.3780 
  231.0000    46.3060     7.8210     6.4340     6.6290    24.7660     2.4270   -20.3680 
  231.1250    47.3200     7.7850     6.1440     6.9400    24.8300     2.3870   -20.3760 
  231.2500    44.8920     7.9750     6.2520     7.0360    24.7920     2.3520   -20.3640 
  231.3750    43.0080     8.0590     6.4220     6.9210    24.7060     2.3310   -20.3500 
  231.5000    43.4480     7.9810     6.5420     6.6650    24.6180     2.3250   -20.3210 
  231.6250    44.2370     7.8460     6.6250     6.5820    24.5600     2.3300   -20.2740 
  231.7500    45.0650     7.8350     6.7520     6.7800    24.5690     2.3370   -20.2030 
  231.8750    46.3080     8.0130     6.9610     7.0690    24.6160     2.3400   -20.1320 
  232.0000    46.0780     8.3520     7.2300     7.6620    24.6890     2.3370   -20.0150 
  232.1250    44.2090     8.7400     7.4880     8.2820    24.7560     2.3310   -19.8490 
  232.2500    44.0200     8.9780     7.6020     8.4530    24.7610     2.3230   -19.6010 
  232.3750    46.2310     8.9460     7.5060     8.1310    24.7250     2.3200   -19.2890 
  232.5000    50.1510     8.6280     7.1920     7.4310    24.7010     2.3270   -18.9540 
  232.6250    54.6960     8.1310     6.7250     6.7720    24.6810     2.3390   -18.6120 
  232.7500    59.4800     7.6530     6.2380     6.3990    24.6890     2.3480   -18.2890 
  232.8750    63.2970     7.3650     5.8670     6.2990    24.6310     2.3520   -17.9630 
  233.0000    68.3690     7.3430     5.6900     6.0460    24.5720     2.3530   -17.7240 
  233.1250    75.6470     7.6040     5.7400     6.0080    24.5650     2.3600   -17.5460 
  233.2500    81.0330     8.1530     6.0390     6.5620    24.6370     2.3750   -17.4680 
  233.3750    82.5850     8.8470     6.4850     7.6290    24.7290     2.3910   -17.4740 
  233.5000    82.4810     9.5460     6.9830     8.4850    24.7410     2.4030   -17.5360 
  233.6250    82.2610    10.0960     7.4270     9.1000    24.7300     2.4100   -17.6100 
  233.7500    83.0640    10.3400     7.6990     9.5940    24.7330     2.4160   -17.6920 
  233.8750    86.5110    10.3440     7.7930     9.9430    24.7360     2.4230   -17.7820 
