~V
VERS. 2.00: Ver 2.00
~W
STRT.M 57.0000:
STOP.M 274.0000:
STEP.M 0.1250:
NULL. -999.2500:
UWI. F10215:
~C
DEPT.M :
SP.MV :
DEN.GM/CC :
GR.API :
RML.OHMM :
RI. :
RXO.OHMM :
CALI.CM :
~A
# ...
   79.5000   -29.2790     2.2860    54.2610    20.0310    12.6470    13.9050    23.2950 
   79.6250   -29.4650     2.2350    55.4560    16.9400    11.3060    10.0760    23.0310 
   79.7500   -29.6090     2.2050    60.5310    13.8170     9.6070     9.0940    22.9050 
   79.8750   -29.7070     2.2000    67.2250    11.5590     8.1380     8.8130    22.9050 
   80.0000   -29.7500     2.2100    73.7940    10.3200     7.1210     8.0480    23.0040 
   80.1250   -29.7570     2.2140    77.4830    10.0080     6.6230     7.0620    23.2080 
   80.2500   -29.7390     2.2040    77.8780    10.2510     6.4840     6.2780    23.3020 
   80.3750   -29.7120     2.1840    75.0710    10.8890     6.6190     6.6590    23.2090 
   80.5000   -29.6910     2.1610    69.7930    11.7410     6.9350     7.8820    23.0290 
   80.6250   -29.6900     2.1440    65.2460    12.4810     7.2990     8.6420    22.9620 
   80.7500   -29.7040     2.1350    64.1670    12.7980     7.5380     8.8690    22.9780 
   80.8750   -29.7130     2.1270    65.4370    12.5980     7.5650     8.9320    23.0560 
   81.0000   -29.7230     2.1140    64.5530    12.1470     7.4380     8.9540    23.1380 
   81.1250   -29.7170     2.0850    61.5830    12.1540     7.4310     8.7830    23.0810 
   81.2500   -29.6750     2.0450    59.7520    13.1850     7.8380     8.7310    23.0270 
   81.3750   -29.6090     2.0160    58.6810    15.5380     8.8820     9.3280    23.0920 
   81.5000   -29.4980     2.0340    56.2020    19.1340    10.6680    12.4860    23.3180 
   81.6250   -29.3640     2.1480    51.8550    23.0870    13.0040    23.9490    23.5730 
   81.7500   -29.2090     2.3270    50.7500    25.4460    14.8620    42.4920    23.7650 
   81.8750   -29.0580     2.4810    54.7800    24.7490    15.1820    42.1020    23.6600 
   82.0000   -28.9200     2.5220    60.7150    21.3390    13.7990    24.2340    23.2800 
   82.1250   -28.8040     2.4430    62.1490    17.3330    11.6710    12.6490    23.0610 
   82.2500   -28.7190     2.3410    59.7740    14.5030     9.9010     9.2580    22.9630 
   82.3750   -28.6480     2.2710    57.7130    13.1310     8.7760     8.4210    22.9190 
   82.5000   -28.6040     2.2490    58.0820    12.8590     8.2510     8.3700    22.8880 
   82.6250   -28.5820     2.2610    58.6780    13.1030     8.1540     8.3480    22.8780 
   82.7500   -28.5830     2.2660    60.0360    13.2220     8.1460     8.2780    22.9200 
   82.8750   -28.5900     2.2430    63.0150    12.9950     8.0520     8.2300    22.9700 
   83.0000   -28.6050     2.2000    66.5020    12.4920     7.8280     8.2000    23.0420 
   83.1250   -28.6200     2.1590    67.3210    11.9670     7.5500     8.0850    23.0600 
   83.2500   -28.6580     2.1350    65.0870    11.6270     7.3370     7.9480    23.0630 
   83.3750   -28.7240     2.1280    62.5130    11.5300     7.2490     7.8530    23.0570 
   83.5000   -28.8080     2.1290    62.6910    11.6550     7.3000     7.8760    23.0560 
   83.6250   -28.8960     2.1310    64.7250    11.9620     7.4850     8.1080    23.0590 
   83.7500   -28.9920     2.1330    64.5750    12.3540     7.7420     8.4680    23.0380 
   83.8750   -29.0800     2.1370    62.3120    12.7620     8.0290     9.0000    22.9950 
   84.0000   -29.1520     2.1440    60.7420    13.1160     8.3010     9.7330    22.9260 
   84.1250   -29.2110     2.1560    60.1930    13.3260     8.4950    10.4920    22.7290 
   84.2500   -29.2500     2.1670    58.6800    13.3650     8.5820    11.2080    22.5230 
   84.3750   -29.2560     2.1750    57.4330    13.2310     8.5490    11.0890    22.3880 
   84.5000   -29.2380     2.1780    58.9950    12.9570     8.4150    10.4850    22.3170 
   84.6250   -29.2130     2.1740    62.4070    12.6000     8.2140    10.1550    22.2830 
   84.7500   -29.1690     2.1660    64.2640    12.2510     8.0090    10.0880    22.2270 
   84.8750   -29.1250     2.1570    64.6730    11.9630     7.8330    10.0510    22.1960 
   85.0000   -29.0630     2.1480    63.9710    11.7490     7.7040     9.9340    22.1910 
   85.1250   -28.9900     2.1410    60.9360    11.6020     7.6240     9.7160    22.2650 
   85.2500   -28.8900     2.1380    57.3960    11.4820     7.5740     9.4960    22.3990 
   85.3750   -28.7800     2.1400    57.8650    11.3830     7.5420     9.2420    22.6000 
   85.5000   -28.6490     2.1470    62.0020    11.3160     7.5250     8.9780    22.7210 
   85.6250   -28.4960     2.1530    63.1090    11.3220     7.5330     8.6270    22.7270 
   85.7500   -28.3270     2.1520    60.7620    11.4180     7.5740     8.2580    22.6450 
   85.8750   -28.1530     2.1400    58.7030    11.6130     7.6520     7.8290    22.5260 
   86.0000   -27.9670     2.1220    57.6650    11.8750     7.7530     7.4820    22.4400 
   86.1250   -27.7750     2.1060    56.4680    12.0910     7.8200     7.4320    22.4150 
   86.2500   -27.5710     2.1010    58.6330    12.1010     7.7760     7.6160    22.4400 
   86.3750   -27.3580     2.1090    64.6310    11.7620     7.5510     7.8770    22.4710 
   86.5000   -27.1390     2.1320    69.0360    11.0230     7.1200     7.8310    22.5000 
   86.6250   -26.9210     2.1650    68.3300    10.0740     6.5630     7.3930    22.5090 
   86.7500   -26.7150     2.2000    67.7520     9.4460     6.1220     6.7920    22.5590 
   86.8750   -26.5320     2.2240    70.1410     9.6970     6.0530     6.3330    22.6010 
   87.0000   -26.4010     2.2350    71.9120    11.3710     6.6190     6.1810    22.6170 
   87.1250   -26.3350     2.2460    69.8970    15.2150     8.2790     7.9210    22.7110 
   87.2500   -26.3470     2.2800    65.3690    20.7910    11.0670    14.5280    23.1000 
   87.3750   -26.4380     2.3540    59.7440    26.7420    14.6280    33.9750    23.6270 
   87.5000   -26.6040     2.4540    55.8340    30.1780    17.5450    56.5860    23.9970 
   87.6250   -26.8290     2.5200    56.7370    27.7810    17.4170    41.4910    23.8560 
   87.7500   -27.0930     2.5040    59.9510    22.1900    14.9850    20.6380    23.2410 
   87.8750   -27.3670     2.4170    62.0310    16.7330    12.0310    11.4890    22.6370 
   88.0000   -27.6310     2.3070    61.9640    13.1150     9.6970     9.1420    22.3330 
   88.1250   -27.8310     2.2160    60.9910    11.6060     8.3640     9.0250    22.2870 
   88.2500   -27.9860     2.1570    60.8240    11.2380     7.7000     9.0300    22.2900 
   88.3750   -28.0720     2.1310    60.8320    11.4280     7.4690     8.9010    22.3070 
   88.5000   -28.0970     2.1280    59.5340    11.7180     7.4400     8.8260    22.3510 
   88.6250   -28.0370     2.1330    57.9360    11.7510     7.4080     8.8880    22.4620 
   88.7500   -27.9110     2.1370    58.7150    11.5150     7.2860     8.8230    22.5850 
   88.8750   -27.7570     2.1370    62.8940    11.1730     7.1140     8.5340    22.6680 
   89.0000   -27.5490     2.1360    68.0490    10.9680     6.9930     8.3170    22.7560 
   89.1250   -27.3310     2.1330    69.8990    11.2530     7.1020     8.1420    22.8740 
   89.2500   -27.0790     2.1240    68.5730    12.1550     7.5320     8.2830    22.9230 
   89.3750   -26.8100     2.1050    67.5960    13.6660     8.3250     9.0260    22.9300 
   89.5000   -26.5190     2.0840    69.2060    15.5460     9.4160    10.0060    22.9650 
   89.6250   -26.2180     2.0910    69.8660    17.1690    10.5360    11.5810    23.1010 
   89.7500   -25.8850     2.1450    67.4590    17.8690    11.2520    14.6310    23.1730 
   89.8750   -25.4910     2.2310    64.0510    17.3420    11.2800    17.9320    23.1050 
   90.0000   -25.0610     2.3020    61.7850    15.8370    10.6410    16.1130    22.9560 
   90.1250   -24.5830     2.3000    62.5750    14.0220     9.6320    11.8130    22.8330 
   90.2500   -24.0610     2.2470    64.6530    12.5290     8.6590     9.4570    22.7170 
   90.3750   -23.5080     2.1860    67.0910    11.5550     7.8920     8.3150    22.6340 
   90.5000   -22.9200     2.1470    69.6260    11.0520     7.3690     7.6440    22.5830 
   90.6250   -22.3130     2.1360    71.7920    10.8310     7.0510     7.4510    22.5830 
