~V
VERS. 2.00: Ver 2.00
~W
STRT.M 52.0000:
STOP.M 254.0000:
STEP.M 0.1250:
NULL. -999.2500:
UWI. F10213:
~C
DEPT.M :
DEN.GM/CC :
GR.API :
RML.OHMM :
RI. :
RXO.OHMM :
CALI.CM :
SP.MV :
~A
# ...
  119.5000     2.3690    77.2180    10.2050     7.8690     8.5200    24.8810   -15.1920 
  119.6250     2.4160    68.9800    14.4600    10.7650    13.4490    24.8750   -14.8010 
  119.7500     2.4690    60.7670    20.0630    15.2500    22.6150    24.8750   -14.6150 
  119.8750     2.5180    54.5080    25.4420    20.4570    33.7110    24.8800   -14.5660 
  120.0000     2.5540    51.6810    27.5420    23.7050    41.5740    24.8900   -14.5630 
  120.1250     2.5670    55.7630    23.8840    21.8810    37.7410    24.9110   -14.5600 
  120.2500     2.5620    64.0210    18.3890    17.7630    25.7760    24.9150   -14.5450 
  120.3750     2.5430    70.0250    14.2630    14.1480    15.4080    24.9120   -14.5710 
  120.5000     2.5220    70.6980    12.6700    12.1800    11.2490    24.9170   -14.6180 
  120.6250     2.5180    67.6480    14.0880    12.3660    13.7240    24.9160   -14.6550 
  120.7500     2.5340    62.3950    18.0800    14.6030    23.2380    24.9190   -14.7250 
  120.8750     2.5600    54.8530    24.7020    19.2880    39.6600    24.9160   -14.8320 
  121.0000     2.5850    47.9500    33.4200    26.5180    54.7750    24.8980   -14.9110 
  121.1250     2.6020    45.8270    41.5010    34.6410    55.8510    24.8880   -14.9440 
  121.2500     2.6060    45.8470    45.6390    40.2080    49.0690    24.8860   -14.9440 
  121.3750     2.5980    46.4150    45.8280    42.2530    42.5880    24.8760   -14.8890 
  121.5000     2.5860    46.5190    44.5490    42.3460    40.4580    24.8590   -14.8070 
  121.6250     2.5850    46.2300    43.6790    42.1140    42.3950    24.8270   -14.7250 
  121.7500     2.5940    46.5500    42.9990    41.7990    44.0540    24.7730   -14.6450 
  121.8750     2.6070    47.0270    41.5930    40.7750    45.4280    24.6550   -14.5390 
  122.0000     2.6180    47.1210    38.7370    38.4080    44.1010    24.3840   -14.4900 
  122.1250     2.6200    47.1760    34.3620    34.4990    36.3830    23.9650   -14.4730 
  122.2500     2.6130    49.3610    30.7930    30.1200    27.0310    23.8160   -14.4620 
  122.3750     2.6000    52.9870    27.5690    26.0830    22.1230    23.9250   -14.4880 
  122.5000     2.5840    54.9890    24.0630    22.7940    19.5570    24.0060   -14.5140 
  122.6250     2.5710    53.2780    21.6960    20.4560    16.8620    23.8390   -14.5100 
  122.7500     2.5630    50.5680    20.1240    18.8400    15.5390    23.7190   -14.5230 
  122.8750     2.5570    49.3550    19.1790    17.8270    15.9860    23.7810   -14.5420 
  123.0000     2.5490    49.4230    18.7510    17.3150    16.4710    23.8620   -14.5450 
  123.1250     2.5450    48.0430    18.8400    17.3030    15.9100    23.6910   -14.5690 
  123.2500     2.5510    46.8460    19.2690    17.6360    15.8620    23.4050   -14.6390 
  123.3750     2.5680    48.6880    19.8950    18.2040    16.1310    23.0650   -14.7090 
  123.5000     2.5860    50.8790    20.5980    18.9000    15.6420    22.6690   -14.8070 
  123.6250     2.5970    48.9660    21.3100    19.6500    14.7950    22.3080   -14.9200 
  123.7500     2.5990    46.1970    22.0010    20.3910    14.6030    22.1180   -14.9840 
  123.8750     2.5880    47.7220    22.6450    21.0800    15.8310    22.2400   -15.0340 
  124.0000     2.5650    52.1740    23.1960    21.6720    18.5910    22.7620   -15.0570 
  124.1250     2.5320    52.0060    23.5200    22.0650    21.2180    23.5560   -15.0530 
  124.2500     2.5050    49.4650    23.5520    22.1990    22.1350    24.0490   -15.0510 
  124.3750     2.4900    48.9060    23.3070    22.0670    21.4390    24.0070   -15.0410 
  124.5000     2.4830    50.8510    22.9310    21.7710    20.3540    23.6660   -15.0270 
  124.6250     2.4800    52.9380    22.6920    21.5160    18.9410    23.6620   -15.0500 
  124.7500     2.4790    51.8350    22.7490    21.4730    17.7810    24.0550   -15.1150 
  124.8750     2.4840    48.2060    23.0920    21.6800    18.3930    24.5880   -15.1990 
  125.0000     2.4920    45.5320    23.5410    22.0350    19.8990    24.9500   -15.3010 
  125.1250     2.4930    46.9060    23.7600    22.2780    21.2970    25.0900   -15.4480 
  125.2500     2.4850    50.1250    23.5860    22.2170    20.5630    25.1940   -15.6130 
  125.3750     2.4740    52.0330    23.0560    21.8330    18.8210    25.2720   -15.8100 
  125.5000     2.4610    52.1260    22.3630    21.2640    17.2880    25.2480   -16.0090 
  125.6250     2.4450    51.0720    21.7970    20.7540    17.4480    25.0740   -16.1700 
  125.7500     2.4330    49.0930    21.5270    20.4780    18.2780    25.0290   -16.3330 
  125.8750     2.4340    48.3180    21.6210    20.5120    19.6480    25.0110   -16.5280 
  126.0000     2.4500    50.0670    22.1160    20.8920    20.7930    25.0200   -16.7360 
  126.1250     2.4720    52.8330    23.1520    21.7340    21.3660    25.0300   -16.9190 
  126.2500     2.4900    54.9470    24.6720    23.0210    22.7390    25.0240   -17.0840 
  126.3750     2.5020    56.3270    26.5470    24.7070    24.9240    25.0110   -17.2120 
  126.5000     2.5160    56.2800    28.4290    26.5650    27.7420    24.9850   -17.3400 
  126.6250     2.5350    53.9250    29.5150    27.9460    31.4280    24.9160   -17.4940 
  126.7500     2.5550    51.3270    29.2340    28.1900    34.8140    24.8040   -17.6420 
  126.8750     2.5720    50.2290    27.4800    27.0340    32.0130    24.6560   -17.7400 
  127.0000     2.5800    49.8160    24.8170    24.8870    25.3230    24.4820   -17.8040 
  127.1250     2.5730    49.6190    22.2790    22.6280    19.5740    24.3200   -17.8360 
  127.2500     2.5550    49.9850    20.5770    20.9530    16.8740    24.1940   -17.8470 
  127.3750     2.5370    49.6370    19.8750    20.0730    16.2620    24.0720   -17.8570 
  127.5000     2.5300    48.4420    19.9800    19.9300    16.9310    23.9490   -17.8530 
  127.6250     2.5360    47.7500    20.4440    20.2570    17.8520    23.9770   -17.8160 
  127.7500     2.5380    47.1050    20.6670    20.4980    18.6970    24.2010   -17.7400 
  127.8750     2.5300    47.0950    20.3380    20.2850    18.8220    24.5300   -17.6450 
  128.0000     2.5170    49.5850    19.4320    19.5080    18.4100    24.8210   -17.5600 
  128.1250     2.5060    53.7500    18.1730    18.3170    16.9730    24.9280   -17.4910 
  128.2500     2.5010    55.3120    16.9700    17.1040    15.7950    24.9560   -17.4290 
  128.3750     2.5010    53.1530    16.1090    16.1350    14.9390    24.9470   -17.3890 
  128.5000     2.5060    51.0480    15.8220    15.6260    14.8880    24.9240   -17.3830 
  128.6250     2.5110    54.6610    16.4320    15.8600    15.6290    24.8960   -17.4360 
  128.7500     2.5100    61.8530    17.9180    16.8520    16.4500    24.8390   -17.5140 
  128.8750     2.5070    67.9580    20.2460    18.6510    19.5870    24.8000   -17.6280 
  129.0000     2.5150    69.6810    23.1780    21.1650    28.7130    24.7960   -17.7430 
  129.1250     2.5300    69.3430    26.0950    23.9740    38.3600    24.8220   -17.8950 
  129.2500     2.5290    69.0590    28.2240    26.2630    36.5490    24.8550   -18.0820 
  129.3750     2.5030    67.4470    29.2070    27.5120    30.5980    24.8820   -18.2720 
  129.5000     2.4750    64.1710    29.2780    27.7630    26.6750    24.9010   -18.4630 
  129.6250     2.4700    63.2140    29.1560    27.5720    25.5230    24.9100   -18.6260 
  129.7500     2.4770    67.4350    29.4710    27.6220    25.5030    24.8750   -18.7900 
  129.8750     2.4840    74.0730    30.3040    28.1130    27.6990    24.8470   -18.9250 
  130.0000     2.4880    78.2130    31.3790    28.9030    32.1660    24.8700   -19.0610 
  130.1250     2.4880    78.4870    32.2220    29.6210    33.8460    24.8900   -19.1590 
  130.2500     2.4820    78.4250    32.6300    30.0070    31.5430    24.8960   -19.2110 
  130.3750     2.4720    79.9470    32.6940    30.0620    28.6850    24.9240   -19.2350 
  130.5000     2.4620    82.2220    32.6620    29.9650    27.8390    24.9720   -19.2380 
  130.6250     2.4630    82.0480    32.7320    29.9010    30.0720    24.9910   -19.2460 
