~V
VERS. 2.00: Ver 2.00
~W
STRT.M 57.0000:
STOP.M 259.0000:
STEP.M 0.1250:
NULL. -999.2500:
UWI. F10209:
~C
DEPT.M :
SP.MV :
DEN.GM/CC :
GR.API :
RML.OHMM :
RI. :
RXO.OHMM :
CALI.CM :
~A
# ...
  135.7500    -2.7410     2.4860    48.5600    20.2090    19.4820    19.7020    23.8950 
  135.8750    -2.9490     2.4940    50.3940    19.8530    19.1790    20.6380    24.0280 
  136.0000    -3.0770     2.4960    51.6080    19.1860    18.5860    20.2210    24.0240 
  136.1250    -3.1460     2.4930    51.4720    18.1990    17.6890    18.4050    23.8680 
  136.2500    -3.1990     2.4900    52.4410    17.0030    16.5840    16.2030    23.7630 
  136.3750    -3.3040     2.4890    58.1610    15.8240    15.4660    14.0390    23.8040 
  136.5000    -3.4310     2.4930    63.9720    14.8820    14.5360    12.2850    23.9160 
  136.6250    -3.5260     2.5000    66.9500    14.2880    13.9020    11.1270    24.0180 
  136.7500    -3.5770     2.5100    67.5230    14.0600    13.5970    11.1610    24.0090 
  136.8750    -3.5970     2.5240    66.6870    14.2060    13.6520    12.2650    23.9020 
  137.0000    -3.5990     2.5380    64.2550    14.6470    13.9960    13.1000    23.8600 
  137.1250    -3.5870     2.5510    60.3660    15.3730    14.6190    14.0840    23.7590 
  137.2500    -3.6020     2.5600    58.1340    16.3430    15.4830    14.6010    23.5030 
  137.3750    -3.6450     2.5610    59.2300    17.4290    16.4870    14.9110    23.3190 
  137.5000    -3.6720     2.5550    60.9360    18.3630    17.3850    16.7050    23.4700 
  137.6250    -3.7090     2.5450    62.0900    18.9010    17.9400    19.3770    23.7930 
  137.7500    -3.7670     2.5340    62.6950    18.9200    18.0050    20.1990    24.0610 
  137.8750    -3.8550     2.5280    63.3710    18.5100    17.6200    17.7780    24.1580 
  138.0000    -3.9770     2.5240    65.4290    18.0750    17.1350    16.1730    24.1460 
  138.1250    -4.1500     2.5220    70.4180    17.8710    16.7770    15.7040    24.0940 
  138.2500    -4.3460     2.5170    78.0550    18.0200    16.6770    16.7120    24.0660 
  138.3750    -4.5970     2.5000    81.5980    18.5500    16.9140    18.4780    24.0070 
  138.5000    -4.8990     2.4720    79.2050    19.2730    17.3790    19.7380    23.9690 
  138.6250    -5.1600     2.4420    75.5270    20.0850    17.9940    19.7510    23.9690 
  138.7500    -5.3540     2.4200    75.7840    20.9480    18.7070    20.2740    23.9100 
  138.8750    -5.4600     2.4180    78.8840    21.8740    19.5040    22.5850    23.8570 
  139.0000    -5.5370     2.4280    81.8860    22.8100    20.3290    26.1640    23.9750 
  139.1250    -5.6040     2.4370    85.9560    23.6720    21.1140    26.6040    24.1820 
  139.2500    -5.6340     2.4310    88.8020    24.3810    21.7890    25.8490    24.3220 
  139.3750    -5.5520     2.4100    86.3510    24.8920    22.2950    24.9310    24.3560 
  139.5000    -5.3690     2.3890    82.9050    25.2760    22.6710    25.1070    24.3590 
  139.6250    -5.1720     2.3820    83.1770    25.5530    22.9250    25.5190    24.3700 
  139.7500    -4.9810     2.3920    86.4880    25.6750    23.0190    26.6030    24.3980 
  139.8750    -4.8100     2.4120    87.8930    25.5280    22.8620    29.2730    24.4280 
  140.0000    -4.6550     2.4270    85.8450    25.2170    22.5440    25.7170    24.3730 
  140.1250    -4.5080     2.4320    81.9570    24.9320    22.2230    22.7950    24.3330 
  140.2500    -4.4080     2.4280    78.1540    24.8540    22.0530    22.5880    24.3710 
  140.3750    -4.3400     2.4200    78.6980    25.0730    22.1280    23.1040    24.4040 
  140.5000    -4.2730     2.4150    82.1950    25.4170    22.3430    26.1380    24.4420 
  140.6250    -4.1790     2.4150    85.7010    25.7070    22.5750    29.6890    24.4430 
  140.7500    -4.0600     2.4200    86.3300    25.8230    22.7220    28.8070    24.4520 
  140.8750    -3.9330     2.4300    84.1570    25.7950    22.7550    25.7150    24.5040 
  141.0000    -3.8400     2.4420    81.7440    25.8010    22.7670    24.6920    24.5550 
  141.1250    -3.8020     2.4550    78.9630    25.9240    22.8150    26.7450    24.5860 
  141.2500    -3.7910     2.4650    76.5610    26.0940    22.8690    29.2350    24.5380 
  141.3750    -3.8020     2.4690    77.1570    25.9840    22.7120    27.0920    24.4760 
  141.5000    -3.8220     2.4670    80.5410    25.2790    22.1020    23.7540    24.4070 
  141.6250    -3.8320     2.4610    82.8880    23.8480    20.9170    21.7010    24.3870 
  141.7500    -3.8520     2.4500    81.6010    21.8780    19.2870    20.1210    24.4300 
  141.8750    -3.9090     2.4350    78.3700    19.8540    17.5920    19.2540    24.4820 
  142.0000    -3.9740     2.4210    77.0320    18.3110    16.2460    17.1190    24.5320 
  142.1250    -4.0170     2.4130    78.3330    17.5860    15.4980    15.8660    24.5630 
  142.2500    -3.9920     2.4220    80.8250    17.8480    15.4810    16.3440    24.5510 
  142.3750    -3.8670     2.4530    81.9030    19.1310    16.2850    17.3650    24.5000 
  142.5000    -3.7060     2.4930    81.2700    20.7490    17.4760    19.5980    24.4610 
  142.6250    -3.5850     2.5260    80.0910    21.8260    18.4010    22.6050    24.4330 
  142.7500    -3.5160     2.5380    79.6560    21.4280    18.2240    23.9930    24.4150 
  142.8750    -3.4600     2.5200    79.8940    18.9610    16.3090    22.0810    24.3900 
  143.0000    -3.3730     2.4810    80.9360    15.5390    13.5380    17.2750    24.3630 
  143.1250    -3.2310     2.4330    83.4670    12.2190    10.7910    11.7560    24.4370 
  143.2500    -3.0650     2.3850    87.6240     9.2260     8.6200     7.5410    24.6360 
  143.3750    -2.9270     2.3440    90.7230     7.9080     7.3000     6.1370    24.7530 
  143.5000    -2.8300     2.3140    93.1980     7.4020     6.6310     5.8800    24.7550 
  143.6250    -2.7550     2.2960    96.7260     7.5080     6.4940     6.0660    24.6750 
  143.7500    -2.7050     2.2930    98.8090     7.9920     6.7410     6.3260    24.5980 
  143.8750    -2.7030     2.3060    93.4850     8.5590     7.1830     6.8000    24.5560 
  144.0000    -2.7380     2.3230    85.4420     8.9030     7.5340     7.3350    24.5680 
  144.1250    -2.8100     2.3370    81.2960     8.8740     7.6210     7.4730    24.6010 
  144.2500    -2.9180     2.3400    82.0760     8.4820     7.3940     7.0540    24.5830 
  144.3750    -3.0510     2.3300    82.7630     7.8660     6.9290     6.1550    24.5190 
  144.5000    -3.2140     2.3170    83.7120     7.2750     6.4270     5.4250    24.4540 
  144.6250    -3.4280     2.3070    87.8990     6.8320     5.9990     5.1880    24.4070 
  144.7500    -3.6690     2.3050    93.4500     6.5800     5.6970     5.2530    24.3220 
  144.8750    -3.9020     2.3120    96.5130     6.5200     5.5410     5.2480    24.1800 
  145.0000    -4.1020     2.3240    97.9460     6.5690     5.4830     5.3150    23.9980 
  145.1250    -4.2240     2.3350    99.8590     6.6800     5.4880     5.2980    23.8330 
  145.2500    -4.2730     2.3420   100.6480     6.8150     5.5260     5.1610    23.7300 
  145.3750    -4.2990     2.3410    97.6570     6.9380     5.5690     5.2220    23.7070 
  145.5000    -4.3400     2.3360    93.5700     7.0090     5.5880     5.4190    23.7270 
  145.6250    -4.3590     2.3310    92.0250     7.0000     5.5610     5.5160    23.7700 
  145.7500    -4.2980     2.3300    93.6780     6.9110     5.4830     5.5030    23.7860 
  145.8750    -4.1080     2.3340    95.7260     6.7860     5.3730     5.3870    23.7910 
  146.0000    -3.8220     2.3410    96.3060     6.7040     5.2830     5.2200    23.7710 
  146.1250    -3.5390     2.3480    96.4280     6.7220     5.2510     5.1140    23.7640 
  146.2500    -3.3030     2.3540    96.7140     6.8670     5.3020     5.2270    23.7880 
  146.3750    -3.1360     2.3580    94.9860     7.1210     5.4380     5.6120    23.9190 
  146.5000    -2.9490     2.3590    93.6410     7.3930     5.6070     6.0150    24.0780 
  146.6250    -2.7020     2.3580    93.3680     7.6100     5.7590     6.1980    24.2190 
  146.7500    -2.4300     2.3550    90.7160     7.7170     5.8520     6.2360    24.3110 
  146.8750    -2.1660     2.3490    87.4940     7.6790     5.8460     6.2010    24.3220 
