~V
VERS. 2.00: Ver 2.00
~W
STRT.M 53.0000:
STOP.M 267.0000:
STEP.M 0.1250:
NULL. -999.2500:
UWI. F10211:
~C
DEPT.M :
GR.API :
RML.OHMM :
RI. :
RXO.OHMM :
CALI.CM :
SP.MV :
DEN.GM/CC :
~A
# ...
  244.2500    59.1720    10.6360    10.8960    10.7700    23.6080   -14.7020     2.2400 
  244.3750    56.4300     9.1990     9.4640     8.5040    23.6990   -14.4840     2.2560 
  244.5000    56.4080     8.2120     8.3730     7.0880    23.8610   -14.2790     2.2670 
  244.6250    56.1460     7.4590     7.5300     5.9580    23.9560   -14.0810     2.2710 
  244.7500    54.3720     6.8920     6.9000     5.2130    23.9360   -13.9130     2.2800 
  244.8750    52.5060     6.5120     6.4790     4.8380    23.9130   -13.7870     2.2990 
  245.0000    53.0070     6.3250     6.2680     4.7280    23.9540   -13.7010     2.3210 
  245.1250    55.3830     6.2690     6.2020     4.7220    24.0040   -13.6190     2.3370 
  245.2500    57.9950     6.2670     6.2080     4.6810    23.9930   -13.5330     2.3490 
  245.3750    59.0150     6.2560     6.2160     4.6240    23.9430   -13.4560     2.3610 
  245.5000    58.0420     6.2030     6.1790     4.6820    23.8850   -13.3870     2.3730 
  245.6250    57.7420     6.1500     6.1270     4.8800    23.8190   -13.3360     2.3890 
  245.7500    58.3050     6.1710     6.1210     5.0910    23.7840   -13.2830     2.4030 
  245.8750    59.5630     6.3290     6.2090     5.2530    23.7890   -13.2220     2.4150 
  246.0000    60.7540     6.6510     6.4110     5.4190    23.8190   -13.1560     2.4230 
  246.1250    60.6200     7.0580     6.6670     5.7490    23.8510   -13.0990     2.4280 
  246.2500    59.1390     7.4400     6.9020     6.2330    23.9080   -13.0530     2.4320 
  246.3750    57.8010     7.7030     7.0580     6.3180    23.9860   -13.0260     2.4320 
  246.5000    58.4650     7.8190     7.1150     6.3790    24.0010   -13.0250     2.4300 
  246.6250    59.3570     7.8720     7.1270     6.7900    23.9670   -13.0350     2.4320 
  246.7500    58.8650     7.9400     7.1420     7.5020    23.9280   -13.0600     2.4390 
  246.8750    57.9270     8.0480     7.1820     7.7090    23.8550   -13.1000     2.4440 
  247.0000    57.9900     8.1600     7.2290     7.4680    23.7740   -13.1430     2.4440 
  247.1250    58.7210     8.2200     7.2450     7.3410    23.7440   -13.1930     2.4440 
  247.2500    58.9360     8.2160     7.2110     7.2370    23.7970   -13.2430     2.4460 
  247.3750    57.6710     8.1830     7.1480     7.0290    23.8970   -13.2830     2.4470 
  247.5000    56.7550     8.1940     7.1060     6.8620    23.9690   -13.3170     2.4490 
  247.6250    57.3700     8.2810     7.1250     6.7820    23.9950   -13.3380     2.4540 
  247.7500    58.3730     8.4400     7.2110     6.9010    23.9940   -13.3510     2.4590 
  247.8750    57.9310     8.6360     7.3460     7.1840    23.9830   -13.3720     2.4610 
  248.0000    56.8670     8.8220     7.4890     7.2930    23.9700   -13.3970     2.4560 
  248.1250    58.1790     8.9650     7.6040     7.0960    23.9420   -13.4120     2.4510 
  248.2500    61.8020     9.0420     7.6780     6.7920    23.9050   -13.4240     2.4490 
  248.3750    64.4410     9.0530     7.7140     6.6050    23.8710   -13.4510     2.4520 
  248.5000    62.7910     9.0170     7.7310     6.7570    23.9280   -13.4940     2.4550 
  248.6250    60.1720     8.9920     7.7600     7.2320    24.0270   -13.5530     2.4540 
  248.7500    60.2450     9.0390     7.8320     7.8960    24.1100   -13.6210     2.4510 
  248.8750    62.3900     9.2220     7.9820     8.4670    24.1570   -13.6740     2.4600 
  249.0000    63.1280     9.6280     8.2770     8.6790    24.1900   -13.7110     2.4830 
  249.1250    61.8510    10.2440     8.7340     8.7140    24.2200   -13.7370     2.5030 
  249.2500    60.8310    10.9760     9.3070     9.5850    24.2320   -13.7480     2.5020 
  249.3750    60.6580    11.6240     9.8550    12.8710    24.1830   -13.7360     2.4810 
  249.5000    60.5000    11.8390    10.1000    18.7230    24.0880   -13.6950     2.4600 
  249.6250    60.3590    11.4810     9.8970    20.5330    24.0100   -13.6530     2.4530 
  249.7500    59.7960    10.6630     9.3010    17.2700    23.9230   -13.6090     2.4560 
  249.8750    58.6240     9.6910     8.5280    11.8520    23.7920   -13.5700     2.4610 
  250.0000    58.2320     8.9480     7.8660     8.0310    23.7350   -13.5450     2.4600 
  250.1250    59.4530     8.5880     7.4610     6.5060    23.7820   -13.5350     2.4540 
  250.2500    60.0090     8.5920     7.3460     6.4470    23.9090   -13.5450     2.4460 
  250.3750    57.7530     8.8600     7.4890     6.8780    24.0350   -13.5660     2.4410 
  250.5000    55.2040     9.2790     7.8390     7.1550    24.0970   -13.6090     2.4350 
  250.6250    55.3130     9.7490     8.2960     7.3540    24.1160   -13.6580     2.4300 
  250.7500    57.4680    10.2250     8.7910     7.5710    24.1280   -13.7140     2.4330 
  250.8750    58.8470    10.6760     9.2650     7.8690    24.1510   -13.7580     2.4460 
  251.0000    57.9810    11.0300     9.6400     8.7560    24.2020   -13.8160     2.4590 
  251.1250    56.9640    11.2340     9.8750    10.0860    24.2670   -13.8940     2.4650 
  251.2500    57.3910    11.2790     9.9660    11.1050    24.2540   -13.9680     2.4680 
  251.3750    58.1780    11.2000     9.9420    11.1940    24.1620   -14.0340     2.4750 
  251.5000    57.6400    11.0810     9.8550    11.7170    24.1270   -14.1060     2.4800 
  251.6250    56.9000    11.0180     9.7820    13.1770    24.1590   -14.2070     2.4820 
  251.7500    57.6720    11.0730     9.7790    14.3240    24.1680   -14.3140     2.4880 
  251.8750    59.5930    11.2590     9.8810    13.1420    24.1410   -14.4130     2.4950 
  252.0000    61.0980    11.5650    10.1010    11.8930    24.1430   -14.4850     2.4870 
  252.1250    62.2880    11.9170    10.3920    11.6130    24.1630   -14.5240     2.4590 
  252.2500    63.5460    12.2310    10.6870    11.7450    24.1650   -14.5410     2.4310 
  252.3750    64.3720    12.4280    10.9210    11.7660    24.1270   -14.5240     2.4150 
  252.5000    63.3710    12.4540    11.0330    11.0320    24.0270   -14.4410     2.4110 
  252.6250    61.0850    12.3600    11.0400     9.7570    23.9330   -14.3020     2.4090 
  252.7500    59.4630    12.2450    11.0010     8.7180    23.9970   -14.1300     2.4020 
  252.8750    58.8730    12.2200    10.9980     8.5880    24.1320   -13.9650     2.4000 
  253.0000    57.1710    12.3620    11.1180     8.8450    24.1970   -13.8130     2.4080 
  253.1250    54.2100    12.6040    11.3430     9.5880    24.1880   -13.6550     2.4200 
  253.2500    52.7580    12.8070    11.5840    10.9210    24.1660   -13.5210     2.4250 
  253.3750    54.1770    12.8270    11.7140    11.0410    24.1340   -13.4170     2.4240 
  253.5000    56.1850    12.5380    11.5930    10.3040    24.1050   -13.3220     2.4220 
  253.6250    56.9000    12.0050    11.2320     9.7130    24.1110   -13.2270     2.4200 
  253.7500    57.0560    11.3630    10.7330     9.4580    24.1330   -13.1430     2.4220 
  253.8750    57.5400    10.7630    10.2250     9.1220    24.1460   -13.0750     2.4300 
  254.0000    57.9190    10.3400     9.8380     8.5220    24.1620   -12.9970     2.4460 
  254.1250    58.9710    10.1110     9.6070     8.3690    24.2130   -12.9360     2.4630 
  254.2500    60.5830    10.0450     9.5190     8.7030    24.3090   -12.8690     2.4730 
  254.3750    60.7750    10.0860     9.5330     9.1370    24.4000   -12.8260     2.4760 
  254.5000    58.8910    10.1890     9.6120     9.1730    24.4520   -12.8310     2.4720 
  254.6250    58.7500    10.3340     9.7290     8.8940    24.4830   -12.8560     2.4650 
  254.7500    61.2600    10.5220     9.8800     8.4750    24.5060   -12.9020     2.4540 
  254.8750    62.4010    10.7510    10.0640     8.1810    24.5190   -12.9600     2.4390 
  255.0000    59.2490    11.0000    10.2710     8.2400    24.5220   -13.0020     2.4390 
  255.1250    55.7000    11.2370    10.4820     8.4310    24.5250   -13.0510     2.4620 
  255.2500    55.0230    11.4410    10.6780     8.6630    24.5320   -13.0870     2.4970 
  255.3750    55.8540    11.6010    10.8460     9.2370    24.5460   -13.0890     2.5220 
