~V
VERS. 2.00: Ver 2.00
~W
STRT.M 53.0000:
STOP.M 269.0000:
STEP.M 0.1250:
NULL. -999.2500:
UWI. F10224:
~C
DEPT.M :
DEN.GM/CC :
GR.API :
RML.OHMM :
RI. :
RXO.OHMM :
CALI.CM :
SP.MV :
~A
# ...
  131.6250     2.5340    53.5960    20.1900    18.9190    22.1440    23.7470   -15.7840 
  131.7500     2.5270    54.3960    19.8130    18.6900    24.8160    23.7470   -15.7020 
  131.8750     2.5150    51.1980    19.1240    18.1600    24.0530    23.7430   -15.6050 
  132.0000     2.4970    48.3290    18.3210    17.4810    21.5240    23.7370   -15.5320 
  132.1250     2.4760    49.7100    17.6650    16.8780    21.1790    23.7440   -15.4930 
  132.2500     2.4750    49.6810    17.2770    16.4870    21.6170    23.8000   -15.4950 
  132.3750     2.4890    46.7160    17.1620    16.3400    20.3410    23.8730   -15.5170 
  132.5000     2.5070    42.9800    17.2430    16.3950    18.6050    23.9000   -15.5580 
  132.6250     2.5160    39.7350    17.3920    16.5510    18.6220    23.8710   -15.6220 
  132.7500     2.5190    37.9200    17.4830    16.6840    19.3180    23.8300   -15.6580 
  132.8750     2.5200    39.2230    17.4700    16.7430    19.3300    23.7650   -15.6600 
  133.0000     2.5200    42.9990    17.3320    16.7110    18.8040    23.5700   -15.6210 
  133.1250     2.5150    44.8710    17.0350    16.5680    18.3060    23.2300   -15.5500 
  133.2500     2.5080    43.4290    16.6100    16.3210    17.6830    23.1250   -15.4740 
  133.3750     2.5020    42.3570    16.0810    15.9670    16.9150    23.4390   -15.4260 
  133.5000     2.4990    43.9150    15.4620    15.4940    16.2090    23.8470   -15.4090 
  133.6250     2.4970    48.2530    14.7540    14.8750    15.4970    23.9500   -15.4000 
  133.7500     2.4940    53.0400    14.0110    14.1690    14.7400    23.7920   -15.4040 
  133.8750     2.4930    55.5050    13.3140    13.4620    14.2290    23.6620   -15.4080 
  134.0000     2.4940    55.0880    12.7670    12.8640    14.1420    23.6240   -15.3990 
  134.1250     2.4970    53.9780    12.5470    12.5340    13.7860    23.6230   -15.3830 
  134.2500     2.4950    55.8540    12.7030    12.5200    12.8820    23.6980   -15.3430 
  134.3750     2.4930    58.4750    13.2490    12.8430    12.0970    23.7910   -15.2970 
  134.5000     2.4990    56.8100    14.1120    13.4630    12.4260    23.8680   -15.2600 
  134.6250     2.5150    52.8090    15.1300    14.2830    14.3320    23.8980   -15.2510 
  134.7500     2.5340    51.2330    16.0370    15.0840    16.6080    23.9120   -15.2600 
  134.8750     2.5480    54.1020    16.6580    15.6980    17.9040    23.9130   -15.3030 
  135.0000     2.5520    59.1570    16.9420    16.0280    17.8100    23.8670   -15.3690 
  135.1250     2.5490    63.4730    17.0220    16.1080    17.2480    23.8390   -15.4260 
  135.2500     2.5460    64.4800    17.2390    16.1910    16.8670    23.8070   -15.4740 
  135.3750     2.5470    62.7130    17.8640    16.5070    17.0820    23.8110   -15.4940 
  135.5000     2.5470    63.5800    19.0650    17.2390    17.9440    23.8410   -15.4960 
  135.6250     2.5370    70.8550    20.9030    18.5340    19.2160    23.8880   -15.5030 
  135.7500     2.5160    77.9790    22.9870    20.1620    21.5780    23.8930   -15.5460 
  135.8750     2.4870    79.7230    24.8390    21.7790    26.0170    23.8910   -15.6030 
  136.0000     2.4600    75.9050    25.9800    22.9620    31.2260    23.9060   -15.6690 
  136.1250     2.4390    74.1110    26.1240    23.3520    31.3130    24.0040   -15.7420 
  136.2500     2.4230    76.4620    25.8100    23.2560    27.2700    24.1350   -15.7690 
  136.3750     2.4110    77.5120    25.5940    23.0910    23.7050    24.1850   -15.7620 
  136.5000     2.4010    77.3580    25.8620    23.2180    22.4050    24.1030   -15.7500 
  136.6250     2.3950    79.9000    26.7270    23.8460    23.5850    24.0110   -15.7270 
  136.7500     2.3950    82.4860    27.7580    24.7230    25.3150    23.8900   -15.7080 
  136.8750     2.4040    80.9400    28.4950    25.4890    26.2510    23.7490   -15.6960 
  137.0000     2.4250    76.7610    28.5570    25.7690    25.6050    23.6800   -15.6850 
  137.1250     2.4580    75.9450    27.7330    25.2680    23.6560    23.7350   -15.6750 
  137.2500     2.4860    77.8280    26.4450    24.2700    22.5110    23.7070   -15.6840 
  137.3750     2.4930    80.0320    25.0930    23.0990    22.7550    23.7850   -15.7070 
  137.5000     2.4770    81.5480    23.9910    22.0490    23.1550    23.9880   -15.7020 
  137.6250     2.4550    81.4050    23.3400    21.3350    22.6150    24.1880   -15.6580 
  137.7500     2.4320    81.4800    23.0070    20.8960    22.1860    24.2240   -15.5500 
  137.8750     2.4030    81.8110    22.8320    20.6260    22.4540    24.0320   -15.4010 
  138.0000     2.3740    80.4080    22.6630    20.4010    23.0970    23.5880   -15.2520 
  138.1250     2.3700    76.8290    22.3890    20.1240    23.3720    23.2240   -15.1140 
  138.2500     2.3870    73.5530    22.0460    19.8000    22.8370    23.1270   -15.0320 
  138.3750     2.4060    73.8310    21.7120    19.4780    21.8120    23.0540   -14.9700 
  138.5000     2.4140    76.4940    21.4350    19.1980    21.1980    22.8280   -14.9300 
  138.6250     2.4170    77.2140    21.2150    18.9760    21.3170    22.5340   -14.8640 
  138.7500     2.4190    76.2780    20.9940    18.7850    21.6960    22.3260   -14.7600 
  138.8750     2.4190    76.2710    20.7110    18.5930    21.5800    22.2290   -14.6500 
  139.0000     2.4200    77.4240    20.3170    18.3460    20.1790    22.2900   -14.5350 
  139.1250     2.4320    77.1830    19.8170    18.0010    18.4300    22.5150   -14.4000 
  139.2500     2.4520    77.3650    19.3340    17.6160    18.7020    22.8640   -14.2330 
  139.3750     2.4720    80.4480    18.9940    17.2880    20.8710    23.2660   -14.0790 
  139.5000     2.4850    83.7040    18.8760    17.1190    21.4090    23.7050   -13.9390 
  139.6250     2.4850    84.8310    18.8610    17.0970    18.9870    23.9880   -13.8310 
  139.7500     2.4770    86.2040    18.5140    16.9020    17.7490    24.0950   -13.7550 
  139.8750     2.4720    87.1480    17.3850    16.1130    19.1560    24.0440   -13.6660 
  140.0000     2.4760    83.9540    15.2760    14.4690    22.1650    23.9690   -13.5350 
  140.1250     2.4780    78.5880    12.4460    12.1020    21.4280    23.9630   -13.4110 
  140.2500     2.4670    79.1260     9.7250     9.7150    15.5560    24.0460   -13.2920 
  140.3750     2.4400    86.1470     7.6100     7.7430     9.3940    24.1510   -13.1590 
  140.5000     2.4100    92.2970     6.2600     6.3570     6.0450    24.1920   -13.0400 
  140.6250     2.3810    90.2790     5.6620     5.6060     5.4150    24.1660   -12.9710 
  140.7500     2.3410    86.7370     5.4910     5.2680     5.6660    24.1820   -12.9020 
  140.8750     2.2870    87.5370     5.5520     5.2020     6.0200    24.2630   -12.8530 
  141.0000     2.2280    90.9170     5.6650     5.2640     6.2180    24.3320   -12.8370 
  141.1250     2.1880    90.4670     5.6960     5.3230     6.1140    24.3900   -12.7980 
  141.2500     2.1770    88.2780     5.6380     5.3200     5.8720    24.3830   -12.7400 
  141.3750     2.1980    87.1530     5.5420     5.2710     5.6100    24.3260   -12.6830 
  141.5000     2.2360    87.0320     5.4760     5.2190     5.3880    24.1630   -12.6160 
  141.6250     2.2560    88.7800     5.5100     5.2210     5.3080    23.9810   -12.5590 
  141.7500     2.2540    90.2340     5.6530     5.2950     5.4600    23.7640   -12.5700 
  141.8750     2.2570    89.2080     5.8720     5.4280     5.7360    23.6300   -12.6290 
  142.0000     2.2820    86.7360     6.0960     5.5720     5.8550    23.6140   -12.7060 
  142.1250     2.3150    87.7500     6.2010     5.6350     5.7250    23.6220   -12.8000 
  142.2500     2.3350    93.6900     6.1270     5.5690     5.6780    23.5840   -12.8890 
  142.3750     2.3470    99.9150     5.8720     5.3730     5.8240    23.5770   -12.9370 
  142.5000     2.3600   102.6450     5.5090     5.0930     5.9040    23.7950   -12.9520 
  142.6250     2.3740    99.9920     5.1630     4.8020     5.6950    24.0570   -12.9250 
  142.7500     2.3760    96.7680     4.9260     4.5610     5.4010    24.2210   -12.8790 
