~V
VERS. 2.00: Ver 2.00
~W
STRT.M 63.0000:
STOP.M 280.0000:
STEP.M 0.1250:
NULL. -999.2500:
UWI. F10220:
~C
DEPT.M :
SP.MV :
DEN.GM/CC :
GR.API :
RML.OHMM :
RI. :
RXO.OHMM :
CALI.CM :
~A
# ...
  209.2500   -20.6840     2.2960    78.6450     5.7660     4.7910     4.9120    24.4690 
  209.3750   -20.1350     2.2960    83.7250     5.9540     4.8650     4.9470    24.4580 
  209.5000   -19.6670     2.2950    86.9550     6.2660     5.0370     5.0880    24.4340 
  209.6250   -19.2430     2.2950    83.6350     6.7320     5.3390     5.5050    24.4220 
  209.7500   -18.8310     2.2940    78.4330     7.3770     5.8070     6.4880    24.4500 
  209.8750   -18.4060     2.2900    76.7650     8.1410     6.4010     7.9010    24.4660 
  210.0000   -17.9270     2.2830    78.1280     8.9750     7.0900     8.6620    24.4310 
  210.1250   -17.3740     2.2740    78.9980     9.8560     7.8450     9.1370    24.4030 
  210.2500   -16.7390     2.2600    77.2910    10.8120     8.6750     9.5760    24.4460 
  210.3750   -16.0640     2.2450    76.0730    11.8710     9.5920    10.7100    24.4530 
  210.5000   -15.3940     2.2340    75.7600    13.0240    10.6080    11.8750    24.4010 
  210.6250   -14.7790     2.2310    77.2560    14.1710    11.6770    12.2900    24.3420 
  210.7500   -14.2370     2.2300    78.9230    15.0060    12.6090    12.6770    24.3240 
  210.8750   -13.7400     2.2270    79.8770    15.2460    13.1430    13.3980    24.3320 
  211.0000   -13.2850     2.2250    80.6420    14.7230    13.0730    13.3310    24.3330 
  211.1250   -12.8790     2.2310    82.5080    13.5240    12.3770    12.3210    24.2800 
  211.2500   -12.5570     2.2490    84.8310    11.9750    11.2340    11.3210    24.1950 
  211.3750   -12.3140     2.2730    85.2690    10.5650    10.0570     9.8540    24.1710 
  211.5000   -12.1540     2.2970    85.1110     9.5560     9.0940     8.1950    24.2400 
  211.6250   -12.0720     2.3140    85.8210     9.0410     8.4800     7.5430    24.3600 
  211.7500   -12.0490     2.3230    86.3050     9.0540     8.3050     7.7470    24.4710 
  211.8750   -12.0690     2.3240    85.2990     9.4040     8.4620     8.2630    24.5570 
  212.0000   -12.1200     2.3210    83.0660     9.9390     8.8510     9.1190    24.5310 
  212.1250   -12.1870     2.3240    81.5320    10.4700     9.3200     9.6260    24.3750 
  212.2500   -12.2830     2.3380    80.8020    10.7520     9.6390     9.3710    24.2010 
  212.3750   -12.3970     2.3560    81.7520    10.7020     9.6780     9.1460    24.0920 
  212.5000   -12.4880     2.3590    83.6770    10.3600     9.4290     8.7110    24.0440 
  212.6250   -12.5280     2.3340    84.8300     9.9450     9.0320     7.8000    24.0480 
  212.7500   -12.5670     2.2880    86.0190     9.9600     8.8310     7.4470    24.0860 
  212.8750   -12.6190     2.2520    88.1360    10.8780     9.1670    10.7410    24.1370 
  213.0000   -12.7070     2.2370    87.8410    13.2280    10.4240    21.8570    24.1250 
  213.1250   -12.8380     2.2380    81.1530    17.6290    13.1760    44.5330    24.0830 
  213.2500   -12.9670     2.2360    70.3380    29.3760    18.8160    53.2100    24.1430 
  213.3750   -13.1060     2.2130    62.3560    42.1880    27.8920    70.1030    24.4730 
  213.5000   -13.2850     2.1720    59.8190    58.1140    40.2550   109.1410    24.9410 
  213.6250   -13.5140     2.1370    61.1260    73.8770    53.6090   154.1660    25.2770 
  213.7500   -13.7680     2.1260    63.5560    83.0000    62.8260   120.9130    25.3720 
  213.8750   -14.0320     2.1300    63.5030    84.9800    66.4000    96.3370    25.3700 
  214.0000   -14.2770     2.1400    60.0090    83.4090    66.3180    94.5930    25.3130 
  214.1250   -14.4890     2.1590    56.3070    81.7500    65.2850    82.5410    25.2150 
  214.2500   -14.6750     2.1790    58.1440    81.1020    64.6470    81.3610    25.1020 
  214.3750   -14.8300     2.1870    62.6050    80.7300    64.2510    88.4450    25.1510 
  214.5000   -14.9490     2.1840    64.3360    80.2240    63.8770    88.3080    25.2340 
  214.6250   -15.0250     2.1810    62.1300    79.6350    63.5640    76.8680    25.1850 
  214.7500   -15.0410     2.1860    60.8260    79.3930    63.6290    60.6240    25.0500 
  214.8750   -15.0300     2.1900    63.0920    79.6030    64.1680    54.1650    25.0120 
  215.0000   -15.0100     2.1870    64.5210    79.8600    64.9340    55.2790    25.0280 
  215.1250   -14.9990     2.1820    61.9490    79.4000    65.3610    57.0410    25.0050 
  215.2500   -15.0110     2.1880    57.9810    77.2160    64.6190    53.7540    24.8990 
  215.3750   -15.0510     2.1960    56.5110    73.4110    62.5480    48.9550    24.8080 
  215.5000   -15.1040     2.1980    58.2040    68.5980    59.3670    45.3240    24.7620 
  215.6250   -15.1690     2.1880    60.6300    63.8900    55.7960    43.2050    24.7120 
  215.7500   -15.2370     2.1720    62.4170    60.7140    53.0050    43.9590    24.6680 
  215.8750   -15.3120     2.1570    65.2540    59.4690    51.6280    42.7480    24.7060 
  216.0000   -15.3950     2.1550    68.3550    60.2240    51.9040    39.2870    24.9000 
  216.1250   -15.4730     2.1790    69.2950    62.8130    53.8330    35.1580    25.1620 
  216.2500   -15.5560     2.2360    64.7000    66.9950    57.3790    41.9150    25.2360 
  216.3750   -15.6460     2.2900    60.3470    71.7590    61.7080    45.9220    25.0140 
  216.5000   -15.7630     2.3000    61.9320    76.2500    66.0820    46.3700    24.9330 
  216.6250   -15.8870     2.2650    66.4890    79.7000    69.7850    51.7870    25.0660 
  216.7500   -16.0340     2.2240    69.2990    81.3820    72.0700    58.5950    25.3200 
  216.8750   -16.1940     2.2000    69.4560    81.6670    73.0530    63.5650    25.6070 
  217.0000   -16.3630     2.1910    68.1970    81.1060    73.0930    72.2080    25.8050 
  217.1250   -16.5510     2.1950    66.5520    80.3350    72.7210   111.9710    25.8800 
  217.2500   -16.7590     2.2100    65.6730    79.9580    72.4780   100.7450    25.8690 
  217.3750   -16.9800     2.2240    66.0710    80.2730    72.7300    68.9190    25.8420 
  217.5000   -17.1920     2.2250    64.8690    81.4060    73.6920    57.9690    25.9070 
  217.6250   -17.4160     2.2100    61.9970    83.2120    75.3600    64.7290    26.1170 
  217.7500   -17.6510     2.1830    61.3130    85.1540    77.3980    74.4990    26.5510 
  217.8750   -17.8700     2.1530    62.7970    86.4550    79.0850    72.0550    26.9040 
  218.0000   -18.0620     2.1290    63.1830    86.5790    79.8310    73.9980    26.9320 
  218.1250   -18.2450     2.1250    60.5980    85.4550    79.3520   109.8810    26.5000 
  218.2500   -18.4190     2.1460    59.2330    83.7610    77.9520   109.6980    25.8670 
  218.3750   -18.5860     2.1750    60.7860    82.9600    76.9030    74.9340    25.5370 
  218.5000   -18.7720     2.2000    61.7960    84.3520    77.4570    49.3300    25.4380 
  218.6250   -18.9880     2.2150    60.1980    88.9140    80.6820    43.1390    25.4490 
  218.7500   -19.2400     2.2220    58.0480    97.6790    87.7690    52.6610    25.4790 
  218.8750   -19.5400     2.2220    57.4520   109.6130    97.9610    72.0240    25.4930 
  219.0000   -19.8950     2.2190    57.1510   123.3920   110.1440    91.6800    25.5340 
  219.1250   -20.2870     2.2100    57.0120   136.9230   122.4520    91.6400    25.6040 
  219.2500   -20.6730     2.1970    58.0060   147.3170   132.2980    77.4740    25.6560 
  219.3750   -21.0400     2.1860    58.9270   153.8420   138.8470    77.6210    25.6570 
  219.5000   -21.3850     2.1810    58.7040   156.6970   142.1830    97.7820    25.6340 
  219.6250   -21.6900     2.1830    58.0060   156.2610   142.6450   127.8460    25.6200 
  219.7500   -21.9240     2.1880    58.7720   151.9400   139.7590   138.5230    25.6300 
  219.8750   -22.1010     2.1930    59.9650   144.1080   133.7410   120.3830    25.6560 
  220.0000   -22.2090     2.1960    60.2250   133.2300   124.7620    96.4320    25.6730 
  220.1250   -22.2380     2.1960    59.6330   120.6920   113.7810    75.1700    25.6800 
  220.2500   -22.1610     2.1870    58.7580   108.8000   102.6390    58.0020    25.6790 
  220.3750   -21.9960     2.1730    58.1910    99.2950    93.1660    50.5030    25.6640 
