~V
VERS. 2.00: Ver 2.00
~W
STRT.M 50.0000:
STOP.M 281.0000:
STEP.M 0.1250:
NULL. -999.2500:
UWI. F10222:
~C
DEPT.M :
GR.API :
RML.OHMM :
RI. :
RXO.OHMM :
CALI.CM :
DEN.GM/CC :
SP.MV :
~A
# ...
   95.0000    61.3840    10.4630     8.1320    10.3620    26.9520     2.1910   -38.8890 
   95.1250    61.4830    10.6080     8.2100    10.1800    27.1760     2.1870   -38.9190 
   95.2500    60.1830    10.8550     8.3550    10.0580    27.4150     2.1900   -38.9670 
   95.3750    61.5050    11.0940     8.5010    10.1810    27.5650     2.1970   -38.9510 
   95.5000    65.7590    11.2110     8.5720    10.6160    27.4680     2.2060   -38.9220 
   95.6250    67.5690    11.1030     8.4950    11.0630    26.9000     2.2090   -38.9730 
   95.7500    66.8640    10.8140     8.2980    11.2390    26.2390     2.2040   -39.0420 
   95.8750    67.8080    10.4330     8.0390    11.5450    25.9560     2.1960   -39.1250 
   96.0000    69.8700    10.0660     7.7900    11.8460    25.9460     2.1900   -39.2720 
   96.1250    69.4010     9.8000     7.6070    11.7810    26.1230     2.1840   -39.4200 
   96.2500    67.4330     9.6340     7.4840    11.5600    26.2620     2.1770   -39.5640 
   96.3750    67.5040     9.5270     7.3930    11.4960    26.2350     2.1690   -39.7350 
   96.5000    69.8050     9.4280     7.3090    11.6460    26.0820     2.1600   -39.8360 
   96.6250    69.3180     9.3110     7.2210    11.6550    25.6820     2.1500   -39.8510 
   96.7500    66.4410     9.1930     7.1370    11.5800    25.1630     2.1430   -39.8560 
   96.8750    63.8260     9.1000     7.0680    11.5890    24.5590     2.1420   -39.7920 
   97.0000    63.3720     9.0410     7.0210    11.4730    24.0250     2.1440   -39.6740 
   97.1250    64.5470     9.0050     6.9840    11.4060    23.7730     2.1450   -39.6090 
   97.2500    64.9760     8.9630     6.9360    11.4390    24.0800     2.1490   -39.4950 
   97.3750    63.2000     8.8940     6.8630    11.7510    24.7260     2.1570   -39.3220 
   97.5000    60.3730     8.7950     6.7660    12.1750    25.4160     2.1630   -39.1940 
   97.6250    58.8030     8.6830     6.6590    12.4120    25.7130     2.1610   -39.0590 
   97.7500    58.8180     8.5850     6.5650    12.5130    25.7320     2.1560   -38.8750 
   97.8750    59.1860     8.5170     6.4980    12.4500    25.6150     2.1540   -38.7230 
   98.0000    60.3850     8.4790     6.4580    12.3600    25.5130     2.1540   -38.5680 
   98.1250    63.0310     8.4530     6.4410    12.3280    25.4490     2.1530   -38.3320 
   98.2500    63.8920     8.4160     6.4280    12.0820    25.3230     2.1520   -38.1170 
   98.3750    63.4600     8.3590     6.4080    11.4850    25.0650     2.1540   -37.9160 
   98.5000    63.9750     8.2830     6.3730    10.7990    24.8250     2.1620   -37.6730 
   98.6250    64.1670     8.1970     6.3220    10.3250    24.8580     2.1740   -37.4340 
   98.7500    62.9130     8.1210     6.2640    10.0300    25.1990     2.1840   -37.2070 
   98.8750    61.5630     8.0690     6.2160     9.7340    25.6070     2.1890   -36.9440 
   99.0000    60.7160     8.0540     6.1920     9.5890    25.9500     2.1890   -36.7110 
   99.1250    59.7210     8.0970     6.2070     9.6580    26.2700     2.1870   -36.5250 
   99.2500    59.3130     8.1960     6.2570     9.8880    26.7000     2.1840   -36.2880 
   99.3750    59.0030     8.3410     6.3400    10.1630    27.0670     2.1780   -36.0410 
   99.5000    58.2820     8.4970     6.4460    10.5370    27.2310     2.1690   -35.8220 
   99.6250    57.7200     8.5900     6.5310    11.1520    27.2400     2.1600   -35.5520 
   99.7500    56.7270     8.5590     6.5430    11.5560    27.2190     2.1530   -35.2550 
   99.8750    55.5950     8.3850     6.4640    11.6210    27.2050     2.1480   -34.9630 
  100.0000    56.0850     8.1090     6.3080    11.3190    27.1640     2.1460   -34.5970 
  100.1250    59.1670     7.8290     6.1240    10.3330    27.0470     2.1480   -34.1980 
  100.2500    63.1410     7.6540     5.9840     9.1810    26.7340     2.1570   -33.8780 
  100.3750    67.8370     7.6480     5.9400     8.8080    26.0860     2.1720   -33.6000 
  100.5000    73.5430     7.8290     6.0180     9.5980    25.4630     2.1910   -33.3420 
  100.6250    76.1270     8.1700     6.2280    10.0730    25.1740     2.2060   -33.1950 
  100.7500    75.2100     8.5470     6.5080    10.2220    25.0220     2.2180   -33.0990 
  100.8750    73.3390     8.8660     6.7840    10.1810    24.9020     2.2270   -33.0180 
  101.0000    70.5120     9.0460     6.9740    10.2280    24.8100     2.2330   -33.0150 
  101.1250    68.3310     9.0230     6.9990    10.0280    24.5970     2.2320   -33.0690 
  101.2500    68.0520     8.8430     6.8900     9.7340    24.2570     2.2270   -33.0830 
  101.3750    69.7540     8.5590     6.6940     9.5400    23.9180     2.2220   -33.0840 
  101.5000    72.1970     8.2430     6.4690     9.4560    23.7750     2.2200   -33.1090 
  101.6250    74.1360     8.0220     6.2900     9.3150    23.9960     2.2200   -33.0810 
  101.7500    73.5470     7.9910     6.2220     9.4360    24.4540     2.2210   -33.0550 
  101.8750    70.5470     8.2060     6.3090     9.5900    25.0630     2.2220   -33.0570 
  102.0000    68.0000     8.6470     6.5600     9.7340    25.6320     2.2230   -33.0260 
  102.1250    67.5440     9.2230     6.9490     9.9910    26.0100     2.2180   -32.9930 
  102.2500    68.3280     9.7440     7.3530    10.7880    26.3470     2.1950   -32.9870 
  102.3750    68.6350    10.0550     7.6570    12.3640    26.7840     2.1550   -32.9630 
  102.5000    67.4550    10.0610     7.7720    13.1400    27.0540     2.1160   -32.9370 
  102.6250    66.6790     9.7490     7.6610    11.3040    26.7770     2.1070   -32.9450 
  102.7500    69.7940     9.3190     7.4380    10.0770    26.4640     2.1230   -32.9160 
  102.8750    75.4740     8.9290     7.1960     9.4770    26.4460     2.1480   -32.8930 
  103.0000    77.0700     8.6900     7.0140     9.0590    26.5890     2.1670   -32.9210 
  103.1250    73.4750     8.6660     6.9540     8.7940    26.6140     2.1780   -32.9260 
  103.2500    70.4960     8.7900     7.0000     8.9120    26.5350     2.1850   -32.9100 
  103.3750    67.9320     9.0070     7.1270     9.3320    26.4530     2.1880   -32.9480 
  103.5000    65.2420     9.2530     7.2990     9.9250    26.4300     2.1860   -32.9470 
  103.6250    63.4320     9.4290     7.4500    10.3920    26.3870     2.1820   -32.8850 
  103.7500    62.8160     9.4410     7.5020    10.5390    26.3810     2.1800   -32.8480 
  103.8750    62.9350     9.2210     7.3890    10.3930    26.4370     2.1820   -32.7510 
  104.0000    63.8520     8.7610     7.0920    10.0540    26.4590     2.1890   -32.5770 
  104.1250    66.8680     8.1130     6.6350     9.0500    26.3140     2.2030   -32.4480 
  104.2500    69.3990     7.4510     6.1440     7.9120    26.1060     2.2250   -32.3590 
  104.3750    71.0150     6.9160     5.7200     7.1960    26.0000     2.2500   -32.3010 
  104.5000    73.0410     6.6260     5.4430     7.2410    26.0130     2.2700   -32.3600 
  104.6250    73.9910     6.6950     5.4050     6.9590    26.1890     2.2800   -32.5770 
  104.7500    72.6050     7.0630     5.5840     7.3370    26.3710     2.2820   -32.8710 
  104.8750    68.1140     7.6410     5.9470     8.5960    26.5270     2.2700   -33.2650 
  105.0000    61.9500     8.2810     6.4180    10.5370    26.6210     2.2400   -33.7110 
  105.1250    58.2690     8.7730     6.8520    11.6600    26.7180     2.2040   -34.0720 
  105.2500    59.2610     9.0080     7.1300    11.9520    26.7830     2.1790   -34.4020 
  105.3750    63.7680     8.9830     7.2160    11.6370    26.6310     2.1690   -34.6410 
  105.5000    66.7910     8.7910     7.1510    11.3350    26.1270     2.1630   -34.7140 
  105.6250    64.1280     8.5800     7.0270    11.2040    25.6760     2.1570   -34.6400 
  105.7500    62.5060     8.4570     6.9290    11.3110    25.6380     2.1540   -34.4780 
  105.8750    66.3250     8.4430     6.8880    11.4680    25.9150     2.1530   -34.2050 
  106.0000    73.5610     8.5270     6.9150    11.4580    26.3000     2.1540   -33.9230 
  106.1250    77.0510     8.7110     7.0200    11.3340    26.5270     2.1530   -33.6630 
