~V
VERS. 2.00: Ver 2.00
~W
STRT.M 56.0000:
STOP.M 270.0000:
STEP.M 0.1250:
NULL. -999.2500:
UWI. F10225:
~C
DEPT.M :
SP.MV :
DEN.GM/CC :
GR.API :
RML.OHMM :
RI. :
RXO.OHMM :
CALI.CM :
~A
# ...
  202.2500   -24.0440     2.3880    39.9010     8.8610     7.6840     8.4870    23.3520 
  202.3750   -24.1550     2.3800    41.7570     8.8050     7.5580     8.4580    23.3650 
  202.5000   -24.2280     2.3800    41.2350     8.7920     7.5180     8.6740    23.4490 
  202.6250   -24.2850     2.3840    39.5820     8.8920     7.5980     8.9090    23.5810 
  202.7500   -24.3860     2.3870    38.1450     9.1300     7.7780     9.1280    23.6750 
  202.8750   -24.5440     2.3900    36.9530     9.4770     8.0140     9.3570    23.7170 
  203.0000   -24.7200     2.3950    36.8400     9.8490     8.2580     9.7710    23.7900 
  203.1250   -24.8660     2.3990    38.8140    10.1140     8.4490    10.2430    24.0090 
  203.2500   -24.9710     2.3950    42.5820    10.2200     8.5530    10.5990    24.2880 
  203.3750   -25.0490     2.3890    48.1700    10.2190     8.5730    10.4780    24.3930 
  203.5000   -25.1270     2.3940    56.4750    10.2270     8.5540    10.0180    24.2140 
  203.6250   -25.2020     2.4110    66.6730    10.3850     8.5820    10.3990    23.9370 
  203.7500   -25.2600     2.4240    73.9380    10.7230     8.7160    10.8840    23.8070 
  203.8750   -25.2860     2.4290    75.1820    11.1830     8.9570    11.7230    23.7800 
  204.0000   -25.2880     2.4310    72.9070    11.6360     9.2420    13.1110    23.7220 
  204.1250   -25.2580     2.4330    72.0680    11.8740     9.4180    14.8110    23.5590 
  204.2500   -25.1850     2.4290    73.3830    11.7840     9.3750    15.0350    23.4640 
  204.3750   -25.0660     2.4230    75.0820    11.3970     9.0990    13.8600    23.5320 
  204.5000   -24.8970     2.4190    76.7860    10.8780     8.6810    12.4100    23.6820 
  204.6250   -24.6830     2.4160    77.4300    10.5020     8.3080    11.3840    23.7160 
  204.7500   -24.4540     2.4140    76.4740    10.4450     8.1400    10.8250    23.5810 
  204.8750   -24.2480     2.4150    75.3120    10.7570     8.2600    10.6410    23.4420 
  205.0000   -24.0750     2.4170    74.3460    11.3930     8.6740    10.7850    23.4280 
  205.1250   -23.9050     2.4190    72.3810    12.2110     9.3240    12.5780    23.5330 
  205.2500   -23.7060     2.4170    69.7800    12.9910    10.0350    14.5570    23.5830 
  205.3750   -23.4690     2.4130    68.5180    13.5610    10.6460    15.0670    23.4670 
  205.5000   -23.2180     2.4120    69.1670    13.8510    11.0640    14.3310    23.2180 
  205.6250   -22.9650     2.4190    70.4640    13.9180    11.2770    13.9050    22.9560 
  205.7500   -22.6560     2.4340    73.4760    13.9810    11.4110    13.9010    22.7520 
  205.8750   -22.2200     2.4520    77.6980    14.2130    11.5870    13.9950    22.6420 
  206.0000   -21.6660     2.4660    79.5530    14.5930    11.8310    13.7470    22.6520 
  206.1250   -21.0290     2.4690    76.8170    14.8150    11.9810    12.9850    22.7160 
  206.2500   -20.3540     2.4590    73.4240    14.4910    11.7850    12.6420    22.7460 
  206.3750   -19.6620     2.4370    71.5670    13.4180    11.0820    12.7420    22.7360 
  206.5000   -18.9380     2.3990    69.3080    11.7390     9.9300    11.7360    22.7000 
  206.6250   -18.1710     2.3510    65.4400     9.9250     8.6070     9.6210    22.6290 
  206.7500   -17.4090     2.3120    61.3640     8.4370     7.4350     7.6410    22.5860 
  206.8750   -16.6970     2.2960    57.4410     7.4640     6.5880     6.6280    22.6370 
  207.0000   -16.0280     2.2960    53.8950     6.9800     6.1050     6.4010    22.7240 
  207.1250   -15.4250     2.2950    53.3120     6.8830     5.9670     6.2800    22.6410 
  207.2500   -14.8890     2.2870    56.4040     6.9790     6.0330     6.3200    22.4590 
  207.3750   -14.4310     2.2750    60.9270     7.1260     6.1740     6.4710    22.4530 
  207.5000   -14.0740     2.2660    63.7660     7.2370     6.2970     6.6660    22.7630 
  207.6250   -13.8290     2.2690    63.2980     7.2500     6.3510     6.6970    23.2360 
  207.7500   -13.6410     2.2830    62.1630     7.1730     6.3300     6.7370    23.5670 
  207.8750   -13.4810     2.3040    63.1230     7.0410     6.2430     6.8080    23.6540 
  208.0000   -13.3480     2.3270    65.2610     6.9080     6.1130     6.8180    23.6040 
  208.1250   -13.2540     2.3460    66.4390     6.8530     6.0120     6.7950    23.5620 
  208.2500   -13.2400     2.3580    67.8510     6.9460     6.0220     6.7180    23.5290 
  208.3750   -13.3030     2.3640    70.1490     7.2420     6.2070     6.7880    23.4360 
  208.5000   -13.4120     2.3640    71.4190     7.7460     6.5770     7.0600    23.2780 
  208.6250   -13.5120     2.3590    70.1710     8.3880     7.0710     7.7440    23.1030 
  208.7500   -13.5880     2.3500    68.6230     9.0020     7.5550     8.5080    22.9590 
  208.8750   -13.6510     2.3410    68.0500     9.4280     7.9050     9.3690    22.8720 
  209.0000   -13.7350     2.3340    67.8010     9.5800     8.0430     9.3210    22.8800 
  209.1250   -13.8500     2.3290    67.3440     9.4700     7.9610     8.8400    23.0090 
  209.2500   -13.9650     2.3260    67.2670     9.2760     7.7860     8.7120    23.1530 
  209.3750   -14.0470     2.3230    67.7670     9.1770     7.6610     8.8180    23.2150 
  209.5000   -14.0860     2.3190    68.3380     9.3020     7.7010     8.7870    23.2030 
  209.6250   -14.1070     2.3160    69.0880     9.7570     8.0060     8.9260    23.1730 
  209.7500   -14.1480     2.3120    69.9470    10.4940     8.5620     9.7220    23.1350 
  209.8750   -14.2320     2.3060    70.0070    11.4170     9.3090    11.0950    23.0780 
  210.0000   -14.3360     2.2970    68.9080    12.4010    10.1690    12.2310    23.0210 
  210.1250   -14.4420     2.2860    68.6830    13.2810    11.0090    12.6650    22.9640 
  210.2500   -14.5450     2.2760    69.9280    13.9720    11.7060    13.0010    22.9080 
  210.3750   -14.6610     2.2720    70.4760    14.5030    12.2220    13.9960    22.8510 
  210.5000   -14.7830     2.2730    69.0100    14.9830    12.6340    15.2890    22.8100 
  210.6250   -14.9050     2.2770    67.7810    15.5690    13.1090    15.0660    22.7960 
  210.7500   -15.0180     2.2870    67.1420    16.3970    13.7880    14.3710    22.7950 
  210.8750   -15.1300     2.3040    64.8680    17.5650    14.7580    15.5050    22.7990 
  211.0000   -15.2350     2.3200    60.6330    19.0610    16.0130    19.3650    22.8090 
  211.1250   -15.3180     2.3190    57.8490    20.6320    17.3920    22.0840    22.8300 
  211.2500   -15.3680     2.3020    58.2160    21.8120    18.5560    21.5650    22.8540 
  211.3750   -15.3780     2.2820    60.6280    22.2060    19.1640    20.3620    22.8720 
  211.5000   -15.3380     2.2690    62.9510    21.7160    19.0470    19.9050    22.8930 
  211.6250   -15.2510     2.2660    63.2360    20.6240    18.3250    19.4640    22.9190 
  211.7500   -15.1590     2.2660    61.2760    19.4950    17.4600    18.2460    22.9330 
  211.8750   -15.0860     2.2660    59.4450    18.7100    16.8380    17.0010    22.9180 
  212.0000   -15.0330     2.2670    60.4120    18.4890    16.7000    16.1120    22.8570 
  212.1250   -14.9780     2.2670    62.7160    19.0610    17.2690    16.6220    22.7450 
  212.2500   -14.9070     2.2640    63.3710    20.3600    18.4860    18.8470    22.6190 
  212.3750   -14.8430     2.2580    61.6880    22.1620    20.1640    21.7110    22.5050 
  212.5000   -14.8450     2.2530    59.1500    24.0820    21.9950    24.2870    22.3820 
  212.6250   -14.9360     2.2480    58.0860    25.4950    23.4660    26.1390    22.2840 
  212.7500   -15.0650     2.2420    58.9310    26.0000    24.1950    27.0370    22.2370 
  212.8750   -15.1850     2.2370    59.9530    25.5600    24.0660    26.1910    22.1920 
  213.0000   -15.2850     2.2360    59.6100    24.4480    23.2250    24.6060    22.1410 
  213.1250   -15.3730     2.2410    59.0900    23.0500    21.9460    23.3410    22.1540 
  213.2500   -15.4670     2.2540    59.4330    21.7460    20.6220    21.2400    22.2010 
  213.3750   -15.5650     2.2680    60.1420    20.8240    19.5980    19.4610    22.2160 
