~V
VERS. 2.00: Ver 2.00
~W
STRT.M 50.0000:
STOP.M 283.0000:
STEP.M 0.1250:
NULL. -999.2500:
UWI. F10256:
~C
DEPT.M :
DEN.GM/CC :
GR.API :
RML.OHMM :
RI. :
RXO.OHMM :
CALI.CM :
SP.MV :
~A
# ...
  151.2500     2.5800    47.2810    20.7130    19.4760    17.4850    23.9500   -10.2380 
  151.3750     2.5770    46.9430    21.1160    20.0060    17.2440    23.9550   -10.1190 
  151.5000     2.5790    45.6200    21.3870    20.3420    18.0890    24.0620   -10.0470 
  151.6250     2.5860    44.5300    21.6080    20.5820    19.5370    24.1350    -9.9850 
  151.7500     2.5900    45.9350    21.8070    20.7910    20.1610    24.1390    -9.9450 
  151.8750     2.5910    48.7110    21.9920    20.9900    19.9230    24.1140    -9.9210 
  152.0000     2.5880    49.2790    22.2120    21.2230    19.7180    24.1220    -9.8970 
  152.1250     2.5840    47.9440    22.5570    21.5770    19.9470    24.1050    -9.9240 
  152.2500     2.5840    46.3990    23.0190    22.0630    20.2530    24.0710    -9.9730 
  152.3750     2.5880    44.8280    23.5220    22.6310    20.2630    24.0650   -10.0100 
  152.5000     2.5940    44.6050    23.9450    23.1770    20.4380    24.0830   -10.0340 
  152.6250     2.5980    45.5820    24.1230    23.5390    20.5750    24.0330   -10.0810 
  152.7500     2.5990    45.6420    24.0400    23.6560    20.5530    24.0000   -10.1360 
  152.8750     2.5960    44.6010    23.7410    23.5370    20.0260    23.9660   -10.1980 
  153.0000     2.5900    45.2800    23.3390    23.2660    19.6370    23.8750   -10.2600 
  153.1250     2.5840    47.2580    22.9960    22.9900    19.1140    23.8050   -10.3280 
  153.2500     2.5810    45.9090    22.8200    22.8440    18.6260    23.7760   -10.4010 
  153.3750     2.5820    43.2040    22.8350    22.8770    17.7530    23.7060   -10.4930 
  153.5000     2.5840    43.3270    22.9880    23.0630    17.0530    23.5650   -10.5740 
  153.6250     2.5830    46.8520    23.1580    23.3000    16.8840    23.4130   -10.6280 
  153.7500     2.5780    48.1990    23.2080    23.4480    17.6720    23.2540   -10.6740 
  153.8750     2.5700    46.3000    23.0580    23.4150    19.0930    23.1350   -10.7480 
  154.0000     2.5610    45.4780    22.6940    23.1660    20.9920    23.1240   -10.8310 
  154.1250     2.5520    47.3050    22.1530    22.7200    21.8650    23.1590   -10.8710 
  154.2500     2.5420    48.8400    21.5670    22.2050    21.8590    23.2200   -10.9420 
  154.3750     2.5320    48.5180    21.0250    21.7110    20.9370    23.3730   -10.9890 
  154.5000     2.5200    47.2350    20.5830    21.2990    19.6270    23.6140   -11.0090 
  154.6250     2.5110    46.8730    20.2730    21.0040    18.5480    23.7500   -11.0340 
  154.7500     2.5050    47.6970    20.0510    20.7880    18.2970    23.8050   -11.0360 
  154.8750     2.5040    50.4490    19.8840    20.6190    18.4490    23.8750   -11.0070 
  155.0000     2.5080    54.6730    19.7530    20.4770    18.3840    23.9680   -10.9750 
  155.1250     2.5160    56.8400    19.6760    20.3710    18.1760    24.0860   -10.9310 
  155.2500     2.5250    56.0440    19.6840    20.3270    18.0830    24.1980   -10.8670 
  155.3750     2.5320    53.1140    19.8130    20.3790    18.0290    24.2550   -10.8210 
  155.5000     2.5370    51.0330    20.0670    20.5380    17.9240    24.2320   -10.7950 
  155.6250     2.5370    51.4530    20.3930    20.7700    18.3330    24.2160   -10.7840 
  155.7500     2.5340    52.5060    20.6520    20.9580    19.2700    24.2430   -10.7670 
  155.8750     2.5290    51.8370    20.7020    20.9760    19.7260    24.2370   -10.7430 
  156.0000     2.5230    49.1660    20.4310    20.7090    19.9180    24.2220   -10.7320 
  156.1250     2.5150    49.0520    19.7660    20.0620    20.1450    24.2450   -10.7600 
  156.2500     2.5060    52.0980    18.8860    19.1850    20.4330    24.2790   -10.7600 
  156.3750     2.4940    55.3340    17.9780    18.2430    20.0550    24.2990   -10.7490 
  156.5000     2.4830    55.2820    17.2220    17.4020    19.2090    24.3720   -10.7340 
  156.6250     2.4760    52.6130    16.7820    16.8300    17.6200    24.4970   -10.7420 
  156.7500     2.4740    52.9950    16.6180    16.5180    17.2680    24.5760   -10.7830 
  156.8750     2.4770    56.4130    16.6350    16.4060    17.7850    24.6280   -10.8110 
  157.0000     2.4810    59.2160    16.6960    16.3800    17.8380    24.6500   -10.8000 
  157.1250     2.4820    60.1470    16.6400    16.2920    17.7900    24.5680   -10.7850 
  157.2500     2.4800    60.9190    16.3980    16.0460    18.0710    24.4560   -10.8110 
  157.3750     2.4770    59.3790    15.9670    15.6150    18.0660    24.3360   -10.8350 
  157.5000     2.4740    54.4360    15.3950    15.0300    16.6460    24.2390   -10.8580 
  157.6250     2.4720    50.0690    14.7620    14.3550    15.1630    24.1920   -10.8340 
  157.7500     2.4690    48.6730    14.1480    13.6820    14.1940    24.2690   -10.8000 
  157.8750     2.4640    49.6820    13.6030    13.0630    13.1610    24.3720   -10.7840 
  158.0000     2.4550    51.8070    13.1650    12.5390    12.1720    24.3900   -10.7830 
  158.1250     2.4440    54.0570    12.8750    12.1520    11.3690    24.3840   -10.7910 
  158.2500     2.4320    53.6770    12.7170    11.8840    10.8910    24.3840   -10.7880 
  158.3750     2.4210    50.9450    12.6910    11.7340    10.9130    24.3820   -10.8220 
  158.5000     2.4140    48.0610    12.7960    11.7000    11.2010    24.4030   -10.8950 
  158.6250     2.4140    46.7630    13.0400    11.7930    11.7530    24.3940   -11.0000 
  158.7500     2.4230    48.3870    13.3640    11.9680    12.1500    24.2620   -11.1280 
  158.8750     2.4380    51.2150    13.7100    12.1810    12.3340    24.0800   -11.2760 
  159.0000     2.4550    52.0090    14.0000    12.3770    12.4690    23.9880   -11.4240 
  159.1250     2.4660    50.3720    14.1170    12.4660    12.6940    23.9670   -11.5670 
  159.2500     2.4670    49.6930    14.0330    12.4120    12.8400    23.9170   -11.6720 
  159.3750     2.4590    50.8100    13.7800    12.2270    12.7490    23.8980   -11.7310 
  159.5000     2.4490    52.8630    13.4630    11.9800    12.5980    23.9300   -11.7720 
  159.6250     2.4470    53.7760    13.2480    11.7990    12.4590    23.9400   -11.8130 
  159.7500     2.4530    52.6410    13.2160    11.7670    12.3750    23.9720   -11.8210 
  159.8750     2.4640    51.5050    13.3460    11.8880    13.0410    24.0230   -11.8210 
  160.0000     2.4730    52.0400    13.5130    12.0800    14.7480    24.0350   -11.8090 
  160.1250     2.4750    54.2740    13.4700    12.1470    15.5310    23.9850   -11.7740 
  160.2500     2.4690    55.9450    13.0420    11.9030    15.4510    23.9560   -11.7690 
  160.3750     2.4540    58.3370    12.1250    11.2200    14.3160    23.9280   -11.7500 
  160.5000     2.4290    61.8360    10.7360    10.0720    12.4060    23.8780   -11.7120 
  160.6250     2.3930    62.7780     9.0120     8.5510    10.5040    23.8630   -11.6710 
  160.7500     2.3510    60.5200     7.2870     6.9750     8.8170    23.8660   -11.6080 
  160.8750     2.3090    60.4320     5.7930     5.5650     7.2230    23.8550   -11.5020 
  161.0000     2.2750    65.7910     4.6700     4.4560     5.5070    23.8560   -11.4040 
  161.1250     2.2550    73.7900     4.0160     3.7470     4.0450    23.9050   -11.2990 
  161.2500     2.2470    78.1670     3.6950     3.3430     3.4390    23.9100   -11.1980 
  161.3750     2.2490    79.6100     3.6090     3.1780     3.2550    23.8900   -11.1180 
  161.5000     2.2530    81.5660     3.6620     3.1800     3.2290    23.9000   -11.0270 
  161.6250     2.2530    84.8560     3.7680     3.2830     3.2420    23.8710   -10.9540 
  161.7500     2.2490    88.4810     3.8580     3.4070     3.2900    23.8110   -10.9250 
  161.8750     2.2470    89.7080     3.9080     3.5110     3.3310    23.8020   -10.9240 
  162.0000     2.2520    88.4210     3.9200     3.5800     3.3760    23.8170   -10.9290 
  162.1250     2.2660    88.6710     3.9050     3.6080     3.4180    23.7670   -10.9750 
  162.2500     2.2790    90.0130     3.8760     3.6100     3.4540    23.7310   -11.0120 
  162.3750     2.2860    90.3850     3.8390     3.5930     3.4760    23.7490   -11.0680 
