~V
VERS. 2.00: Ver 2.00
~W
STRT.M 56.0000:
STOP.M 281.0000:
STEP.M 0.1250:
NULL. -999.2500:
UWI. F10232:
~C
DEPT.M :
SP.MV :
GR.API :
RML.OHMM :
RI. :
RXO.OHMM :
CALI.CM :
DEN.GM/CC :
~A
# ...
  224.7500   -18.5700    43.8170   113.3800    99.3430   133.2800    25.6200     2.2050 
  224.8750   -18.7450    46.0970   109.2180    95.9590   160.9800    25.5250     2.1730 
  225.0000   -18.8690    46.5700   102.7970    90.5770   160.2280    25.0510     2.1560 
  225.1250   -18.9080    47.0940    95.4760    84.2600   129.8500    24.4270     2.1530 
  225.2500   -18.8310    49.9900    88.7460    78.2600    87.5410    24.0440     2.1630 
  225.3750   -18.5750    53.7480    84.1090    73.9090    59.6970    24.0080     2.1780 
  225.5000   -18.1480    55.6280    81.6440    71.3940    46.8220    24.0900     2.1910 
  225.6250   -17.5530    55.1780    81.0360    70.5250    45.9500    24.2120     2.1990 
  225.7500   -16.8020    53.8580    81.6280    70.7980    50.9980    24.3500     2.2020 
  225.8750   -15.9210    52.0410    82.5990    71.5720    57.3020    24.4700     2.2040 
  226.0000   -14.9830    49.9960    83.2050    72.1750    61.6600    24.5490     2.2070 
  226.1250   -14.0330    50.1100    83.1930    72.3480    64.4230    24.5780     2.2100 
  226.2500   -13.1140    54.3750    82.6440    72.1050    65.0080    24.5780     2.2120 
  226.3750   -12.2870    59.2350    81.8290    71.6340    63.4520    24.5660     2.2120 
  226.5000   -11.5700    60.9160    81.0230    71.1710    62.8140    24.5450     2.2090 
  226.6250   -10.9610    59.3560    80.2120    70.7320    63.9870    24.5130     2.2050 
  226.7500   -10.4620    55.5830    79.1990    70.1750    64.4240    24.4670     2.2010 
  226.8750   -10.0820    50.6180    77.5640    69.1580    61.8910    24.3970     2.2030 
  227.0000    -9.7650    47.3340    75.1520    67.5060    57.5180    24.2930     2.2160 
  227.1250    -9.4700    48.8500    71.9680    65.1730    52.7900    24.1610     2.2410 
  227.2500    -9.1860    53.0890    68.2840    62.3400    47.6420    24.0290     2.2730 
  227.3750    -8.9250    56.3930    64.6370    59.4240    43.3140    23.9100     2.2950 
  227.5000    -8.6700    58.5360    61.5660    56.9120    41.4150    23.8100     2.3000 
  227.6250    -8.4330    59.9990    59.4290    55.1410    41.3930    23.7390     2.2890 
  227.7500    -8.2060    60.7550    58.4510    54.3440    43.4290    23.7240     2.2710 
  227.8750    -7.9760    59.6640    59.0500    54.8970    46.7050    23.7470     2.2510 
  228.0000    -7.7440    58.7630    61.1240    56.7160    48.5530    23.8040     2.2270 
  228.1250    -7.5360    60.1360    64.4290    59.5970    48.7930    23.9130     2.2000 
  228.2500    -7.3590    61.6540    67.8960    62.6190    48.8470    24.0620     2.1790 
  228.3750    -7.2020    60.3120    68.6950    63.2940    50.7520    24.1620     2.1970 
  228.5000    -7.0610    57.5950    64.5180    59.5090    53.3910    24.1590     2.2660 
  228.6250    -6.9210    55.7460    54.4090    50.2710    55.0530    24.0150     2.3770 
  228.7500    -6.7930    54.2480    40.1730    37.1970    52.5680    23.7010     2.4970 
  228.8750    -6.6810    54.1830    26.5510    24.8160    40.4340    23.3210     2.5640 
  229.0000    -6.5960    57.3040    16.7020    15.9490    21.9720    23.0140     2.5600 
  229.1250    -6.5590    59.4770    10.7320    10.5120    10.3670    22.8500     2.5100 
  229.2500    -6.5670    58.0630     7.5690     7.4870     6.2250    22.7790     2.4520 
  229.3750    -6.6240    56.2070     6.2860     6.1100     5.3560    22.7620     2.4110 
  229.5000    -6.7370    60.2980     5.8920     5.5770     5.0750    22.7990     2.3890 
  229.6250    -6.9220    70.5390     6.0610     5.6360     5.1110    22.9030     2.3820 
  229.7500    -7.1640    80.2990     6.5960     6.1210     5.4880    23.0810     2.3850 
  229.8750    -7.4780    81.0820     7.3590     6.9130     6.2510    23.3230     2.3930 
  230.0000    -7.8300    76.1310     8.1500     7.7970     7.1430    23.5710     2.4010 
  230.1250    -8.1760    71.5810     8.8230     8.6140     7.9290    23.7550     2.4020 
  230.2500    -8.4960    70.9770     9.2700     9.2230     8.3850    23.8420     2.3950 
  230.3750    -8.7840    75.0510     9.4220     9.4890     8.6920    23.8360     2.3810 
  230.5000    -9.0500    80.1740     9.3860     9.4810     8.8380    23.7860     2.3690 
  230.6250    -9.2970    80.5000     9.2550     9.2770     8.7820    23.7150     2.3640 
  230.7500    -9.5190    78.0160     9.1100     8.9670     8.6060    23.6510     2.3690 
  230.8750    -9.7180    81.3730     9.0030     8.6270     8.4150    23.6170     2.3840 
  231.0000    -9.8970    86.0970     8.9580     8.3210     8.2990    23.6210     2.4020 
  231.1250   -10.0720    87.1730     9.0060     8.1000     8.3370    23.6610     2.4180 
  231.2500   -10.2630    86.3870     9.1940     8.0160     8.5680    23.7270     2.4270 
  231.3750   -10.4790    88.1910     9.5890     8.1580     9.0240    23.7890     2.4260 
  231.5000   -10.6940    91.6190    10.1090     8.5420     9.7850    23.8220     2.4210 
  231.6250   -10.9000    94.7980    10.8200     9.2020    10.8970    23.8390     2.4130 
  231.7500   -11.0900    94.9740    11.7460    10.1480    12.4320    23.8550     2.4050 
  231.8750   -11.2430    87.6440    12.6810    11.3760    14.0920    23.8810     2.3990 
  232.0000   -11.3670    78.1990    14.2220    12.7310    15.6060    23.9110     2.3940 
  232.1250   -11.4580    73.3230    15.6290    14.0520    17.2790    23.9350     2.3900 
  232.2500   -11.5100    71.6640    16.7180    15.1640    18.7490    23.9460     2.3860 
  232.3750   -11.5160    70.0830    17.3090    15.8720    19.6580    23.9460     2.3810 
  232.5000   -11.4910    70.4490    17.5300    16.2320    19.7570    23.9440     2.3770 
  232.6250   -11.4420    74.2430    17.5700    16.3700    19.4760    23.9380     2.3730 
  232.7500   -11.3880    78.5110    17.6890    16.4920    19.1890    23.9280     2.3690 
  232.8750   -11.3500    80.3230    18.2270    16.8780    19.3490    23.9150     2.3660 
  233.0000   -11.3330    78.6550    19.2960    17.6670    19.8860    23.9040     2.3640 
  233.1250   -11.3400    72.3860    20.8760    18.8970    20.9690    23.8990     2.3620 
  233.2500   -11.3700    65.0860    22.7480    20.4470    22.8050    23.8970     2.3590 
  233.3750   -11.4090    64.4600    24.3320    21.9060    25.5630    23.8960     2.3520 
  233.5000   -11.4510    68.3790    25.0010    22.7150    28.4260    23.8930     2.3460 
  233.6250   -11.4990    69.0210    24.3660    22.4530    30.0160    23.8880     2.3430 
  233.7500   -11.5600    66.0540    22.5150    21.0680    29.7620    23.8780     2.3460 
  233.8750   -11.6410    67.6380    20.2020    19.0740    26.0550    23.8630     2.3570 
  234.0000   -11.7610    73.0970    18.6650    17.5290    20.4030    23.8400     2.3720 
  234.1250   -11.9340    77.4410    18.7540    17.1600    16.0300    23.8040     2.3830 
  234.2500   -12.1730    77.9220    20.9230    18.4340    15.5000    23.7530     2.3820 
  234.3750   -12.4870    74.0810    25.5160    21.9110    18.6510    23.6700     2.3660 
  234.5000   -12.8480    66.3060    31.6500    27.1610    22.8910    23.5560     2.3420 
  234.6250   -13.2230    58.5690    38.3760    33.5840    27.2450    23.4160     2.3190 
  234.7500   -13.6010    56.6280    44.4550    40.1030    29.8760    23.2970     2.3030 
  234.8750   -13.9480    58.6710    48.3120    45.0010    31.5790    23.2810     2.2930 
  235.0000   -14.2470    58.8070    49.8690    47.6140    34.5380    23.3850     2.2870 
  235.1250   -14.4960    58.8360    49.8190    48.3010    38.1980    23.5710     2.2830 
  235.2500   -14.6850    62.5220    49.3050    48.1080    42.0290    23.7880     2.2830 
  235.3750   -14.8290    65.4280    49.4440    48.1580    45.3900    23.9560     2.2910 
  235.5000   -14.9550    64.3970    50.6090    49.0090    47.9410    24.0280     2.3050 
  235.6250   -15.0800    63.0960    52.8680    50.8320    49.3370    24.0350     2.3220 
  235.7500   -15.2050    62.6340    56.1290    53.6330    50.6430    24.0280     2.3360 
  235.8750   -15.3500    60.2300    60.1990    57.3420    54.1640    24.0250     2.3400 
