~V
VERS. 2.00: Ver 2.00
~W
STRT.M 57.0000:
STOP.M 274.0000:
STEP.M 0.1250:
NULL. -999.2500:
UWI. F10215:
~C
DEPT.M :
SP.MV :
DEN.GM/CC :
GR.API :
RML.OHMM :
RI. :
RXO.OHMM :
CALI.CM :
~A
# ...
  102.0000   -19.7010     2.1360    70.0680     9.7590     7.0250     8.5740    22.5980 
  102.1250   -19.2250     2.1550    75.0410     8.5600     6.2200     7.2990    22.7880 
  102.2500   -18.7740     2.1890    79.7500     7.4820     5.4520     5.7950    23.0000 
  102.3750   -18.3910     2.2320    82.8540     6.7820     4.8830     5.0840    23.1410 
  102.5000   -18.1150     2.2740    81.7650     6.5960     4.6140     5.1850    23.1240 
  102.6250   -17.9870     2.3030    78.1410     7.0570     4.7560     5.3600    23.0210 
  102.7500   -18.0000     2.3150    75.7950     8.0200     5.2490     6.6520    22.8600 
  102.8750   -18.1450     2.3080    72.5160     9.3230     6.0280    10.1710    22.6590 
  103.0000   -18.3910     2.2860    68.0790    10.6800     6.9500    15.4080    22.4610 
  103.1250   -18.7230     2.2550    66.3330    11.6620     7.7640    14.0570    22.2900 
  103.2500   -19.0600     2.2260    67.5100    12.1110     8.2910    10.4040    22.2090 
  103.3750   -19.3610     2.2070    69.2450    12.0840     8.4960     8.6920    22.2000 
  103.5000   -19.6010     2.2010    69.7450    11.7700     8.4470     8.4700    22.2330 
  103.6250   -19.7490     2.2020    67.2790    11.3520     8.2370     8.7790    22.2510 
  103.7500   -19.8190     2.2000    64.3320    10.9430     7.9670     9.0780    22.2710 
  103.8750   -19.8330     2.1920    64.1390    10.5780     7.6790     9.0970    22.2740 
  104.0000   -19.8220     2.1790    67.4210    10.2950     7.4120     8.6860    22.2230 
  104.1250   -19.8130     2.1760    70.6660    10.1800     7.2290     8.0000    22.1400 
  104.2500   -19.8230     2.1960    70.7180    10.2360     7.1500     7.6510    22.1090 
  104.3750   -19.8420     2.2400    69.8750    10.4100     7.1620     7.8050    22.1730 
  104.5000   -19.8660     2.2860    69.6640    10.5860     7.2110     8.1100    22.1850 
  104.6250   -19.9230     2.3020    69.0590    10.6060     7.2140     8.0130    22.1220 
  104.7500   -19.9920     2.2830    66.8950    10.4430     7.1330     8.0530    22.1100 
  104.8750   -20.0610     2.2440    64.9560    10.1530     6.9800     8.0860    22.1370 
  105.0000   -20.1360     2.2020    65.0000     9.8630     6.8080     8.1570    22.1720 
  105.1250   -20.1930     2.1680    66.7440     9.7620     6.7170     8.4360    22.2230 
  105.2500   -20.2260     2.1420    67.0110     9.9330     6.7690     8.8670    22.3320 
  105.3750   -20.2400     2.1270    64.9600    10.4130     7.0040     9.5230    22.5210 
  105.5000   -20.2420     2.1300    62.2800    11.1860     7.4320    11.1350    22.7870 
  105.6250   -20.2440     2.1560    62.0340    12.1970     8.0550    15.5980    23.0120 
  105.7500   -20.2550     2.1840    63.5730    13.2340     8.7590    22.1130    23.0690 
  105.8750   -20.2980     2.1920    63.3920    14.0900     9.4190    24.4210    22.9010 
  106.0000   -20.3530     2.1700    61.1670    14.5800     9.8970    19.2510    22.5710 
  106.1250   -20.4270     2.1260    59.5500    14.5340    10.0360    13.9220    22.2560 
  106.2500   -20.5180     2.0850    58.8110    14.1000     9.8870    12.0460    22.0870 
  106.3750   -20.6290     2.0600    58.5750    13.4430     9.5330    11.5080    22.0280 
  106.5000   -20.7450     2.0550    58.9070    12.7240     9.0820    10.9700    22.0110 
  106.6250   -20.8350     2.0650    62.1540    12.0720     8.6280    10.1040    22.0240 
  106.7500   -20.9010     2.0790    66.1250    11.5310     8.2240     9.5080    22.0200 
  106.8750   -20.9260     2.0910    67.2370    11.1280     7.8990     9.2650    22.0290 
  107.0000   -20.9170     2.1000    64.5530    10.8800     7.6700     9.2080    22.0430 
  107.1250   -20.8770     2.1060    61.2180    10.8040     7.5650     8.9710    22.1190 
  107.2500   -20.7960     2.1120    60.1060    10.8400     7.5550     8.8790    22.2060 
  107.3750   -20.6880     2.1170    61.3010    10.9460     7.6150     9.0630    22.2910 
  107.5000   -20.5650     2.1260    62.9170    11.0760     7.7120     9.2870    22.3730 
  107.6250   -20.4250     2.1390    62.8150    11.1550     7.7880     9.4090    22.4850 
  107.7500   -20.2790     2.1570    60.7600    11.1180     7.7910     9.3660    22.5110 
  107.8750   -20.1100     2.1740    58.5070    10.9350     7.6940     9.1720    22.4470 
  108.0000   -19.9380     2.1850    57.7540    10.6250     7.5030     9.0600    22.4030 
  108.1250   -19.7530     2.1880    60.8160    10.2620     7.2620     8.7970    22.4440 
  108.2500   -19.6000     2.1870    65.5780     9.9510     7.0420     8.2070    22.5590 
  108.3750   -19.4820     2.1840    68.3340     9.7670     6.8950     7.5730    22.6970 
  108.5000   -19.3900     2.1790    67.0940     9.7550     6.8540     7.5250    22.8370 
  108.6250   -19.3180     2.1720    64.8650     9.9340     6.9460     8.0040    22.8050 
  108.7500   -19.2620     2.1640    63.2530    10.2170     7.1220     8.4650    22.6720 
  108.8750   -19.2150     2.1560    60.8890    10.5200     7.3320     8.8480    22.4840 
  109.0000   -19.1780     2.1510    58.0890    10.7590     7.5200     9.1780    22.2510 
  109.1250   -19.1320     2.1510    57.5160    10.8660     7.6300     9.1910    21.9630 
  109.2500   -19.0710     2.1570    58.1950    10.8570     7.6590     8.8110    21.8010 
  109.3750   -18.9830     2.1690    60.0810    10.7410     7.6130     8.4460    21.8230 
  109.5000   -18.8800     2.1810    62.0050    10.5160     7.5010     8.3920    21.8740 
  109.6250   -18.7520     2.1860    62.0690    10.1840     7.3300     8.5710    21.7960 
  109.7500   -18.5970     2.1810    60.2670     9.8550     7.1590     8.7420    21.6470 
  109.8750   -18.4320     2.1690    59.0650     9.6970     7.0720     8.6560    21.4700 
  110.0000   -18.2280     2.1520    60.4870     9.8950     7.1720     8.4540    21.3620 
  110.1250   -18.0150     2.1400    62.5390    10.6310     7.5890     8.4350    21.3080 
  110.2500   -17.7590     2.1420    62.9460    11.6940     8.2530     9.1460    21.2820 
  110.3750   -17.4570     2.1630    62.4340    12.6920     8.9760    10.5510    21.2740 
  110.5000   -17.0880     2.2010    63.0270    13.0660     9.4080    12.3700    21.3410 
  110.6250   -16.6770     2.2420    68.3640    12.2130     9.0790    12.1950    21.5590 
  110.7500   -16.2220     2.2720    75.7070    10.5450     8.1360    10.3240    21.8350 
  110.8750   -15.7540     2.2860    81.7370     8.7190     6.9520     8.0580    22.1550 
  111.0000   -15.2950     2.2870    86.0860     7.2960     5.9060     6.0020    22.5970 
  111.1250   -14.8870     2.2870    88.7210     6.5940     5.2660     5.3130    23.2340 
  111.2500   -14.5330     2.2900    88.2990     6.4130     4.9790     5.5430    23.6530 
  111.3750   -14.2570     2.2960    84.2370     6.5450     4.9570     6.1970    23.7340 
  111.5000   -14.0640     2.3050    80.5370     6.7590     5.0670     6.4990    23.7600 
  111.6250   -13.9580     2.3150    81.8050     6.8410     5.1680     6.0910    23.9510 
  111.7500   -13.9210     2.3220    85.5030     6.7680     5.1890     5.8250    24.0320 
  111.8750   -13.9350     2.3240    87.5570     6.6170     5.1440     5.6630    24.0140 
  112.0000   -13.9980     2.3190    88.3580     6.4800     5.0770     5.6600    24.0000 
  112.1250   -14.0780     2.3120    88.9300     6.4100     5.0340     5.7710    24.0210 
  112.2500   -14.1700     2.3050    86.6390     6.3920     5.0200     5.9570    24.0020 
  112.3750   -14.2660     2.3020    82.5930     6.4120     5.0340     6.1470    24.0120 
  112.5000   -14.3780     2.3060    81.7390     6.4740     5.0720     6.2960    24.0120 
  112.6250   -14.5080     2.3150    86.4090     6.5910     5.1400     6.2290    23.9790 
  112.7500   -14.6780     2.3210    90.2400     6.7340     5.2190     6.2700    23.8030 
  112.8750   -14.8660     2.3160    88.9150     6.8550     5.2820     7.1290    23.5010 
  113.0000   -15.0630     2.3040    84.7820     6.9110     5.2960     8.4550    23.2600 
  113.1250   -15.2770     2.2880    83.2000     6.9150     5.2600     7.3000    23.4390 
