~V
VERS. 2.00: Ver 2.00
~W
STRT.M 47.0000:
STOP.M 270.0000:
STEP.M 0.1250:
NULL. -999.2500:
UWI. F10221:
~C
DEPT.M :
SP.MV :
GR.API :
RML.OHMM :
RI. :
RXO.OHMM :
CALI.CM :
DEN.GM/CC :
~A
# ...
  193.2500   -30.9510    61.4590    92.3330    82.3200    82.5870    25.1190     2.2700 
  193.3750   -31.2130    64.6030    82.1530    73.0540    65.3380    25.1100     2.2760 
  193.5000   -31.4350    65.4240    71.6420    63.1030    53.4750    25.0640     2.2840 
  193.6250   -31.6620    65.3110    64.1400    55.6980    46.5600    24.9260     2.2930 
  193.7500   -31.8160    66.1170    60.8700    51.8430    39.8640    24.7260     2.2990 
  193.8750   -31.9640    68.8080    62.4860    51.9740    38.5920    24.6290     2.2990 
  194.0000   -32.0860    71.4310    70.4560    57.4750    41.2700    24.7050     2.2920 
  194.1250   -32.2110    70.7020    83.9790    68.1640    57.3240    24.8110     2.2820 
  194.2500   -32.2860    67.1190   101.6240    83.2930    83.7040    24.8590     2.2740 
  194.3750   -32.3300    64.3030   118.9300    99.4060   100.3460    24.8460     2.2690 
  194.5000   -32.3530    62.0390   125.5910   108.0520    97.7440    24.8330     2.2670 
  194.6250   -32.2810    59.8470   118.2100   105.0720    91.9850    24.8230     2.2660 
  194.7500   -32.2100    61.0600   102.0430    93.1990    79.2320    24.8150     2.2660 
  194.8750   -32.0740    67.0110    85.8730    79.3440    64.3210    24.8110     2.2690 
  195.0000   -31.9200    71.3330    76.2050    69.8600    51.1110    24.8000     2.2710 
  195.1250   -31.7320    71.0920    72.8500    65.7380    49.6620    24.8090     2.2670 
  195.2500   -31.5310    69.4220    74.4950    66.3080    60.9400    24.8910     2.2550 
  195.3750   -31.3540    66.9430    78.7810    69.8440    76.1270    25.0360     2.2470 
  195.5000   -31.1900    64.1680    81.4860    72.8890    83.7660    25.1730     2.2490 
  195.6250   -31.1060    63.3320    79.3330    72.0480    75.2180    25.2580     2.2570 
  195.7500   -31.0040    64.1600    72.5280    66.9070    58.8710    25.2630     2.2690 
  195.8750   -30.9510    63.4850    64.4970    60.0580    42.5890    25.1620     2.2860 
  196.0000   -30.9190    62.0350    60.0120    55.5310    34.6530    25.0410     2.3070 
  196.1250   -30.9050    64.2040    60.3740    55.0060    34.6550    25.0020     2.3220 
  196.2500   -30.9140    67.2670    64.7280    58.3650    47.9860    25.0190     2.3240 
  196.3750   -30.9080    66.3640    70.5640    63.9520    74.6170    25.0500     2.3150 
  196.5000   -30.9140    61.1790    73.8620    68.4230    93.5040    25.0790     2.3020 
  196.6250   -30.8960    58.0010    73.2870    69.6740    82.7970    25.1090     2.2920 
  196.7500   -30.9280    59.3560    71.0250    68.7800    66.8210    25.1200     2.2850 
  196.8750   -30.9330    62.7580    71.4970    69.6120    53.5410    25.1070     2.2780 
  197.0000   -30.9280    63.2510    82.2650    78.7680    51.7410    25.0830     2.2610 
  197.1250   -30.9110    60.6300   105.9790    97.8000    74.3790    25.0780     2.2400 
  197.2500   -30.8670    56.4120   127.1820   122.8230   125.1400    25.0740     2.2280 
  197.3750   -30.8290    53.6880   137.2560   139.1200   193.6580    25.0650     2.2300 
  197.5000   -30.7600    53.4690   116.7310   122.2780   213.3570    25.0410     2.2490 
  197.6250   -30.7190    57.1280    81.7580    86.1650   150.3730    24.8890     2.2830 
  197.7500   -30.6500    66.9570    51.8750    53.7210    66.0940    24.4270     2.3290 
  197.8750   -30.6270    79.0190    33.4800    33.8750    25.0860    23.6160     2.3730 
  198.0000   -30.6560    85.7060    25.0660    25.0970    16.0980    23.0960     2.3900 
  198.1250   -30.7160    85.8530    21.5080    21.1830    15.1850    23.0410     2.3840 
  198.2500   -30.8580    83.6430    21.0330    20.0220    15.8980    23.3870     2.3680 
  198.3750   -31.0610    81.9570    22.8530    20.8360    16.9850    23.8100     2.3500 
  198.5000   -31.3780    79.3910    27.2890    23.8460    18.6050    23.9120     2.3350 
  198.6250   -31.7440    76.8330    34.7720    29.3220    19.1370    23.6620     2.3210 
  198.7500   -32.1970    75.8410    46.9460    38.9020    21.6870    23.3350     2.3020 
  198.8750   -32.6420    75.7970    66.5570    56.0170    31.6920    23.1880     2.2730 
  199.0000   -33.0840    70.5750   100.6230    89.0380    60.8870    23.4530     2.2410 
  199.1250   -33.5510    60.3310   153.7130   141.6830   105.5480    24.0160     2.2160 
  199.2500   -34.0040    51.6030   228.9190   213.1420   151.8940    24.5710     2.2040 
  199.3750   -34.3870    49.3520   312.5070   286.8910   182.3420    24.8640     2.2010 
  199.5000   -34.6540    52.0790   346.6550   317.9650   189.3870    24.9180     2.2050 
  199.6250   -34.8940    54.6020   312.1370   294.2760   188.0610    24.9050     2.2090 
  199.7500   -35.0420    55.7240   246.4820   239.7400   184.8930    24.8580     2.2140 
  199.8750   -35.1680    56.8810   186.4170   183.6460   163.1900    24.7800     2.2200 
  200.0000   -35.2230    58.9810   146.1230   142.5110   112.5720    24.6630     2.2290 
  200.1250   -35.2200    61.2390   121.1540   115.8650    70.9040    24.5050     2.2380 
  200.2500   -35.1900    64.3720   108.0330   101.3400    52.5130    24.3510     2.2430 
  200.3750   -35.1870    67.2170   103.2500    95.6320    51.0330    24.2180     2.2430 
  200.5000   -35.2170    64.8590   103.3830    95.4500    52.7320    23.9500     2.2430 
  200.6250   -35.1900    59.0210   103.4680    95.9170    52.4010    23.6500     2.2440 
  200.7500   -35.1850    57.1910   100.5820    94.0700    51.9710    23.4280     2.2510 
  200.8750   -35.1380    62.5420    94.0630    88.7700    53.0560    23.3620     2.2650 
  201.0000   -35.1180    68.3880    86.1980    81.4800    46.5930    23.4240     2.2830 
  201.1250   -35.1230    69.4660    80.5980    75.5570    40.7080    23.5890     2.2990 
  201.2500   -35.1000    66.6660    79.2560    73.0480    39.0170    23.8750     2.3100 
  201.3750   -35.0460    62.5720    83.2020    75.1270    43.9390    24.2360     2.3100 
  201.5000   -34.9520    59.9300    94.0440    83.4540    53.9830    24.5650     2.2970 
  201.6250   -34.8940    60.3030   111.1530    97.5560    67.3270    24.8220     2.2800 
  201.7500   -34.7900    62.5930   134.2350   116.9930    88.8860    25.0600     2.2620 
  201.8750   -34.7050    62.9880   147.1070   140.0590   111.0050    25.2060     2.2460 
  202.0000   -34.5630    59.3590   173.1020   163.4140   125.8210    25.2330     2.2330 
  202.1250   -34.3780    55.0180   195.3260   183.1910   151.7450    25.2510     2.2230 
  202.2500   -34.1700    53.6860   209.9730   196.6510   166.5150    25.2270     2.2190 
  202.3750   -33.9350    55.4030   214.2580   201.8440   165.5640    25.1750     2.2230 
  202.5000   -33.7040    58.2200   204.2820   195.5010   162.7830    25.1500     2.2340 
  202.6250   -33.3890    59.3770   182.3490   178.5850   158.4470    25.1660     2.2490 
  202.7500   -33.0660    58.4450   152.4480   153.1270   148.0700    25.1940     2.2650 
  202.8750   -32.7030    57.4190   121.3740   124.2450   134.6870    25.2010     2.2800 
  203.0000   -32.3500    59.3310    96.3590    98.8640   111.7660    25.1120     2.2860 
  203.1250   -31.9670    61.8810    78.9720    80.1760    77.8150    24.8420     2.2820 
  203.2500   -31.5610    62.8140    68.7630    68.6190    49.6870    24.4660     2.2670 
  203.3750   -31.1340    63.9380    64.1100    62.9330    38.7430    24.3690     2.2490 
  203.5000   -30.6440    64.8630    62.8280    61.0470    40.2300    24.3060     2.2400 
  203.6250   -30.1670    62.9770    61.4580    59.4030    41.7410    24.2020     2.2390 
  203.7500   -29.6340    60.0290    58.0990    56.0380    46.6770    24.2000     2.2420 
  203.8750   -29.0830    60.1850    52.5810    50.6630    58.4790    24.3350     2.2520 
  204.0000   -28.4800    61.7690    46.7280    44.8170    54.5710    24.3410     2.2730 
  204.1250   -27.8590    59.8490    42.7930    40.4490    36.8150    24.1230     2.2930 
  204.2500   -27.2520    56.8040    41.7550    38.4120    25.8120    23.8690     2.2950 
  204.3750   -26.6720    56.8070    43.6350    38.8420    30.5840    23.8640     2.2800 
