~V
VERS. 2.00: Ver 2.00
~W
STRT.M 50.0000:
STOP.M 274.0000:
STEP.M 0.1250:
NULL. -999.2500:
UWI. F10206:
~C
DEPT.M :
SP.MV :
DEN.GM/CC :
GR.API :
RML.OHMM :
RI. :
RXO.OHMM :
CALI.CM :
~A
# ...
   83.7500   -27.6420     2.2570    66.6980     7.2460     5.8510     7.1690    24.6700 
   83.8750   -26.9930     2.2520    68.7910     7.0640     5.6070     7.1180    24.4740 
   84.0000   -26.5800     2.2440    70.8520     6.9280     5.4440     7.6240    24.0060 
   84.1250   -26.5080     2.2350    73.2120     6.8370     5.3460     7.4270    24.2030 
   84.2500   -26.7900     2.2280    73.4780     6.8510     5.3300     6.7310    24.3160 
   84.3750   -27.4250     2.2170    72.3830     7.0500     5.4640     6.4260    24.2740 
   84.5000   -28.3310     2.1990    69.8790     7.4740     5.8090     6.9710    24.0150 
   84.6250   -29.4160     2.1710    65.0640     8.1020     6.3910     8.6090    23.5060 
   84.7500   -30.5220     2.1380    58.9900     8.7710     7.0420    10.5510    23.3470 
   84.8750   -31.5690     2.1070    53.3970     9.3260     7.6000    11.5950    23.3290 
   85.0000   -32.5060     2.0870    50.4690     9.6480     7.9460    11.5150    23.3970 
   85.1250   -33.1970     2.0850    49.4620     9.6800     8.0270    11.0810    23.4940 
   85.2500   -33.6230     2.0980    48.6980     9.5610     7.9640    10.7220    23.5240 
   85.3750   -33.7370     2.1220    48.0390     9.3830     7.8300    10.5540    23.4450 
   85.5000   -33.5920     2.1500    47.3570     9.2080     7.6520    10.5660    23.2990 
   85.6250   -33.2600     2.1720    48.4330     9.0700     7.4360    10.6030    23.1810 
   85.7500   -32.8170     2.1800    50.7360     8.9570     7.2450    10.6450    23.1250 
   85.8750   -32.3110     2.1760    53.4410     8.8420     7.1410    10.6110    23.0870 
   86.0000   -31.8220     2.1640    57.5080     8.7230     7.1330    10.5970    23.0190 
   86.1250   -31.3630     2.1470    60.2540     8.6470     7.1790    10.7750    23.0010 
   86.2500   -30.9250     2.1320    58.7820     8.6670     7.2320    10.9000    22.9970 
   86.3750   -30.5650     2.1180    54.8780     8.8040     7.2980    10.9350    23.0030 
   86.5000   -30.1870     2.1080    52.5620     9.0360     7.4140    10.7480    23.0060 
   86.6250   -29.7490     2.1050    54.2090     9.2910     7.6260    10.5910    23.0030 
   86.7500   -29.3260     2.1090    55.1890     9.5100     7.8800    10.6790    22.9910 
   86.8750   -28.8440     2.1190    55.4570     9.6670     8.0930    10.9090    22.9600 
   87.0000   -28.2520     2.1330    56.4700     9.7380     8.2020    11.0750    22.9460 
   87.1250   -27.6020     2.1420    57.0910     9.6500     8.1710    11.2480    22.9510 
   87.2500   -26.8790     2.1460    56.1340     9.3700     8.0190    11.2800    22.9540 
   87.3750   -26.0640     2.1460    55.1400     8.9020     7.7410    11.0220    22.9650 
   87.5000   -25.2180     2.1510    56.3620     8.2860     7.3290    10.1670    23.0010 
   87.6250   -24.4190     2.1680    61.4530     7.5550     6.7610     8.8350    23.0280 
   87.7500   -23.6740     2.1980    66.7990     6.7700     6.1070     7.8300    23.1220 
   87.8750   -23.0170     2.2360    69.6850     6.0140     5.4800     7.2710    23.2650 
   88.0000   -22.5210     2.2720    70.2550     5.4460     5.0180     6.7430    23.5350 
   88.1250   -22.2510     2.3000    73.1750     5.3450     4.8820     5.9430    23.8750 
   88.2500   -22.2000     2.3200    76.3960     5.7730     5.0830     5.3720    24.2490 
   88.3750   -22.3930     2.3360    76.8000     6.6970     5.6290     5.7390    24.5670 
   88.5000   -22.8200     2.3480    72.7310     7.9030     6.4550     7.3480    24.5850 
   88.6250   -23.3550     2.3470    64.1210     8.8950     7.3300    10.2280    24.3410 
   88.7500   -23.9180     2.3310    55.8990     9.3130     7.9370    11.8040    24.0800 
   88.8750   -24.5230     2.3050    53.8700     9.2530     8.1710    11.1330    24.0870 
   89.0000   -25.0840     2.2890    58.6290     9.1310     8.1730    10.0790    24.3620 
   89.1250   -25.6120     2.3100    61.4430     9.4050     8.2540    10.0160    24.4710 
   89.2500   -26.1800     2.3580    58.3040    10.0600     8.5860    11.8160    24.1790 
   89.3750   -26.7150     2.4060    54.7340    10.8090     9.1000    17.5850    23.7790 
   89.5000   -27.2270     2.4180    56.0060    11.2360     9.5290    24.3620    23.4300 
   89.6250   -27.8120     2.3660    60.0180    10.9700     9.5040    19.3400    23.1010 
   89.7500   -28.4350     2.2760    60.5560    10.2630     9.0770    13.4810    23.1500 
   89.8750   -29.0940     2.1850    58.2800     9.5000     8.4960    11.1970    23.2710 
   90.0000   -29.7590     2.1190    57.9030     8.9780     8.0390    10.6830    23.3610 
   90.1250   -30.3420     2.0920    58.6800     8.8200     7.8750    10.6210    23.3380 
   90.2500   -30.8090     2.0880    55.4400     8.8400     7.8670    10.6110    23.4230 
   90.3750   -31.1660     2.0920    50.1740     8.8820     7.8660    10.6210    23.5780 
   90.5000   -31.4010     2.0950    47.6240     8.8620     7.7990    10.6050    23.6340 
   90.6250   -31.4790     2.0980    49.3240     8.7720     7.7000    10.5380    23.6420 
   90.7500   -31.4320     2.1040    51.4090     8.6570     7.6400    10.4670    23.6420 
   90.8750   -31.2880     2.1140    52.2170     8.5470     7.6290    10.4400    23.6420 
   91.0000   -31.0780     2.1260    51.8690     8.4310     7.6090    10.4830    23.6440 
   91.1250   -30.7590     2.1320    52.7540     8.2530     7.4540    10.4600    23.6610 
   91.2500   -30.3820     2.1310    56.2460     7.9820     7.1350    10.2640    23.7090 
   91.3750   -30.0010     2.1250    60.3800     7.6230     6.7160     9.8930    23.7820 
   91.5000   -29.6010     2.1220    61.8280     7.2390     6.2970     9.4810    24.0080 
   91.6250   -29.2590     2.1290    60.4920     6.9470     5.9750     9.0910    24.0590 
   91.7500   -29.0030     2.1450    60.2330     6.8200     5.7730     8.7070    23.9360 
   91.8750   -28.8150     2.1580    60.7900     6.8810     5.7010     8.6290    23.7540 
   92.0000   -28.7460     2.1590    60.2590     7.0890     5.7530     9.5160    23.6750 
   92.1250   -28.8350     2.1420    58.9450     7.3690     5.9160    10.4780    23.7550 
   92.2500   -28.9720     2.1180    57.8320     7.6400     6.1240    10.5810    23.8250 
   92.3750   -29.1420     2.0970    56.0550     7.8870     6.3210    10.6110    23.7870 
   92.5000   -29.3440     2.0850    53.4630     8.1030     6.4660    10.7910    23.6540 
   92.6250   -29.4760     2.0820    52.1480     8.2750     6.5850    10.9290    23.5610 
   92.7500   -29.5610     2.0800    53.3120     8.4030     6.7370    11.1410    23.4990 
   92.8750   -29.5600     2.0820    55.6330     8.4970     6.9240    11.3880    23.4880 
   93.0000   -29.4670     2.0900    57.6270     8.5710     7.0920    11.5650    23.4790 
   93.1250   -29.2800     2.1110    57.2570     8.6350     7.1640    11.6890    23.4710 
   93.2500   -29.0450     2.1380    55.6700     8.6980     7.1510    12.0510    23.4300 
   93.3750   -28.7920     2.1600    55.7400     8.7640     7.1170    12.5860    23.3480 
   93.5000   -28.5330     2.1660    57.2200     8.8490     7.1450    12.3110    23.3250 
   93.6250   -28.3360     2.1490    58.7170     8.9920     7.2870    11.3730    23.3930 
   93.7500   -28.2000     2.1210    59.3310     9.1590     7.4620    11.3350    23.6510 
   93.8750   -28.1510     2.0960    58.0010     9.2760     7.5760    12.0370    23.9520 
   94.0000   -28.2090     2.0820    56.1950     9.2610     7.5730    12.8920    24.1900 
   94.1250   -28.4170     2.0820    55.2640     9.0540     7.4420    12.2660    24.3920 
   94.2500   -28.7100     2.0910    54.8730     8.7480     7.2650    11.1140    24.4300 
   94.3750   -29.0480     2.1030    54.8570     8.4480     7.1060    10.1550    24.4640 
   94.5000   -29.4480     2.1180    55.3850     8.2450     7.0020     9.8770    24.4200 
   94.6250   -29.8270     2.1330    56.1670     8.2110     6.9670    10.4330    24.0970 
   94.7500   -30.1650     2.1460    54.6390     8.2880     6.9930    11.3350    23.6960 
   94.8750   -30.4770     2.1530    51.9720     8.4030     7.0790    11.7490    23.5820 
