~V
VERS. 2.00: Ver 2.00
~W
STRT.M 53.0000:
STOP.M 267.0000:
STEP.M 0.1250:
NULL. -999.2500:
UWI. F10211:
~C
DEPT.M :
GR.API :
RML.OHMM :
RI. :
RXO.OHMM :
CALI.CM :
SP.MV :
DEN.GM/CC :
~A
# ...
  131.7500    65.4850    14.6160    14.6460    13.6720    24.0610    -9.8210     2.5400 
  131.8750    65.9390    15.2910    15.3160    15.5140    23.8130    -9.8990     2.5420 
  132.0000    63.5370    15.6380    15.6760    16.7990    23.6950    -9.9960     2.5390 
  132.1250    60.3880    15.6370    15.6810    16.2790    23.7110   -10.1210     2.5330 
  132.2500    58.0460    15.4040    15.4100    15.2330    23.8820   -10.2850     2.5220 
  132.3750    55.9450    15.1470    15.0390    14.2380    24.1310   -10.4750     2.5030 
  132.5000    55.8210    15.1730    14.8310    14.2860    24.2100   -10.6720     2.4750 
  132.6250    59.3410    15.6730    14.9890    14.2290    24.0780   -10.8850     2.4390 
  132.7500    63.5940    16.7430    15.6470    14.3450    24.1210   -11.1480     2.3950 
  132.8750    65.9680    18.3640    16.8530    15.3740    24.4540   -11.4430     2.3530 
  133.0000    67.2670    20.3950    18.5770    18.1620    24.8180   -11.7070     2.3460 
  133.1250    70.2240    22.4490    20.5140    22.9370    24.9190   -11.9640     2.3800 
  133.2500    73.6840    24.1230    22.2910    27.2130    24.7590   -12.2220     2.4350 
  133.3750    74.9850    25.1190    23.5630    28.9080    24.4710   -12.4680     2.4800 
  133.5000    73.5370    25.2890    24.0570    27.8300    24.1100   -12.6840     2.4940 
  133.6250    71.0220    24.9210    23.9420    26.3460    23.9390   -12.8500     2.4850 
  133.7500    69.6720    24.3040    23.4650    26.0380    24.0410   -12.9530     2.4520 
  133.8750    71.2430    23.5990    22.8130    25.2060    24.4190   -13.0190     2.4000 
  134.0000    74.0730    22.8090    22.0520    24.3250    25.0430   -13.1140     2.3470 
  134.1250    75.7190    21.9110    21.1950    23.0780    25.8410   -13.2100     2.3120 
  134.2500    75.5890    20.9540    20.2820    22.2790    26.6570   -13.3090     2.3000 
  134.3750    74.9100    20.0780    19.4210    21.6920    27.1180   -13.4320     2.2970 
  134.5000    73.9030    19.5140    18.8160    20.6320    27.0470   -13.5760     2.2660 
  134.6250    72.9690    19.3560    18.5770    20.1140    26.9200   -13.7420     2.2030 
  134.7500    72.6400    19.5710    18.7140    19.8400    26.9630   -13.9280     2.1460 
  134.8750    71.9210    20.0130    19.1260    19.7710    26.9630   -14.1080     2.1370 
  135.0000    71.3250    20.4040    19.5780    20.1770    26.5370   -14.2590     2.2020 
  135.1250    72.8660    20.4890    19.7940    20.3300    25.6120   -14.3770     2.3050 
  135.2500    77.3210    20.1780    19.6270    19.6680    24.4920   -14.4520     2.3970 
  135.3750    82.7980    19.5900    19.1240    18.3320    23.5890   -14.4860     2.4440 
  135.5000    83.2360    18.9990    18.5010    17.1220    23.2870   -14.4930     2.4490 
  135.6250    78.5860    18.6010    17.9720    16.8870    23.6240   -14.4790     2.4320 
  135.7500    72.8430    18.4190    17.6120    17.8490    24.3030   -14.4480     2.4000 
  135.8750    70.1850    18.3410    17.3730    19.3170    24.8400   -14.4080     2.3580 
  136.0000    71.1180    18.1910    17.1360    19.9700    25.0470   -14.3530     2.3160 
  136.1250    72.9630    17.9040    16.8420    19.6260    25.2320   -14.2820     2.2940 
  136.2500    75.2720    17.5570    16.5350    19.4780    25.4810   -14.1930     2.3040 
  136.3750    76.7460    17.3040    16.3230    20.0610    25.6610   -14.0770     2.3450 
  136.5000    75.8080    17.3410    16.3550    21.0780    25.6520   -13.9390     2.4010 
  136.6250    73.9590    17.6810    16.6580    21.9520    25.5820   -13.7890     2.4410 
  136.7500    72.7750    18.1960    17.1610    22.0450    25.5090   -13.6200     2.4560 
  136.8750    71.5550    18.5820    17.6350    22.0450    25.4130   -13.4280     2.4500 
  137.0000    70.4280    18.2300    17.5360    21.5390    25.3300   -13.2110     2.4310 
  137.1250    70.7640    16.8130    16.4660    21.3270    25.2980   -12.9920     2.4030 
  137.2500    72.2360    14.4300    14.4270    20.3190    25.3510   -12.7800     2.3660 
  137.3750    73.7980    11.6030    11.8670    17.5270    25.4360   -12.5850     2.3240 
  137.5000    77.7570     8.8010     9.4430    13.0170    25.3490   -12.4170     2.2900 
  137.6250    83.7260     6.9160     7.5340     8.7890    24.9290   -12.2630     2.2700 
  137.7500    87.9240     5.7950     6.2170     6.3660    24.2280   -12.1150     2.2640 
  137.8750    88.5320     5.2220     5.4210     5.6690    23.5150   -11.9770     2.2730 
  138.0000    88.8180     5.0410     5.0560     5.6750    23.0000   -11.8740     2.2950 
  138.1250    90.2080     5.0420     4.9440     5.5250    22.7500   -11.7820     2.3170 
  138.2500    88.9690     5.0910     4.9550     5.2310    22.7040   -11.7060     2.3280 
  138.3750    84.5940     5.1250     5.0050     5.0460    22.7400   -11.6400     2.3310 
  138.5000    82.9300     5.1420     5.0540     5.0390    22.7900   -11.5480     2.3340 
  138.6250    86.0740     5.1750     5.0990     5.1500    22.7920   -11.4290     2.3400 
  138.7500    90.8550     5.2410     5.1480     5.2940    22.7280   -11.2910     2.3430 
  138.8750    92.5980     5.3300     5.1960     5.3420    22.6640   -11.1290     2.3420 
  139.0000    90.3140     5.4100     5.2300     5.3100    22.8310   -10.9370     2.3330 
  139.1250    86.8600     5.4550     5.2320     5.3150    23.2540   -10.7470     2.3120 
  139.2500    83.6890     5.4480     5.1890     5.3530    23.8100   -10.5590     2.2810 
  139.3750    81.2150     5.3850     5.0940     5.4790    24.3210   -10.3720     2.2510 
  139.5000    78.3900     5.2740     4.9530     5.5910    24.5670   -10.2200     2.2410 
  139.6250    77.2670     5.1480     4.7910     5.5100    24.5220   -10.1080     2.2530 
  139.7500    78.6710     5.0420     4.6440     5.2800    24.3430   -10.0400     2.2730 
  139.8750    79.7120     4.9960     4.5500     5.0910    24.2570   -10.0390     2.2850 
  140.0000    80.3140     5.0480     4.5490     5.0980    24.4130   -10.1020     2.2890 
  140.1250    81.0380     5.2000     4.6430     5.1890    24.5430   -10.1770     2.2920 
  140.2500    81.9710     5.4300     4.8140     5.3980    24.4200   -10.2480     2.2990 
  140.3750    81.2720     5.6890     5.0220     5.8700    24.0860   -10.3060     2.3030 
  140.5000    79.7390     5.8800     5.1940     6.3430    23.9340   -10.3160     2.2940 
  140.6250    79.5440     5.9250     5.2600     6.4990    24.0030   -10.2830     2.2780 
  140.7500    79.6750     5.7970     5.1910     6.3130    24.0510   -10.2130     2.2630 
  140.8750    79.7120     5.5340     5.0000     6.0840    23.9190   -10.1030     2.2540 
  141.0000    82.1000     5.2210     4.7420     5.6730    23.8950    -9.9700     2.2560 
  141.1250    87.9040     4.9550     4.4950     5.0940    24.1520    -9.8530     2.2630 
  141.2500    94.3120     4.7880     4.3110     4.7620    24.4170    -9.7690     2.2690 
  141.3750    96.4320     4.7230     4.2070     4.7350    24.5330    -9.7320     2.2750 
  141.5000    93.7000     4.7440     4.1840     4.8080    24.5470    -9.7680     2.2790 
  141.6250    91.0520     4.8060     4.2080     4.8430    24.5200    -9.8640     2.2820 
  141.7500    90.6830     4.8740     4.2500     4.8260    24.4260   -10.0150     2.2870 
  141.8750    89.5400     4.9220     4.2830     4.8030    24.2110   -10.2110     2.3030 
  142.0000    87.5080     4.9430     4.2910     4.8200    23.8420   -10.4210     2.3330 
  142.1250    87.9310     4.9450     4.2820     4.8690    23.4680   -10.6310     2.3600 
  142.2500    89.7620     4.9420     4.2700     4.8780    23.2610   -10.8310     2.3700 
  142.3750    89.4860     4.9470     4.2640     4.8110    23.2480   -11.0110     2.3560 
  142.5000    88.6220     4.9780     4.2730     4.7990    23.4380   -11.1640     2.3240 
  142.6250    90.7910     5.0400     4.3000     4.8980    23.7690   -11.3120     2.2900 
  142.7500    93.0870     5.1300     4.3440     5.0110    24.0050   -11.4570     2.2650 
  142.8750    92.8320     5.2370     4.4000     5.0470    24.0000   -11.5790     2.2590 
