~V
VERS. 2.00: Ver 2.00
~W
STRT.M 58.0000:
STOP.M 277.0000:
STEP.M 0.1250:
NULL. -999.2500:
UWI. F10219:
~C
DEPT.M :
SP.MV :
DEN.GM/CC :
GR.API :
RML.OHMM :
RI. :
RXO.OHMM :
CALI.CM :
~A
# ...
  181.7500   -19.0190     2.3070    63.7410    57.5150    51.7720    51.0490    25.0860 
  181.8750   -18.9540     2.3090    62.6180    58.2550    50.9360    46.0260    25.2880 
  182.0000   -18.9190     2.3000    60.6990    62.2050    53.1620    49.6910    25.4960 
  182.1250   -18.8810     2.2870    59.8370    68.2690    57.6410    57.7130    25.6990 
  182.2500   -18.8520     2.2730    61.0180    74.9530    63.1480    63.7190    25.8190 
  182.3750   -18.9140     2.2600    62.4720    80.7510    68.2910    66.5920    25.8790 
  182.5000   -19.0240     2.2490    62.5050    84.8060    72.0650    68.6850    25.8960 
  182.6250   -19.1730     2.2430    62.3160    87.1340    74.2630    69.8900    25.8960 
  182.7500   -19.2710     2.2420    63.3560    88.4350    75.3860    70.0100    25.9010 
  182.8750   -19.2850     2.2430    64.9090    89.5750    76.2660    70.7370    25.9130 
  183.0000   -19.2750     2.2410    66.0270    90.9910    77.4990    73.1950    25.8970 
  183.1250   -19.2040     2.2370    67.3340    92.5900    79.1930    76.5140    25.8140 
  183.2500   -19.0980     2.2350    69.0630    93.9890    81.1700    80.2760    25.6940 
  183.3750   -18.9150     2.2340    70.4730    94.7010    83.0560    84.0710    25.5420 
  183.5000   -18.6850     2.2330    70.7910    94.3860    84.4510    87.3400    25.2440 
  183.6250   -18.4140     2.2310    69.8230    92.8060    85.0480    89.3110    24.8890 
  183.7500   -18.0900     2.2300    68.2020    89.6200    84.4130    88.8120    24.6720 
  183.8750   -17.7320     2.2310    67.1020    84.3810    81.9320    84.9290    24.6070 
  184.0000   -17.2780     2.2370    66.4030    76.7540    76.9570    78.0740    24.5660 
  184.1250   -16.8050     2.2480    64.9650    66.4690    68.8360    68.8520    24.5510 
  184.2500   -16.3150     2.2690    63.7390    53.9310    57.4950    57.7490    24.5750 
  184.3750   -15.8260     2.3010    64.8910    40.6870    44.3110    44.9670    24.4980 
  184.5000   -15.3770     2.3460    68.3900    28.8860    31.8880    31.4210    24.2540 
  184.6250   -14.9870     2.3970    73.2320    19.8890    22.0770    19.5700    23.9770 
  184.7500   -14.7510     2.4380    80.0790    14.2030    15.6630    12.1410    23.7510 
  184.8750   -14.6870     2.4550    88.4380    11.3400    12.2080     8.6860    23.5340 
  185.0000   -14.8180     2.4510    94.3090    10.1860    10.5780     7.4270    23.3340 
  185.1250   -15.1170     2.4350    94.8880    10.1040    10.1460     7.4380    23.2320 
  185.2500   -15.5330     2.4160    91.3920    10.6550    10.4900     8.1130    23.3800 
  185.3750   -16.0740     2.3940    86.9070    11.5250    11.2770     8.9190    23.8140 
  185.5000   -16.6970     2.3750    82.7790    12.5060    12.2240     9.6150    24.3190 
  185.6250   -17.3880     2.3630    79.0470    13.5970    13.2400    10.2190    24.7140 
  185.7500   -18.0650     2.3590    76.6230    15.0150    14.4280    10.9930    24.9520 
  185.8750   -18.6650     2.3540    76.9480    17.1220    16.0610    12.3240    25.0210 
  186.0000   -19.2010     2.3390    79.4470    20.2430    18.4440    14.4960    24.9060 
  186.1250   -19.6150     2.3130    80.8520    24.6530    21.8610    17.8960    24.7560 
  186.2500   -19.9510     2.2860    78.4450    30.5500    26.5390    23.2230    24.7390 
  186.3750   -20.2300     2.2720    73.8950    37.8150    32.4120    30.7630    24.8230 
  186.5000   -20.4390     2.2700    70.9780    45.8790    38.9750    39.2520    24.8610 
  186.6250   -20.6110     2.2710    69.8090    54.1670    45.6860    46.7880    24.7570 
  186.7500   -20.7620     2.2660    69.1000    62.0180    51.9340    51.4940    24.5160 
  186.8750   -20.9550     2.2570    69.2300    68.8970    57.2710    53.4740    24.2290 
  187.0000   -21.1620     2.2500    70.8550    74.6030    61.5960    55.8580    24.0520 
  187.1250   -21.4110     2.2470    72.3370    79.0600    64.9010    59.9880    24.1170 
  187.2500   -21.7070     2.2530    72.2650    82.2990    67.2140    64.7680    24.4440 
  187.3750   -21.9890     2.2640    71.8680    84.6630    68.7850    68.6080    24.9660 
  187.5000   -22.2940     2.2720    72.2410    86.9560    70.2350    70.4200    25.5020 
  187.6250   -22.5970     2.2730    71.9550    90.0480    72.2820    71.1420    25.9180 
  187.7500   -22.8900     2.2690    70.0050    94.8630    75.7710    74.1390    26.1710 
  187.8750   -23.1600     2.2640    68.3370   101.7730    81.1700    81.5250    26.2840 
  188.0000   -23.3990     2.2570    69.4800   110.0630    88.0580    91.6930    26.3120 
  188.1250   -23.6450     2.2460    71.4560   118.4580    95.5060   102.8460    26.2850 
  188.2500   -23.8790     2.2320    70.5350   124.9220   101.8900   114.8520    26.2380 
  188.3750   -24.1190     2.2230    67.1340   127.4720   105.4530   123.4370    26.2170 
  188.5000   -24.3790     2.2180    65.3730   125.4480   105.3140   123.4940    26.2270 
  188.6250   -24.6300     2.2140    66.5940   119.2350   101.4430   117.2720    26.2720 
  188.7500   -24.8750     2.2090    68.5370   110.2750    94.7210   108.1730    26.3550 
  188.8750   -25.0990     2.2050    69.0510   100.5510    86.7240    96.3830    26.5260 
  189.0000   -25.2960     2.2010    67.9760    91.6940    79.0560    82.1540    26.8350 
  189.1250   -25.4530     2.1960    66.1270    84.4100    72.5520    67.4410    27.2080 
  189.2500   -25.5570     2.1920    64.7140    79.1040    67.7690    56.4790    27.4870 
  189.3750   -25.6330     2.1930    64.2670    75.9320    64.9750    49.2580    27.5780 
  189.5000   -25.6050     2.1930    64.0400    74.7740    64.1210    43.9070    27.4980 
  189.6250   -25.5090     2.1850    63.1160    75.7240    65.3280    41.2760    27.3320 
  189.7500   -25.3560     2.1690    61.5310    79.0190    68.8770    42.0240    27.1710 
  189.8750   -25.1330     2.1540    60.0510    84.6490    74.8680    44.5690    27.1160 
  190.0000   -24.8890     2.1530    59.1690    91.7900    82.6890    46.0310    27.1380 
  190.1250   -24.5640     2.1700    58.9700    98.9600    91.1380    45.1290    26.9260 
  190.2500   -24.1760     2.1970    59.6800   103.2200    97.5290    41.8120    26.1650 
  190.3750   -23.6790     2.2260    60.9810   101.2480    98.4210    38.9230    25.1980 
  190.5000   -23.1080     2.2520    61.8090    91.7290    91.8240    38.0930    24.6860 
  190.6250   -22.5200     2.2800    62.5610    75.8290    78.0560    36.1940    24.5920 
  190.7500   -21.9330     2.3130    63.9460    57.8840    60.7240    31.5130    24.6600 
  190.8750   -21.4390     2.3450    65.4790    43.0030    45.0500    24.5900    24.6520 
  191.0000   -21.0250     2.3690    66.1270    33.5560    34.2100    17.8470    24.4860 
  191.1250   -20.7470     2.3800    65.3240    29.5090    28.5760    13.9660    24.2770 
  191.2500   -20.6600     2.3700    63.3450    30.2970    27.6980    13.9390    24.1470 
  191.3750   -20.7790     2.3370    60.5100    35.2180    30.9910    17.3580    24.1420 
  191.5000   -21.1150     2.2950    57.5790    43.1660    37.6170    23.9340    24.4190 
  191.6250   -21.5910     2.2590    55.1530    53.2290    46.9810    34.4850    25.0650 
  191.7500   -22.1650     2.2350    53.6200    63.8600    57.7520    49.7370    25.9020 
  191.8750   -22.7930     2.2210    52.9350    73.0660    67.7850    67.8460    26.6140 
  192.0000   -23.4060     2.2120    52.2040    79.3950    75.1010    84.3760    26.9870 
  192.1250   -23.9670     2.2080    51.6970    82.6150    79.0140    94.8140    26.9670 
  192.2500   -24.3920     2.2090    52.8870    83.9160    80.3450    93.1400    26.6480 
  192.3750   -24.7060     2.2160    56.2480    85.4420    81.0870    80.6260    26.1680 
  192.5000   -24.9410     2.2220    60.0960    88.9580    83.2050    71.3140    25.6800 
  192.6250   -25.0840     2.2210    62.7690    94.9340    87.4660    71.7920    25.3900 
  192.7500   -25.1770     2.2170    63.7240   102.7260    93.6060    76.9510    25.2750 
  192.8750   -25.2110     2.2120    63.4720   110.8210   100.4600    81.6090    25.2450 
