~V
VERS. 2.00: Ver 2.00
~W
STRT.M 58.0000:
STOP.M 277.0000:
STEP.M 0.1250:
NULL. -999.2500:
UWI. F10219:
~C
DEPT.M :
SP.MV :
DEN.GM/CC :
GR.API :
RML.OHMM :
RI. :
RXO.OHMM :
CALI.CM :
~A
# ...
  170.5000   -21.1330     2.1910    62.8380   129.1740   114.0520    99.5950    26.4450 
  170.6250   -21.4670     2.1900    61.4190   141.2810   125.5970   105.6780    26.5090 
  170.7500   -21.7360     2.1960    60.9180   148.9400   133.6260   106.9500    26.5240 
  170.8750   -21.9560     2.2070    61.2150   151.1150   137.0310   104.7070    26.4790 
  171.0000   -22.1080     2.2140    61.7960   149.0170   136.5840   101.1740    26.3780 
  171.1250   -22.2580     2.2200    62.0240   144.3220   133.2650    97.3380    26.2170 
  171.2500   -22.3740     2.2250    62.4220   138.4500   127.9730    93.3160    26.0370 
  171.3750   -22.4350     2.2320    63.7950   132.1770   121.5290    89.3780    25.8770 
  171.5000   -22.4520     2.2390    65.0280   126.9510   114.8840    85.6170    25.7380 
  171.6250   -22.4060     2.2400    64.6860   122.3660   108.9040    80.4490    25.6170 
  171.7500   -22.3710     2.2350    63.4520   117.9600   104.6670    74.3240    25.5340 
  171.8750   -22.3440     2.2270    62.7480   116.1520   103.0350    70.9420    25.5560 
  172.0000   -22.3230     2.2200    62.5950   117.3940   104.0960    72.7550    25.6780 
  172.1250   -22.2860     2.2140    62.5610   121.0630   107.4720    78.2240    25.8080 
  172.2500   -22.1790     2.2120    62.5920   125.4270   111.8130    85.5620    25.9110 
  172.3750   -22.0160     2.2200    61.7970   127.7600   114.7490    93.1620    25.9950 
  172.5000   -21.7960     2.2360    59.8120   125.6060   113.8840    97.9120    26.0780 
  172.6250   -21.5330     2.2550    57.5950   118.0050   108.0150    95.8620    26.1160 
  172.7500   -21.1670     2.2750    55.6160   106.5010    98.0130    85.2550    26.0720 
  172.8750   -20.6910     2.2900    53.7530    95.1110    87.1650    67.2520    26.0010 
  173.0000   -20.2280     2.2940    52.6990    87.8470    79.3690    48.4720    25.9660 
  173.1250   -19.7780     2.2790    52.7960    86.3990    76.7190    38.9870    25.9180 
  173.2500   -19.3980     2.2480    52.6170    90.7080    79.7960    42.7660    25.8920 
  173.3750   -19.0940     2.2170    51.4770    98.8660    87.2790    56.3450    25.9470 
  173.5000   -18.8330     2.2020    50.9040   107.5530    96.1570    72.2850    26.0430 
  173.6250   -18.6380     2.2030    52.3000   114.0770   103.7930    81.8410    26.0630 
  173.7500   -18.5050     2.2130    55.0250   116.4570   107.9540    78.4360    25.8470 
  173.8750   -18.4860     2.2240    57.6880   114.7370   108.1200    67.0200    25.3490 
  174.0000   -18.4510     2.2310    60.5780   110.9480   105.8130    58.0970    24.8190 
  174.1250   -18.3730     2.2330    64.6950   106.3750   102.2940    52.9470    24.4620 
  174.2500   -18.2560     2.2350    69.3560   101.0300    97.8460    49.2050    24.2660 
  174.3750   -18.0870     2.2390    71.9890    94.2420    91.9840    45.3430    24.1790 
  174.5000   -17.9550     2.2440    71.5450    85.9790    84.5590    41.6910    24.1380 
  174.6250   -17.8280     2.2470    69.1370    77.0600    76.1570    38.8380    24.1200 
  174.7500   -17.7440     2.2480    66.5160    68.9820    68.1100    36.6270    24.1320 
  174.8750   -17.6960     2.2490    64.5530    63.0670    61.7880    34.6330    24.2150 
  175.0000   -17.6660     2.2490    62.7620    59.7020    57.8120    32.4570    24.3550 
  175.1250   -17.7020     2.2470    61.3180    58.8410    56.2950    30.2680    24.4670 
  175.2500   -17.8110     2.2430    61.1660    60.2760    57.1430    28.7470    24.4970 
  175.3750   -18.0090     2.2400    62.5600    63.5860    60.0130    28.9940    24.4900 
  175.5000   -18.2470     2.2400    64.4300    68.0420    64.2200    31.2960    24.4970 
  175.6250   -18.5370     2.2430    65.1130    73.0610    69.2180    35.0320    24.5090 
  175.7500   -18.8900     2.2480    64.0260    77.9320    74.3190    39.6630    24.5140 
  175.8750   -19.2330     2.2520    62.6750    81.9370    78.7770    44.6750    24.5150 
  176.0000   -19.5920     2.2560    62.9520    84.6200    82.0340    49.5060    24.5160 
  176.1250   -19.9280     2.2610    64.5750    85.7750    83.7700    53.8840    24.5130 
  176.2500   -20.2290     2.2650    66.2470    85.4270    83.8770    57.8600    24.5030 
  176.3750   -20.5200     2.2660    67.4490    83.9300    82.6080    61.6940    24.4890 
  176.5000   -20.7550     2.2620    67.4930    81.9210    80.5850    65.1070    24.5030 
  176.6250   -20.9680     2.2550    65.9600    79.8880    78.3120    67.5820    24.5680 
  176.7500   -21.1180     2.2500    64.3630    78.3120    76.3030    68.9970    24.6310 
  176.8750   -21.2320     2.2510    64.2020    77.5610    74.9780    69.6600    24.5960 
  177.0000   -21.3420     2.2560    64.8030    77.7660    74.5240    70.3330    24.4470 
  177.1250   -21.4180     2.2620    65.0850    79.0020    75.0490    71.5510    24.2830 
  177.2500   -21.4750     2.2660    66.0310    81.3520    76.6530    73.3940    24.1790 
  177.3750   -21.4670     2.2660    68.5520    84.8600    79.3830    75.9680    24.1470 
  177.5000   -21.4730     2.2610    70.8820    89.5100    83.1900    79.4140    24.1510 
  177.6250   -21.4820     2.2510    70.9100    95.5040    88.2310    83.9120    24.1600 
  177.7500   -21.5380     2.2370    68.5520   103.2440    94.8860    89.6180    24.1650 
  177.8750   -21.6990     2.2200    65.1630   112.9110   103.4000    96.9690    24.1840 
  178.0000   -21.8640     2.2040    61.9600   123.8920   113.3490   106.8990    24.2170 
  178.1250   -22.0660     2.1930    60.4450   134.9870   123.7850   120.2220    24.2380 
  178.2500   -22.2640     2.1880    61.2260   144.0110   132.8000   135.1700    24.2480 
  178.3750   -22.4500     2.1920    62.2830   148.7300   138.2460   145.8700    24.2650 
  178.5000   -22.6470     2.2010    61.9150   148.5680   139.2330   145.6850    24.2880 
  178.6250   -22.8040     2.2120    61.5960   144.5910   136.3280   133.8350    24.3070 
  178.7500   -22.9000     2.2190    62.6810   139.6710   131.7980   118.0250    24.3140 
  178.8750   -22.9010     2.2240    64.5160   137.0790   128.6390   107.0240    24.3150 
  179.0000   -22.8520     2.2250    65.6150   138.3330   128.6740   105.5640    24.3180 
  179.1250   -22.7520     2.2190    65.5920   142.8680   131.7550   112.5200    24.3270 
  179.2500   -22.6160     2.2070    64.6640   148.3750   135.9800   123.6390    24.3520 
  179.3750   -22.4950     2.1970    63.8030   151.8420   138.6200   133.5090    24.3980 
  179.5000   -22.3160     2.1960    64.2290   151.3960   137.8830   136.6490    24.4500 
  179.6250   -22.1230     2.2030    65.3930   147.0970   133.7380   127.2830    24.4920 
  179.7500   -21.9080     2.2130    65.7940   140.7810   127.7290   107.8240    24.5080 
  179.8750   -21.6310     2.2200    64.9360   134.7920   121.9650    94.1050    24.4950 
  180.0000   -21.3620     2.2250    63.8100   130.1620   117.5650    93.8970    24.4550 
  180.1250   -21.0600     2.2270    63.4380   126.2830   114.1870   100.9670    24.3910 
  180.2500   -20.7620     2.2310    63.8130   121.7980   110.6750   105.1920    24.3300 
  180.3750   -20.4630     2.2370    64.4050   115.7710   106.0010   101.5300    24.2980 
  180.5000   -20.2000     2.2440    64.6290   108.6010   100.1800    93.0530    24.2770 
  180.6250   -19.9840     2.2480    64.3440   101.4730    94.0460    83.8740    24.2590 
  180.7500   -19.7800     2.2440    64.2030    95.7700    88.8320    76.8120    24.2480 
  180.8750   -19.6300     2.2370    64.8220    92.0180    85.2360    72.8910    24.2440 
  181.0000   -19.4830     2.2320    65.9150    89.3390    82.7520    72.1310    24.2460 
  181.1250   -19.4180     2.2300    66.8620    86.3600    80.2370    73.5980    24.2580 
  181.2500   -19.3950     2.2350    67.0350    81.6220    76.2290    74.2790    24.2880 
  181.3750   -19.3450     2.2460    66.1620    74.7550    70.0840    71.7650    24.3530 
  181.5000   -19.2650     2.2660    64.9400    67.1570    62.8070    67.1080    24.5130 
  181.6250   -19.1240     2.2900    64.1340    60.7630    56.0760    60.2500    24.7990 
