~V
VERS. 2.00: Ver 2.00
~W
STRT.M 56.0000:
STOP.M 284.0000:
STEP.M 0.1250:
NULL. -999.2500:
UWI. F10233:
~C
DEPT.M :
GR.API :
RML.OHMM :
RI. :
RXO.OHMM :
CALI.CM :
DEN.GM/CC :
SP.MV :
~A
# ...
  258.5000    65.1450    10.3890     8.8060    11.8790    24.2910     2.4270    -8.5160 
  258.6250    68.3000    10.0780     8.5110    11.4920    24.1940     2.4570    -8.6250 
  258.7500    68.9770     9.9100     8.3100    11.3970    24.0550     2.4720    -8.6720 
  258.8750    67.6210     9.9150     8.2450    11.6760    23.9620     2.4670    -8.6550 
  259.0000    66.8510    10.1030     8.3500    12.0510    23.9920     2.4560    -8.5840 
  259.1250    66.2740    10.4770     8.6560    11.4750    24.1660     2.4530    -8.5170 
  259.2500    65.0450    10.9390     9.0850    11.1710    24.3030     2.4500    -8.4800 
  259.3750    64.6460    11.3980     9.5520    10.9850    24.3570     2.4350    -8.4800 
  259.5000    64.9390    11.7590     9.9530    10.9850    24.3350     2.4000    -8.5230 
  259.6250    65.7140    11.9000    10.1630    10.6300    24.2450     2.3620    -8.6440 
  259.7500    66.2570    11.8120    10.1690    10.0980    24.1450     2.3470    -8.8070 
  259.8750    66.1350    11.5370     9.9970    10.0480    24.0760     2.3660    -8.9790 
  260.0000    65.6540    11.1780     9.7250    10.1580    23.9370     2.4100    -9.1340 
  260.1250    66.9870    10.8580     9.4460    11.0410    23.6290     2.4550    -9.2280 
  260.2500    69.6440    10.6400     9.2300    12.3100    23.2810     2.4870    -9.2680 
  260.3750    70.0110    10.5350     9.1000    12.7260    23.1260     2.5060    -9.2480 
  260.5000    67.3950    10.5350     9.0620    11.2690    23.0990     2.5200    -9.1770 
  260.6250    66.9860    10.6340     9.1270    10.5430    23.0970     2.5290    -9.0350 
  260.7500    69.7270    10.8030     9.2670    10.2930    23.0940     2.5340    -8.8530 
  260.8750    71.0440    11.0220     9.4620    10.3940    23.0930     2.5380    -8.6760 
  261.0000    69.4630    11.2570     9.6820    11.2020    23.0960     2.5410    -8.5420 
  261.1250    68.4480    11.4680     9.8890    11.8220    23.0920     2.5340    -8.4840 
  261.2500    68.3810    11.6360    10.0560    12.3670    23.0700     2.5090    -8.4570 
  261.3750    66.6300    11.7550    10.1770    12.4850    23.0280     2.4670    -8.4480 
  261.5000    64.3780    11.8210    10.2550    12.5660    23.0410     2.4190    -8.4510 
  261.6250    64.9150    11.8290    10.2970    11.4630    23.2910     2.3980    -8.4890 
  261.7500    67.9490    11.8060    10.3260    10.8790    23.7230     2.4170    -8.5300 
  261.8750    70.9320    11.7800    10.3600    10.5900    24.1020     2.4640    -8.5400 
  262.0000    71.5710    11.7770    10.4150    10.4410    24.1890     2.5100    -8.5000 
  262.1250    70.4170    11.8270    10.5070    10.4680    24.0430     2.5250    -8.4110 
  262.2500    69.7210    11.9400    10.6430    11.6230    23.9740     2.5190    -8.3200 
  262.3750    70.0590    12.1150    10.8220    15.1850    24.0340     2.5090    -8.2420 
  262.5000    69.3270    12.3340    11.0310    20.3640    24.1070     2.5060    -8.1890 
  262.6250    66.9600    12.5500    11.2390    26.1930    24.0910     2.5050    -8.1540 
  262.7500    64.9990    12.7000    11.3990    30.8400    24.0250     2.4890    -8.1130 
  262.8750    64.9900    12.7300    11.4700    31.5350    24.0020     2.4600    -8.0850 
  263.0000    66.1450    12.6160    11.4340    25.6670    23.9650     2.4340    -8.0920 
  263.1250    66.8850    12.3700    11.2890    19.7600    23.8880     2.4280    -8.1340 
  263.2500    66.1930    12.0960    11.1070    16.7350    23.7420     2.4310    -8.1710 
  263.3750    64.9410    11.8840    10.9600    14.6410    23.6450     2.4320    -8.2030 
  263.5000    65.0420    11.7940    10.9070    12.9120    23.7570     2.4310    -8.2320 
  263.6250    66.6200    11.8500    10.9840    11.8390    23.9940     2.4340    -8.2670 
  263.7500    67.8140    11.9730    11.1330    12.0230    24.1520     2.4340    -8.3450 
  263.8750    67.7290    12.0900    11.2900    13.9550    24.1940     2.4260    -8.4410 
  264.0000    67.3470    12.1340    11.3980    16.7360    24.2940     2.4240    -8.5250 
  264.1250    67.6000    12.0640    11.4190    18.1780    24.4370     2.4400    -8.5830 
  264.2500    67.1700    11.9210    11.3780    18.5030    24.4210     2.4630    -8.6480 
  264.3750    66.3380    11.7440    11.2890    17.6450    24.3220     2.4780    -8.7160 
  264.5000    66.6610    11.5530    11.1500    18.0250    24.2880     2.4830    -8.7760 
  264.6250    67.5360    11.3500    10.9490    19.6670    24.3680     2.4840    -8.8160 
  264.7500    67.5820    11.1330    10.7080    19.2570    24.4370     2.4830    -8.8400 
  264.8750    67.3660    10.9170    10.4630    14.6980    24.4390     2.4770    -8.8550 
  265.0000    67.1980    10.7430    10.2620    12.7400    24.4560     2.4660    -8.8680 
  265.1250    65.5810    10.6790    10.1600    14.0890    24.5320     2.4520    -8.8710 
  265.2500    63.4400    10.7200    10.1590    17.3430    24.5190     2.4310    -8.8650 
  265.3750    63.0010    10.8170    10.2310    20.6700    24.3440     2.4030    -8.8500 
  265.5000    65.5060    10.8910    10.3190    22.7790    24.1270     2.3770    -8.8190 
  265.6250    68.1960    10.8570    10.3420    21.1140    23.9530     2.3660    -8.7610 
  265.7500    68.1340    10.7330    10.2880    18.6650    23.8300     2.3760    -8.6970 
  265.8750    64.8460    10.5960    10.2020    16.3770    23.9250     2.4060    -8.6290 
  266.0000    61.0800    10.5550    10.1680    14.1450    24.2960     2.4460    -8.5510 
  266.1250    60.1360    10.7180    10.2950    13.2460    24.4890     2.4700    -8.4720 
  266.2500    61.0320    11.0360    10.5730    12.6870    24.4640     2.4640    -8.3950 
  266.3750    63.0700    11.4070    10.9340    12.7820    24.4280     2.4430    -8.3280 
  266.5000    66.9580    11.7020    11.2640    14.1480    24.5190     2.4320    -8.2950 
  266.6250    71.5180    11.8000    11.4320    14.0900    24.6130     2.4450    -8.3150 
  266.7500    72.5600    11.7440    11.4390    12.2350    24.5960     2.4610    -8.3350 
  266.8750    69.5810    11.6160    11.3450    10.7260    24.5220     2.4590    -8.3640 
  267.0000    66.5940    11.5140    11.2450    11.7300    24.4940     2.4400    -8.4050 
  267.1250    67.5130    11.5210    11.2350    12.2890    24.6070     2.4280    -8.4570 
  267.2500    68.7670    11.6440    11.3390    11.6100    24.6320     2.4440    -8.5120 
  267.3750    67.8830    11.8860    11.5630    10.9900    24.5400     2.4830    -8.5580 
  267.5000    66.1580    12.2460    10.7120    12.0790    24.3320     2.5260    -8.5760 
  267.6250    67.0510    12.7390    11.1270    14.3000    24.1350     2.5480    -8.5580 
  267.7500    69.1970    13.3140    11.6200    16.5970    24.0660     2.5450    -8.5400 
  267.8750    69.7950    13.8990    12.1520    19.0190    24.0900     2.5260    -8.5260 
  268.0000    67.9840    14.3780    12.6400    21.6200    24.1760     2.5030    -8.5210 
  268.1250    67.6300    14.5680    12.9260    21.4480    24.2390     2.4910    -8.5200 
  268.2500    69.6300    14.4620    12.9590    20.7830    24.2660     2.4930    -8.5400 
  268.3750    70.9350    14.1470    12.7750    18.6770    24.2330     2.5020    -8.6100 
  268.5000    70.4440    13.7810    12.4960    15.8030    24.1710     2.5080    -8.7230 
  268.6250    69.3700    13.5560    12.2890    13.5770    24.1550     2.5050    -8.8590 
  268.7500    69.6950    13.5460    12.2500    12.9980    24.1900     2.4940    -9.0010 
  268.8750    70.0550    13.7450    12.3970    13.9550    24.2170     2.4870    -9.1380 
  269.0000    69.9500    14.0850    12.6900    15.4580    24.2300     2.4920    -9.2730 
  269.1250    69.9950    14.4600    13.0530    16.7270    24.1880     2.4990    -9.4010 
  269.2500    69.9380    14.7750    13.3960    17.6720    24.0970     2.4810    -9.5290 
  269.3750    70.0360    15.0030    13.6840    18.1940    23.9760     2.4360    -9.6160 
  269.5000    69.2730    15.1620    13.9150    17.7790    23.9210     2.3900    -9.6450 
  269.6250    68.6780    15.2500    14.0710    16.7940    23.9900     2.3700    -9.6130 
