~V
VERS. 2.00: Ver 2.00
~W
STRT.M 52.0000:
STOP.M 254.0000:
STEP.M 0.1250:
NULL. -999.2500:
UWI. F10213:
~C
DEPT.M :
DEN.GM/CC :
GR.API :
RML.OHMM :
RI. :
RXO.OHMM :
CALI.CM :
SP.MV :
~A
# ...
   63.2500     2.1740    66.7210     7.0690     7.9300    10.0070    23.9770   -41.9250 
   63.3750     2.1560    66.0110     6.9690     7.4700    10.0760    23.7920   -42.9260 
   63.5000     2.1560    65.1480     7.1370     7.4230    10.4050    23.7750   -43.4870 
   63.6250     2.1590    64.4700     7.3470     7.5610    10.7430    23.8290   -43.6030 
   63.7500     2.1600    65.8520     7.4670     7.6790    10.8460    23.8840   -43.4170 
   63.8750     2.1650    70.3640     7.4920     7.7150    10.4760    23.9200   -43.0940 
   64.0000     2.1790    76.4450     7.4640     7.6730     9.6320    23.9220   -42.7120 
   64.1250     2.1950    79.7350     7.4180     7.5720     9.2170    23.9250   -42.3460 
   64.2500     2.1980    77.2870     7.3810     7.4510     9.5120    23.9760   -42.0380 
   64.3750     2.1870    72.7790     7.3710     7.3370     9.4150    24.0120   -41.8210 
   64.5000     2.1740    72.5190     7.4070     7.2590     8.9020    24.0460   -41.7170 
   64.6250     2.1710    74.9700     7.5090     7.2470     8.5000    24.0180   -41.7620 
   64.7500     2.1730    74.2310     7.6650     7.2970     8.6360    23.9750   -41.9040 
   64.8750     2.1730    70.3590     7.8530     7.3920     9.2130    24.0340   -42.0590 
   65.0000     2.1690    66.8360     8.0380     7.5030     9.6800    24.0980   -42.2000 
   65.1250     2.1620    64.4850     8.1700     7.5790     9.7960    23.9590   -42.3510 
   65.2500     2.1590    64.8370     8.2320     7.5940     9.7720    23.6640   -42.5380 
   65.3750     2.1600    69.4490     8.2290     7.5510     9.8610    23.3820   -42.7580 
   65.5000     2.1650    74.0130     8.1940     7.4850     9.7300    23.0820   -42.9810 
   65.6250     2.1720    73.7610     8.2000     7.4680     9.4890    22.7560   -43.1910 
   65.7500     2.1810    71.2630     8.3170     7.5620     9.0110    22.3610   -43.3900 
   65.8750     2.1910    69.4080     8.5960     7.8010     8.9680    22.0730   -43.5740 
   66.0000     2.2000    68.6030     9.0370     8.1850     9.5340    21.9410   -43.6830 
   66.1250     2.2030    66.6610     9.5290     8.6310    10.2730    21.9280   -43.6460 
   66.2500     2.2020    64.2260     9.8140     8.9280    10.6130    22.0700   -43.3870 
   66.3750     2.2000    63.0460     9.6520     8.8630    10.4290    22.3850   -42.8940 
   66.5000     2.2030    64.5780     8.9680     8.3310     9.9660    22.6440   -42.1870 
   66.6250     2.2140    71.6510     7.9190     7.4130     9.0250    22.6730   -41.3730 
   66.7500     2.2310    84.0460     6.8980     6.4480     7.5440    22.5860   -40.6130 
   66.8750     2.2480    97.0300     6.1310     5.6480     6.3080    22.5140   -40.0270 
   67.0000     2.2520   102.7700     5.7540     5.1390     5.8340    22.5210   -39.6850 
   67.1250     2.2450    96.0690     5.9070     5.0470     6.2090    22.5880   -39.7280 
   67.2500     2.2450    88.2880     6.5080     5.3270     6.7030    22.6830   -40.1760 
   67.3750     2.2530    86.4790     7.4790     5.9460     6.7720    22.8210   -41.0600 
   67.5000     2.2570    87.0070     8.6450     6.8070     7.1160    22.9990   -42.3400 
   67.6250     2.2600    82.4510     9.6530     7.6820     8.4510    23.1460   -43.8610 
   67.7500     2.2660    73.8740    10.2030     8.2800    10.0180    23.1880   -45.3800 
   67.8750     2.2600    67.9520    10.2170     8.4570    10.7750    23.2930   -46.7100 
   68.0000     2.2240    67.9210     9.8650     8.2630    10.7820    23.4100   -47.8330 
   68.1250     2.1750    70.0540     9.4190     7.8660    10.3630    23.3470   -48.6740 
   68.2500     2.1460    69.7790     9.0770     7.4770     9.8430    23.1460   -49.2860 
   68.3750     2.1380    67.0930     8.8670     7.1790     9.5700    22.9700   -49.6370 
   68.5000     2.1360    64.6150     8.7560     6.9870     9.5220    22.9650   -49.7560 
   68.6250     2.1280    64.9920     8.7820     6.9230     9.5700    23.1450   -49.6960 
   68.7500     2.1200    67.5640     9.0540     7.0280     9.7870    23.4400   -49.5480 
   68.8750     2.1140    69.5020     9.6840     7.3750    10.2130    23.8720   -49.4090 
   69.0000     2.1140    67.1360    10.6570     7.9900    10.9470    24.3150   -49.2610 
   69.1250     2.1450    63.3430    11.7600     8.7970    11.1540    24.3250   -49.0800 
   69.2500     2.2270    63.0270    12.5640     9.5120    10.4190    24.1520   -48.8590 
   69.3750     2.3550    64.9990    12.7070     9.8340     9.3590    24.1840   -48.6140 
   69.5000     2.4720    66.6060    12.0770     9.5810     9.2290    24.3780   -48.3640 
   69.6250     2.4710    67.0730    10.9460     8.8370    10.5540    24.4690   -48.1000 
   69.7500     2.3890    66.5820     9.9190     8.0270    12.1900    24.3660   -47.8730 
   69.8750     2.3080    65.9980     9.2970     7.3980    13.2790    24.1850   -47.6500 
   70.0000     2.2590    66.2720     9.1340     7.0540    13.8350    24.0860   -47.4550 
   70.1250     2.2370    67.3530     9.3190     7.0140    13.7870    24.0800   -47.3170 
   70.2500     2.2280    68.4270     9.5590     7.1180    13.6940    24.1180   -47.2500 
   70.3750     2.2250    70.2900     9.6940     7.2430    13.6440    24.2600   -47.1970 
   70.5000     2.2160    72.3050     9.6770     7.3040    13.3210    24.5720   -47.1860 
   70.6250     2.2000    70.7720     9.5560     7.2780    12.4920    24.9850   -47.2400 
   70.7500     2.1800    69.4610     9.4240     7.2120    11.6760    25.2690   -47.2720 
   70.8750     2.1580    71.2340     9.3250     7.1430    11.2450    25.2510   -47.3490 
   71.0000     2.1400    73.4940     9.2770     7.1000    10.9000    24.9160   -47.4790 
   71.1250     2.1370    73.3060     9.2760     7.0980    10.3230    24.4620   -47.6350 
   71.2500     2.1530    73.2130     9.2920     7.1180    10.1500    24.2250   -47.8270 
   71.3750     2.1760    73.1300     9.3070     7.1440    10.4800    24.1740   -48.0650 
   71.5000     2.1910    70.9480     9.3190     7.1650    10.9590    24.2030   -48.2850 
   71.6250     2.1940    67.6910     9.3300     7.1800    11.2130    24.2260   -48.4530 
   71.7500     2.1920    66.5890     9.3400     7.1940    11.2890    24.2250   -48.6200 
   71.8750     2.1880    65.8630     9.3490     7.2070    11.4600    24.2180   -48.7330 
   72.0000     2.1820    62.9000     9.3600     7.2180    11.6130    24.2180   -48.7850 
   72.1250     2.1770    61.3110     9.3780     7.2240    11.7150    24.2320   -48.8050 
   72.2500     2.1730    62.5540     9.3990     7.2260    11.8550    24.2450   -48.7330 
   72.3750     2.1700    64.6340     9.4030     7.2130    12.0240    24.2190   -48.6250 
   72.5000     2.1710    65.1340     9.3590     7.1680    11.8830    24.1340   -48.4740 
   72.6250     2.1760    65.3000     9.2400     7.0740    11.4980    24.0240   -48.3200 
   72.7500     2.1800    64.9640     9.0780     6.9510    11.1970    23.8990   -48.1930 
   72.8750     2.1810    64.2170     8.9270     6.8290    10.8970    23.6940   -48.1400 
   73.0000     2.1760    64.5210     8.8470     6.7460    10.7830    23.4290   -48.2180 
   73.1250     2.1660    66.7120     8.8960     6.7440    11.0350    23.5160   -48.3990 
   73.2500     2.1490    69.1030     9.0290     6.8070    12.0880    24.3610   -48.6390 
   73.3750     2.1210    70.4430     9.1740     6.9000    12.7860    25.7080   -48.9100 
   73.5000     2.0860    70.4980     9.2550     6.9780    13.2880    26.6170   -49.2370 
   73.6250     2.0590    68.2620     9.2070     6.9960    13.7510    26.3820   -49.6210 
   73.7500     2.0570    65.2430     9.0720     6.9560    13.8820    25.2220   -50.0790 
   73.8750     2.0860    65.6640     8.9280     6.8880    13.9240    23.7850   -50.5920 
   74.0000     2.1350    69.9340     8.8530     6.8350    14.2110    22.9030   -51.0680 
   74.1250     2.1740    71.6970     8.8920     6.8310    14.3980    22.9640   -51.5180 
   74.2500     2.1820    68.2970     8.9830     6.8610    14.3910    23.8430   -52.0020 
   74.3750     2.1670    64.2170     9.0640     6.8990    14.3040    25.1640   -52.4670 
