~V
VERS. 2.00: Ver 2.00
~W
STRT.M 60.0000:
STOP.M 276.0000:
STEP.M 0.1250:
NULL. -999.2500:
UWI. F10216:
~C
DEPT.M :
DEN.GM/CC :
GR.API :
RML.OHMM :
RI. :
RXO.OHMM :
CALI.CM :
SP.MV :
~A
# ...
  172.5000     2.2310    56.2700   118.9250   105.7930   191.2890    24.5470   -15.7660 
  172.6250     2.2460    56.6940   109.5250    96.7790   190.6890    24.5610   -15.6740 
  172.7500     2.2590    58.0340   105.4020    92.1540   161.3310    24.6580   -15.5900 
  172.8750     2.2630    61.3860   106.1350    91.7450   118.0100    24.6860   -15.5210 
  173.0000     2.2590    64.3460   110.9120    94.9810   102.5000    24.6310   -15.4210 
  173.1250     2.2480    63.8350   118.9500   101.3610   121.1920    24.5660   -15.3740 
  173.2500     2.2390    63.1820   128.1450   109.1520   132.6810    24.5160   -15.3090 
  173.3750     2.2340    64.4400   136.8630   116.9840   133.2850    24.5710   -15.2630 
  173.5000     2.2320    65.8520   143.7610   123.5790   120.5820    24.6400   -15.2280 
  173.6250     2.2260    64.2440   147.8880   127.8240   115.6480    24.6950   -15.1790 
  173.7500     2.2200    62.0080   150.1150   130.1900   117.1240    24.7110   -15.1320 
  173.8750     2.2160    62.5830   151.2030   131.2750   120.0390    24.7190   -15.0810 
  174.0000     2.2180    65.2400   151.3620   131.4350   113.6950    24.7130   -15.0360 
  174.1250     2.2230    65.2510   148.9830   129.6850   105.0090    24.6780   -14.9820 
  174.2500     2.2280    62.8630   142.1700   124.5560    99.3450    24.6350   -14.9120 
  174.3750     2.2350    60.6240   129.8260   114.8750    98.8920    24.5550   -14.8290 
  174.5000     2.2500    60.6380   113.3110   101.3140   109.8540    24.4170   -14.7210 
  174.6250     2.2750    62.3130    96.4600    86.7490   107.6460    24.2850   -14.6340 
  174.7500     2.2990    63.0640    82.8560    74.5320    82.2710    24.3530   -14.5370 
  174.8750     2.3140    65.0970    73.8350    66.1510    65.4020    24.5350   -14.4350 
  175.0000     2.3130    68.1630    69.3220    61.8030    61.3380    24.6590   -14.3700 
  175.1250     2.2960    69.0890    68.8400    61.3060    69.4580    24.6820   -14.2700 
  175.2500     2.2750    66.7530    70.3240    62.9340    70.2220    24.6470   -14.2010 
  175.3750     2.2560    63.3960    72.4600    65.5590    66.5060    24.6420   -14.1270 
  175.5000     2.2440    62.7770    74.3080    68.2380    62.9290    24.6470   -14.0680 
  175.6250     2.2430    64.7570    75.6570    70.4990    62.3630    24.6840   -14.0230 
  175.7500     2.2470    66.4920    77.2830    72.8150    62.0030    24.6640   -13.9530 
  175.8750     2.2520    67.1880    79.6230    75.7040    60.6140    24.6000   -13.9070 
  176.0000     2.2500    65.5120    81.7980    78.7110    61.2920    24.5350   -13.8270 
  176.1250     2.2430    63.2880    80.4270    78.8990    67.7990    24.5210   -13.7720 
  176.2500     2.2390    63.0520    73.5530    73.8590    75.1690    24.5220   -13.7270 
  176.3750     2.2480    63.9750    62.1230    63.8720    82.9290    24.5110   -13.6870 
  176.5000     2.2680    65.2120    49.5840    52.0140    72.8240    24.5000   -13.6590 
  176.6250     2.2880    69.2800    39.8670    42.1940    44.8370    24.4460   -13.6120 
  176.7500     2.2970    74.5590    33.8590    35.6940    27.2060    24.4040   -13.5930 
  176.8750     2.2950    75.3040    31.1730    32.3700    26.2900    24.3510   -13.5870 
  177.0000     2.2880    69.8320    30.9370    31.5260    34.6290    24.3070   -13.5940 
  177.1250     2.2830    64.5640    32.4000    32.5940    37.8790    24.2590   -13.6360 
  177.2500     2.2780    64.6980    34.3800    34.4520    32.6250    24.2460   -13.6900 
  177.3750     2.2730    68.6710    36.1410    36.2890    34.8420    24.2330   -13.7630 
  177.5000     2.2670    73.3470    37.3140    37.5080    42.9600    24.2330   -13.8350 
  177.6250     2.2670    75.2370    38.3210    38.2290    47.1290    24.2360   -13.9380 
  177.7500     2.2730    74.0510    40.2810    39.4490    46.4660    24.2550   -14.0680 
  177.8750     2.2780    73.3370    44.4530    42.2260    47.3510    24.2470   -14.1850 
  178.0000     2.2780    72.9550    52.4510    47.9420    43.4030    24.2280   -14.3320 
  178.1250     2.2670    68.2280    67.4300    59.5060    58.4390    24.2380   -14.4460 
  178.2500     2.2500    61.5950    90.2870    78.0590    90.9960    24.2780   -14.5600 
  178.3750     2.2330    57.5290   121.4750   104.0660   129.4610    24.3660   -14.6730 
  178.5000     2.2200    57.1770   158.8630   135.3630   148.9750    24.4750   -14.7750 
  178.6250     2.2120    55.9660   195.7870   165.7190   149.1850    24.5760   -14.8880 
  178.7500     2.2090    53.4920   225.1810   189.2340   157.5180    24.5700   -14.9530 
  178.8750     2.2080    52.5040   245.8760   205.1010   171.1550    24.5020   -15.0180 
  179.0000     2.2040    53.4870   261.1790   216.1700   176.6760    24.4540   -15.0640 
  179.1250     2.1940    54.4060   272.5180   224.3810   184.8880    24.4570   -15.0800 
  179.2500     2.1820    53.6570   276.8450   228.4770   209.3950    24.4640   -15.0870 
  179.3750     2.1710    53.1520   267.8130   223.9600   252.4490    24.4470   -15.0850 
  179.5000     2.1650    54.8090   241.9610   207.1330   297.4850    24.4470   -15.0610 
  179.6250     2.1650    57.5420   203.7800   178.8470   301.8920    24.4470   -15.0240 
  179.7500     2.1660    59.1040   166.7540   148.9590   250.2550    24.4510   -14.9770 
  179.8750     2.1660    58.9270   137.9540   124.1100   155.3780    24.4120   -14.9300 
  180.0000     2.1670    58.4550   119.4920   107.3460    90.0990    24.3790   -14.8750 
  180.1250     2.1720    58.0510   111.5480    99.7130    87.3800    24.3290   -14.8340 
  180.2500     2.1830    57.5750   110.0090    98.0170   100.0740    24.2780   -14.7910 
  180.3750     2.1960    56.3360   111.9750   100.0090   113.7880    24.2160   -14.7380 
  180.5000     2.2090    55.5420   113.6300   102.5520   117.3570    24.1740   -14.7130 
  180.6250     2.2210    57.8710   109.6840   100.7260   113.1220    24.1930   -14.6600 
  180.7500     2.2360    60.6600    99.6020    93.0460   114.4710    24.2660   -14.6410 
  180.8750     2.2530    61.8560    86.5090    81.6250   115.0860    24.3200   -14.6080 
  181.0000     2.2630    61.5160    75.0370    70.5240    85.2780    24.3300   -14.5750 
  181.1250     2.2570    61.5440    70.0240    64.1860    49.1910    24.3170   -14.5610 
  181.2500     2.2360    61.7640    72.5960    63.9800    38.1710    24.3360   -14.5180 
  181.3750     2.2090    60.6380    83.6770    70.9020    54.1800    24.3750   -14.4950 
  181.5000     2.1870    59.3310   103.8180    85.6390   103.6290    24.4360   -14.4440 
  181.6250     2.1800    60.0460   133.5510   108.8760   147.9200    24.5130   -14.4170 
  181.7500     2.1840    60.5900   166.9860   135.6190   171.2500    24.5740   -14.3810 
  181.8750     2.1920    59.3410   196.3070   159.3510   182.8280    24.5780   -14.3270 
  182.0000     2.1990    55.5080   214.5500   174.2080   188.9990    24.5790   -14.2880 
  182.1250     2.2030    51.9800   220.1940   178.2450   175.8350    24.5960   -14.2320 
  182.2500     2.2060    52.7800   220.9570   177.3230   167.9980    24.6560   -14.1950 
  182.3750     2.2080    56.5230   220.9560   174.9920   171.3250    24.7020   -14.1480 
  182.5000     2.2080    60.2550   221.6130   172.9150   172.9140    24.7210   -14.0950 
  182.6250     2.2160    60.4530   222.6140   171.4430   172.2550    24.7030   -14.0440 
  182.7500     2.2440    59.9220   223.0230   170.2210   172.8270    24.6540   -13.9750 
  182.8750     2.2890    60.7280   222.3030   169.0100   178.2850    24.5630   -13.9370 
  183.0000     2.3290    61.9250   220.4410   167.8120   178.5860    24.4430   -13.8540 
  183.1250     2.3310    61.8610   217.4400   166.8090   178.7460    24.3620   -13.7680 
  183.2500     2.2970    59.6050   212.4560   165.3820   200.3640    24.3290   -13.6810 
  183.3750     2.2430    57.3700   202.8220   161.5740   203.9110    24.3370   -13.5950 
  183.5000     2.1970    57.9070   185.5260   152.6070   175.9110    24.4200   -13.5090 
  183.6250     2.1820    60.9400   159.1800   135.8460   154.0750    24.5150   -13.3810 
