~V
VERS. 2.00: Ver 2.00
~W
STRT.M 53.0000:
STOP.M 276.0000:
STEP.M 0.1250:
NULL. -999.2500:
UWI. F10245:
~C
DEPT.M :
GR.API :
RML.OHMM :
RI. :
RXO.OHMM :
CALI.CM :
DEN.GM/CC :
SP.MV :
~A
# ...
  255.5000    69.2760    13.1110    12.5970    16.0830    23.6130     2.4470    -2.3310 
  255.6250    67.8310    13.1510    12.6730    16.6970    23.6420     2.4410    -2.3130 
  255.7500    64.1810    13.1170    12.6680    15.1840    23.6550     2.4360    -2.3230 
  255.8750    60.3660    13.0290    12.5960    13.4270    23.6810     2.4350    -2.3370 
  256.0000    58.3370    12.9040    12.4750    12.6640    23.7460     2.4370    -2.3510 
  256.1250    60.2490    12.7500    12.3170    12.5690    23.8700     2.4410    -2.4190 
  256.2500    64.5240    12.5850    12.1400    12.3450    23.9250     2.4450    -2.5540 
  256.3750    67.2910    12.4310    11.9660    12.2120    23.9400     2.4480    -2.6890 
  256.5000    67.0330    12.3160    11.8230    12.1720    23.9520     2.4520    -2.7990 
  256.6250    66.3920    12.2810    11.7500    12.8460    23.9970     2.4530    -2.8490 
  256.7500    65.5510    12.3260    11.7540    13.4490    24.0860     2.4510    -2.8830 
  256.8750    62.8330    12.4430    11.8310    13.5770    24.1990     2.4450    -2.9440 
  257.0000    59.5250    12.6190    11.9710    13.5810    24.2700     2.4360    -3.0460 
  257.1250    60.4070    12.8570    12.1760    13.9930    24.2870     2.4250    -3.1120 
  257.2500    64.2580    13.1600    12.4450    14.2970    24.2630     2.4150    -3.1660 
  257.3750    67.0770    13.5490    12.7980    14.0950    24.2030     2.4100    -3.2150 
  257.5000    66.8030    14.0350    13.2480    14.2240    24.1490     2.4160    -3.2620 
  257.6250    64.0750    14.6160    13.8070    15.1370    24.1090     2.4330    -3.2740 
  257.7500    61.1060    15.2360    14.4250    16.3060    24.0900     2.4510    -3.2380 
  257.8750    58.8210    15.8480    15.0580    17.2950    24.0800     2.4610    -3.1790 
  258.0000    59.0710    16.4120    15.6590    17.0170    24.0740     2.4630    -3.1170 
  258.1250    61.2550    16.8980    16.1800    15.9870    24.0670     2.4620    -3.0340 
  258.2500    62.1870    17.3030    16.6100    15.3110    24.0450     2.4710    -2.9320 
  258.3750    61.1140    17.5980    16.9190    15.2190    23.9950     2.4930    -2.8350 
  258.5000    59.9940    17.7200    17.0530    15.5120    23.9530     2.5220    -2.7290 
  258.6250    62.3590    17.5350    16.8920    15.9050    23.9290     2.5410    -2.6580 
  258.7500    64.1300    17.0500    16.4410    15.7370    23.9070     2.5430    -2.6720 
  258.8750    63.6480    16.3340    15.7560    15.3620    23.8940     2.5250    -2.7230 
  259.0000    63.0420    15.5540    14.9810    15.0750    23.9160     2.4960    -2.7440 
  259.1250    63.0540    14.9840    14.3640    15.4030    23.9640     2.4670    -2.7500 
  259.2500    63.2550    14.7910    14.0750    16.5780    23.9300     2.4500    -2.7540 
  259.3750    64.9460    15.0280    14.1840    18.5880    23.8250     2.4470    -2.7530 
  259.5000    70.7440    15.6280    14.6620    21.0450    23.7490     2.4550    -2.7830 
  259.6250    75.1940    16.4350    15.4090    21.7040    23.7280     2.4680    -2.8440 
  259.7500    74.2940    17.1900    16.1820    22.3490    23.7280     2.4810    -2.8140 
  259.8750    69.8000    17.7180    16.8000    24.6370    23.7280     2.4910    -2.7340 
  260.0000    65.2440    17.9340    17.1450    27.1740    23.7290     2.4980    -2.7000 
  260.1250    63.6470    17.8380    17.1680    28.8670    23.7530     2.5000    -2.7170 
  260.2500    65.2780    17.6070    17.0190    29.4220    23.8150     2.5010    -2.7280 
  260.3750    68.0900    17.3720    16.8190    28.1450    23.8910     2.5030    -2.7710 
  260.5000    68.2890    17.2230    16.6640    22.4230    23.9320     2.5080    -2.7870 
  260.6250    66.5690    17.2080    16.6170    19.3350    23.9390     2.5100    -2.7880 
  260.7500    64.8450    17.2750    16.6550    18.8680    23.9390     2.5030    -2.8340 
  260.8750    62.4930    17.3720    16.7390    20.0700    23.9480     2.4870    -2.8990 
  261.0000    59.6500    17.4460    16.8250    21.8270    23.9760     2.4650    -2.9730 
  261.1250    58.8510    17.4430    16.8570    23.7320    24.0340     2.4430    -2.9870 
  261.2500    59.8180    17.3510    16.8060    22.1630    24.0510     2.4200    -3.0320 
  261.3750    61.3100    17.1730    16.6660    18.4380    24.0120     2.3980    -3.0680 
  261.5000    63.0920    16.9310    16.4510    16.8140    23.9110     2.3840    -3.1340 
  261.6250    65.5240    16.6620    16.1860    16.0150    23.8460     2.3890    -3.1620 
  261.7500    66.6550    16.4130    15.9220    15.0930    23.8080     2.4120    -3.1930 
  261.8750    66.4830    16.2170    15.6940    14.2240    23.7670     2.4460    -3.2290 
  262.0000    66.1570    16.0820    15.5160    14.2800    23.7540     2.4780    -3.2520 
  262.1250    65.9790    16.0010    15.3930    15.2110    23.8220     2.4930    -3.3260 
  262.2500    65.6810    15.9410    15.2990    15.9940    23.8560     2.4960    -3.3810 
  262.3750    65.5230    15.8940    15.2240    16.6060    23.8660     2.4950    -3.4000 
  262.5000    65.7020    15.8770    15.1820    17.1030    23.8680     2.4950    -3.3700 
  262.6250    65.4090    15.9570    15.2260    16.9770    23.8750     2.4910    -3.3450 
  262.7500    65.2660    16.1770    15.4000    16.3900    23.8980     2.4830    -3.3110 
  262.8750    65.9600    16.5600    15.7300    16.2550    23.9480     2.4720    -3.2530 
  263.0000    66.2410    17.0800    16.2060    17.5740    24.0060     2.4640    -3.1650 
  263.1250    64.3210    17.6630    16.7770    20.6030    24.0510     2.4630    -3.0410 
  263.2500    62.5680    18.1800    17.3210    23.9510    24.0670     2.4660    -2.9220 
  263.3750    63.6940    18.5260    17.7340    25.0420    24.0730     2.4660    -2.8130 
  263.5000    67.0180    18.6320    17.9300    25.2260    24.0880     2.4590    -2.7220 
  263.6250    68.9670    18.4510    17.8350    26.8920    24.1320     2.4460    -2.6600 
  263.7500    67.7540    18.0800    17.5260    30.4940    24.1870     2.4380    -2.6130 
  263.8750    64.7610    17.5970    17.0730    31.7850    24.2330     2.4410    -2.5940 
  264.0000    63.8690    17.0800    16.5570    25.6990    24.2670     2.4520    -2.5720 
  264.1250    65.3430    16.5950    16.0460    20.8350    24.2880     2.4630    -2.5520 
  264.2500    64.5750    16.1730    15.5840    19.2010    24.3160     2.4610    -2.5120 
  264.3750    61.2110    15.8290    15.1900    19.9830    24.3400     2.4450    -2.4670 
  264.5000    59.0420    15.5710    14.8760    21.7750    24.3480     2.4210    -2.4400 
  264.6250    60.7210    15.4160    14.6700    21.3120    24.3350     2.4060    -2.4370 
  264.7500    62.8850    15.3470    14.5630    19.0970    24.3060     2.4070    -2.4040 
  264.8750    63.2970    15.3630    14.5540    17.1880    24.2610     2.4210    -2.3350 
  265.0000    62.7830    15.4570    14.6400    16.4880    24.1870     2.4390    -2.2900 
  265.1250    63.3150    15.6200    14.8100    16.3350    24.1080     2.4520    -2.2700 
  265.2500    64.9000    15.8080    15.0150    15.9950    24.0410     2.4570    -2.2820 
  265.3750    66.1830    15.9850    15.2180    15.6670    24.0120     2.4580    -2.3070 
  265.5000    64.5180    16.1130    15.3790    15.3510    24.0110     2.4580    -2.3160 
  265.6250    62.1260    16.1330    15.4350    15.8310    24.0270     2.4560    -2.3050 
  265.7500    62.0530    16.0270    15.3630    16.7750    24.0530     2.4560    -2.2990 
  265.8750    62.0530    15.7860    15.1500    16.9410    24.0670     2.4610    -2.3300 
  266.0000    62.0530    15.4290    14.8130    15.3550    24.0700     2.4730    -2.3250 
  266.1250    62.0530    15.0010    14.3910    12.6710    24.0710     2.4920    -2.3210 
  266.2500    62.0530    14.5780    13.9640    10.0540    24.0830     2.5100    -2.2920 
  266.3750    62.0530    14.2020    13.5770     8.5550    24.1190     2.5230    -2.2640 
  266.5000    62.0530    13.8800    13.2450     8.0580    24.1760     2.5280    -2.2230 
  266.6250    62.0530    13.5970    12.9610     8.0940    24.2030     2.5190    -2.1840 
