~V
VERS. 2.00: Ver 2.00
~W
STRT.M 53.0000:
STOP.M 267.0000:
STEP.M 0.1250:
NULL. -999.2500:
UWI. F10211:
~C
DEPT.M :
GR.API :
RML.OHMM :
RI. :
RXO.OHMM :
CALI.CM :
SP.MV :
DEN.GM/CC :
~A
# ...
  109.2500    60.2110     8.9710     7.6890    13.0220    28.3200   -24.0820     2.1270 
  109.3750    59.5040     9.1450     7.8690    13.1940    28.1290   -22.8460     2.1200 
  109.5000    59.5950     9.3040     8.0620    13.2330    28.0300   -21.4040     2.1070 
  109.6250    59.1360     9.3110     8.1410    13.2360    27.9580   -19.7660     2.0870 
  109.7500    58.9170     9.0460     7.9870    12.9100    27.8460   -17.9670     2.0730 
  109.8750    61.4530     8.4710     7.5500    12.1000    27.4830   -16.0580     2.0890 
  110.0000    67.9590     7.6460     6.8650    10.1960    26.7630   -14.1630     2.1520 
  110.1250    76.7470     6.7680     6.1000     7.7430    25.8750   -12.3780     2.2360 
  110.2500    86.5820     5.9940     5.3900     6.0500    25.2550   -10.7640     2.2990 
  110.3750    94.8160     5.4090     4.8170     5.3140    25.0240    -9.3500     2.3210 
  110.5000    98.1260     5.0760     4.4380     4.9610    25.0590    -8.2370     2.3050 
  110.6250    96.8040     4.9750     4.2490     4.6880    25.2090    -7.4500     2.2770 
  110.7500    95.1680     5.0820     4.2410     4.5330    25.3490    -6.9790     2.2570 
  110.8750    95.8580     5.3490     4.3890     4.5730    25.3650    -6.7990     2.2610 
  111.0000    95.5740     5.6880     4.6400     5.0190    25.1970    -6.7960     2.2850 
  111.1250    90.1560     5.9680     4.8870     5.8210    24.9910    -6.8480     2.3050 
  111.2500    83.2500     6.0820     5.0310     6.5950    24.7320    -6.9060     2.3060 
  111.3750    81.2650     5.9970     5.0250     6.4500    24.4500    -6.9600     2.2910 
  111.5000    84.6400     5.7970     4.9050     5.5320    24.2260    -6.9850     2.2700 
  111.6250    88.8980     5.6390     4.7850     4.9910    24.1920    -6.9550     2.2580 
  111.7500    93.5470     5.6170     4.7440     5.0640    24.2590    -6.8500     2.2620 
  111.8750    98.3350     5.7320     4.8050     5.5370    24.3050    -6.6680     2.2780 
  112.0000   100.0760     5.9070     4.9270     6.0520    24.2860    -6.4540     2.2960 
  112.1250    98.9600     6.0040     5.0200     6.2020    24.1830    -6.2610     2.3050 
  112.2500    97.8010     5.9410     5.0070     5.7570    23.9850    -6.1080     2.3050 
  112.3750    96.7610     5.7240     4.8700     5.2540    23.8160    -6.0020     2.2960 
  112.5000    95.7400     5.4370     4.6440     5.0270    23.7270    -5.9330     2.2840 
  112.6250    96.6110     5.1700     4.4020     5.0480    23.6390    -5.8750     2.2800 
  112.7500    99.4500     4.9660     4.1900     4.9510    23.4900    -5.8380     2.2900 
  112.8750   102.5780     4.8260     4.0270     4.7990    23.3510    -5.8360     2.3060 
  113.0000   106.7050     4.7480     3.9220     4.7490    23.2470    -5.8340     2.3240 
  113.1250   111.4270     4.7220     3.8630     4.7380    23.1970    -5.8240     2.3430 
  113.2500   111.9490     4.7460     3.8460     4.7020    23.1550    -5.8140     2.3610 
  113.3750   106.0330     4.8120     3.8670     4.7660    23.0590    -5.7890     2.3750 
  113.5000    99.7850     4.9010     3.9210     4.9420    22.9310    -5.7450     2.3820 
  113.6250    98.6980     4.9860     3.9870     5.2130    22.8560    -5.7100     2.3870 
  113.7500   100.1350     5.0490     4.0510     5.5410    22.9580    -5.6780     2.3860 
  113.8750    99.6320     5.0920     4.1020     5.8070    23.1860    -5.6440     2.3760 
  114.0000    98.0500     5.1360     4.1470     5.5580    23.3740    -5.6310     2.3590 
  114.1250    98.0040     5.2150     4.2110     5.2420    23.4340    -5.6360     2.3470 
  114.2500    97.5910     5.3480     4.3170     5.0790    23.3400    -5.6320     2.3500 
  114.3750    95.0270     5.5330     4.4710     5.0440    23.1700    -5.6070     2.3670 
  114.5000    93.2540     5.7290     4.6500     5.3370    23.0840    -5.5980     2.3900 
  114.6250    94.6650     5.8580     4.7950     5.8640    23.1980    -5.6300     2.4020 
  114.7500    97.5440     5.8510     4.8430     6.2580    23.3150    -5.7230     2.3960 
  114.8750    98.8880     5.6790     4.7570     6.0430    23.3410    -5.8500     2.3800 
  115.0000    99.6410     5.3710     4.5440     5.4580    23.2670    -5.9940     2.3670 
  115.1250   101.3830     5.0310     4.2780     5.0150    23.2130    -6.1210     2.3590 
  115.2500   103.4680     4.7450     4.0310     4.7140    23.2100    -6.2350     2.3510 
  115.3750   104.0530     4.5640     3.8500     4.4960    23.1970    -6.3880     2.3410 
  115.5000   103.0980     4.5120     3.7660     4.4250    23.1160    -6.5890     2.3330 
  115.6250   103.9750     4.5530     3.7610     4.4910    23.0550    -6.7900     2.3290 
  115.7500   108.6820     4.6430     3.8090     4.5690    23.0020    -6.9590     2.3350 
  115.8750   115.0410     4.7410     3.8820     4.6840    22.8140    -7.1210     2.3460 
  116.0000   116.7860     4.8080     3.9520     4.8320    22.4260    -7.3170     2.3580 
  116.1250   113.3560     4.8350     4.0040     4.8760    22.0730    -7.5270     2.3690 
  116.2500   109.6820     4.8290     4.0310     4.7820    21.8680    -7.7480     2.3760 
  116.3750   108.8510     4.8040     4.0370     4.6480    21.7660    -7.9800     2.3760 
  116.5000   108.2080     4.7760     4.0270     4.5860    21.6380    -8.1930     2.3720 
  116.6250   105.6500     4.7650     4.0180     4.4920    21.4690    -8.3860     2.3640 
  116.7500   104.8090     4.7900     4.0310     4.4290    21.3650    -8.5610     2.3520 
  116.8750   109.5650     4.8660     4.0840     4.4520    21.4220    -8.7080     2.3370 
  117.0000   115.8590     5.0220     4.1990     4.5930    21.5350    -8.8450     2.3200 
  117.1250   116.4130     5.2650     4.3820     4.8260    21.5910    -9.0190     2.3030 
  117.2500   110.1780     5.5890     4.6310     5.1060    21.6340    -9.2180     2.2860 
  117.3750   101.4450     5.9710     4.9340     5.3420    21.7970    -9.4320     2.2740 
  117.5000    94.4620     6.3590     5.2620     5.6650    22.1560    -9.6530     2.2620 
  117.6250    89.4420     6.6860     5.5650     6.0910    22.4380    -9.8610     2.2460 
  117.7500    85.7220     6.8990     5.7960     6.4110    22.5350   -10.0660     2.2320 
  117.8750    83.1870     6.9670     5.9220     6.4320    22.5420   -10.2610     2.2240 
  118.0000    82.9540     6.8790     5.9170     6.5220    22.5820   -10.3570     2.2250 
  118.1250    84.0450     6.7150     5.8210     6.7420    22.7240   -10.3580     2.2290 
  118.2500    82.1410     6.6140     5.7180     7.0000    22.9970   -10.2790     2.2380 
  118.3750    75.3990     6.7470     5.7310     7.1060    23.3100   -10.0870     2.2580 
  118.5000    68.6480     7.3060     6.0210     7.0570    23.4800    -9.7870     2.3000 
  118.6250    65.2740     8.2510     6.6110     7.4550    23.4850    -9.4480     2.3590 
  118.7500    62.9460     9.3820     7.4180     9.0880    23.4380    -9.0850     2.4270 
  118.8750    59.6410    10.3390     8.2280    12.1840    23.4550    -8.7440     2.4790 
  119.0000    59.8430    10.5460     8.6170    15.1070    23.5200    -8.4940     2.4770 
  119.1250    64.8500     9.9080     8.3900    13.2030    23.5170    -8.2780     2.4370 
  119.2500    69.9470     8.7980     7.7030     9.3130    23.4400    -8.0820     2.3980 
  119.3750    71.6320     7.8080     6.9460     7.3110    23.3910    -7.9360     2.3830 
  119.5000    71.4590     7.5590     6.5840     7.0800    23.4420    -7.8090     2.3950 
  119.6250    71.0450     8.2960     6.8620     7.2240    23.5840    -7.6960     2.4270 
  119.7500    68.5140    10.1780     7.9640     8.0000    23.7440    -7.6160     2.4780 
  119.8750    63.3270    13.7400    10.0590    11.0780    23.8620    -7.5400     2.5380 
  120.0000    57.3080    18.2710    13.3250    18.7130    23.8580    -7.4130     2.5800 
  120.1250    52.1880    23.0060    17.2740    25.6020    23.8250    -7.2850     2.5930 
  120.2500    48.1150    26.7690    20.9800    27.5280    23.7960    -7.1970     2.5870 
  120.3750    44.4490    28.5390    23.4280    27.3210    23.7810    -7.1350     2.5770 
