~V
VERS. 2.00: Ver 2.00
~W
STRT.M 40.0000:
STOP.M 276.0000:
STEP.M 0.1250:
NULL. -999.2500:
UWI. F10236:
~C
DEPT.M :
SP.MV :
GR.API :
RML.OHMM :
RI. :
RXO.OHMM :
CALI.CM :
DEN.GM/CC :
~A
# ...
  107.5000   -17.2940    63.7090     8.8790     7.0360     9.5480    22.5020     2.2150 
  107.6250   -17.3090    64.5250     8.9160     7.0100     9.8420    22.3840     2.2170 
  107.7500   -17.3210    64.7830     8.9610     7.0250     9.7270    22.2810     2.2170 
  107.8750   -17.3050    65.6500     8.9630     7.0500     9.3670    22.2380     2.2180 
  108.0000   -17.2860    67.2350     8.9320     7.0730     9.1890    22.2700     2.2190 
  108.1250   -17.2410    68.4570     9.0000     7.1460     9.4410    22.4190     2.2240 
  108.2500   -17.1870    67.0080     9.2690     7.3370     9.9010    22.6640     2.2300 
  108.3750   -17.1060    63.7850     9.7530     7.6770    10.3760    22.9300     2.2370 
  108.5000   -17.0220    61.8070    10.3530     8.1230    10.9440    23.1820     2.2460 
  108.6250   -16.9080    62.3540    10.8090     8.5250    11.8810    23.2980     2.2660 
  108.7500   -16.7890    62.6820    10.8880     8.6890    12.2550    23.2600     2.2870 
  108.8750   -16.6600    62.6970    10.5230     8.5220    11.2870    23.1560     2.2900 
  109.0000   -16.5190    65.3530     9.8530     8.0850    10.2480    23.0930     2.2650 
  109.1250   -16.3600    69.7860     9.1470     7.5510     9.7310    23.0780     2.2340 
  109.2500   -16.1890    71.4900     8.6150     7.0960     9.4020    23.0840     2.2160 
  109.3750   -16.0260    71.2120     8.3160     6.7860     9.2060    23.1010     2.2080 
  109.5000   -15.8520    72.4770     8.2010     6.6130     9.0520    23.1350     2.2010 
  109.6250   -15.6710    74.7280     8.1700     6.5330     8.5080    23.1950     2.1930 
  109.7500   -15.5120    74.6550     8.1360     6.4770     7.8490    23.2080     2.1830 
  109.8750   -15.3670    73.1920     8.1000     6.4320     7.7420    23.1770     2.1720 
  110.0000   -15.2460    71.3900     8.0860     6.4060     8.0790    23.1350     2.1640 
  110.1250   -15.1540    69.5750     8.1130     6.4230     8.4820    23.0440     2.1650 
  110.2500   -15.0830    68.8660     8.1720     6.4860     8.6890    22.9000     2.1710 
  110.3750   -15.0310    70.1570     8.2440     6.5860     8.8900    22.7100     2.1740 
  110.5000   -14.9940    71.3340     8.2990     6.6940     9.1000    22.5120     2.1710 
  110.6250   -14.9820    69.8030     8.3050     6.7620     9.3890    22.4490     2.1710 
  110.7500   -14.9840    68.8030     8.2990     6.7990     9.6700    22.4150     2.1770 
  110.8750   -14.9750    70.1820     8.3840     6.8750     9.8670    22.3980     2.1910 
  111.0000   -14.9490    71.6420     8.6850     7.0980     9.9540    22.4740     2.2080 
  111.1250   -14.9210    70.5940     9.3220     7.5850    10.2640    22.7400     2.2310 
  111.2500   -14.8780    68.1900    10.1510     8.2500    11.9950    23.0170     2.2660 
  111.3750   -14.8350    68.7160    10.9090     8.9100    17.3570    23.1210     2.3190 
  111.5000   -14.7460    71.8070    11.2420     9.2880    24.2620    23.0940     2.3880 
  111.6250   -14.6860    74.5540    10.7730     9.0540    21.9320    22.9970     2.4250 
  111.7500   -14.6130    76.4140     9.7450     8.3460    14.2830    22.8600     2.3880 
  111.8750   -14.5780    79.2150     8.5470     7.4320     9.7390    22.7580     2.3070 
  112.0000   -14.5540    83.9280     7.5490     6.5800     8.1110    22.7190     2.2410 
  112.1250   -14.5660    85.8990     7.0160     6.0020     7.6010    22.7380     2.2170 
  112.2500   -14.6110    83.0350     6.8560     5.6880     7.4600    22.7490     2.2100 
  112.3750   -14.6840    78.2110     6.9350     5.5870     7.7690    22.7510     2.2030 
  112.5000   -14.8030    76.6450     7.1120     5.6220     8.1180    22.7360     2.1920 
  112.6250   -14.9520    79.6510     7.2890     5.7340     8.2430    22.7390     2.1900 
  112.7500   -15.0860    80.3010     7.4510     5.8800     8.0990    22.7490     2.1950 
  112.8750   -15.2190    78.0970     7.6170     6.0510     8.1260    22.7460     2.2010 
  113.0000   -15.3680    75.9370     7.8110     6.2460     8.3760    22.7310     2.2010 
  113.1250   -15.5100    76.7990     8.0500     6.4600     8.7060    22.7320     2.1960 
  113.2500   -15.6540    78.1430     8.3040     6.6720     8.9780    22.7430     2.1920 
  113.3750   -15.7710    76.7870     8.5380     6.8700     9.1670    22.7500     2.1900 
  113.5000   -15.9160    73.2400     8.7260     7.0360     9.2960    22.7360     2.1910 
  113.6250   -16.0080    69.1240     8.8370     7.1470     9.4900    22.6770     2.1960 
  113.7500   -16.1380    66.7130     8.8670     7.1940     9.7180    22.6160     2.2050 
  113.8750   -16.2530    67.0870     8.7920     7.1630     9.9320    22.5840     2.2150 
  114.0000   -16.3590    68.7100     8.6050     7.0460    10.0230    22.5580     2.2220 
  114.1250   -16.4320    68.7370     8.3530     6.8710     9.9490    22.5650     2.2270 
  114.2500   -16.4740    67.2570     8.2110     6.7470     9.6820    22.5950     2.2310 
  114.3750   -16.5080    67.8870     8.3380     6.7790     9.4070    22.6450     2.2390 
  114.5000   -16.5100    70.8520     8.7990     7.0260     9.4810    22.7860     2.2520 
  114.6250   -16.4520    71.9310     9.5280     7.4800    10.7870    23.0550     2.2670 
  114.7500   -16.3810    72.7640    10.2110     7.9600    14.8350    23.3720     2.2870 
  114.8750   -16.2920    74.9720    10.5420     8.2620    20.8380    23.5870     2.3070 
  115.0000   -16.2030    76.2880    10.3370     8.2280    18.7360    23.6230     2.3140 
  115.1250   -16.1280    76.1180     9.6590     7.8250    11.3490    23.4930     2.2860 
  115.2500   -16.0620    75.3450     8.9230     7.3030     8.7550    23.2520     2.2440 
  115.3750   -16.0320    73.6560     8.3870     6.8520     8.1210    23.0290     2.2100 
  115.5000   -15.9940    71.1780     8.1590     6.5870     8.1970    22.9100     2.1960 
  115.6250   -16.0560    72.5620     8.2340     6.5610     8.3880    22.8590     2.1950 
  115.7500   -16.1210    76.7790     8.4230     6.6700     8.5180    22.8580     2.1950 
  115.8750   -16.2180    77.1400     8.6100     6.8230     8.5790    22.8790     2.1930 
  116.0000   -16.3090    72.2110     8.7370     6.9570     8.7180    22.8760     2.1890 
  116.1250   -16.4150    68.9420     8.7920     7.0440     8.9410    22.8440     2.1870 
  116.2500   -16.5060    71.3100     8.8060     7.0920     9.1140    22.8330     2.1840 
  116.3750   -16.5610    72.7710     8.7960     7.1060     9.1660    22.8030     2.1820 
  116.5000   -16.5700    70.1320     8.7680     7.0860     9.1800    22.7760     2.1790 
  116.6250   -16.5350    68.4390     8.7230     7.0290     9.2040    22.7690     2.1750 
  116.7500   -16.4400    71.6740     8.6700     6.9550     9.1640    22.7700     2.1720 
  116.8750   -16.2900    75.1300     8.6270     6.8810     9.0840    22.7650     2.1720 
  117.0000   -16.0920    74.7770     8.6140     6.8260     9.0920    22.7630     2.1730 
  117.1250   -15.8420    73.9390     8.6460     6.8160     9.1280    22.7700     2.1730 
  117.2500   -15.5600    73.6000     8.7050     6.8500     9.1940    22.7700     2.1720 
  117.3750   -15.2260    73.3150     8.7640     6.9120     9.3340    22.7630     2.1710 
  117.5000   -14.8990    73.2770     8.8050     6.9830     9.4960    22.7590     2.1750 
  117.6250   -14.4880    73.2130     8.8490     7.0550     9.6330    22.7630     2.1850 
  117.7500   -14.0500    72.7870     8.9700     7.1660     9.6520    22.7680     2.1970 
  117.8750   -13.5840    72.1490     9.2830     7.3940     9.5930    22.7620     2.2080 
  118.0000   -13.1090    72.3650     9.8600     7.8170     9.5610    22.7500     2.2210 
  118.1250   -12.5790    71.8270    10.6230     8.4320     9.7020    22.7450     2.2450 
  118.2500   -12.0190    69.9600    11.2130     8.9960     9.9990    22.8560     2.2830 
  118.3750   -11.4310    69.3030    11.2600     9.2100    10.7970    23.1830     2.3320 
  118.5000   -10.8610    72.5390    10.5610     8.8570    11.4330    23.6390     2.3800 
  118.6250   -10.3250    79.6540     9.2430     7.9470    10.0300    23.9760     2.4070 
