~V
VERS. 2.00: Ver 2.00
~W
STRT.M 56.0000:
STOP.M 284.0000:
STEP.M 0.1250:
NULL. -999.2500:
UWI. F10233:
~C
DEPT.M :
GR.API :
RML.OHMM :
RI. :
RXO.OHMM :
CALI.CM :
DEN.GM/CC :
SP.MV :
~A
# ...
  202.2500    45.4110     7.9840     6.5320     6.4610    24.1240     2.3710   -23.8090 
  202.3750    46.9070     8.2040     6.6460     6.4410    24.0830     2.3940   -24.0150 
  202.5000    47.8840     8.3800     6.7650     6.4300    23.7200     2.4160   -24.3060 
  202.6250    51.7330     8.4060     6.8080     6.4130    23.0080     2.4370   -24.5770 
  202.7500    58.4010     8.3110     6.7620     6.4020    22.3010     2.4560   -24.8680 
  202.8750    65.7590     8.1850     6.6600     6.4170    21.8750     2.4670   -25.2420 
  203.0000    74.6550     8.1490     6.5710     6.0470    21.7310     2.4670   -25.6370 
  203.1250    85.5350     8.3340     6.5940     6.0500    21.8110     2.4540   -26.0460 
  203.2500    93.2920     8.7150     6.7510     7.0340    22.0480     2.4310   -26.5560 
  203.3750    94.4340     9.2140     7.0130     8.2750    22.3590     2.3960   -27.1340 
  203.5000    90.5470     9.6980     7.3060     8.8720    22.7560     2.3570   -27.6460 
  203.6250    86.3490     9.9800     7.5040     8.9030    23.3800     2.3350   -28.1580 
  203.7500    86.6600    10.0010     7.5450     8.4360    24.0720     2.3370   -28.7470 
  203.8750    90.3200     9.8100     7.4390     8.0080    24.5550     2.3540   -29.2400 
  204.0000    91.2750     9.5570     7.2730     7.6760    24.7880     2.3710   -29.6110 
  204.1250    84.7400     9.4490     7.1830     7.6940    24.8420     2.3860   -29.9730 
  204.2500    77.6070     9.6130     7.2660     7.7060    24.8270     2.4120   -30.1760 
  204.3750    74.6970    10.1480     7.5960     7.4940    24.7500     2.4580   -30.1270 
  204.5000    73.3930    11.1450     8.2460     7.1900    24.6440     2.5140   -29.9720 
  204.6250    73.4900    12.8120     9.3590     7.4160    24.5030     2.5570   -29.7030 
  204.7500    74.1880    15.0910    10.9060     9.0470    24.2460     2.5790   -29.2240 
  204.8750    73.7880    17.7820    12.7880    12.9190    23.8180     2.5870   -28.6400 
  205.0000    71.6870    20.2950    14.6470    17.7330    23.1890     2.5890   -28.0430 
  205.1250    70.4290    21.3290    15.5870    20.8550    22.6250     2.5820   -27.3280 
  205.2500    72.2900    20.2990    15.1020    21.7610    22.2970     2.5560   -26.6000 
  205.3750    77.0450    17.5340    13.3440    18.0580    22.0880     2.5080   -25.9910 
  205.5000    84.9130    14.1640    11.0390    11.0520    21.8800     2.4580   -25.4680 
  205.6250    92.9810    11.4620     9.0220     8.1760    21.8140     2.4360   -24.9090 
  205.7500    97.6930     9.7840     7.6040     6.7710    21.8580     2.4430   -24.4150 
  205.8750    98.0250     9.0630     6.8130     6.1660    21.9740     2.4650   -24.0670 
  206.0000    96.0500     9.1020     6.5840     6.4810    22.0960     2.4860   -23.7410 
  206.1250    95.6060     9.7260     6.8690     7.8440    22.2560     2.4930   -23.4710 
  206.2500    97.6000    10.6070     7.4450     8.9760    22.6650     2.4880   -23.3260 
  206.3750    98.0180    11.5460     8.1590     9.3690    23.3620     2.4780   -23.2400 
  206.5000    94.6690    12.3190     8.8340    10.0230    24.0610     2.4690   -23.1370 
  206.6250    93.0130    12.5430     9.1730    10.7700    24.4380     2.4610   -23.0590 
  206.7500    94.1110    12.0750     9.0190    10.9660    24.4410     2.4550   -23.0510 
  206.8750    93.4530    10.9730     8.3690    10.1450    24.2440     2.4480   -22.9750 
  207.0000    88.4620     9.5460     7.4150     8.4210    23.9900     2.4450   -22.8320 
  207.1250    81.9620     8.2580     6.4650     6.2790    23.8680     2.4480   -22.7560 
  207.2500    76.3500     7.3890     5.7520     4.9200    23.9850     2.4550   -22.6210 
  207.3750    70.9870     6.9750     5.3410     4.8240    24.4070     2.4610   -22.3960 
  207.5000    66.7830     6.8990     5.1920     5.2510    25.0790     2.4570   -22.2100 
  207.6250    63.2980     6.9880     5.2230     5.4600    25.2550     2.4350   -22.1560 
  207.7500    62.2960     7.0680     5.3030     5.4560    25.0470     2.4010   -22.0570 
  207.8750    65.2500     7.0880     5.3780     5.2470    24.8750     2.3570   -21.9850 
  208.0000    70.3850     7.0730     5.4350     5.0500    24.7890     2.3110   -22.0330 
  208.1250    75.7340     7.0760     5.4910     5.1070    24.6410     2.2650   -21.9990 
  208.2500    80.3080     7.0990     5.5480     5.4450    24.3900     2.2090   -21.8990 
  208.3750    82.5860     7.0900     5.5750     5.5710    24.1290     2.1330   -21.7840 
  208.5000    82.7820     7.0030     5.5340     5.1970    24.0380     2.0780   -21.6180 
  208.6250    82.8490     6.8310     5.4070     4.6220    24.1880     2.1080   -21.2950 
  208.7500    83.1030     6.6280     5.2320     4.3600    24.1940     2.1980   -20.8550 
  208.8750    81.5910     6.4230     5.0410     4.5180    23.9140     2.2860   -20.3380 
  209.0000    79.8550     6.2200     4.8500     4.7210    23.5460     2.3210   -19.7080 
  209.1250    79.8290     6.0250     4.6720     4.7860    23.2270     2.3090   -18.9820 
  209.2500    80.2140     5.8720     4.5280     4.8440    23.0180     2.2920   -18.2950 
  209.3750    81.7500     5.8210     4.4560     4.8080    22.9940     2.2800   -17.6770 
  209.5000    84.2210     5.9380     4.5030     4.7880    23.0080     2.2880   -17.0350 
  209.6250    85.9800     6.2940     4.7350     4.7920    22.8950     2.3200   -16.4760 
  209.7500    85.4640     6.8370     5.1200     5.2160    22.7180     2.3570   -16.1290 
  209.8750    82.7400     7.5050     5.6160     6.0340    22.5390     2.3830   -15.8450 
  210.0000    79.2940     8.2100     6.1580     7.1830    22.4010     2.4000   -15.5890 
  210.1250    77.4040     8.8020     6.6470     8.3530    22.3340     2.4200   -15.5350 
  210.2500    77.7130     9.1930     7.0110     9.0000    22.3170     2.4430   -15.5340 
  210.3750    78.0570     9.4110     7.2440     9.1440    22.3400     2.4560   -15.4680 
  210.5000    76.2620     9.6020     7.4260     9.1830    22.4550     2.4450   -15.4060 
  210.6250    73.9100    10.0180     7.7200     9.1580    22.8080     2.4060   -15.4060 
  210.7500    73.8460    10.8340     8.2630     8.9150    23.3510     2.3620   -15.3630 
  210.8750    75.6060    12.1580     9.1620    10.3950    23.9400     2.3250   -15.2980 
  211.0000    76.9900    13.9800    10.4560    12.9860    24.3380     2.3020   -15.2960 
  211.1250    77.3270    16.1540    12.1150    15.1480    24.4260     2.2970   -15.2990 
  211.2500    77.2800    18.2960    13.8850    16.7490    24.3790     2.2980   -15.2660 
  211.3750    76.6110    20.1020    15.5310    18.5150    24.3230     2.2920   -15.2730 
  211.5000    75.3330    21.3740    16.8470    19.4810    24.3340     2.2770   -15.3510 
  211.6250    75.5150    22.0370    17.6720    19.7060    24.3380     2.2650   -15.4080 
  211.7500    77.2930    22.4080    18.1860    19.2630    24.3130     2.2640   -15.4340 
  211.8750    78.8640    22.7670    18.5920    19.4760    24.2670     2.2730   -15.5190 
  212.0000    78.3400    23.4140    19.1270    20.4430    24.2520     2.2890   -15.6450 
  212.1250    75.7750    24.8110    20.1540    21.0760    24.2610     2.3050   -15.6950 
  212.2500    73.4070    27.1980    21.8980    21.2000    24.2120     2.3150   -15.7700 
  212.3750    71.1000    30.7740    24.5620    23.6040    24.1000     2.3090   -15.9130 
  212.5000    67.7360    35.5600    26.8330    29.3900    23.9810     2.2830   -16.1030 
  212.6250    65.8040    41.4340    31.3510    35.4170    23.9580     2.2410   -16.2290 
  212.7500    66.9490    47.6800    36.3820    40.6900    24.0310     2.2010   -16.3560 
  212.8750    67.5930    53.7400    41.4690    44.8250    24.2270     2.1810   -16.5290 
  213.0000    64.5380    59.2760    46.2540    51.6710    24.5470     2.1810   -16.6280 
  213.1250    61.1530    64.2520    50.5850    60.2670    24.6980     2.1940   -16.7380 
  213.2500    61.5110    69.0120    54.6740    63.6550    24.6480     2.2090   -16.9060 
  213.3750    62.8610    73.6850    58.6220    61.6820    24.4630     2.2190   -17.0320 
