~V
VERS. 2.00: Ver 2.00
~W
STRT.M 50.0000:
STOP.M 281.0000:
STEP.M 0.1250:
NULL. -999.2500:
UWI. F10234:
~C
DEPT.M :
DEN.GM/CC :
GR.API :
RML.OHMM :
RI. :
RXO.OHMM :
CALI.CM :
SP.MV :
~A
# ...
  263.7500     2.4500    56.9770    14.9090    14.3200    16.0260    23.8880    -2.9300 
  263.8750     2.4360    56.8290    14.9250    14.3480    16.9410    23.8930    -2.8520 
  264.0000     2.4100    55.0000    14.9280    14.3560    17.3440    23.8940    -2.7890 
  264.1250     2.3830    52.8880    14.9710    14.3900    16.7010    23.8940    -2.7390 
  264.2500     2.3680    52.9290    15.0730    14.4750    15.6660    23.8940    -2.6980 
  264.3750     2.3690    54.3920    15.2330    14.6170    15.7240    23.8950    -2.6380 
  264.5000     2.3820    55.7070    15.4290    14.8030    16.0760    23.8940    -2.5450 
  264.6250     2.3940    55.9350    15.6090    14.9860    16.8330    23.8930    -2.4570 
  264.7500     2.3990    56.8000    15.7120    15.1030    17.7140    23.8900    -2.3900 
  264.8750     2.4000    57.9400    15.7010    15.1150    18.8600    23.8850    -2.3410 
  265.0000     2.4030    57.4370    15.5760    15.0170    19.9390    23.8820    -2.2830 
  265.1250     2.4140    55.0170    15.3700    14.8300    18.8820    23.8790    -2.2490 
  265.2500     2.4210    52.5370    15.1640    14.6250    17.0800    23.8750    -2.2370 
  265.3750     2.4190    52.0850    15.0260    14.4640    15.6440    23.8690    -2.2290 
  265.5000     2.4080    52.9420    15.0100    14.4000    13.9410    23.8630    -2.2340 
  265.6250     2.3980    53.5670    15.1650    14.4870    12.7910    23.8570    -2.2670 
  265.7500     2.3980    54.1260    15.4380    14.6910    12.2870    23.8510    -2.3040 
  265.8750     2.4090    55.6460    15.7490    14.9520    12.1540    23.8450    -2.3360 
  266.0000     2.4270    58.1790    15.9760    15.1720    12.2810    23.8400    -2.3800 
  266.1250     2.4430    58.9880    15.9650    15.2090    12.6570    23.8350    -2.3960 
  266.2500     2.4530    56.3500    15.7180    15.0350    13.2660    23.8340    -2.3710 
  266.3750     2.4580    53.9690    15.3150    14.6960    14.4110    23.8340    -2.3510 
  266.5000     2.4600    55.4340    14.8930    14.2980    16.0350    23.8350    -2.2950 
  266.6250     2.4620    58.1870    14.6070    13.9760    15.8840    23.8390    -2.1990 
  266.7500     2.4630    56.6280    14.4900    13.7850    14.3740    23.8450    -2.1060 
  266.8750     2.4580    52.9120    14.5100    13.7240    13.0770    23.8540    -1.9810 
  267.0000     2.4440    51.5720    14.5830    13.7360    12.2980    23.8630    -1.8490 
  267.1250     2.4250    53.0570    14.5970    13.7340    11.7220    23.8700    -1.6830 
  267.2500     2.4120    54.7050    14.5150    13.6680    11.6630    23.8740    -1.5290 
  267.3750     2.4090    55.7320    14.3630    13.5450    11.6230    23.8760    -1.3700 
  267.5000     2.4150    55.2620    14.1900    13.4000    10.7730    23.8730    -1.2510 
  267.6250     2.4210    53.3360    14.0390    13.2630     9.1640    23.8670    -1.1840 
  267.7500     2.4190    51.8180    13.8980    13.1330     9.3040    23.8590    -1.1020 
  267.8750     2.4130    51.0660    13.7280    12.9790    11.0910    23.8510    -1.0510 
  268.0000     2.4040    51.8760    13.4970    12.7740    12.8800    23.8440    -0.9830 
  268.1250     2.3980    53.9200    13.2020    12.5070    12.7800    23.8330    -0.9540 
  268.2500     2.3960    54.7200    12.8910    12.2120    13.3910    23.8150    -0.9770 
  268.3750     2.3990    54.4010    12.6050    11.9170    14.4060    23.7900    -1.0180 
  268.5000     2.4070    55.3170    12.3680    11.6470    15.4360    23.7730    -1.0190 
  268.6250     2.4130    57.7310    12.1800    11.4120    14.7820    23.7670    -1.0150 
  268.7500     2.4140    58.5690    12.0040    11.1940    13.0190    23.7710    -1.0220 
  268.8750     2.4100    57.3950    11.8150    10.9820    12.8050    23.7860    -1.0250 
  269.0000     2.4060    56.4790    11.6170    10.7770    15.3320    23.8100    -1.0310 
  269.1250     2.4080    56.0580    11.4460    10.6070    16.4640    23.8390    -1.0710 
  269.2500     2.4190    55.5500    11.3360    10.4950    14.5890    23.8680    -1.0770 
  269.3750     2.4360    55.1890    11.3050    10.4560    12.7120    23.8900    -1.0970 
  269.5000     2.4540    54.9040    11.3490    10.4860    11.9790    23.9010    -1.1350 
  269.6250     2.4640    54.7390    11.4500    10.5710    11.0400    23.9000    -1.1380 
  269.7500     2.4590    54.4740    11.5660    10.6690     9.3540    23.8960    -1.1540 
  269.8750     2.4410    54.1210    11.6670    10.7520     7.6750    23.8880    -1.1730 
  270.0000     2.4180    52.9040    11.7280    10.7970     7.0100    23.8770    -1.2450 
  270.1250     2.4070    51.3130    11.7230    10.7820     7.0380    23.8580    -1.2920 
  270.2500     2.4170    50.8530    11.6710    10.7220     7.0330    23.8350    -1.2850 
  270.3750     2.4460    50.8530    11.5920    10.6320     6.9660    23.8070    -1.1810 
  270.5000     2.4810    50.8530    11.5070    10.5260     7.0050    23.7790    -1.0620 
  270.6250     2.5010    50.8530    11.4310    10.4190     6.9070    23.7530    -0.9490 
  270.7500     2.5000    50.8530    11.3660    10.3170     6.8910    23.7300    -0.8180 
  270.8750     2.4800    50.8530    11.3070    10.2190     6.7670    23.7110    -0.7000 
  271.0000     2.4470    50.8530    11.2420    10.1170     6.7620    23.6960    -0.5550 
  271.1250     2.4080    50.8530    11.1550    10.0100     6.6500    23.6860    -0.4270 
  271.2500     2.3740    50.8530    11.0500     9.9040     6.6130    23.6790    -0.3600 
  271.3750     2.3520    50.8530    10.9390     9.8100     6.6910    23.6750    -0.3430 
  271.5000     2.3420    50.8530    10.8440     9.7390     6.8240    23.6730    -0.3300 
  271.6250     2.3430    50.8530    10.8110     9.7140     7.0820    23.6720    -0.3540 
  271.7500     2.3490    50.8530    10.8580     9.7470     7.2170    23.6720    -0.4180 
  271.8750     2.3560    50.8530    10.9810     9.8380     7.0550    23.6690    -0.4870 
  272.0000     2.3610    50.8530    11.1420     9.9660     7.0850    23.6620    -0.5740 
  272.1250     2.3600    50.8530    11.2580    10.0720     7.1890    23.6520    -0.6120 
  272.2500     2.3570    50.8530    11.2680    10.1010     7.2270    23.6420    -0.6260 
  272.3750     2.3520    50.8530    11.1600    10.0290     7.1310    23.6310    -0.6580 
  272.5000     2.3450    50.8530    10.9740     9.8720     7.1160    23.6230    -0.7140 
  272.6250     2.3420    50.8530    10.7810     9.6750     7.1960    23.6220    -0.7640 
  272.7500     2.3410    50.8530    10.6280     9.4860     7.1310    23.6270    -0.7720 
  272.8750     2.3420    50.8530    10.5220     9.3280     6.8940    23.6410    -0.7840 
  273.0000     2.3430    50.8530    10.4510     9.2060     6.6310    23.6600    -0.7450 
  273.1250     2.3420    50.8530    10.4020     9.1210     6.3680    23.6810    -0.6730 
  273.2500     2.3410    50.8530    10.3560     9.0530     6.1400    23.7010    -0.6320 
  273.3750     2.3420    50.8530    10.2910     8.9860     5.9490    23.7190    -0.6320 
  273.5000     2.3480    50.8530    10.1990     8.9090     5.8110    23.7320    -0.6040 
  273.6250     2.3630    50.8530    10.0920     8.8310     5.7960    23.7380    -0.5190 
  273.7500     2.3810    50.8530    10.0150     8.7770     5.8860    23.7420    -0.4150 
  273.8750     2.3980    50.8530    10.0070     8.7670     6.0060    23.7440    -0.2750 
  274.0000     2.4100    50.8530    10.0640     8.8040     6.0630    23.7440    -0.1400 
  274.1250     2.4130    50.8530    10.1440     8.8720     6.3390    23.7440    -0.0850 
  274.2500     2.4100    50.8530    10.2010     8.9370     6.7220    23.7440    -0.0060 
  274.3750     2.4010    50.8530    10.2290     8.9850     6.9400    23.7450     0.1010 
  274.5000     2.3880    50.8530    10.2400     9.0120     7.0320    23.7450     0.1460 
  274.6250     2.3730    50.8530    10.2440     9.0210     7.1720    23.7450     0.1370 
  274.7500     2.3590    50.8530    10.2460     9.0240     7.4100    23.7400     0.1070 
  274.8750     2.3520    50.8530    10.2480     9.0250     7.6860    23.7320     0.0400 
