~V
VERS. 2.00: Ver 2.00
~W
STRT.M 50.0000:
STOP.M 281.0000:
STEP.M 0.1250:
NULL. -999.2500:
UWI. F10234:
~C
DEPT.M :
DEN.GM/CC :
GR.API :
RML.OHMM :
RI. :
RXO.OHMM :
CALI.CM :
SP.MV :
~A
# ...
  230.0000     2.3450    71.9540     8.2780     8.1950     6.3170    23.7790   -10.9620 
  230.1250     2.3360    76.5670     8.5440     8.5860     6.4560    23.8330   -10.9190 
  230.2500     2.3220    80.8770     8.6750     8.8460     6.7150    23.8240   -10.8980 
  230.3750     2.3150    80.9840     8.6960     8.9630     6.8210    23.7560   -10.8950 
  230.5000     2.3180    76.6390     8.6370     8.9600     7.0510    23.6540   -10.9250 
  230.6250     2.3280    73.0030     8.5090     8.8410     7.4150    23.5460   -10.9970 
  230.7500     2.3340    75.0430     8.3480     8.6430     7.3900    23.4520   -11.0780 
  230.8750     2.3330    82.3350     8.1860     8.3890     7.0300    23.3800   -11.1360 
  231.0000     2.3280    89.7300     8.0770     8.1220     6.6660    23.3360   -11.1880 
  231.1250     2.3240    93.0880     8.1480     7.9540     6.8140    23.3180   -11.2030 
  231.2500     2.3220    94.7540     8.5130     8.0100     7.1100    23.3030   -11.1820 
  231.3750     2.3210    95.3220     9.2980     8.4030     7.4870    23.3020   -11.1690 
  231.5000     2.3200    92.0600    10.6150     9.2270     8.3390    23.3250   -11.1140 
  231.6250     2.3230    82.7080    12.5890    10.6030    10.6330    23.3770   -11.0790 
  231.7500     2.3310    72.9590    14.9550    12.3700    14.2840    23.4460   -11.0350 
  231.8750     2.3400    67.1130    17.3750    14.2970    16.3880    23.5270   -10.9820 
  232.0000     2.3400    65.1250    19.4690    16.0700    16.2410    23.6090   -10.9920 
  232.1250     2.3230    64.7160    20.8980    17.3450    17.1820    23.6800   -10.9950 
  232.2500     2.2960    63.4410    21.8010    18.1580    19.2490    23.7330   -11.0530 
  232.3750     2.2700    61.5910    22.3670    18.6490    19.6630    23.7620   -11.1300 
  232.5000     2.2530    60.3390    22.7720    18.9840    19.1770    23.7690   -11.2550 
  232.6250     2.2490    61.4910    23.0720    19.2410    19.7740    23.7690   -11.3560 
  232.7500     2.2520    64.1330    23.2830    19.4410    20.5750    23.7670   -11.4560 
  232.8750     2.2550    65.7480    23.4290    19.5920    20.2340    23.7580   -11.5940 
  233.0000     2.2580    63.8440    23.5930    19.7410    19.8610    23.7360   -11.6820 
  233.1250     2.2640    60.6740    23.9660    20.0110    20.1330    23.6970   -11.7930 
  233.2500     2.2740    62.2630    24.6670    20.5080    20.5820    23.6460   -11.8800 
  233.3750     2.2850    67.1860    25.6080    21.2120    20.4370    23.5910   -11.9580 
  233.5000     2.2950    70.7660    26.3560    21.8430    19.8000    23.5370   -12.0120 
  233.6250     2.3010    70.4930    25.9860    21.7020    20.5710    23.4970   -12.0830 
  233.7500     2.3090    69.0780    24.2350    20.5060    22.5360    23.4890   -12.1430 
  233.8750     2.3210    69.0650    21.5380    18.5220    21.1310    23.5240   -12.1800 
  234.0000     2.3350    72.1990    18.9000    16.4710    15.6120    23.5990   -12.2860 
  234.1250     2.3420    77.9720    17.6730    15.2890    11.4650    23.7000   -12.4150 
  234.2500     2.3340    79.0600    18.4050    15.4020    11.2350    23.8060   -12.5730 
  234.3750     2.3100    73.2400    21.3950    17.1450    14.6710    23.9010   -12.7410 
  234.5000     2.2780    65.5370    26.6200    20.7620    24.7300    23.9680   -12.9030 
  234.6250     2.2500    60.9410    33.6300    26.3990    35.5380    23.9810   -13.0160 
  234.7500     2.2360    59.1450    40.5820    32.7070    43.5810    23.9340   -13.1740 
  234.8750     2.2350    59.2040    45.8910    38.1140    47.3990    23.8420   -13.3190 
  235.0000     2.2440    60.5050    48.9930    41.6270    42.3210    23.7300   -13.3670 
  235.1250     2.2520    60.1610    50.7530    43.5600    34.1090    23.6320   -13.3390 
  235.2500     2.2530    57.7320    52.6250    45.2540    33.6390    23.5710   -13.2230 
  235.3750     2.2480    56.2480    54.7590    47.0340    36.9980    23.5650   -13.0750 
  235.5000     2.2420    55.6760    56.4680    48.4850    42.2560    23.6160   -12.8840 
  235.6250     2.2400    54.2550    56.5970    48.6930    45.4550    23.7180   -12.7560 
  235.7500     2.2370    51.1270    55.2030    47.6120    46.4180    23.8410   -12.6190 
  235.8750     2.2310    47.9710    53.0240    45.7650    43.4200    23.9610   -12.4950 
  236.0000     2.2230    47.9490    51.1460    44.0200    39.1130    24.0600   -12.4630 
  236.1250     2.2230    51.0950    50.6870    43.3500    38.1070    24.1220   -12.4620 
  236.2500     2.2360    53.3040    51.7540    43.9520    40.1900    24.1520   -12.5300 
  236.3750     2.2520    53.7210    54.2250    45.8030    44.6820    24.1600   -12.6360 
  236.5000     2.2580    53.2860    57.7920    48.6880    47.4540    24.1610   -12.7930 
  236.6250     2.2410    52.6710    62.0990    52.3220    50.3860    24.1630   -12.9090 
  236.7500     2.2130    51.5020    66.5890    56.1720    55.6140    24.1510   -13.0520 
  236.8750     2.1900    52.0460    70.9540    59.9480    62.4610    24.1260   -13.2050 
  237.0000     2.1810    53.3980    75.0190    63.5010    68.6250    24.0900   -13.3180 
  237.1250     2.1900    52.6590    78.7090    66.7820    71.5120    24.0440   -13.4350 
  237.2500     2.2010    51.7080    82.2320    69.9540    71.3720    23.9910   -13.5350 
  237.3750     2.2040    51.2270    85.8550    73.2210    72.2120    23.9230   -13.6110 
  237.5000     2.2030    49.3320    89.8090    76.7830    74.4780    23.8240   -13.6540 
  237.6250     2.2110    46.6570    94.0040    80.6300    75.1500    23.6840   -13.6890 
  237.7500     2.2300    46.4470    97.6880    84.1890    71.3590    23.5390   -13.6380 
  237.8750     2.2530    48.7910    99.8530    86.6420    64.8260    23.4070   -13.6060 
  238.0000     2.2680    50.6070    99.5910    87.1770    60.3770    23.3220   -13.5860 
  238.1250     2.2710    51.3460    96.3210    85.1260    57.4000    23.3240   -13.6110 
  238.2500     2.2730    51.8490    91.5210    81.5430    57.8790    23.3990   -13.6660 
  238.3750     2.2800    51.3410    86.7420    77.6620    62.0350    23.5390   -13.7340 
  238.5000     2.2840    49.7090    83.4750    74.8130    64.3250    23.7240   -13.7940 
  238.6250     2.2730    47.9860    83.2810    74.4920    63.6850    23.9150   -13.8060 
  238.7500     2.2480    46.9800    86.1400    76.8900    68.8290    24.0680   -13.8240 
  238.8750     2.2180    46.7810    91.7150    81.8560    75.2750    24.1630   -13.7970 
  239.0000     2.1960    46.6490    98.8790    88.5080    84.8350    24.2070   -13.7630 
  239.1250     2.1950    46.0090   105.1680    94.8240    99.7510    24.2060   -13.6520 
  239.2500     2.2090    45.3870   107.9540    98.4080   110.5710    24.2050   -13.4460 
  239.3750     2.2220    45.8830   105.9120    97.8570   113.9940    24.2030   -13.1710 
  239.5000     2.2190    48.0200    99.8130    93.4350   104.4770    24.2000   -12.8540 
  239.6250     2.2050    49.5220    92.2630    87.0330    91.0430    24.1980   -12.5590 
  239.7500     2.2000    50.1990    86.2350    81.4960    83.7500    24.1970   -12.2070 
  239.8750     2.2170    50.9230    83.1080    78.3600    76.1380    24.1960   -11.8590 
  240.0000     2.2550    53.3320    83.3660    78.3520    67.7610    24.1980   -11.4680 
  240.1250     2.2880    56.4910    87.1000    81.8150    74.3280    24.1980   -11.0460 
  240.2500     2.2910    56.7570    92.2490    86.9360    75.6470    24.1890   -10.6290 
  240.3750     2.2690    53.4770    96.2170    91.3570    86.4910    24.1710   -10.2170 
  240.5000     2.2430    51.0000    95.9150    92.1790    97.2430    24.1440    -9.8390 
  240.6250     2.2290    53.4370    88.7170    86.6280   100.1990    24.1070    -9.4710 
  240.7500     2.2220    55.9650    77.5190    76.8540    96.2590    24.0640    -9.1090 
  240.8750     2.2180    56.3030    65.6720    65.7920    78.8450    24.0210    -8.6970 
  241.0000     2.2140    55.8790    55.7070    56.0110    54.5250    23.9810    -8.3070 
  241.1250     2.2140    57.5730    49.0650    49.1750    37.6580    23.9510    -7.9350 
