~V
VERS. 2.00: Ver 2.00
~W
STRT.M 55.0000:
STOP.M 274.0000:
STEP.M 0.1250:
NULL. -999.2500:
UWI. F10255:
~C
DEPT.M :
GR.API :
RML.OHMM :
RI. :
RXO.OHMM :
CALI.CM :
DEN.GM/CC :
SP.MV :
~A
# ...
  235.0000   122.1380     7.9640     8.3890     7.8380    24.8160     2.4390    -8.3370 
  235.1250   125.0010     7.8320     8.2680     7.6250    24.7810     2.4320    -8.3800 
  235.2500   126.5190     7.7200     8.1210     7.5480    24.8390     2.4210    -8.4500 
  235.3750   123.3590     7.6360     7.9640     7.6000    24.9080     2.4090    -8.5340 
  235.5000   114.8910     7.5760     7.8040     7.5710    24.9240     2.3990    -8.5990 
  235.6250   107.3950     7.5330     7.6520     7.6420    24.9570     2.3940    -8.6470 
  235.7500   105.2640     7.4990     7.5200     7.6300    25.0240     2.3960    -8.7030 
  235.8750   107.6950     7.4820     7.4270     7.6700    25.0370     2.4020    -8.7780 
  236.0000   112.3140     7.5080     7.3940     7.8380    25.0120     2.4090    -8.8740 
  236.1250   114.8630     7.6340     7.4680     7.9410    24.9370     2.4140    -8.9260 
  236.2500   112.6220     7.8900     7.6680     8.0050    24.7420     2.4200    -8.9290 
  236.3750   106.9310     8.2950     8.0080     8.1240    24.5140     2.4290    -8.9040 
  236.5000   101.2340     8.8300     8.4750     8.5630    24.3970     2.4380    -8.8860 
  236.6250    97.1630     9.3880     8.9790     9.2980    24.3210     2.4430    -8.8630 
  236.7500    95.2990     9.7630     9.3310     9.8190    24.2700     2.4410    -8.7920 
  236.8750    95.6850     9.7810     9.3530     9.8140    24.2910     2.4290    -8.6510 
  237.0000    96.3040     9.3890     8.9610     9.2390    24.3830     2.4070    -8.4410 
  237.1250    94.2040     8.7100     8.2240     8.0310    24.4070     2.3820    -8.2730 
  237.2500    91.6090     8.0850     7.4820     7.2590    24.3410     2.3660    -8.1900 
  237.3750    89.6040     7.7560     7.0030     7.1130    24.2820     2.3620    -8.1580 
  237.5000    87.5660     7.9080     7.0130     7.2270    24.2160     2.3650    -8.1350 
  237.6250    85.3950     8.8880     7.9120     7.4820    24.1530     2.3580    -8.1340 
  237.7500    83.1060    10.9960     9.9950     8.6700    24.2210     2.3320    -8.1720 
  237.8750    79.6530    14.9110    13.8420    13.1460    24.5310     2.2910    -8.2470 
  238.0000    74.5900    21.5540    20.1290    25.2450    24.7410     2.2490    -8.3370 
  238.1250    70.1850    31.8030    29.5230    51.5180    24.9390     2.2210    -8.3980 
  238.2500    67.8550    43.4070    40.1500    70.8040    25.0780     2.2060    -8.4070 
  238.3750    66.8040    53.2220    49.2230    79.5940    25.2000     2.1980    -8.3660 
  238.5000    66.5710    58.7100    54.4180    86.5300    25.3010     2.1940    -8.3120 
  238.6250    65.5250    59.0980    55.0930    84.4960    25.3540     2.1970    -8.2390 
  238.7500    63.5480    56.9880    53.5160    74.0570    25.3560     2.2070    -8.1420 
  238.8750    61.3760    53.6600    50.7810    64.1420    25.3080     2.2210    -8.0390 
  239.0000    59.5620    49.3840    47.1470    57.8720    25.2300     2.2340    -7.9520 
  239.1250    59.1400    43.9180    42.3170    54.5070    25.0900     2.2420    -7.8580 
  239.2500    60.0410    37.8630    36.7180    51.5470    25.0000     2.2510    -7.7510 
  239.3750    62.4920    32.0370    31.0650    42.1340    25.0880     2.2630    -7.6490 
  239.5000    65.5540    27.1920    26.1450    28.9730    25.1830     2.2790    -7.5620 
  239.6250    66.0720    23.8830    22.6340    21.2710    25.1340     2.2950    -7.5040 
  239.7500    64.7650    21.7880    20.3250    19.8720    25.0060     2.3030    -7.4520 
  239.8750    63.4250    20.7030    19.0450    20.5160    24.9110     2.3030    -7.3820 
  240.0000    63.1910    20.4660    18.6440    20.1280    24.9350     2.2960    -7.3050 
  240.1250    62.7260    21.0580    19.0970    19.3420    25.0590     2.2880    -7.2660 
  240.2500    62.1250    22.2060    20.1110    20.2020    25.1850     2.2820    -7.2600 
  240.3750    62.8890    23.6950    21.4840    24.4370    25.2460     2.2750    -7.2760 
  240.5000    64.8480    25.1980    22.9560    32.9550    25.2460     2.2690    -7.2690 
  240.6250    65.9700    26.1710    24.0570    36.6940    25.2300     2.2680    -7.2020 
  240.7500    65.5450    26.3600    24.4530    32.1430    25.2110     2.2770    -7.1070 
  240.8750    65.3180    25.8210    24.0930    28.7540    25.0790     2.2960    -7.0170 
  241.0000    65.9730    24.8980    23.2420    28.5270    24.7000     2.3180    -6.9390 
  241.1250    66.1170    24.0730    22.3520    28.0140    24.1520     2.3300    -6.8520 
  241.2500    63.8550    23.5810    21.7360    26.2460    23.8380     2.3250    -6.7530 
  241.3750    62.3810    23.3870    21.4150    24.9970    24.0030     2.3050    -6.6630 
  241.5000    64.0970    23.3090    21.2310    25.2910    24.4680     2.2830    -6.5970 
  241.6250    64.1930    23.1120    20.9750    26.7370    24.8450     2.2760    -6.5820 
  241.7500    61.2120    22.7030    20.5730    26.8600    25.0350     2.2970    -6.6100 
  241.8750    59.5410    22.1050    20.0480    24.9140    25.0750     2.3390    -6.6550 
  242.0000    63.0400    21.4000    19.4600    23.2200    25.0790     2.3860    -6.6890 
  242.1250    67.3960    20.6820    18.8700    22.8240    25.0000     2.4090    -6.6950 
  242.2500    66.7570    20.0330    18.3140    23.0980    24.8310     2.3990    -6.6980 
  242.3750    64.7110    19.5470    17.8460    22.4370    24.7090     2.3650    -6.7060 
  242.5000    65.2360    19.3560    17.5970    21.7890    24.7590     2.3240    -6.7130 
  242.6250    68.6130    19.6930    17.8170    22.2920    24.9510     2.2920    -6.6930 
  242.7500    70.1350    20.4940    18.5050    20.8090    25.0380     2.2730    -6.6400 
  242.8750    68.1890    21.4940    19.4990    21.2010    25.0680     2.2640    -6.5500 
  243.0000    65.6080    22.1850    20.3780    26.3960    25.0750     2.2630    -6.4630 
  243.1250    64.8040    21.9210    20.4390    35.5540    25.0940     2.2720    -6.4260 
  243.2500    65.8570    20.8370    19.6370    36.5620    25.0890     2.2860    -6.4260 
  243.3750    68.5770    19.3970    18.3990    27.3110    25.0730     2.3030    -6.3990 
  243.5000    72.4430    18.1580    17.3030    21.5010    25.0470     2.3200    -6.3290 
  243.6250    75.0210    17.5650    16.8210    18.9540    24.9950     2.3340    -6.2460 
  243.7500    74.5080    17.4610    16.8990    21.7230    24.9490     2.3440    -6.1820 
  243.8750    73.6800    17.4650    17.2660    25.9870    24.9500     2.3460    -6.1550 
  244.0000    74.2440    17.0900    17.4330    24.3700    24.9810     2.3400    -6.1400 
  244.1250    73.9290    15.9350    16.7930    18.5870    25.0690     2.3280    -6.1230 
  244.2500    73.3550    14.3110    15.4710    16.0240    25.1180     2.3210    -6.0940 
  244.3750    75.0080    12.6370    13.8820    14.6100    25.1220     2.3300    -6.0650 
  244.5000    76.8130    11.2460    12.4510    12.3350    25.0960     2.3590    -6.0480 
  244.6250    74.1720    10.3090    11.4540    10.5620    25.0980     2.3990    -6.0110 
  244.7500    71.3550     9.6780    10.7940     9.5790    25.0980     2.4320    -5.9470 
  244.8750    73.5970     9.2240    10.3260     9.8620    25.0080     2.4460    -5.8830 
  245.0000    79.6440     8.8330     9.9030    10.4040    24.8640     2.4410    -5.8410 
  245.1250    82.6820     8.4340     9.4330     9.2670    24.9340     2.4240    -5.8100 
  245.2500    82.2690     8.0200     8.9200     7.9180    25.1490     2.3950    -5.7920 
  245.3750    82.2890     7.6140     8.3950     7.3750    25.3210     2.3410    -5.8050 
  245.5000    83.6640     7.2580     7.8950     7.4670    25.3290     2.2500    -5.8280 
  245.6250    84.0070     7.0320     7.5120     7.8640    25.2970     2.1410    -5.8800 
  245.7500    81.3070     7.0080     7.3500     8.1280    25.3390     2.0690    -5.9600 
  245.8750    76.4500     7.2990     7.5550     7.8860    25.5740     2.0700    -6.0480 
  246.0000    71.5760     8.0640     8.3110     7.4640    25.8770     2.1380    -6.1330 
  246.1250    68.4760     9.7040    10.0240     9.1230    25.7610     2.2180    -6.2050 
