~V
VERS. 2.00: Ver 2.00
~W
STRT.M 63.0000:
STOP.M 280.0000:
STEP.M 0.1250:
NULL. -999.2500:
UWI. F10220:
~C
DEPT.M :
SP.MV :
DEN.GM/CC :
GR.API :
RML.OHMM :
RI. :
RXO.OHMM :
CALI.CM :
~A
# ...
  108.0000   -17.9860     2.2290    84.3230     6.7630     5.3910     6.0660    23.8990 
  108.1250   -17.0160     2.2290    81.6640     6.6750     5.2330     6.0090    23.8590 
  108.2500   -16.3220     2.2330    77.8000     6.7440     5.2120     5.8940    23.8380 
  108.3750   -15.9220     2.2380    75.7790     6.8790     5.2710     5.8560    23.8480 
  108.5000   -15.8240     2.2400    75.8890     7.0240     5.3650     5.9340    23.9020 
  108.6250   -15.9950     2.2380    77.6460     7.1470     5.4550     6.1130    23.9920 
  108.7500   -16.4020     2.2320    77.2540     7.2430     5.5260     6.2580    24.0470 
  108.8750   -16.9710     2.2280    74.6100     7.3420     5.5930     6.2920    24.0870 
  109.0000   -17.7140     2.2250    73.4060     7.4760     5.6810     6.2630    24.1310 
  109.1250   -18.5750     2.2190    73.4940     7.6750     5.8150     6.4370    24.1720 
  109.2500   -19.4980     2.2070    73.4240     7.9590     6.0100     7.3830    24.1570 
  109.3750   -20.3940     2.1940    73.7360     8.2950     6.2430     8.4680    24.0950 
  109.5000   -21.1980     2.1860    72.8180     8.6420     6.4880     9.3020    24.0160 
  109.6250   -21.9070     2.1840    68.8830     8.9630     6.7190     9.8620    23.9400 
  109.7500   -22.4850     2.1850    64.7490     9.2310     6.9160    10.1530    23.8970 
  109.8750   -22.9130     2.1870    65.1580     9.4660     7.0880    10.3710    23.8580 
  110.0000   -23.1810     2.1870    69.6570     9.6850     7.2480    10.5730    23.8160 
  110.1250   -23.3030     2.1880    72.5820     9.8830     7.4040    10.6940    23.7670 
  110.2500   -23.2690     2.1890    71.4560    10.0120     7.5390    10.7860    23.7200 
  110.3750   -23.1410     2.1930    69.9540    10.0420     7.6260    10.9210    23.6890 
  110.5000   -22.9440     2.1990    69.7910     9.9690     7.6420    10.9770    23.6640 
  110.6250   -22.6670     2.2050    69.5280     9.8220     7.5870    10.6880    23.6300 
  110.7500   -22.2720     2.2090    67.6180     9.6460     7.4790    10.1410    23.6120 
  110.8750   -21.7330     2.2090    68.2190     9.4610     7.3480     9.6090    23.6130 
  111.0000   -21.0200     2.2030    71.8640     9.2210     7.1850     9.4120    23.6930 
  111.1250   -20.1270     2.1880    72.4810     8.8560     6.9500     9.5050    23.9750 
  111.2500   -19.0250     2.1640    68.6210     8.3200     6.5970     9.4690    24.5620 
  111.3750   -17.7790     2.1470    67.5190     7.7430     6.1880     8.7570    25.1630 
  111.5000   -16.4560     2.1550    72.0560     7.2890     5.8220     7.4010    25.5080 
  111.6250   -15.1450     2.1900    80.1220     7.0970     5.6000     6.1550    25.6030 
  111.7500   -13.9410     2.2370    85.3580     7.2540     5.6080     5.9070    25.5330 
  111.8750   -12.8370     2.2790    86.4990     7.5990     5.7840     6.7180    25.3630 
  112.0000   -11.8390     2.3220    87.4920     7.9260     6.0190     7.6860    25.0440 
  112.1250   -10.9810     2.3680    91.5890     7.9960     6.1530     7.9490    24.5500 
  112.2500   -10.3170     2.3960    97.9660     7.6230     6.0160     7.1760    24.0910 
  112.3750    -9.8360     2.3830    99.8910     7.0050     5.6660     6.6300    23.8730 
  112.5000    -9.4930     2.3400    97.2070     6.3760     5.2320     6.0270    23.7930 
  112.6250    -9.2220     2.2960    96.0710     5.9050     4.8490     5.3990    23.8410 
  112.7500    -9.0200     2.2750    98.4870     5.6580     4.6120     5.1880    24.0240 
  112.8750    -8.8950     2.2760   100.8110     5.5320     4.4870     4.9520    24.1250 
  113.0000    -8.8430     2.2900   100.5410     5.4580     4.4300     4.8880    24.1150 
  113.1250    -8.8360     2.3060    98.8150     5.4180     4.4100     4.9190    24.0950 
  113.2500    -8.8700     2.3250    98.0810     5.4620     4.4390     4.9720    24.0800 
  113.3750    -8.8690     2.3450    98.6110     5.6070     4.5320     5.1400    24.0790 
  113.5000    -8.8460     2.3630   100.5510     5.8370     4.6930     5.3350    24.0580 
  113.6250    -8.7980     2.3790   101.7570     6.0890     4.8960     5.4170    23.9450 
  113.7500    -8.7100     2.3960   100.0900     6.2450     5.0640     6.1940    23.7260 
  113.8750    -8.5960     2.4070    95.5390     6.2270     5.1220     6.9140    23.5890 
  114.0000    -8.4690     2.4010    89.8760     6.0280     5.0340     6.4650    23.5620 
  114.1250    -8.3330     2.3760    89.7200     5.7300     4.8350     5.3530    23.6060 
  114.2500    -8.1990     2.3470    95.7040     5.4900     4.6190     4.8700    23.6630 
  114.3750    -8.0730     2.3280   101.1690     5.4000     4.4830     4.8520    23.6950 
  114.5000    -7.9620     2.3210   101.7780     5.4610     4.4610     4.8820    23.7040 
  114.6250    -7.9050     2.3280   101.4450     5.6040     4.5320     4.8920    23.6950 
  114.7500    -7.8850     2.3510   104.1800     5.7080     4.6250     4.9900    23.6540 
  114.8750    -7.8770     2.3770   107.6820     5.6880     4.6550     4.9980    23.6130 
  115.0000    -7.8780     2.3880   110.5090     5.5350     4.5840     4.9250    23.5850 
  115.1250    -7.8970     2.3760   112.1250     5.3070     4.4300     4.7290    23.5540 
  115.2500    -7.9250     2.3510   112.3360     5.0900     4.2410     4.6380    23.5350 
  115.3750    -7.9850     2.3350   110.6170     4.9350     4.0760     4.6300    23.5290 
  115.5000    -8.0690     2.3330   106.9280     4.8480     3.9560     4.6260    23.5320 
  115.6250    -8.1590     2.3390   105.0500     4.8130     3.8850     4.6020    23.5320 
  115.7500    -8.2970     2.3450   106.0250     4.8130     3.8620     4.5620    23.5380 
  115.8750    -8.4940     2.3500   105.3560     4.8500     3.8790     4.5120    23.5470 
  116.0000    -8.7450     2.3520   103.1470     4.9550     3.9510     4.4800    23.5590 
  116.1250    -9.0360     2.3500   102.2460     5.1570     4.0950     4.5310    23.5740 
  116.2500    -9.3840     2.3390   103.8540     5.4680     4.3230     4.7130    23.5720 
  116.3750    -9.8020     2.3220   105.2790     5.8130     4.5890     5.0670    23.5670 
  116.5000   -10.2610     2.3030   104.3800     6.1120     4.8410     5.5380    23.5470 
  116.6250   -10.7200     2.2870   101.9990     6.2900     5.0250     5.8290    23.5040 
  116.7500   -11.1890     2.2770   100.3210     6.3000     5.0890     5.5670    23.4940 
  116.8750   -11.6960     2.2710    99.1580     6.2160     5.0640     5.1630    23.4940 
  117.0000   -12.2570     2.2660    94.6530     6.1110     4.9900     5.1060    23.4640 
  117.1250   -12.8610     2.2640    88.4880     6.0410     4.9050     5.3600    23.4260 
  117.2500   -13.5300     2.2640    87.3900     6.0840     4.8600     5.6580    23.4370 
  117.3750   -14.2360     2.2640    87.9500     6.3150     4.9210     5.8850    23.4550 
  117.5000   -14.9880     2.2630    84.8280     6.8250     5.1640     6.0690    23.4630 
  117.6250   -15.7950     2.2670    79.9120     7.6710     5.6510     6.3630    23.4750 
  117.7500   -16.6630     2.2830    77.8850     8.8580     6.4350     7.1470    23.5360 
  117.8750   -17.5550     2.3050    75.7930    10.1070     7.3650     9.7670    23.6340 
  118.0000   -18.4520     2.3120    72.2810    11.0370     8.2010    14.1370    23.6840 
  118.1250   -19.3710     2.2860    70.3120    11.2930     8.6520    14.3540    23.6440 
  118.2500   -20.2610     2.2350    71.5580    10.7560     8.5170    10.7400    23.6000 
  118.3750   -21.0910     2.2000    72.5300     9.9530     8.0810     8.8840    23.5650 
  118.5000   -21.8480     2.1900    70.7260     9.2840     7.6240     8.4060    23.5430 
  118.6250   -22.5490     2.1940    68.0630     8.9560     7.3420     8.4040    23.5470 
  118.7500   -23.1380     2.1980    66.5760     9.0020     7.3330     8.4930    23.5550 
  118.8750   -23.5340     2.1990    64.8630     9.2090     7.4780     8.4900    23.4940 
  119.0000   -23.6840     2.1960    63.2180     9.4230     7.6590     8.6150    23.4060 
  119.1250   -23.5490     2.1860    63.4570     9.5250     7.7630     8.8670    23.3770 
