~V
VERS. 2.00: Ver 2.00
~W
STRT.M 53.0000:
STOP.M 286.0000:
STEP.M 0.1250:
NULL. -999.2500:
UWI. F10262:
~C
DEPT.M :
DEN.GM/CC :
GR.API :
RML.OHMM :
RI. :
RXO.OHMM :
CALI.CM :
SP.MV :
~A
# ...
  244.2500     2.2360    72.3460    76.8000    64.9150    65.2370    24.4580   -16.3330 
  244.3750     2.2160    69.7870    78.8580    66.2550    64.9070    24.3960   -16.3800 
  244.5000     2.2030    71.3040    81.0610    67.7930    66.6920    24.2700   -16.4090 
  244.6250     2.2010    75.7860    83.6540    69.7240    70.6750    24.1000   -16.4150 
  244.7500     2.2090    78.7640    86.7660    72.1660    74.8690    23.8890   -16.3570 
  244.8750     2.2170    75.3700    90.4960    75.2220    78.9400    23.8840   -16.2390 
  245.0000     2.2160    71.1330    94.8610    78.8820    81.1380    23.7720   -16.0520 
  245.1250     2.2030    70.0830   100.4660    83.6680    83.2030    23.6010   -15.8460 
  245.2500     2.1900    70.6000   108.6990    90.8730    87.7990    23.6050   -15.5450 
  245.3750     2.2070    70.0530   122.8820   103.7880    69.5960    24.0350   -15.2480 
  245.5000     2.2720    68.2410   144.0810   123.7280    72.7710    24.4740   -14.8620 
  245.6250     2.3850    67.5240   168.5290   148.3450    84.4180    24.4920   -14.4530 
  245.7500     2.5220    67.0570   181.0710   167.3660   143.6810    24.2350   -13.9700 
  245.8750     2.6370    64.7530   160.4780   161.7780   230.2840    24.0320   -13.4700 
  246.0000     2.7070    62.8380   124.7060   135.5680   245.1570    23.9410   -12.9940 
  246.1250     2.7300    62.6970    93.9070   104.3810   152.9050    23.8900   -12.5270 
  246.2500     2.7250    64.4160    74.5450    80.4960    51.6940    23.8780   -12.1270 
  246.3750     2.7150    67.0470    64.8780    67.6510    39.6040    23.9860   -11.7530 
  246.5000     2.7140    68.4310    57.7620    59.3280    35.9020    24.1720   -11.3950 
  246.6250     2.7130    67.8020    48.7880    49.9460    43.2450    24.3160   -11.0130 
  246.7500     2.6950    66.9550    36.7730    37.4340    52.9550    24.3120   -10.6620 
  246.8750     2.6390    68.4710    24.7390    24.9580    33.9580    24.2280   -10.3080 
  247.0000     2.5510    70.5790    15.6750    15.7010    15.8520    24.0990    -9.9730 
  247.1250     2.4510    70.6680     9.9950     9.9210     7.0310    23.9720    -9.6190 
  247.2500     2.3630    67.9020     6.9370     6.7170     5.7390    23.9520    -9.2160 
  247.3750     2.3140    64.3270     5.7370     5.2880     5.5110    23.9410    -8.7210 
  247.5000     2.2980    62.0940     5.4370     4.7440     5.8400    23.8780    -8.2520 
  247.6250     2.3030    60.5150     5.6920     4.8080     6.0730    23.8630    -7.8270 
  247.7500     2.3170    58.6840     6.2470     5.2830     5.9300    23.9510    -7.4820 
  247.8750     2.3320    56.3300     6.8620     5.9590     6.1600    24.0820    -7.1960 
  248.0000     2.3490    55.2820     7.3390     6.5780     6.6300    24.1220    -6.9880 
  248.1250     2.3650    55.6190     7.6060     7.0120     6.9060    24.0640    -6.8720 
  248.2500     2.3800    54.9410     7.6870     7.2360     6.8670    23.9620    -6.9030 
  248.3750     2.3880    51.7910     7.6980     7.3180     6.6790    23.9050    -7.0730 
  248.5000     2.3920    49.0030     7.8000     7.4120     6.6880    23.9740    -7.3150 
  248.6250     2.3950    49.2810     8.0700     7.5910     6.9040    24.1280    -7.5920 
  248.7500     2.4020    51.6750     8.4740     7.8430     7.3320    24.3260    -7.8730 
  248.8750     2.4110    51.4790     8.8400     8.0370     7.8530    24.3990    -8.1250 
  249.0000     2.4140    49.5740     8.9740     8.0190     8.0470    24.4350    -8.2880 
  249.1250     2.4070    47.8990     8.7900     7.7210     7.7920    24.4140    -8.3460 
  249.2500     2.3900    48.2530     8.3400     7.1950     7.1480    24.3420    -8.2760 
  249.3750     2.3700    52.4030     7.7790     6.5780     6.4820    24.2310    -8.0650 
  249.5000     2.3600    57.9720     7.2900     6.0190     6.2330    24.1150    -7.7750 
  249.6250     2.3640    62.9310     6.9550     5.5880     6.2020    24.1510    -7.4580 
  249.7500     2.3790    64.7100     6.7960     5.3110     6.2310    24.3220    -7.0920 
  249.8750     2.3970    64.6600     6.8160     5.2040     6.2870    24.3950    -6.7770 
  250.0000     2.4090    67.5470     6.9420     5.2120     6.3560    24.3000    -6.5150 
  250.1250     2.4120    73.2250     7.1230     5.2990     6.4510    24.1990    -6.3300 
  250.2500     2.4090    77.6600     7.3160     5.4290     6.5200    24.1750    -6.1890 
  250.3750     2.4070    77.1550     7.4800     5.5650     6.6560    24.1540    -6.0970 
  250.5000     2.4050    75.6860     7.6050     5.6840     6.6920    24.1760    -6.0360 
  250.6250     2.4010    74.0250     7.7070     5.7920     6.6580    24.2440    -5.9930 
  250.7500     2.3940    70.4810     7.8280     5.9090     6.4520    24.2740    -5.9990 
  250.8750     2.3850    68.7380     7.6340     6.0740     6.4810    24.2240    -6.0630 
  251.0000     2.3790    73.0020     6.7280     6.2940     6.8950    24.2070    -6.1880 
  251.1250     2.3760    81.7740     7.0590     6.5520     7.3150    24.2310    -6.3460 
  251.2500     2.3710    91.0240     7.3810     6.7990     7.4100    24.2340    -6.4880 
  251.3750     2.3600    97.4460     7.5900     6.9540     7.3510    24.2360    -6.6950 
  251.5000     2.3470   100.7860     7.6740     7.0010     7.4040    24.2530    -6.9030 
  251.6250     2.3410   103.0540     7.6860     6.9700     7.4810    24.2730    -7.1240 
  251.7500     2.3480   108.3290     7.7150     6.9280     7.6360    24.2680    -7.3240 
  251.8750     2.3730   116.4210     7.8500     6.9480     7.5180    24.2170    -7.4900 
  252.0000     2.4040   119.8710     8.0830     7.0460     7.6050    24.1540    -7.5890 
  252.1250     2.4300   116.0470     8.3570     7.1910     8.1190    24.1290    -7.6660 
  252.2500     2.4410   109.7860     8.5880     7.3300     8.7710    24.1300    -7.7630 
  252.3750     2.4340   110.0270     8.7170     7.4120     8.9250    24.1620    -7.8230 
  252.5000     2.4210   113.5740     8.8020     7.4640     8.4140    24.0900    -7.8670 
  252.6250     2.4150   115.9690     8.9210     7.5350     8.1340    24.0770    -7.8970 
  252.7500     2.4210   116.5630     9.1260     7.6630     8.2250    24.1020    -7.9160 
  252.8750     2.4380   115.6340     9.3850     7.8390     8.7890    24.1240    -7.9130 
  253.0000     2.4520   110.3390     9.5540     7.9700     9.4360    24.1330    -7.9220 
  253.1250     2.4560   102.5340     9.5120     7.9640     9.3160    24.1370    -7.9170 
  253.2500     2.4480    99.6790     9.2210     7.7760     8.7130    24.1700    -7.9160 
  253.3750     2.4330   104.9800     8.7380     7.4150     7.7850    24.1970    -7.9110 
  253.5000     2.4190   110.6150     8.2150     6.9900     7.2960    24.1910    -7.9010 
  253.6250     2.4080   110.8660     7.7160     6.5560     7.2390    24.1560    -7.8390 
  253.7500     2.3960   106.9450     7.2530     6.1430     7.3080    24.1180    -7.7570 
  253.8750     2.3790   104.5040     6.8330     5.7730     6.9220    24.1250    -7.6440 
  254.0000     2.3610   104.5450     6.4930     5.4720     6.3370    24.1580    -7.4920 
  254.1250     2.3460   104.9230     6.2940     5.2800     5.9910    24.1680    -7.2750 
  254.2500     2.3390   105.0170     6.2730     5.2220     5.8170    24.2110    -6.9580 
  254.3750     2.3400   106.4610     6.4290     5.3090     5.8200    24.2740    -6.5460 
  254.5000     2.3440   108.6350     6.6370     5.4650     6.0660    24.3240    -6.0600 
  254.6250     2.3480   108.5140     6.7810     5.6060     6.3150    24.3220    -5.5430 
  254.7500     2.3490   104.1150     6.7750     5.6570     6.3030    24.3230    -5.0170 
  254.8750     2.3490    99.2080     6.5970     5.5760     6.0120    24.4030    -4.5420 
  255.0000     2.3460   100.2330     6.3480     5.4180     5.8490    24.4290    -4.1190 
  255.1250     2.3440   103.6160     6.1100     5.2400     5.7770    24.3750    -3.7880 
  255.2500     2.3430   102.7430     5.9470     5.0940     5.7410    24.3110    -3.5460 
  255.3750     2.3440    99.2340     5.9120     5.0330     5.7530    24.3300    -3.4210 
