~V
VERS. 2.00: Ver 2.00
~W
STRT.M 50.0000:
STOP.M 271.0000:
STEP.M 0.1250:
NULL. -999.2500:
UWI. F10251:
~C
DEPT.M :
DEN.GM/CC :
GR.API :
RML.OHMM :
RI. :
RXO.OHMM :
CALI.CM :
SP.MV :
~A
# ...
  218.7500     2.2460    67.0340    73.6710    71.8490    77.5470    23.6740    -2.4480 
  218.8750     2.2520    68.2210    72.5130    70.5980    77.8900    23.7180    -2.5670 
  219.0000     2.2500    68.8210    71.2440    69.3490    74.1160    23.6990    -2.6280 
  219.1250     2.2420    67.9620    69.7680    67.8880    72.8960    23.6490    -2.7070 
  219.2500     2.2350    67.2130    68.4270    66.3690    72.6710    23.6060    -2.8340 
  219.3750     2.2300    66.9730    67.7600    65.2330    70.3000    23.6160    -2.9480 
  219.5000     2.2260    67.9530    68.3630    65.0820    65.7550    23.6440    -3.0590 
  219.6250     2.2190    70.1540    71.2120    66.9590    65.9970    23.6100    -3.1890 
  219.7500     2.2100    71.3030    76.4890    71.2060    74.2070    23.5520    -3.3090 
  219.8750     2.2020    70.9580    84.3250    78.0110    89.0360    23.4920    -3.3790 
  220.0000     2.1930    69.6870    94.4580    87.0680   101.9590    23.6360    -3.4610 
  220.1250     2.1830    67.3550   106.2830    97.6790   117.4530    24.0030    -3.6300 
  220.2500     2.1730    64.5210   118.0890   108.2610   144.5650    24.1850    -3.7320 
  220.3750     2.1660    62.6100   128.2600   117.4710   172.5390    24.2410    -3.7330 
  220.5000     2.1660    63.8350   135.4930   124.2560   164.0560    24.3090    -3.8010 
  220.6250     2.1750    66.0570   138.8400   127.7750   148.1470    24.4320    -3.9120 
  220.7500     2.1900    66.0790   139.4150   128.8380   162.5640    24.5180    -3.8890 
  220.8750     2.2040    63.6570   138.1120   128.0830   180.8720    24.5690    -3.8380 
  221.0000     2.2160    59.5660   135.8900   126.2820   167.2170    24.5670    -3.8610 
  221.1250     2.2260    57.1300   133.6410   124.2030   151.6280    24.4670    -3.8540 
  221.2500     2.2280    58.1880   131.9510   122.4350   151.2390    24.3090    -3.7930 
  221.3750     2.2140    60.4240   130.8780   121.1430   149.1060    24.2200    -3.7270 
  221.5000     2.1880    60.2550   129.4320   119.7140   145.3610    24.3370    -3.6700 
  221.6250     2.1690    57.2290   124.5530   115.8170   149.7290    24.4960    -3.5730 
  221.7500     2.1680    57.0800   114.9080   108.0570   156.6600    24.5430    -3.4370 
  221.8750     2.1840    61.5210   102.0100    97.2500   153.2650    24.5410    -3.3280 
  222.0000     2.2150    66.0100    89.7900    86.4220   127.1000    24.5340    -3.2410 
  222.1250     2.2650    64.7270    83.5550    80.1040    93.7340    24.4450    -3.1140 
  222.2500     2.3340    59.7480    85.5290    80.8100    75.6110    24.2960    -2.9720 
  222.3750     2.4230    55.0580    97.4780    90.9940    91.4590    24.1690    -2.9440 
  222.5000     2.5230    53.7450   120.2320   112.3670   180.1980    24.0800    -2.9220 
  222.6250     2.6100    55.2700   151.4290   143.3790   397.0690    23.9930    -2.8150 
  222.7500     2.6560    55.7750   175.7930   169.5560   536.6300    23.8840    -2.8330 
  222.8750     2.6530    53.8010   175.4940   173.8270   521.7420    23.7660    -2.9560 
  223.0000     2.6110    51.9420   148.4260   151.3220   393.8350    23.6770    -3.0120 
  223.1250     2.5340    54.7700   113.9430   117.0660   189.9320    23.7740    -2.9840 
  223.2500     2.4360    59.1860    88.2240    89.3850    92.4860    24.0390    -3.0330 
  223.3750     2.3460    60.7680    72.6500    72.0320    64.1170    24.3510    -3.1040 
  223.5000     2.2900    60.2030    64.6530    63.1080    67.8760    24.5140    -3.1080 
  223.6250     2.2710    61.4420    62.0260    60.1580    76.7520    24.4530    -3.0710 
  223.7500     2.2630    64.1570    61.9350    60.0390    77.3550    24.3260    -3.0340 
  223.8750     2.2510    66.4840    63.0730    61.3970    74.2270    24.3410    -2.9290 
  224.0000     2.2370    67.5630    64.5940    63.3110    71.1450    24.4700    -2.7470 
  224.1250     2.2320    66.2120    66.0430    65.2440    70.1460    24.5310    -2.5600 
  224.2500     2.2370    64.5700    66.9420    66.6680    70.9190    24.5460    -2.3800 
  224.3750     2.2490    64.6210    66.4170    66.7460    73.9900    24.5190    -2.0990 
  224.5000     2.2680    66.0570    63.5870    64.5450    78.4380    24.4280    -1.7500 
  224.6250     2.2900    67.6160    58.0480    59.4720    78.1210    24.3840    -1.5090 
  224.7500     2.3070    69.7360    51.3400    52.9530    62.3680    24.3730    -1.2550 
  224.8750     2.3080    72.3330    44.8150    46.3340    44.5980    24.3790    -0.9470 
  225.0000     2.2970    73.2010    39.4370    40.6450    36.7550    24.3850    -0.6810 
  225.1250     2.2870    72.0590    35.9210    36.6520    35.6220    24.3980    -0.5120 
  225.2500     2.2860    72.0150    34.2020    34.3270    35.8860    24.3960    -0.3840 
  225.3750     2.2880    73.5760    34.5270    33.8720    34.5240    24.4160    -0.2740 
  225.5000     2.2870    76.0940    37.1480    35.4910    34.0390    24.4200    -0.2460 
  225.6250     2.2850    75.8380    42.5530    39.6630    37.0170    24.3810    -0.2640 
  225.7500     2.2820    70.9560    50.0780    45.9000    49.5610    24.3690    -0.2420 
  225.8750     2.2820    64.6420    58.9150    53.6040    85.7480    24.3990    -0.2800 
  226.0000     2.2900    60.5570    67.5800    62.7230   126.4770    24.3910    -0.4340 
  226.1250     2.3030    60.1820    73.8740    68.7510   103.5030    24.3940    -0.6330 
  226.2500     2.3040    60.8270    77.5410    72.2490    76.3760    24.4060    -0.7870 
  226.3750     2.2850    62.6590    79.5390    73.9540    81.5720    24.4120    -1.0320 
  226.5000     2.2550    65.4460    81.2090    75.0950    99.1380    24.4480    -1.3660 
  226.6250     2.2310    66.9700    83.4190    76.5290   102.4700    24.5570    -1.6390 
  226.7500     2.2150    67.0130    85.8630    78.0850    89.9420    24.6120    -1.9910 
  226.8750     2.2060    66.0800    87.9330    79.2520    87.5360    24.5910    -2.4390 
  227.0000     2.2040    65.2940    89.4460    79.8710    89.4180    24.5620    -2.8480 
  227.1250     2.2080    64.6620    90.9520    80.4610    89.9450    24.5390    -3.1540 
  227.2500     2.2120    64.3590    93.0810    81.6650    87.8600    24.5440    -3.4450 
  227.3750     2.2130    64.8520    95.8480    83.5790    86.9040    24.5480    -3.7180 
  227.5000     2.2130    65.3380    98.7320    85.8130    91.6930    24.5240    -3.9200 
  227.6250     2.2110    65.7170   100.7920    87.5980    98.6500    24.5010    -4.0450 
  227.7500     2.2110    64.4030   101.6000    88.4360   109.1900    24.4610    -4.1540 
  227.8750     2.2120    61.5160   101.0930    88.1860   121.5060    24.4040    -4.2320 
  228.0000     2.2160    59.5560    99.3730    86.8640   119.6610    24.3730    -4.2360 
  228.1250     2.2230    61.1230    96.5020    84.4310    94.0830    24.3790    -4.2040 
  228.2500     2.2310    64.3150    93.1490    81.3940    81.0550    24.3590    -4.2600 
  228.3750     2.2360    65.6410    89.9280    78.2650    86.7810    24.3560    -4.3160 
  228.5000     2.2390    65.4630    87.4890    75.6340    96.7210    24.3740    -4.2960 
  228.6250     2.2430    65.6520    86.7910    74.3960    94.7900    24.3710    -4.3900 
  228.7500     2.2490    66.4070    87.9130    74.8310    91.1880    24.3580    -4.5330 
  228.8750     2.2520    66.8120    90.5470    76.8390    94.5350    24.3590    -4.5750 
  229.0000     2.2490    65.3000    93.8020    79.7710    97.6840    24.3420    -4.5810 
  229.1250     2.2420    63.4020    96.0590    82.3980    95.0510    24.3190    -4.6290 
  229.2500     2.2330    61.6730    96.2430    83.6300    93.0490    24.3080    -4.6750 
  229.3750     2.2240    60.5650    94.5950    83.2720    86.7240    24.3170    -4.6470 
  229.5000     2.2180    61.0590    93.0820    82.4920    76.9770    24.2550    -4.5730 
  229.6250     2.2340    61.9220    95.3400    84.1500    73.4220    24.0360    -4.4490 
  229.7500     2.2760    62.1910   102.5560    89.7370    74.8520    23.7910    -4.2340 
  229.8750     2.3470    60.3730   113.2540    98.4350    87.5910    23.6530    -3.9270 
