~V
VERS. 2.00: Ver 2.00
~W
STRT.M 57.0000:
STOP.M 274.0000:
STEP.M 0.1250:
NULL. -999.2500:
UWI. F10215:
~C
DEPT.M :
SP.MV :
DEN.GM/CC :
GR.API :
RML.OHMM :
RI. :
RXO.OHMM :
CALI.CM :
~A
# ...
  124.5000   -15.2920     2.3530    72.1590    10.4860     7.2640     8.5000    22.2040 
  124.6250   -15.5650     2.3060    72.3720    10.0150     7.1050     7.1950    22.1740 
  124.7500   -15.8510     2.2700    71.0410     9.6720     6.9280     6.7340    22.1940 
  124.8750   -16.0770     2.2550    69.6230     9.6070     6.8550     6.6600    22.2070 
  125.0000   -16.2510     2.2550    69.4570     9.8140     6.9200     6.9130    22.1730 
  125.1250   -16.3950     2.2590    69.4690    10.2300     7.1240     7.6770    22.1660 
  125.2500   -16.5020     2.2580    68.4300    10.7300     7.4090     8.0270    22.1790 
  125.3750   -16.6000     2.2620    66.4270    11.2420     7.7340     8.2400    22.2380 
  125.5000   -16.6620     2.2800    64.9650    11.7000     8.0500     9.2540    22.2860 
  125.6250   -16.7340     2.3160    67.1040    11.9870     8.2720    11.7800    22.3580 
  125.7500   -16.7820     2.3450    69.9660    12.0320     8.3420    13.3010    22.4260 
  125.8750   -16.8380     2.3420    69.3780    11.8060     8.2350    10.7730    22.4670 
  126.0000   -16.8950     2.3030    66.9660    11.3790     7.9840     8.2900    22.4470 
  126.1250   -16.9520     2.2460    66.0650    10.9050     7.6660     7.5290    22.3710 
  126.2500   -17.0150     2.1990    66.6280    10.5390     7.3850     7.4580    22.2880 
  126.3750   -17.0780     2.1720    67.4190    10.3420     7.1930     7.4390    22.2150 
  126.5000   -17.1530     2.1610    68.0140    10.2990     7.1040     7.3750    22.1650 
  126.6250   -17.2140     2.1580    65.8120    10.3510     7.1040     7.3540    22.0490 
  126.7500   -17.2700     2.1600    62.8460    10.4160     7.1420     7.3680    21.8690 
  126.8750   -17.3160     2.1640    64.4470    10.4640     7.1910     7.4730    21.6820 
  127.0000   -17.3500     2.1680    69.6960    10.4870     7.2320     7.7730    21.5670 
  127.1250   -17.3780     2.1660    70.0250    10.4900     7.2560     8.0140    21.6430 
  127.2500   -17.3780     2.1600    66.3900    10.5130     7.2830     8.0110    21.9140 
  127.3750   -17.3650     2.1550    63.3730    10.5990     7.3430     7.9090    22.2090 
  127.5000   -17.3270     2.1560    63.3150    10.7790     7.4620     7.8760    22.3960 
  127.6250   -17.2810     2.1660    64.1100    11.0500     7.6510     8.0210    22.3450 
  127.7500   -17.2240     2.1810    64.0260    11.3270     7.8630     8.3530    22.1020 
  127.8750   -17.1620     2.1950    63.1110    11.5110     8.0380     8.6310    21.7930 
  128.0000   -17.1020     2.2040    61.2020    11.5180     8.1120     8.7200    21.6080 
  128.1250   -17.0260     2.2030    58.3230    11.3030     8.0350     8.6330    21.5790 
  128.2500   -16.9410     2.1920    55.5770    10.9780     7.8600     8.5490    21.6110 
  128.3750   -16.8430     2.1770    55.2900    10.6540     7.6520     8.5550    21.7180 
  128.5000   -16.7440     2.1610    57.6670    10.4280     7.4730     8.5180    21.9150 
  128.6250   -16.6330     2.1500    58.9630    10.3710     7.3860     8.5000    22.0710 
  128.7500   -16.5190     2.1460    59.0940    10.4490     7.3920     8.5260    22.1590 
  128.8750   -16.3730     2.1510    59.8310    10.6200     7.4850     8.6900    22.2360 
  129.0000   -16.2020     2.1650    60.5740    10.8360     7.6400     8.8620    22.3220 
  129.1250   -16.0150     2.1810    58.5720    11.0520     7.8330     8.9880    22.4560 
  129.2500   -15.8240     2.1890    55.6750    11.2500     8.0340     8.9020    22.5420 
  129.3750   -15.6250     2.1820    54.9670    11.4400     8.2380     8.8080    22.6330 
  129.5000   -15.4220     2.1690    56.0010    11.6290     8.4420     8.8730    22.7250 
  129.6250   -15.1880     2.1710    56.3020    11.7890     8.6260     9.0760    22.8120 
  129.7500   -14.9470     2.2040    56.5470    11.8790     8.7610     9.5470    22.8760 
  129.8750   -14.7020     2.2630    57.1030    11.8510     8.8170    10.1250    22.9190 
  130.0000   -14.4710     2.3220    58.2060    11.6570     8.7620     9.5010    22.9340 
  130.1250   -14.2140     2.3470    59.8400    11.2430     8.5490     8.4430    22.9130 
  130.2500   -13.9600     2.3380    62.9490    10.6560     8.2020     7.5860    22.9020 
  130.3750   -13.6960     2.3070    66.0430     9.9410     7.7440     7.4760    22.8940 
  130.5000   -13.4350     2.2750    68.7420     9.1680     7.2210     7.2380    22.9040 
  130.6250   -13.2040     2.2510    70.8150     8.4680     6.7210     6.4550    22.9330 
  130.7500   -13.0000     2.2360    71.5530     7.9460     6.3230     6.1270    23.0690 
  130.8750   -12.8320     2.2330    70.0990     7.6870     6.0880     5.9500    23.2050 
  131.0000   -12.6860     2.2430    66.4100     7.7520     6.0650     5.8780    23.2050 
  131.1250   -12.5670     2.2620    64.1800     8.1770     6.3040     6.2040    22.9600 
  131.2500   -12.4550     2.2870    64.5610     8.7650     6.6930     6.6260    22.8940 
  131.3750   -12.3420     2.3170    64.9930     9.2900     7.0890     7.2490    23.1070 
  131.5000   -12.2360     2.3490    63.2680     9.5000     7.3100     8.4270    23.5470 
  131.6250   -12.1260     2.3660    62.0200     9.1770     7.1680     8.9620    23.8600 
  131.7500   -12.0080     2.3560    65.4140     8.5580     6.7770     7.6310    23.9860 
  131.8750   -11.9070     2.3190    69.4170     8.0230     6.3610     6.1940    23.9510 
  132.0000   -11.7860     2.2710    70.3650     8.0000     6.1900     5.8370    23.9160 
  132.1250   -11.6990     2.2470    70.3500     9.0170     6.6050     6.4210    23.9430 
  132.2500   -11.6310     2.2700    70.9770    11.0750     7.6900     8.0550    23.9560 
  132.3750   -11.5940     2.3440    68.8850    13.9360     9.4300    11.6390    23.9230 
  132.5000   -11.5550     2.4490    62.5340    16.8390    11.4940    19.0840    23.8240 
  132.6250   -11.5480     2.5400    56.6310    18.3070    12.9840    24.8160    23.7680 
  132.7500   -11.5530     2.5820    53.1340    18.0130    13.3840    22.6940    23.7610 
  132.8750   -11.5490     2.5760    52.0140    16.7770    12.9840    16.5020    23.7470 
  133.0000   -11.5690     2.5450    53.4840    15.8930    12.5160    11.9410    23.6490 
  133.1250   -11.6210     2.5160    56.7990    16.4140    12.7150    12.3000    23.5610 
  133.2500   -11.7010     2.5070    58.5580    18.0080    13.6280    16.8810    23.5170 
  133.3750   -11.8130     2.5260    57.4120    19.7850    14.8760    20.5810    23.5040 
  133.5000   -11.9610     2.5670    55.7840    20.4170    15.6120    21.3240    23.5430 
  133.6250   -12.1520     2.5980    56.6210    18.5690    14.6980    19.3000    23.5830 
  133.7500   -12.3860     2.5880    60.6390    15.2570    12.5760    16.0180    23.6280 
  133.8750   -12.6610     2.5300    66.1050    11.9390    10.2090    11.5920    23.6060 
  134.0000   -12.9760     2.4430    69.2990     9.5950     8.3350     7.9860    23.5380 
  134.1250   -13.2990     2.3600    69.7470     8.5640     7.3000     6.7290    23.4240 
  134.2500   -13.6420     2.3010    70.7210     8.3860     6.8970     6.7500    23.3370 
  134.3750   -13.9790     2.2680    73.8110     8.7740     6.9850     7.3930    23.2330 
  134.5000   -14.2890     2.2520    76.7850     9.4310     7.3910     8.1050    23.1250 
  134.6250   -14.5370     2.2410    75.4260     9.9910     7.8690     8.2360    23.0740 
  134.7500   -14.7080     2.2300    72.3620    10.2210     8.1700     7.8200    23.0550 
  134.8750   -14.8060     2.2210    70.2020    10.1230     8.2160     7.3310    23.0800 
  135.0000   -14.8280     2.2190    70.0150     9.8730     8.0810     7.0020    23.1040 
  135.1250   -14.7790     2.2240    69.9250     9.7320     7.9340     7.0730    23.0870 
  135.2500   -14.6580     2.2330    68.5190     9.8530     7.9210     7.1500    23.0180 
  135.3750   -14.4990     2.2430    67.2410    10.2740     8.0950     7.3980    22.9520 
  135.5000   -14.3290     2.2500    66.8810    10.9310     8.4390     8.2920    22.8950 
  135.6250   -14.1460     2.2500    68.5360    11.6630     8.8700     9.4260    22.8400 
