~V
VERS. 2.00: Ver 2.00
~W
STRT.M 60.0000:
STOP.M 271.0000:
STEP.M 0.1250:
NULL. -999.2500:
UWI. F10205:
~C
DEPT.M :
DEN.GM/CC :
GR.API :
RML.OHMM :
RI. :
RXO.OHMM :
CALI.CM :
SP.MV :
~A
# ...
  127.5000     2.6020    60.5340    22.4920    20.3240    20.1980    23.7700    -5.1640 
  127.6250     2.5830    61.2150    22.0330    20.0400    16.7720    23.7640    -5.2570 
  127.7500     2.5750    64.0960    21.4610    19.5500    15.1360    23.7370    -5.3200 
  127.8750     2.5780    67.2570    21.0340    19.1070    15.1650    23.7460    -5.3460 
  128.0000     2.5890    66.1010    20.8930    18.8890    15.7640    23.7640    -5.3470 
  128.1250     2.6000    61.9850    21.0410    18.9710    16.1130    23.7750    -5.3280 
  128.2500     2.6010    60.6260    21.2680    19.1980    16.7450    23.7900    -5.3530 
  128.3750     2.5920    61.6030    21.4230    19.4230    17.4040    23.8110    -5.3750 
  128.5000     2.5740    62.5810    21.4410    19.5470    18.0680    23.8320    -5.3780 
  128.6250     2.5580    62.8740    21.3530    19.5430    16.6900    23.8340    -5.3790 
  128.7500     2.5480    62.7160    21.2680    19.4970    15.6680    23.8100    -5.4150 
  128.8750     2.5440    62.0660    21.2570    19.4810    15.5420    23.7610    -5.4680 
  129.0000     2.5420    61.3680    21.3520    19.5440    16.1250    23.7100    -5.5300 
  129.1250     2.5400    61.3020    21.5840    19.7340    16.2510    23.6910    -5.5820 
  129.2500     2.5370    60.3220    21.9250    20.0320    16.2160    23.6700    -5.6250 
  129.3750     2.5350    58.5410    22.3510    20.4170    16.8750    23.6300    -5.6720 
  129.5000     2.5320    57.0850    22.8170    20.8560    16.6010    23.5850    -5.7320 
  129.6250     2.5260    58.5960    23.2440    21.2960    16.6010    23.5810    -5.7930 
  129.7500     2.5150    61.4750    23.5700    21.6810    17.4190    23.6060    -5.7870 
  129.8750     2.5020    63.4900    23.7770    21.9730    17.5120    23.6310    -5.7580 
  130.0000     2.4910    63.4620    23.8980    22.1710    17.4450    23.5970    -5.7380 
  130.1250     2.4900    62.8430    24.0010    22.3000    16.9050    23.4730    -5.7500 
  130.2500     2.4990    62.4720    24.1330    22.4110    16.3770    23.2820    -5.7470 
  130.3750     2.5140    62.9200    24.2800    22.5180    15.8210    23.1340    -5.7120 
  130.5000     2.5240    64.2070    24.3860    22.5980    15.2540    23.0610    -5.6710 
  130.6250     2.5200    65.7830    24.3620    22.5830    14.6850    23.0460    -5.6130 
  130.7500     2.5020    65.0350    24.2190    22.4580    14.6980    23.0690    -5.6040 
  130.8750     2.4760    62.0560    24.0370    22.2610    15.2210    23.0850    -5.5950 
  131.0000     2.4570    61.0030    23.9520    22.0990    15.9410    23.0600    -5.5670 
  131.1250     2.4590    64.0460    24.1820    22.1610    16.3600    23.2420    -5.5180 
  131.2500     2.4800    66.3860    24.8010    22.5530    15.7870    23.7680    -5.4910 
  131.3750     2.5100    65.3860    25.8130    23.3270    15.7580    24.1520    -5.4770 
  131.5000     2.5380    61.9120    27.1070    24.4340    17.1230    24.2570    -5.4150 
  131.6250     2.5530    58.4710    28.4030    25.6850    19.9420    24.2060    -5.3200 
  131.7500     2.5570    55.6690    29.3580    26.7410    21.9050    24.2110    -5.1670 
  131.8750     2.5530    54.1120    29.7510    27.3450    22.4970    24.3830    -5.0150 
  132.0000     2.5450    54.0660    29.5470    27.3920    22.0650    24.7300    -4.8590 
  132.1250     2.5400    55.8860    28.8990    26.9470    20.5500    24.9020    -4.6930 
  132.2500     2.5420    60.3890    28.2060    26.3750    17.6980    24.9030    -4.5170 
  132.3750     2.5510    67.0870    27.6840    25.9070    15.8010    24.7140    -4.3920 
  132.5000     2.5610    70.9920    27.3750    25.6260    16.1860    24.4490    -4.3280 
  132.6250     2.5600    68.6380    27.1360    25.4450    17.0530    24.3090    -4.3170 
  132.7500     2.5420    63.9700    26.7450    25.1540    16.7960    24.4370    -4.3370 
  132.8750     2.5100    60.7410    26.1070    24.6310    16.3580    24.9420    -4.3390 
  133.0000     2.4680    58.7600    25.2780    23.8830    16.2150    25.7580    -4.3280 
  133.1250     2.4230    56.2380    24.4810    23.0730    15.2390    26.1710    -4.3450 
  133.2500     2.3830    54.9350    23.9480    22.4400    14.5120    25.8960    -4.4010 
  133.3750     2.3580    55.9510    23.7900    22.1290    15.8360    25.1940    -4.4720 
  133.5000     2.3560    56.7890    23.9810    22.1690    18.2440    24.6170    -4.5600 
  133.6250     2.3860    54.4680    24.3830    22.4930    21.7420    24.3140    -4.6650 
  133.7500     2.4320    54.2890    24.7520    22.8710    20.2660    24.1130    -4.8040 
  133.8750     2.4860    59.1630    24.9610    23.1520    18.7240    23.9430    -4.9980 
  134.0000     2.5370    65.4820    24.9880    23.2680    17.3810    23.7560    -5.2130 
  134.1250     2.5710    68.4330    24.9110    23.2470    17.3040    23.7050    -5.4180 
  134.2500     2.5810    68.2440    24.8690    23.2180    17.2020    23.8570    -5.5730 
  134.3750     2.5620    66.8250    24.9050    23.2490    17.4540    24.1780    -5.6780 
  134.5000     2.5100    64.1270    24.9700    23.3280    19.4030    24.6020    -5.7320 
  134.6250     2.4300    61.6120    24.9190    23.3430    22.3640    25.1710    -5.7360 
  134.7500     2.3390    61.2430    24.6640    23.1920    21.7490    25.8210    -5.7040 
  134.8750     2.2620    60.0990    24.2080    22.8460    18.7290    26.2900    -5.6630 
  135.0000     2.2210    58.3310    23.6320    22.3630    16.8480    26.4990    -5.6400 
  135.1250     2.2440    57.9780    23.0370    21.8430    16.9090    26.5740    -5.6450 
  135.2500     2.3160    58.9370    22.4560    21.3430    17.0720    26.3770    -5.6710 
  135.3750     2.4080    59.8830    21.8370    20.8240    17.3170    25.8830    -5.6970 
  135.5000     2.4890    60.0930    21.1120    20.2120    17.2580    25.2870    -5.7560 
  135.6250     2.5260    60.1260    20.2600    19.4480    17.0330    24.8380    -5.8130 
  135.7500     2.5220    59.8680    19.4020    18.6130    16.0500    24.6440    -5.8660 
  135.8750     2.4920    60.3670    18.6840    17.8320    14.0060    24.4590    -5.8880 
  136.0000     2.4560    61.9170    18.2360    17.2380    12.6770    24.2810    -5.8480 
  136.1250     2.4380    61.1960    18.1670    16.9700    12.3100    24.1760    -5.7380 
  136.2500     2.4450    58.0570    18.3630    16.9820    12.1000    24.2090    -5.6160 
  136.3750     2.4680    54.5390    18.6930    17.1950    12.1220    24.2850    -5.5120 
  136.5000     2.4930    52.6120    19.0040    17.4800    12.4800    24.3030    -5.3900 
  136.6250     2.5040    53.6460    19.1250    17.6700    12.5290    24.4370    -5.2960 
  136.7500     2.5020    56.6780    19.0330    17.6830    12.7940    24.8360    -5.1980 
  136.8750     2.4940    57.9020    18.7600    17.5140    13.1560    25.2560    -5.1320 
  137.0000     2.4860    56.8000    18.3870    17.2140    13.5230    25.3610    -5.1520 
  137.1250     2.4760    55.9310    18.0090    16.8630    12.5730    25.0850    -5.2680 
  137.2500     2.4580    55.3210    17.7000    16.5470    11.9660    24.6980    -5.3720 
  137.3750     2.4340    53.3550    17.4860    16.3120    11.2070    24.4370    -5.4210 
  137.5000     2.4110    50.3600    17.3740    16.1830    10.9740    24.4170    -5.4630 
  137.6250     2.4050    51.6080    17.3520    16.1720    12.4990    24.4280    -5.5050 
  137.7500     2.4170    57.2160    17.3460    16.2150    13.2320    24.3990    -5.6220 
  137.8750     2.4410    61.5850    17.2650    16.2260    12.6590    24.2780    -5.7440 
  138.0000     2.4680    61.4050    17.0090    16.0940    11.8850    23.9960    -5.8360 
  138.1250     2.4850    62.0260    16.4570    15.6740    13.1990    23.8430    -5.8840 
  138.2500     2.4900    68.0150    15.6580    14.9770    13.6600    23.7890    -5.9550 
  138.3750     2.4850    74.3100    14.7060    14.0720    12.4890    23.7290    -6.0710 
  138.5000     2.4740    75.7190    13.7470    13.0880    10.8300    23.5510    -6.1960 
  138.6250     2.4660    74.0710    12.9780    12.2080    10.4090    23.3750    -6.3090 
