~V
VERS. 2.00: Ver 2.00
~W
STRT.M 54.0000:
STOP.M 277.0000:
STEP.M 0.1250:
NULL. -999.2500:
UWI. F10247:
~C
DEPT.M :
GR.API :
RML.OHMM :
RI. :
RXO.OHMM :
CALI.CM :
DEN.GM/CC :
SP.MV :
~A
# ...
  200.2500    54.6760   488.9330   437.2660   392.6640    24.4680     2.0930   -31.5200 
  200.3750    55.4520   463.3810   428.1580   486.8300    24.4600     2.0900   -31.3890 
  200.5000    54.8470   406.2040   390.4340   564.6480    24.4650     2.0960   -31.2400 
  200.6250    54.1640   330.4920   329.9190   542.9110    24.4960     2.1070   -31.0980 
  200.7500    53.9290   276.7790   263.8020   341.3450    24.4790     2.1240   -30.8920 
  200.8750    55.9100   217.2790   208.5280   191.8020    24.3810     2.1450   -30.7170 
  201.0000    59.3270   176.5480   168.9650   127.3830    24.2480     2.1630   -30.5470 
  201.1250    61.5730   151.7010   144.2950    98.7750    24.1320     2.1730   -30.4100 
  201.2500    61.4170   140.6200   133.1510    83.9010    24.0540     2.1720   -30.2750 
  201.3750    61.1580   137.8460   130.3450    74.9600    23.9350     2.1660   -30.1390 
  201.5000    60.1430   140.6680   133.3900    74.6430    23.7860     2.1610   -30.0000 
  201.6250    56.8620   146.2690   139.7700    85.4240    23.6700     2.1590   -29.8690 
  201.7500    54.8350   150.2970   145.6580   128.0780    23.5070     2.1590   -29.7730 
  201.8750    55.4800   148.1870   146.2610   241.4390    23.2460     2.1630   -29.6690 
  202.0000    56.3630   137.8600   138.6930   396.1710    23.0290     2.1770   -29.5550 
  202.1250    56.2620   121.4140   123.9750   498.6040    22.9320     2.1990   -29.4190 
  202.2500    57.4620   104.4220   106.9450   356.2240    22.9130     2.2170   -29.2580 
  202.3750    60.2050    91.5930    92.9650   187.1090    22.8840     2.2200   -29.1060 
  202.5000    61.7390    84.5420    84.2200    94.1800    22.8630     2.2060   -28.9450 
  202.6250    60.5470    83.1940    81.0940    78.3240    22.8780     2.1860   -28.7870 
  202.7500    58.6060    86.8970    83.3330    94.5120    23.0610     2.1760   -28.6010 
  202.8750    58.2090    92.7890    88.2150   101.7490    23.5010     2.1810   -28.4060 
  203.0000    58.8090    98.6530    93.5500   104.1160    23.9570     2.1950   -28.2250 
  203.1250    59.4770   102.6730    97.3530   114.4990    24.1920     2.2150   -28.0440 
  203.2500    59.8500   104.3200    98.6760   136.7310    24.2820     2.2330   -27.8910 
  203.3750    59.4370   105.6210    99.2010   159.2710    24.3410     2.2430   -27.6910 
  203.5000    57.1520   108.3540   100.6090   147.6740    24.3850     2.2400   -27.4970 
  203.6250    53.8240   113.5990   104.0460   133.1890    24.4520     2.2240   -27.2710 
  203.7500    51.6940   122.0910   110.2390   173.2280    24.5340     2.2040   -27.0840 
  203.8750    52.0030   133.0490   118.4380   236.2720    24.5650     2.1940   -26.8940 
  204.0000    53.9880   145.8730   128.0670   228.1640    24.5230     2.1960   -26.6990 
  204.1250    55.0080   159.5110   138.3870   155.9600    24.4900     2.2010   -26.4860 
  204.2500    54.8870   170.5970   147.1990   139.8970    24.5290     2.1950   -26.2740 
  204.3750    55.0180   173.9430   150.6470   159.6290    24.5780     2.1790   -26.0870 
  204.5000    53.9670   164.7620   144.6850   212.2180    24.5920     2.1600   -25.8910 
  204.6250    52.2320   143.0690   128.2480   271.9090    24.6210     2.1500   -25.7010 
  204.7500    53.9390   113.9320   105.2090   172.1670    24.7070     2.1570   -25.4800 
  204.8750    59.4410    85.6590    83.7160    85.2910    24.8430     2.1770   -25.2500 
  205.0000    65.8030    69.8210    67.6190    51.4020    24.9340     2.1990   -25.0250 
  205.1250    69.1990    60.4050    57.5430    44.5790    24.9180     2.2190   -24.7870 
  205.2500    67.8360    56.4820    52.7860    53.3280    24.8520     2.2340   -24.5420 
  205.3750    64.5060    55.4740    50.8180    57.0210    24.8260     2.2480   -24.2700 
  205.5000    62.0950    55.9530    50.3700    57.0110    24.8430     2.2560   -23.9930 
  205.6250    62.3310    56.4390    50.2080    53.7230    24.8890     2.2560   -23.6910 
  205.7500    62.9810    55.1070    48.7170    49.4010    24.8930     2.2500   -23.3800 
  205.8750    63.1350    51.6720    45.4260    50.1160    24.8200     2.2480   -23.0420 
  206.0000    64.6150    47.0300    40.9930    53.0170    24.6910     2.2580   -22.6670 
  206.1250    67.6300    42.7880    36.7500    50.9330    24.5870     2.2750   -22.2590 
  206.2500    70.6250    41.1680    34.4460    37.4910    24.5890     2.2780   -21.7970 
  206.3750    70.4040    43.4080    35.0770    30.4020    24.6920     2.2550   -21.3200 
  206.5000    66.5800    50.7590    39.8220    39.8220    24.8320     2.2100   -20.8020 
  206.6250    61.4530    64.2940    49.8800    71.4670    24.9250     2.1670   -20.2470 
  206.7500    56.5430    84.8920    66.3980   113.8770    24.9530     2.1700   -19.6450 
  206.8750    54.9740   106.4630    84.6050   128.7520    24.9510     2.2440   -19.0180 
  207.0000    56.0890   117.5690    95.6880   135.6890    24.9120     2.3920   -18.3590 
  207.1250    57.4600   108.6270    91.4450   158.3490    24.8380     2.5690   -17.6850 
  207.2500    57.0700    84.4320    73.1010   163.6260    24.7680     2.6760   -16.9990 
  207.3750    56.9540    60.9270    53.2900   105.7880    24.6870     2.6870   -16.3070 
  207.5000    59.5540    42.9190    37.3300    52.0040    24.6300     2.6410   -15.6420 
  207.6250    62.8920    30.3120    26.0670    25.7860    24.5860     2.5840   -15.0200 
  207.7500    63.5180    22.1830    18.9210    20.1100    24.4390     2.5370   -14.4640 
  207.8750    64.7300    16.5500    14.0290    17.8320    24.1200     2.4970   -13.9810 
  208.0000    70.9130    12.6930    10.6910    14.1160    23.7620     2.4580   -13.5750 
  208.1250    81.6560    10.1820     8.4990     9.1800    23.8010     2.4170   -13.2590 
  208.2500    89.8950     8.8960     7.3120     7.6170    24.1810     2.3820   -13.0160 
  208.3750    92.5790     8.4920     6.8080     7.4630    24.5420     2.3650   -12.8450 
  208.5000    92.6760     8.8630     6.8830     8.0130    24.6300     2.3680   -12.7090 
  208.6250    91.6280     9.8220     7.4250     8.9010    24.5920     2.3860   -12.6080 
  208.7500    89.1980    10.9310     8.2140     9.9220    24.5840     2.4120   -12.4910 
  208.8750    86.7910    11.5290     8.7990    10.8000    24.6100     2.4410   -12.3830 
  209.0000    85.0630    11.2510     8.8350    11.1690    24.6060     2.4690   -12.2520 
  209.1250    82.4730    10.1820     8.2490    10.5080    24.5680     2.4870   -12.1090 
  209.2500    75.8440     8.7740     7.2670     8.7030    24.5850     2.4860   -11.9570 
  209.3750    68.0980     7.5430     6.3140     6.7900    24.6630     2.4660   -11.8020 
  209.5000    63.5920     6.6670     5.5870     5.6060    24.7460     2.4370   -11.6650 
  209.6250    63.9010     6.1600     5.1500     5.1920    24.7820     2.4100   -11.5620 
  209.7500    69.4750     5.9840     5.0010     5.2450    24.8250     2.3950   -11.5170 
  209.8750    78.3470     5.9750     5.0060     5.3760    24.8140     2.3910   -11.4960 
  210.0000    87.0950     6.0320     5.0760     5.3850    24.6990     2.3940   -11.5070 
  210.1250    92.2070     6.0650     5.1340     5.2510    24.5820     2.3960   -11.5460 
  210.2500    91.5600     6.0010     5.1150     5.2470    24.5480     2.3960   -11.6010 
  210.3750    88.2700     5.8530     5.0100     5.4530    24.5540     2.4020   -11.6840 
  210.5000    85.0690     5.6560     4.8370     5.6350    24.5370     2.4190   -11.7670 
  210.6250    82.7280     5.4590     4.6390     5.5600    24.5090     2.4430   -11.8410 
  210.7500    80.9140     5.3390     4.4780     5.2110    24.5450     2.4480   -11.8840 
  210.8750    79.5450     5.3460     4.3930     4.9740    24.5930     2.4250   -11.9060 
  211.0000    77.9410     5.5000     4.3990     5.1050    24.6260     2.3760   -11.9190 
  211.1250    73.7160     5.7760     4.4830     5.7140    24.7010     2.3140   -11.9230 
  211.2500    67.0450     6.0900     4.6090     5.8290    24.7760     2.2700   -11.9510 
  211.3750    64.2520     6.3320     4.7200     5.6840    24.7550     2.2570   -11.9630 
