~V
VERS. 2.00: Ver 2.00
~W
STRT.M 52.0000:
STOP.M 254.0000:
STEP.M 0.1250:
NULL. -999.2500:
UWI. F10213:
~C
DEPT.M :
DEN.GM/CC :
GR.API :
RML.OHMM :
RI. :
RXO.OHMM :
CALI.CM :
SP.MV :
~A
   52.0000  -999.2500    42.3740     1.1290     0.4810     1.1670    25.1570   116.6750 
   52.1250  -999.2500    41.7450     1.1360     0.4870     1.1750    25.2000   116.6750 
   52.2500  -999.2500    38.9780     1.1350     0.4920     1.1780    25.2350   116.9950 
   52.3750  -999.2500    39.8250     1.1140     0.4930     1.1730    25.2470   117.7960 
   52.5000  -999.2500    45.6800     1.0790     0.4890     1.1660    25.2490   118.6400 
   52.6250  -999.2500    49.8410     1.0390     0.4790     1.1600    25.2240   119.4390 
   52.7500  -999.2500    49.0200     0.9970     0.4700     1.1720    25.2450   120.0310 
   52.8750  -999.2500    45.7530     0.9660     0.4640     1.2080    25.3190   120.3670 
   53.0000  -999.2500    42.9190     0.9660     0.4610     1.2550    25.3930   120.3550 
   53.1250  -999.2500    39.7230     1.0200     0.4570     1.2720    25.4190   119.9220 
   53.2500     1.8010    35.8210     1.1200     0.4530     1.2710    25.4210   119.2680 
   53.3750     1.8010    32.8180     1.2420     0.4510     1.2660    25.4210   118.5100 
   53.5000     1.8710    32.2070     1.3390     0.4520     1.2610    25.4210   117.6820 
   53.6250     1.9770    36.3150     1.3550     0.4610     1.2580    25.4210   116.8810 
   53.7500     2.0600    41.7070     1.3080     0.4730     1.2520    25.4210   116.2630 
   53.8750     2.0970    44.6930     1.2410     0.4870     1.2480    25.4210   115.9240 
   54.0000     2.0980    44.3140     1.1770     0.5000     1.2510    25.4220   115.7830 
   54.1250     2.0940    42.8460     1.1180     0.5070     1.2580    25.4230   115.6930 
   54.2500     2.0990    42.0950     1.0610     0.5090     1.2660    25.4240   115.6770 
   54.3750     2.0990    42.2640     1.0220     0.5060     1.2670    25.4220   115.7240 
   54.5000     2.0860    43.2020     1.0290     0.5020     1.2630    25.4210   115.6800 
   54.6250     2.0630    43.9560     1.1030     0.4990     1.2600    25.4210   115.4250 
   54.7500     2.0460    43.3780     1.2180     0.5010     1.2520    25.4210   114.9990 
   54.8750     2.0440    42.9310     1.3330     0.5070     1.2400    25.4210   114.3540 
   55.0000     2.0640    44.0800     1.3830     0.5150     1.2310    25.4210   113.5370 
   55.1250     2.1060    45.4470     1.2860     0.5200     1.2260    25.4210   112.6830 
   55.2500     2.1600    44.4910     1.0780     0.5190     1.2270    25.4210   111.7550 
   55.3750     2.2180    42.4700     0.8570     0.5150     1.2280    25.4200   110.7220 
   55.5000     2.2800    42.2640     0.7190     0.5190     1.2240    25.4120   109.6980 
   55.6250     2.3300    44.5080     0.7390     0.5520     1.2150    25.3890   108.8150 
   55.7500     2.3210    46.5910     0.9770     0.6160     1.2050    25.3610   108.0170 
   55.8750     2.2430    48.2880     1.7090     0.7010     1.1950    25.3470   107.2600 
   56.0000     2.1440    49.6740     3.9570     0.7810     1.1860    25.3440   106.5550 
   56.1250     2.0920    50.5790    19.2160     0.8200     1.1820    25.3440   105.9720 
   56.2500     2.0880    49.8630   213.8870     0.8140     1.1850    25.3440   105.4720 
   56.3750     2.0960    47.8890 750095.1250     0.7690     1.1930    25.3440   105.0950 
   56.5000     2.1020    46.4220 1000000.0000     0.7090     1.2000    25.3440   104.8030 
   56.6250     2.1100    47.5350  1155.6890     0.6580     1.2050    25.3440   104.4900 
   56.7500     2.1120    49.3790   157.2200     0.6280     1.2080    25.3440   104.1410 
   56.8750     2.1120    48.8230    51.1510     0.6230     1.2070    25.3410   103.7780 
   57.0000     2.1070    45.4050    26.3730     0.6360     1.2090    25.3340   103.3750 
   57.1250     2.0850    42.0500    15.6190     0.6570     1.2060    25.3230   102.8320 
   57.2500     2.0520    40.7960     8.6800     0.6770     1.2020    25.3180   102.1910 
   57.3750     2.0260    41.1350     4.7300     0.6890     1.1950    25.2950   101.4130 
   57.5000     2.0190    42.3780     2.7240     0.6900     1.1900    25.2680   100.4580 
   57.6250     2.0280    43.2730     1.8550     0.6840     1.1900    25.2450    99.3040 
   57.7500     2.0460    43.0890     1.4470     0.6780     1.1910    25.2240    98.0100 
   57.8750     2.0700    43.2590     1.2800     0.6750     1.1920    25.2220    96.6150 
   58.0000     2.1020    44.2190     1.2200     0.6760     1.1950    25.2320    95.1720 
   58.1250     2.1410    44.7580     1.1780     0.6800     1.2000    25.2180    93.7770 
   58.2500     2.1880    44.3210     1.1230     0.6810     1.2040    25.2110    92.4950 
   58.3750     2.2390    44.7440     1.0660     0.6740     1.2050    25.2100    91.4010 
   58.5000     2.2820    46.0150     1.0250     0.6600     1.2030    25.2080    90.5640 
   58.6250     2.2940    46.0810     1.0120     0.6440     1.1990    25.1950    90.0530 
   58.7500     2.2810    46.9080     1.0230     0.6300     1.1930    25.0860    89.8220 
   58.8750     2.2640    48.7210     1.0490     0.6230     1.1910    24.8030    89.8620 
   59.0000     2.2630    49.8170     1.0760     0.6230     1.1900    24.3780    90.1120 
   59.1250     2.2870    49.4800     1.0630     0.6350     1.1820    24.1500    90.4660 
   59.2500     2.3190    49.2670     0.9980     0.6600     1.1680    24.0810    90.7830 
   59.3750     2.3420    50.6700     0.9130     0.7040     1.1550    24.0840    90.9770 
   59.5000     2.3460    52.8580     0.8410     0.7600     1.1460    24.1220    90.8570 
   59.6250     2.3330    54.9510     0.7480     0.7740     1.1520    24.2610    90.0450 
   59.7500     2.3250    56.0920     0.5810     0.6860     1.1750    24.4840    88.2870 
   59.8750     2.3360    55.3410     0.3820     0.5040     1.2090    24.6300    85.2480 
   60.0000     2.3700    55.7000     0.2340     0.3130     1.2440    24.5740    80.6030 
   60.1250     2.4260    59.3980     0.1870     0.2030     1.2790    24.2370    73.7360 
   60.2500     2.4920    63.9720     0.2240     0.1850     1.3500    23.9230    64.9230 
   60.3750     2.5500    68.7430     0.3510     0.2670     1.6500    23.7060    54.5120 
   60.5000     2.5740    75.9030     0.5900     0.4780     2.4410    23.5440    43.2430 
   60.6250     2.5420    86.4130     1.0410     0.9410     4.3300    23.4690    31.8110 
   60.7500     2.4740    94.7400     1.7950     1.7390     5.7810    23.4380    20.8040 
   60.8750     2.3930    99.2440     2.8960     2.8980     6.5300    23.4370    10.6610 
   61.0000     2.3240   100.5980     4.0810     4.1970     6.9300    23.4490     1.8190 
   61.1250     2.2840    99.4600     4.7490     5.1500     7.3060    23.4150    -5.0320 
   61.2500     2.2660    98.3560     4.9200     5.6560     7.3870    23.3270   -10.0560 
   61.3750     2.2610    98.6460     4.8600     5.8640     7.5500    23.2060   -13.5130 
   61.5000     2.2630    98.6230     4.7310     5.9040     7.5810    23.1120   -15.9970 
   61.6250     2.2660    95.6120     4.5600     5.7950     7.4970    23.0610   -17.8360 
   61.7500     2.2730    93.5540     4.3950     5.6220     7.4310    23.0310   -19.3910 
   61.8750     2.2860    95.9010     4.3510     5.5460     7.3750    23.0500   -20.7950 
   62.0000     2.3110   100.5530     4.6010     5.8110     6.9780    23.2250   -22.1800 
   62.1250     2.3500   102.0730     5.4330     6.8110     7.0970    23.6710   -23.6770 
   62.2500     2.3950    97.3700     6.9750     8.6840     8.8040    24.1170   -25.3450 
   62.3750     2.4460    86.4690     9.3960    11.4860    13.9000    24.2900   -27.2370 
   62.5000     2.4970    74.2990    12.5070    14.7610    25.0960    24.3190   -29.3580 
   62.6250     2.5290    67.5390    14.5080    16.6820    36.6900    24.3750   -31.7030 
   62.7500     2.5130    66.1770    13.7630    16.0470    33.5220    24.4470   -34.1160 
   62.8750     2.4350    66.7590    11.3000    13.6010    20.4860    24.4470   -36.4680 
   63.0000     2.3220    67.4770     8.9860    10.9120    12.6540    24.3740   -38.6530 
   63.1250     2.2280    67.2170     7.6650     9.0220    10.4720    24.1940   -40.4890 
