~V
VERS. 2.00: Ver 2.00
~W
STRT.M 53.0000:
STOP.M 269.0000:
STEP.M 0.1250:
NULL. -999.2500:
UWI. F10224:
~C
DEPT.M :
DEN.GM/CC :
GR.API :
RML.OHMM :
RI. :
RXO.OHMM :
CALI.CM :
SP.MV :
~A
# ...
  255.3750     2.5110    38.5380     9.1230     8.2940    13.8970    23.7290   -13.4590 
  255.5000     2.5150    40.7260    10.1540     9.2310    15.1850    23.7030   -13.5160 
  255.6250     2.5120    44.1700    11.1050    10.0960    13.8940    23.7350   -13.5890 
  255.7500     2.5020    45.4600    11.6030    10.5480    12.4630    23.7780   -13.6890 
  255.8750     2.4860    43.8610    11.4280    10.3890    12.0220    23.8160   -13.7690 
  256.0000     2.4680    41.7140    10.6460     9.6780    12.1800    23.8610   -13.8070 
  256.1250     2.4490    40.5530     9.5370     8.6700    13.3420    24.1610   -13.8460 
  256.2500     2.4240    40.8150     8.4570     7.7000    17.0710    25.1070   -13.8660 
  256.3750     2.3900    43.1480     7.5970     6.9010    21.3390    26.5220   -13.9140 
  256.5000     2.3570    46.7220     7.0250     6.3120    18.7720    27.4550   -13.9620 
  256.6250     2.3420    48.1600     6.6900     5.9440    11.1270    27.9910   -14.0210 
  256.7500     2.3460    45.8860     6.4790     5.7200     6.6240    28.4710   -14.0800 
  256.8750     2.3570    44.2280     6.3520     5.6040     5.2340    28.8600   -14.1600 
  257.0000     2.3620    47.2250     6.3000     5.5730     5.1020    28.9320   -14.2900 
  257.1250     2.3560    50.9440     6.3450     5.6290     5.0650    28.8430   -14.3930 
  257.2500     2.3450    49.5580     6.4620     5.7550     5.1170    28.5290   -14.4910 
  257.3750     2.3370    44.2270     6.6180     5.9270     5.2470    27.9730   -14.5890 
  257.5000     2.3340    40.5300     6.7590     6.1080     5.2810    27.5610   -14.7100 
  257.6250     2.3340    41.2490     6.8100     6.2390     5.1090    27.9770   -14.8240 
  257.7500     2.3250    42.8570     6.7460     6.2790     4.9060    28.0780   -14.9380 
  257.8750     2.3060    43.2410     6.5700     6.2140     4.8140    27.2330   -15.0390 
  258.0000     2.2850    42.9740     6.3250     6.0630     4.8590    26.4470   -15.1390 
  258.1250     2.2780    42.6860     6.0790     5.8690     4.9420    26.8820   -15.2650 
  258.2500     2.2880    42.5650     5.8900     5.6890     4.9920    27.7940   -15.4000 
  258.3750     2.3090    42.5650     5.7760     5.5510     5.0200    28.0120   -15.5340 
  258.5000     2.3300    42.5650     5.7310     5.4680     5.0200    27.2870   -15.6330 
  258.6250     2.3460    42.5650     5.7370     5.4500     4.9720    27.0520   -15.7120 
  258.7500     2.3540    42.5650     5.7670     5.4790     4.9140    27.5010   -15.8010 
  258.8750     2.3470    42.5650     5.8080     5.5350     4.8820    27.2100   -15.9180 
  259.0000     2.3230    42.5650     5.8450     5.5870     4.8550    25.1650   -16.0620 
  259.1250     2.2910    42.5650     5.8540     5.5920     4.8630    23.7070   -16.1760 
  259.2500     2.2760    42.5650     5.8170     5.5380     4.9430    23.4700   -16.2940 
  259.3750     2.2860    42.5650     5.7340     5.4290     4.9950    24.0190   -16.4270 
  259.5000     2.3060    42.5650     5.6240     5.2890     4.8940    24.8080   -16.5640 
  259.6250     2.3150    42.5650     5.5500     5.1710     4.7760    25.4250   -16.6940 
  259.7500     2.3170    42.5650     5.5810     5.1310     4.9480    25.5350   -16.8470 
  259.8750     2.3250    42.5650     5.7670     5.2200     5.4070    25.4430   -17.0000 
  260.0000     2.3450    42.5650     6.1250     5.4680     6.1210    25.3460   -17.1120 
  260.1250     2.3710    42.5650     6.6440     5.8850     7.6790    24.8230   -17.2490 
  260.2500     2.3880    42.5650     7.2040     6.3750     9.8170    24.5750   -17.4230 
  260.3750     2.3970    42.5650     7.6760     6.8320    10.9700    24.5260   -17.5830 
  260.5000     2.4020    42.5650     7.9520     7.1460     9.7740    24.5760   -17.7610 
  260.6250     2.4070    42.5650     7.9800     7.2330     7.7450    24.4960   -17.9440 
  260.7500     2.4120    42.5650     7.8850     7.1750     6.7300    24.1330   -18.1220 
  260.8750     2.4170    42.5650     7.7840     7.0690     6.5130    23.8590   -18.2860 
  261.0000     2.4240    42.5650     7.7720     7.0140     6.5570    23.6990   -18.4560 
  261.1250     2.4330    42.5650     7.9220     7.1060     6.6330    23.7490   -18.6360 
  261.2500     2.4420    42.5650     8.2150     7.3440     7.3710    24.0010   -18.8120 
  261.3750     2.4500    42.5650     8.6410     7.7160     9.3920    24.4550   -18.9740 
  261.5000     2.4590    42.5650     9.2030     8.2080    12.2310    24.7790   -19.1130 
  261.6250     2.4700    42.5650     9.9430     8.8350    13.9490    24.5130   -19.2850 
  261.7500     2.4810    42.5650    10.8400     9.5840    14.0730    24.1850   -19.4420 
  261.8750     2.4920    42.5650    11.8510    10.4370    14.0900    24.0020   -19.5800 
  262.0000     2.5000    42.5650    12.8790    11.3270    14.7960    23.9530   -19.7260 
  262.1250     2.5050    42.5650    13.7620    12.1140    15.8700    23.9470   -19.8880 
  262.2500     2.5060    42.5650    14.3930    12.6820    18.0680    23.9180   -20.0320 
  262.3750     2.5020    42.5650    14.7490    12.9900    20.9720    23.8470   -20.1480 
  262.5000     2.4930    42.5650    14.8930    13.0830    21.0480    23.7710   -20.2830 
  262.6250     2.4790    42.5650    14.9060    13.0460    16.9430    23.6940   -20.3600 
  262.7500     2.4680    42.5650    14.8760    12.9820    13.0210    23.6640   -20.4380 
  262.8750     2.4660    42.5650    14.8290    12.9230    10.8150    23.6440   -20.5290 
  263.0000     2.4740    42.5650    14.7920    12.8830    10.1260    23.5890   -20.6210 
  263.1250     2.4850    42.5650    14.7860    12.8670    11.2110    23.4520   -20.7320 
  263.2500     2.4950    42.5650    14.8040    12.8670    14.1270    23.6170   -20.8400 
  263.3750     2.5020    42.5650    14.8270    12.8770    17.2910    23.7870   -20.9470 
  263.5000     2.5030    42.5650    14.8430    12.8860    18.0130    23.8340   -21.0680 
  263.6250     2.4940    42.5650    14.8440    12.8790    16.5760    23.8440   -21.2760 
  263.7500     2.4810    42.5650    14.8350    12.8550    15.4390    23.8720   -21.4930 
  263.8750     2.4700    42.5650    14.8220    12.8210    14.4500    23.9110   -21.7170 
  264.0000     2.4600    42.5650    14.8070    12.7820    13.1620    23.9070   -21.9360 
  264.1250     2.4460    42.5650    14.7890    12.7510    12.1110    23.8470   -22.1080 
  264.2500     2.4270    42.5650    14.7890    12.7510    11.6950    23.8730   -22.2560 
  264.3750     2.4040    42.5650    14.7890    12.7510    11.5740    23.9150   -22.4600 
  264.5000     2.3820    42.5650    14.7890    12.7510    11.6490    23.8950   -22.6400 
  264.6250     2.3500    42.5650    14.7890    12.7510    11.6740    23.8230   -22.8090 
  264.7500     2.3080    42.5650    14.7890    12.7510    11.1510    23.6460   -22.9650 
  264.8750     2.2720    42.5650    14.7890    12.7510    10.1730    23.1170   -23.1200 
  265.0000     2.2470    42.5650    14.7890    12.7510     9.3760    22.0620   -23.2620 
  265.1250     2.2240    42.5650    14.7890    12.7510     8.8630    20.6860   -23.3710 
  265.2500     2.1990    42.5650    14.7890    12.7510     8.2520    18.9770   -24.9640 
  265.3750     2.1700    42.5650    14.7890    12.7510     7.7580    17.0550   -26.2340 
  265.5000     2.1410    42.5650    14.7890    12.7510     7.8510    15.2780   -27.5080 
  265.6250     2.1150    42.5650    14.7890    12.7510     8.5340    14.3110   -28.7970 
  265.7500     2.1040    42.5650    14.7890    12.7510     9.4220    13.8980   -30.1080 
  265.8750     2.1120    42.5650    14.7890    12.7510    10.7530    13.7930   -31.4650 
  266.0000     2.1300    42.5650    14.7890    12.7510    12.3210    13.7720   -32.8680 
  266.1250     2.1500    42.5650    14.7890    12.7510    12.2050    13.7720   -33.4330 
  266.2500     2.1690    42.5650    14.7890    12.7510    10.3670    13.8060   -33.4210 
  266.3750     2.1880    42.5650    14.7890    12.7510     8.6270    13.8840   -33.4090 
  266.5000     2.2050    42.5650    14.7890    12.7510     7.9200    13.8990  -999.2500 
