~V
VERS. 2.00: Ver 2.00
~W
STRT.M 50.0000:
STOP.M 258.0000:
STEP.M 0.1250:
NULL. -999.2500:
UWI. F10200:
~C
DEPT.M :
SP.MV :
GR.API :
RML.OHMM :
RI. :
RXO.OHMM :
CALI.CM :
DEN.GM/CC :
~A
# ...
  173.7500   -11.6800    63.9420    30.0570    29.6080    46.1820    23.7120     2.2870 
  173.8750   -11.7040    62.1940    27.7220    27.0120    31.5850    23.8340     2.2930 
  174.0000   -11.7250    59.0930    27.1060    25.9980    23.2400    23.8470     2.2950 
  174.1250   -11.7380    61.3520    28.0000    26.4580    24.8650    23.8820     2.2920 
  174.2500   -11.7590    67.2360    29.2190    27.4310    30.9510    23.8960     2.2880 
  174.3750   -11.7870    70.0820    29.7070    28.0090    34.4150    23.8910     2.2850 
  174.5000   -11.8300    68.1470    28.6350    27.3490    33.8360    23.9000     2.2880 
  174.6250   -11.8890    67.9920    25.6050    24.8530    36.8400    23.8930     2.3040 
  174.7500   -11.9540    72.1420    21.7590    21.4570    35.6240    23.8550     2.3320 
  174.8750   -12.0240    76.4420    18.2710    18.2670    26.8540    23.7980     2.3650 
  175.0000   -12.0940    78.2190    16.0460    16.1190    17.1520    23.7620     2.3940 
  175.1250   -12.1660    79.3290    15.6780    15.5710    12.5450    23.7510     2.4030 
  175.2500   -12.2410    78.2860    16.6370    16.2700    12.4040    23.7330     2.3940 
  175.3750   -12.3120    74.7170    18.3340    17.8080    14.3840    23.7100     2.3730 
  175.5000   -12.3650    70.9340    19.9930    19.5390    17.7080    23.7080     2.3490 
  175.6250   -12.4110    68.8050    20.6100    20.4690    21.3740    23.7360     2.3360 
  175.7500   -12.4550    69.3590    19.9030    20.0770    25.0430    23.7810     2.3390 
  175.8750   -12.4980    73.4230    18.1160    18.4370    25.7350    23.8250     2.3550 
  176.0000   -12.5600    80.2270    15.9650    16.2550    19.5320    23.8420     2.3790 
  176.1250   -12.6600    85.0440    14.4490    14.5550    13.3390    23.8560     2.3990 
  176.2500   -12.7940    85.9290    14.0250    13.8010    11.4190    23.8890     2.4040 
  176.3750   -12.9570    84.1630    14.8050    14.1030    11.7140    23.9360     2.3930 
  176.5000   -13.1580    80.0730    16.7190    15.4280    13.5330    23.9540     2.3710 
  176.6250   -13.3970    73.6870    19.7780    17.8430    17.7680    23.9210     2.3490 
  176.7500   -13.6670    70.3060    23.7110    21.1090    24.5160    23.8770     2.3330 
  176.8750   -13.9750    71.2670    28.5690    25.2350    28.8960    23.8240     2.3210 
  177.0000   -14.3180    73.0710    34.5860    30.3720    26.6900    23.7490     2.3080 
  177.1250   -14.6590    73.0440    42.3360    37.0380    29.1270    23.6640     2.2910 
  177.2500   -15.0130    71.3370    51.5620    45.1260    37.9110    23.6610     2.2700 
  177.3750   -15.3910    69.4070    61.6820    54.2310    50.3190    23.7230     2.2510 
  177.5000   -15.7800    67.2250    71.6320    63.4190    62.2860    23.7600     2.2410 
  177.6250   -16.1540    64.2740    79.7890    71.0360    67.5490    23.7430     2.2390 
  177.7500   -16.5090    60.7780    85.6140    76.3020    68.5120    23.7380     2.2420 
  177.8750   -16.8380    58.7290    89.3530    79.3740    67.5150    23.7320     2.2450 
  178.0000   -17.1260    60.0750    91.7780    81.0970    68.7090    23.7460     2.2460 
  178.1250   -17.3810    61.1250    93.4110    82.1330    70.0510    23.7550     2.2460 
  178.2500   -17.5760    59.8950    94.5090    82.8060    71.0860    23.7260     2.2430 
  178.3750   -17.7050    58.8750    95.0290    83.1070    70.2610    23.6620     2.2410 
  178.5000   -17.7640    61.0900    94.8980    82.9750    69.5160    23.6460     2.2390 
  178.6250   -17.7300    64.1670    93.8720    82.1990    70.8530    23.6720     2.2350 
  178.7500   -17.6290    63.8150    91.9620    80.7390    70.5730    23.6950     2.2310 
  178.8750   -17.4510    61.3640    89.1240    78.5160    68.6280    23.6960     2.2280 
  179.0000   -17.2060    60.3380    85.5290    75.6130    69.0790    23.6430     2.2270 
  179.1250   -16.8900    61.3500    81.8210    72.4810    65.7690    23.5000     2.2290 
  179.2500   -16.5320    61.6260    78.9380    69.9040    61.3780    23.3520     2.2350 
  179.3750   -16.1420    62.7490    77.5470    68.4680    57.0040    23.3100     2.2420 
  179.5000   -15.7370    65.9550    78.0200    68.5380    56.5020    23.2860     2.2470 
  179.6250   -15.3600    68.2460    80.7230    70.5070    55.0710    23.2300     2.2490 
  179.7500   -14.9800    66.1100    85.0580    73.9350    61.2130    23.3150     2.2500 
  179.8750   -14.6140    60.4340    90.6980    78.5560    65.3860    23.4690     2.2510 
  180.0000   -14.2670    56.3130    97.4490    84.1700    66.5860    23.5680     2.2510 
  180.1250   -13.9370    58.5540   105.4910    90.8810    69.0570    23.5280     2.2510 
  180.2500   -13.6260    62.6540   114.7400    98.5790    75.6230    23.4290     2.2480 
  180.3750   -13.3320    64.0260   125.2460   107.2950    85.7490    23.3780     2.2410 
  180.5000   -13.0710    62.8370   136.8890   116.9420    96.0540    23.4210     2.2310 
  180.6250   -12.8060    61.7170   149.2090   127.1780   101.5710    23.6010     2.2220 
  180.7500   -12.5640    59.9690   161.0820   137.1290   112.9630    23.8280     2.2160 
  180.8750   -12.3440    57.6100   171.2630   145.8660   133.1140    23.9860     2.2160 
  181.0000   -12.1240    56.1880   178.2420   152.2970   155.0980    24.0450     2.2180 
  181.1250   -11.9020    56.7620   179.3960   154.5030   166.2020    24.0520     2.2200 
  181.2500   -11.6770    58.3110   174.2120   151.9690   167.3270    24.0460     2.2190 
  181.3750   -11.4520    60.2660   162.3270   144.1300   158.0590    24.0210     2.2160 
  181.5000   -11.2050    61.8540   144.4410   131.0880   146.0570    23.9610     2.2150 
  181.6250   -10.9660    61.7880   122.4770   113.6170   134.5190    23.9100     2.2190 
  181.7500   -10.7260    61.0930   100.8400    94.9880   122.8480    23.8340     2.2300 
  181.8750   -10.4910    61.2730    82.1880    77.8290   101.9830    23.7460     2.2470 
  182.0000   -10.2600    61.5840    68.0250    64.0660    73.5520    23.6840     2.2670 
  182.1250   -10.0570    59.9330    59.7600    54.9910    53.3820    23.6670     2.2830 
  182.2500    -9.8800    57.5470    53.0020    49.2210    38.1120    23.6560     2.2920 
  182.3750    -9.7240    57.2500    48.6810    45.5940    31.4420    23.6810     2.2960 
  182.5000    -9.5960    60.2870    45.5670    43.0330    33.7590    23.8020     2.3030 
  182.6250    -9.4980    65.3360    42.9210    40.8550    40.0540    23.8950     2.3190 
  182.7500    -9.4340    69.0220    40.5400    38.8490    44.6800    23.9130     2.3420 
  182.8750    -9.4040    69.1860    38.6740    37.2150    42.9350    23.9040     2.3620 
  183.0000    -9.4180    66.0790    37.5610    36.1820    35.2300    23.9280     2.3670 
  183.1250    -9.4770    63.8950    37.2700    35.8830    32.6850    23.9490     2.3530 
  183.2500    -9.5730    64.2760    37.2830    35.9370    40.7030    23.9590     2.3330 
  183.3750    -9.6990    65.9350    37.1490    35.9760    49.1750    23.9380     2.3160 
  183.5000    -9.8630    67.3820    36.5990    35.7150    45.4120    23.9160     2.3090 
  183.6250   -10.0670    69.5470    35.7070    35.1020    33.9520    23.9140     2.3090 
  183.7500   -10.3000    72.7270    35.1320    34.6240    29.6990    23.9370     2.3090 
  183.8750   -10.5490    75.8070    35.6770    34.9830    30.9800    23.9640     2.3090 
  184.0000   -10.8320    76.9400    38.0850    36.9130    34.1930    23.9710     2.3080 
  184.1250   -11.1340    74.5350    43.1400    41.3270    38.1720    23.9420     2.3050 
  184.2500   -11.4420    70.5730    50.1360    47.8260    46.0090    23.9130     2.2960 
  184.3750   -11.7660    66.1170    57.8350    55.4180    62.2530    23.9360     2.2800 
  184.5000   -12.0950    62.7900    64.1170    62.0920    92.1490    24.0000     2.2600 
  184.6250   -12.4200    61.1280    65.6030    64.3400   112.7540    24.0250     2.2470 
  184.7500   -12.7540    62.3250    61.5670    60.9120   104.3980    24.0100     2.2460 
  184.8750   -13.1150    65.8430    53.2840    52.7950    83.9160    23.9860     2.2570 
