~V
VERS. 2.00: Ver 2.00
~W
STRT.M 50.0000:
STOP.M 258.0000:
STEP.M 0.1250:
NULL. -999.2500:
UWI. F10200:
~C
DEPT.M :
SP.MV :
GR.API :
RML.OHMM :
RI. :
RXO.OHMM :
CALI.CM :
DEN.GM/CC :
~A
# ...
  252.5000    -4.6730    57.8260    18.4160    17.9990    27.1580    23.5210     2.4620 
  252.6250    -4.7120    57.8260    18.4190    18.0020    27.9110    23.4780     2.4620 
  252.7500    -4.7680    57.8260    18.4260    18.0050    25.4630    23.5230     2.4700 
  252.8750    -4.8390    57.8260    18.4300    18.0080    24.5440    23.5950     2.4810 
  253.0000    -4.9030    57.8260    18.4280    18.0110    21.0770    23.6350     2.4880 
  253.1250    -4.9880    57.8260    18.4220    18.0140    17.1640    23.6400     2.4910 
  253.2500    -5.0800    57.8260    18.4160    18.0170    15.1480    23.6400     2.4910 
  253.3750    -5.1850    57.8260    18.4150    18.0180    14.3730    23.6310     2.4890 
  253.5000    -5.3110    57.8260    18.4150    18.0180    13.9290    23.6080     2.4850 
  253.6250    -5.5460    57.8260    18.4150    18.0180    13.4250    23.5830     2.4800 
  253.7500    -5.8110    57.8260    18.4150    18.0180    13.5750    23.5730     2.4760 
  253.8750    -6.0690    57.8260    18.4150    18.0180    14.7110    23.5700     2.4750 
  254.0000    -6.3400    57.8260    18.4150    18.0180    17.8110    23.5680     2.4750 
  254.1250    -6.3910    57.8260    18.4150    18.0180    22.9450    23.5440     2.4730 
  254.2500    -6.6420    57.8260    18.4150    18.0180    28.1010    23.4930     2.4670 
  254.3750    -6.8660    57.8260    18.4150    18.0180    30.3360    23.4330     2.4590 
  254.5000    -7.0400    57.8260    18.4150    18.0180    33.1880    23.3760     2.4550 
  254.6250    -7.1660    57.8260    18.4150    18.0180    26.6000    23.3330     2.4560 
  254.7500    -7.1660    57.8260    18.4150    18.0180    22.3580    23.2780     2.4620 
  254.8750    -7.1660    57.8260    18.4150    18.0180    19.0680    23.2420     2.4720 
  255.0000  -999.2500    57.8260    18.4150    18.0180    17.0360    23.2100     2.4830 
  255.1250  -999.2500    57.8260    18.4150    18.0180    17.0250    23.1410     2.4970 
  255.2500  -999.2500    57.8260    18.4150    18.0180    18.0090    23.0100     2.5110 
  255.3750  -999.2500    57.8260    18.4150    18.0180    18.8880    22.7910     2.5170 
  255.5000  -999.2500    57.8260    18.4150    18.0180    17.2210    22.2550     2.5060 
  255.6250  -999.2500    57.8260    18.4150    18.0180    14.2060    21.1150     2.4800 
  255.7500  -999.2500    57.8260    18.4150    18.0180    11.2910    20.0880     2.4500 
  255.8750  -999.2500    57.8260    18.4150    18.0180    10.0920    19.6730     2.4250 
  256.0000  -999.2500    57.8260    18.4150    18.0180     9.8440    19.6080     2.4080 
  256.1250  -999.2500    57.8260    18.4150    18.0180     9.8430    19.6010     2.4000 
  256.2500  -999.2500    57.8260    18.4150    18.0180     9.8430    19.5990     2.3980 
  256.3750  -999.2500    57.8260    18.4150    18.0180     9.8420    19.5970     2.3990 
  256.5000  -999.2500    57.8260    18.4150    18.0180     9.8400    19.5920     2.4000 
  256.6250  -999.2500    57.8260    18.4150    18.0180     9.8400    19.5900     2.4030 
  256.7500  -999.2500    57.8260    18.4150    18.0180     9.8410    19.5890     2.4040 
  256.8750  -999.2500    57.8260    18.4150    18.0180     9.8430    19.5910     2.4040 
  257.0000  -999.2500    57.8260    18.4150    18.0180     9.8430    19.5940     2.3980 
  257.1250  -999.2500    57.8260    18.4150    18.0180     9.8410    19.5950     2.3930 
  257.2500  -999.2500    57.8260    18.4150    18.0180     9.8380    19.5920     2.3880 
  257.3750  -999.2500    57.8260    18.4150    18.0180     9.8350    19.5900  -999.2500 
  257.5000  -999.2500    57.8260    18.4150    18.0180     9.8350    19.5890  -999.2500 
  257.6250  -999.2500    57.8260    18.4150    18.0180     9.8340    19.5870  -999.2500 
  257.7500  -999.2500    57.8260    18.4150    18.0180     9.8310    19.5820  -999.2500 
  257.8750  -999.2500    57.8260    18.4150    18.0180     9.8260    19.5800  -999.2500 
  258.0000  -999.2500    57.8260    18.4150    18.0180     9.8220    19.5790  -999.2500 
