~V
VERS. 2.00: Ver 2.00
~W
STRT.M 60.0000:
STOP.M 271.0000:
STEP.M 0.1250:
NULL. -999.2500:
UWI. F10237:
~C
DEPT.M :
GR.API :
RML.OHMM :
RI. :
RXO.OHMM :
CALI.CM :
DEN.GM/CC :
SP.MV :
~A
# ...
   82.5000    56.2370     9.3940     7.7910     7.5510    23.0190     2.1680   -14.3140 
   82.6250    54.5980     9.3990     7.8340     7.6560    23.0150     2.1720   -14.1460 
   82.7500    53.3380     9.3880     7.8580     7.6530    23.0020     2.1730   -13.9050 
   82.8750    51.2650     9.3390     7.8480     7.5490    22.9680     2.1700   -13.6500 
   83.0000    48.2540     9.2600     7.7990     7.4030    22.9470     2.1630   -13.4410 
   83.1250    47.2240     9.1760     7.7040     7.2100    22.9610     2.1550   -13.2730 
   83.2500    49.4300     9.0970     7.5660     7.1120    23.0320     2.1510   -13.0730 
   83.3750    52.1980     8.9970     7.3900     7.0600    23.1310     2.1530   -12.7910 
   83.5000    52.6090     8.8340     7.1830     7.0850    23.2050     2.1580   -12.4670 
   83.6250    53.5330     8.5620     6.9520     7.1790    23.2440     2.1630   -12.1800 
   83.7500    56.6920     8.2290     6.7180     7.2090    23.2240     2.1710   -11.8930 
   83.8750    57.6250     7.9490     6.5300     7.1910    23.1430     2.1820   -11.5310 
   84.0000    53.7390     7.9300     6.4870     7.3550    23.0080     2.1950   -11.1180 
   84.1250    49.0960     8.6450     6.8530     7.6700    22.9350     2.2150   -10.7030 
   84.2500    51.6710    10.4460     7.8680     8.0180    22.9760     2.2510   -10.2920 
   84.3750    59.6510    13.7410     9.9050     8.8150    23.1460     2.3120    -9.8540 
   84.5000    66.4060    18.7680    13.3750    11.7300    23.4580     2.4000    -9.4030 
   84.6250    67.2710    25.1830    18.5760    22.2750    23.8090     2.4930    -8.9880 
   84.7500    65.8900    30.3590    23.7790    45.2490    24.1260     2.5560    -8.5770 
   84.8750    66.5660    30.7630    25.8850    73.5480    24.2800     2.5670    -8.1600 
   85.0000    68.6130    25.2290    22.9200    64.8790    24.3110     2.5260    -7.7510 
   85.1250    73.7270    17.4350    16.9430    31.2160    24.2980     2.4550    -7.3780 
   85.2500    82.2110    11.5270    11.7480    12.9860    24.2780     2.3930    -7.0820 
   85.3750    90.5620     8.0440     8.2470     6.8140    24.2700     2.3590    -6.8750 
   85.5000    93.3790     6.3850     6.2330     5.0760    24.2760     2.3540    -6.6590 
   85.6250    89.9870     6.0100     5.3920     4.7900    24.3420     2.3620    -6.4860 
   85.7500    87.0320     6.2440     5.1900     4.9160    24.4820     2.3670    -6.4100 
   85.8750    86.6370     6.7640     5.3820     5.3320    24.6000     2.3570    -6.4160 
   86.0000    86.3240     7.2800     5.7440     6.0490    24.5250     2.3260    -6.4540 
   86.1250    85.2400     7.5280     6.0580     5.8950    24.2430     2.2820    -6.5010 
   86.2500    84.8380     7.4790     6.2120     5.7050    23.9890     2.2430    -6.5850 
   86.3750    84.9050     7.1910     6.1830     5.4860    23.8020     2.2200    -6.6900 
   86.5000    83.0790     6.7480     5.9980     5.3360    23.6810     2.2120    -6.7990 
   86.6250    81.4160     6.2200     5.7040     5.1080    23.6490     2.2280    -6.8620 
   86.7500    83.7290     5.6980     5.3780     5.0350    23.8640     2.2650    -6.9390 
   86.8750    89.0010     5.2600     5.0640     4.8940    24.2910     2.3090    -7.0500 
   87.0000    93.1860     4.9870     4.8110     4.4080    24.5840     2.3390    -7.1610 
   87.1250    96.0550     4.9630     4.7000     4.1870    24.6030     2.3460    -7.2160 
   87.2500    99.6850     5.1440     4.7500     4.2680    24.5580     2.3360    -7.2470 
   87.3750   100.9470     5.4850     4.9610     4.6680    24.4820     2.3160    -7.3600 
   87.5000   100.5590     5.9150     5.2900     5.0880    24.3550     2.2960    -7.5610 
   87.6250   101.2590     6.3300     5.6370     5.3510    24.2230     2.2850    -7.7590 
   87.7500   101.7160     6.6280     5.8810     5.5110    24.0990     2.2780    -7.9580 
   87.8750    98.6120     6.7480     5.9520     5.5610    23.9890     2.2730    -8.1760 
   88.0000    95.8080     6.6680     5.8400     5.5050    24.0020     2.2740    -8.4000 
   88.1250    98.4190     6.3730     5.5570     5.3490    24.2760     2.2900    -8.6300 
   88.2500    97.5780     5.9540     5.1910     5.1300    24.5280     2.3110    -8.8290 
   88.3750    89.9510     5.5120     4.8100     4.8190    24.5960     2.3220    -8.9990 
   88.5000    84.4870     5.2010     4.5000     4.5400    24.5410     2.3160    -9.1660 
   88.6250    89.1810     5.2910     4.4160     4.3820    24.3970     2.2970    -9.3370 
   88.7500    95.2890     5.9630     4.6860     4.5000    24.1440     2.2850    -9.4620 
   88.8750    94.5080     7.3960     5.4730     5.2530    23.7310     2.2990    -9.5800 
   89.0000    84.7810     9.6610     6.9220     7.6700    23.3150     2.3550    -9.7760 
   89.1250    72.6490    12.5650     9.1230    13.6330    23.1870     2.4470   -10.0270 
   89.2500    66.6540    15.0350    11.4130    25.6730    23.3110     2.5280   -10.2000 
   89.3750    67.9940    15.7340    12.6830    35.4700    23.4410     2.5490   -10.2420 
   89.5000    73.7450    14.0370    12.0780    25.6190    23.2440     2.5040   -10.2390 
   89.6250    80.5130    10.9870    10.0040    12.2690    22.7370     2.4330   -10.2590 
   89.7500    86.6020     8.4370     7.9590     6.7630    22.2270     2.3790   -10.2740 
   89.8750    90.1980     6.9120     6.5180     5.6270    21.8230     2.3450   -10.2350 
   90.0000    89.9860     6.3090     5.7610     5.7600    21.5640     2.3240   -10.1720 
   90.1250    86.2730     6.4000     5.6290     6.0780    21.4700     2.3030   -10.1710 
   90.2500    79.9820     6.7440     5.8130     6.2630    21.4400     2.2870   -10.2660 
   90.3750    75.7380     7.0740     6.1020     6.2370    21.4620     2.2820   -10.4300 
   90.5000    76.0860     7.2200     6.3200     6.0060    21.5050     2.2890   -10.6540 
   90.6250    80.2590     7.1410     6.3620     5.9660    21.5560     2.2980   -10.9570 
   90.7500    85.2110     6.9880     6.2880     6.0040    21.6210     2.3010   -11.3210 
   90.8750    90.4020     6.8780     6.1790     5.9630    21.8280     2.2960   -11.6970 
   91.0000    93.7230     6.8780     6.1170     5.7720    22.3070     2.2840   -12.0330 
   91.1250    90.6750     7.0260     6.1710     5.6320    22.8220     2.2700   -12.3710 
   91.2500    84.3950     7.2610     6.3130     5.8430    22.9940     2.2600   -12.7780 
   91.3750    77.3360     7.5060     6.4780     6.3790    22.8420     2.2570   -13.2250 
   91.5000    72.1080     7.6530     6.5810     6.8520    22.7040     2.2630   -13.6590 
   91.6250    71.3410     7.5730     6.5330     6.6280    22.9140     2.2760   -14.0750 
   91.7500    74.0070     7.3490     6.3880     6.2610    23.4530     2.2890   -14.4820 
   91.8750    76.8860     7.1920     6.2640     5.8110    24.1370     2.2930   -14.8880 
   92.0000    76.7130     7.3830     6.3210     5.6810    24.6360     2.2890   -15.2950 
   92.1250    74.1550     8.2450     6.7720     5.9520    24.7000     2.2800   -15.7270 
   92.2500    70.8120     9.6850     7.6320     6.8430    24.5270     2.2700   -16.1580 
   92.3750    67.0120    11.4300     8.8200     9.0630    24.3670     2.2630   -16.5700 
   92.5000    63.8040    12.9600    10.0650    13.4130    24.2970     2.2610   -16.9390 
   92.6250    63.1950    13.4740    10.7990    19.2700    24.1530     2.2530   -17.2290 
   92.7500    62.8580    12.9040    10.7550    17.1510    23.8420     2.2280   -17.5280 
   92.8750    61.6580    11.6510    10.0540    11.7150    23.5010     2.1990   -17.8550 
   93.0000    61.0610    10.3110     9.0810     8.9860    23.1440     2.1850   -18.1170 
   93.1250    61.9030     9.3630     8.2330     8.4320    22.9820     2.1880   -18.2350 
   93.2500    62.2770     8.8360     7.6520     8.1680    23.0520     2.1950   -18.3080 
   93.3750    62.4740     8.6450     7.3370     7.5560    23.2180     2.2000   -18.4210 
   93.5000    66.2290     8.6920     7.2460     7.0530    23.2910     2.2030   -18.5530 
   93.6250    71.6430     8.9550     7.3660     7.4880    23.2610     2.2040   -18.6350 
