~V
VERS. 2.00: Ver 2.00
~W
STRT.M 53.0000:
STOP.M 267.0000:
STEP.M 0.1250:
NULL. -999.2500:
UWI. F10211:
~C
DEPT.M :
GR.API :
RML.OHMM :
RI. :
RXO.OHMM :
CALI.CM :
SP.MV :
DEN.GM/CC :
~A
# ...
  176.7500    59.2530   163.5930   150.6980    57.3740    22.7460   -31.4450     2.2440 
  176.8750    62.0330   141.0890   133.2770    54.7280    23.0600   -31.2280     2.2370 
  177.0000    66.5430   113.0110   108.8310    50.0210    23.2550   -31.0270     2.2470 
  177.1250    70.5350    87.8360    85.0840    47.0840    23.3370   -30.8580     2.2640 
  177.2500    71.7570    70.0130    67.0030    46.4490    23.3830   -30.7350     2.2780 
  177.3750    69.2830    60.5060    56.1980    40.9470    23.3960   -30.6700     2.2780 
  177.5000    66.3430    59.8160    53.4340    37.1500    23.2750   -30.6620     2.2640 
  177.6250    64.5960    66.4790    57.4830    40.9910    23.2430   -30.6830     2.2430 
  177.7500    62.9120    79.5910    67.7840    53.4220    23.5400   -30.7160     2.2200 
  177.8750    60.5490    97.6480    83.4780    76.5320    24.1720   -30.7470     2.1950 
  178.0000    57.6370   115.8960   101.1700    95.4260    24.9420   -30.7440     2.1800 
  178.1250    55.8170   126.7320   114.1490   105.1710    25.5080   -30.7000     2.1790 
  178.2500    54.5860   125.1010   117.0670   105.6440    25.6270   -30.6100     2.1910 
  178.3750    53.7700   112.3820   109.5320   100.9160    25.3630   -30.4720     2.2100 
  178.5000    54.0590    94.8840    95.7270    88.4060    25.1100   -30.3050     2.2270 
  178.6250    56.2060    78.8940    81.6510    71.4120    25.0180   -30.1350     2.2340 
  178.7500    60.1620    67.0440    70.5180    56.0860    25.0260   -29.9670     2.2330 
  178.8750    63.2000    59.6260    63.2500    44.4420    25.0410   -29.8240     2.2360 
  179.0000    64.8040    56.0520    59.7360    45.6840    25.1130   -29.7250     2.2430 
  179.1250    66.6700    54.2570    58.1990    47.3160    25.2630   -29.6590     2.2380 
  179.2500    68.4330    52.2630    56.6860    45.6170    25.4160   -29.6130     2.2220 
  179.3750    69.2080    48.4130    53.2470    44.8590    25.3730   -29.5970     2.2250 
  179.5000    70.2650    41.6680    46.3250    45.7790    25.0130   -29.6150     2.2650 
  179.6250    73.6290    33.3480    37.2910    39.4630    24.4100   -29.6590     2.3190 
  179.7500    78.7080    25.3800    28.4480    27.6690    23.8210   -29.7340     2.3550 
  179.8750    83.3800    19.1890    21.4750    17.2950    23.4080   -29.8660     2.3590 
  180.0000    86.9020    15.6360    17.2340    11.5680    23.0020   -30.0620     2.3300 
  180.1250    87.8060    14.3900    15.2630     9.2370    22.7250   -30.3080     2.2850 
  180.2500    85.2220    15.2180    15.2270     8.9470    22.7820   -30.6070     2.2420 
  180.3750    80.0450    18.1570    17.1080     9.8020    23.1830   -30.9390     2.2190 
  180.5000    73.8720    23.7590    21.5160    13.0790    23.6950   -31.2890     2.2200 
  180.6250    68.1490    31.9110    28.5930    18.7940    24.1060   -31.6360     2.2310 
  180.7500    64.4760    42.2130    38.1950    28.3010    24.3310   -31.9710     2.2370 
  180.8750    63.9290    53.8120    49.5500    37.5600    24.3480   -32.2720     2.2320 
  181.0000    64.5300    65.1810    61.0130    45.0480    24.1860   -32.5270     2.2210 
  181.1250    61.9360    74.5590    70.5770    53.3060    24.0390   -32.7460     2.2140 
  181.2500    57.0200    80.3900    76.4940    61.8110    24.0620   -32.9310     2.2170 
  181.3750    55.0170    81.8080    77.7520    64.6820    24.2190   -33.0840     2.2280 
  181.5000    57.5240    78.8940    74.3100    59.0890    24.4580   -33.2060     2.2410 
  181.6250    60.9610    73.8830    68.4590    53.4600    24.6910   -33.3100     2.2500 
  181.7500    63.6370    68.9160    62.4010    48.1150    24.8510   -33.4000     2.2550 
  181.8750    65.5560    65.6000    57.7360    43.3950    24.8920   -33.4670     2.2570 
  182.0000    66.6960    65.2740    55.7300    42.3500    24.8280   -33.5120     2.2560 
  182.1250    67.2320    67.9180    56.3860    43.4720    24.7260   -33.5340     2.2560 
  182.2500    68.3170    73.2510    59.5000    43.0680    24.6130   -33.5240     2.2570 
  182.3750    69.6910    80.7490    64.7270    41.3970    24.4730   -33.4740     2.2570 
  182.5000    68.3810    89.3730    71.3610    49.7580    24.2890   -33.3910     2.2510 
  182.6250    64.7520    97.4850    78.0090    57.7050    24.1720   -33.2890     2.2420 
  182.7500    61.9050   103.8780    83.5490    60.9840    24.1560   -33.1760     2.2300 
  182.8750    62.2810   108.0500    87.3930    63.2720    24.2270   -33.0590     2.2200 
  183.0000    62.8970   109.9230    89.2570    65.8730    24.3800   -32.9340     2.2090 
  183.1250    60.7900   110.4530    89.7950    66.9870    24.5630   -32.7940     2.1920 
  183.2500    60.0730   110.5990    89.7940    67.7530    24.6740   -32.6580     2.1680 
  183.3750    63.4420   110.9640    89.8780    68.9870    24.5810   -32.5500     2.1530 
  183.5000    65.6070   111.7950    90.4010    69.2510    24.1660   -32.4640     2.1660 
  183.6250    65.8090   113.0890    91.3920    70.3100    23.5310   -32.3670     2.1960 
  183.7500    66.6970   114.8800    92.8650    71.2210    22.9990   -32.2630     2.2180 
  183.8750    68.7740   117.1370    94.8170    69.8960    22.7320   -32.1560     2.2200 
  184.0000    69.2820   119.4330    97.0850    65.0840    22.8280   -32.0390     2.2000 
  184.1250    68.5390   120.5210    98.8510    59.5200    23.1670   -31.9130     2.1750 
  184.2500    68.2410   118.3540    98.5300    54.8220    23.5320   -31.7770     2.1600 
  184.3750    67.9520   110.9170    94.2420    50.1680    23.7610   -31.6280     2.1610 
  184.5000    68.1790    97.5910    84.7610    42.4860    23.8300   -31.4770     2.1630 
  184.6250    68.4590    81.7920    72.3890    30.3680    23.7840   -31.3430     2.1530 
  184.7500    69.1500    67.0760    60.0920    18.1160    23.6940   -31.2140     2.1440 
  184.8750    71.6780    55.5990    50.0280    10.2770    23.6970   -31.0860     2.1560 
  185.0000    74.4980    48.2570    43.3430     8.4940    23.8440   -30.9770     2.1940 
  185.1250    75.1490    43.8460    39.2340    10.4510    24.1290   -30.8940     2.2280 
  185.2500    74.0800    41.1870    36.7780    13.4050    24.2590   -30.8340     2.2370 
  185.3750    74.1760    39.3750    35.2340    14.9770    24.2750   -30.7890     2.2320 
  185.5000    74.7260    37.5950    33.9010    12.9300    24.3270   -30.7510     2.2390 
  185.6250    73.3980    35.3480    32.2150     9.8870    24.3860   -30.7250     2.2620 
  185.7500    70.8090    32.6020    30.0240     9.4420    24.3610   -30.7020     2.2870 
  185.8750    70.8880    29.6460    27.5320    12.9760    24.3150   -30.6870     2.3010 
  186.0000    76.6190    27.0620    25.2270    15.1400    24.1960   -30.6740     2.3040 
  186.1250    82.7680    25.3670    23.5850    12.5860    23.8380   -30.6620     2.3060 
  186.2500    84.9980    24.8190    22.8850    10.2310    23.3920   -30.6620     2.3080 
  186.3750    83.1150    25.2800    23.1070    10.3550    23.2030   -30.6700     2.3130 
  186.5000    80.8150    26.2210    23.9280    12.9470    23.2400   -30.6870     2.3200 
  186.6250    80.9360    26.8390    24.6640    17.5290    23.4810   -30.7010     2.3300 
  186.7500    82.4120    26.5620    24.7150    21.2470    23.8360   -30.7170     2.3410 
  186.8750    83.3800    25.3110    23.8490    18.7020    24.1360   -30.7310     2.3510 
  187.0000    81.7360    23.5960    22.3790    13.7250    24.3020   -30.7520     2.3510 
  187.1250    79.5870    22.1700    20.9790    11.5360    24.4640   -30.7850     2.3320 
  187.2500    79.3120    21.4420    20.0710    11.9710    24.6100   -30.8280     2.3050 
  187.3750    80.9600    21.5090    19.8060    11.8840    24.6160   -30.8870     2.2850 
  187.5000    82.3410    22.3160    20.2160    11.2790    24.5120   -30.9770     2.2830 
  187.6250    83.5510    23.5190    21.0430    12.0670    24.4280   -31.1070     2.2850 
  187.7500    85.1660    24.8340    22.0360    14.2480    24.4750   -31.2680     2.2760 
  187.8750    84.7790    26.0780    23.0180    16.1280    24.5980   -31.4490     2.2520 
