~V
VERS. 2.00: Ver 2.00
~W
STRT.M 53.0000:
STOP.M 269.0000:
STEP.M 0.1250:
NULL. -999.2500:
UWI. F10224:
~C
DEPT.M :
DEN.GM/CC :
GR.API :
RML.OHMM :
RI. :
RXO.OHMM :
CALI.CM :
SP.MV :
~A
# ...
  199.1250     2.4140    45.9310     5.2580     5.4230     6.7120    24.1640   -20.9560 
  199.2500     2.4370    47.8970     3.9970     4.1830     5.6130    23.8800   -21.0660 
  199.3750     2.4440    48.5470     3.2020     3.3070     4.3330    23.9150   -21.1200 
  199.5000     2.4450    49.3700     2.9200     2.8360     3.6050    24.1500   -21.1750 
  199.6250     2.4430    50.0980     3.2180     2.8170     4.1360    24.1920   -21.2430 
  199.7500     2.4410    49.6140     4.0530     3.1960     5.6500    24.1010   -21.2840 
  199.8750     2.4450    48.2830     5.4990     4.0280     7.2510    24.0440   -21.2290 
  200.0000     2.4530    47.6510     7.5550     5.3690     8.3230    24.0260   -21.0550 
  200.1250     2.4610    47.5850     9.9620     7.2050    10.1100    23.9960   -20.8160 
  200.2500     2.4650    48.5700    12.0030     9.0690    13.1110    23.9430   -20.6560 
  200.3750     2.4700    52.4600    13.0540    10.3800    16.5980    23.8850   -20.5160 
  200.5000     2.4770    59.0740    12.8800    10.7270    17.8140    23.8440   -20.3300 
  200.6250     2.4800    63.4580    11.7730    10.1410    15.3300    23.8230   -20.1290 
  200.7500     2.4700    61.6690    10.5750     9.2840    12.6200    23.8500   -19.9680 
  200.8750     2.4500    54.8550     9.7090     8.5320    11.1150    23.9150   -19.8760 
  201.0000     2.4260    48.6460     9.3530     8.0760    10.6870    23.9760   -19.8620 
  201.1250     2.4040    48.6540     9.6170     8.0460    10.9680    23.9720   -19.8670 
  201.2500     2.3890    52.1780    10.3410     8.3650    11.3300    23.9380   -19.7840 
  201.3750     2.3880    55.0230    11.3760     8.9670    11.6810    23.9000   -19.7150 
  201.5000     2.4040    55.8180    12.4800     9.7280    12.6470    23.8690   -19.7240 
  201.6250     2.4310    56.4630    13.2470    10.3980    14.8310    23.8440   -19.7830 
  201.7500     2.4550    57.0740    13.4370    10.7360    16.8660    23.8260   -19.8380 
  201.8750     2.4660    55.7790    13.0460    10.6520    17.0240    23.8400   -19.8370 
  202.0000     2.4680    53.4630    12.3120    10.2420    15.3820    23.8610   -19.7870 
  202.1250     2.4660    52.7660    11.5890     9.7200    13.1870    23.8680   -19.7590 
  202.2500     2.4630    50.5140    11.0800     9.2750    11.3390    23.8730   -19.8230 
  202.3750     2.4610    45.3020    10.7690     8.9410    10.2880    23.8830   -19.8860 
  202.5000     2.4620    42.1120    10.5400     8.6740    10.3730    23.8780   -19.8860 
  202.6250     2.4600    45.8710    10.2770     8.4240    11.1130    23.9380   -19.8400 
  202.7500     2.4540    49.9430    10.0020     8.1990    11.1190    24.0010   -19.8120 
  202.8750     2.4480    50.6990     9.8410     8.0660    10.0180    24.0860   -19.8460 
  203.0000     2.4500    50.7060     9.9190     8.0940     8.6370    24.1950   -19.9220 
  203.1250     2.4670    50.1000    10.3030     8.3400     8.0900    24.1880   -19.9600 
  203.2500     2.4860    47.0350    10.8020     8.6970     8.8150    24.0780   -19.9030 
  203.3750     2.4950    44.5160    11.1900     9.0220    10.7820    24.0130   -19.8520 
  203.5000     2.4880    45.0590    11.2690     9.1580    13.3310    24.0030   -19.8930 
  203.6250     2.4670    46.9590    10.9470     8.9920    14.1670    24.0150   -19.9540 
  203.7500     2.4420    49.2860    10.4520     8.6480    12.5710    24.0440   -19.9790 
  203.8750     2.4210    50.8560     9.9860     8.2640    10.2580    24.0680   -19.9630 
  204.0000     2.4090    51.7440     9.6820     7.9470     8.7970    24.0420   -19.8920 
  204.1250     2.4070    56.0090     9.6140     7.7660     8.6970    23.9050   -19.8500 
  204.2500     2.4060    66.6870     9.7010     7.6980     9.2110    23.7080   -19.8910 
  204.3750     2.4010    80.3440     9.8790     7.7170     9.5310    23.5660   -19.9320 
  204.5000     2.3970    92.0030    10.0880     7.8010     9.3250    23.6420   -19.9000 
  204.6250     2.4000    99.8840    10.2930     7.9270     9.1080    23.6330   -19.8060 
  204.7500     2.4160   102.7760    10.4840     8.0640     9.4060    23.6840   -19.7020 
  204.8750     2.4410   100.7280    10.6590     8.1870     9.9840    23.8040   -19.6330 
  205.0000     2.4650    96.5270    10.8270     8.2810    10.4300    23.9110   -19.6420 
  205.1250     2.4730    93.0330    11.0380     8.3650    10.6110    23.9330   -19.6260 
  205.2500     2.4670    91.1210    11.3240     8.4860    10.7800    23.9350   -19.5130 
  205.3750     2.4580    88.7930    11.6540     8.6560    11.1200    23.9590   -19.3320 
  205.5000     2.4550    86.3980    11.9200     8.8310    11.6360    23.9360   -19.1560 
  205.6250     2.4610    85.8780    11.9260     8.9010    12.8360    23.8530   -19.0200 
  205.7500     2.4720    86.3650    11.6500     8.8190    14.3680    23.8950   -18.8760 
  205.8750     2.4780    86.9350    11.2240     8.6350    14.3530    24.0910   -18.6560 
  206.0000     2.4720    86.6860    10.9180     8.4900    12.0630    24.3720   -18.3490 
  206.1250     2.4590    86.1910    11.1070     8.6100    10.2520    24.3470   -18.0330 
  206.2500     2.4560    83.9060    11.8710     9.0930    10.6860    24.2870   -17.8130 
  206.3750     2.4640    81.2410    13.1470     9.9650    12.7920    24.1910   -17.6410 
  206.5000     2.4800    83.1220    14.6650    11.1260    15.2920    24.0640   -17.4230 
  206.6250     2.4980    87.2200    15.7980    12.2190    16.8360    23.9850   -17.1590 
  206.7500     2.5150    88.7670    15.9830    12.7540    17.3440    23.9600   -16.9140 
  206.8750     2.5310    87.9400    15.0090    12.4330    17.2780    23.9520   -16.7240 
  207.0000     2.5400    87.8790    13.1390    11.3170    16.1690    23.9460   -16.5700 
  207.1250     2.5300    86.7400    10.9540     9.7600    13.3960    24.0010   -16.3750 
  207.2500     2.4920    82.0180     9.0390     8.2580    10.1730    24.1310   -16.0620 
  207.3750     2.4320    75.7960     7.6170     7.0340     7.6250    24.3040   -15.7270 
  207.5000     2.3620    70.6480     6.7310     6.1710     6.1300    24.6900   -15.4610 
  207.6250     2.2850    65.8380     6.3700     5.7170     5.6290    25.3240   -15.2570 
  207.7500     2.2160    60.9810     6.3040     5.5450     5.5580    25.8130   -15.0580 
  207.8750     2.1720    59.7050     6.3900     5.5650     5.6390    25.5570   -14.8450 
  208.0000     2.1680    64.4560     6.5070     5.6830     5.7750    25.3910   -14.6360 
  208.1250     2.2090    71.3860     6.5820     5.8160     5.7160    26.3600   -14.5240 
  208.2500     2.2660    74.9600     6.6190     5.9140     5.5350    27.4820   -14.5440 
  208.3750     2.3160    75.7880     6.6380     5.9700     5.4260    27.0320   -14.6060 
  208.5000     2.3450    78.5300     6.6470     5.9860     5.4290    25.4950   -14.6350 
  208.6250     2.3610    83.0600     6.6330     5.9600     5.3870    24.9930   -14.6510 
  208.7500     2.3700    84.3000     6.5880     5.8980     5.2630    25.1900   -14.7170 
  208.8750     2.3590    83.3180     6.5090     5.8040     5.1360    25.3310   -14.8720 
  209.0000     2.3270    84.4240     6.4060     5.6880     5.0580    25.0990   -15.0550 
  209.1250     2.3040    89.8670     6.3040     5.5680     5.1330    24.7270   -15.2060 
  209.2500     2.3120    94.8940     6.2440     5.4710     5.4110    24.5000   -15.3110 
  209.3750     2.3420    95.7170     6.2720     5.4270     5.7360    24.2430   -15.4500 
  209.5000     2.3680    90.5850     6.4410     5.4780     6.0200    24.0580   -15.7040 
  209.6250     2.3760    81.0250     6.8200     5.6790     6.2860    23.9570   -15.9900 
  209.7500     2.3760    73.7100     7.3820     6.0190     6.6800    23.8790   -16.1930 
  209.8750     2.3770    71.7490     8.0750     6.4760     7.4770    23.8080   -16.3140 
  210.0000     2.3810    74.9180     8.7930     6.9940     8.7800    23.7330   -16.4170 
  210.1250     2.3870    80.6040     9.3720     7.4710    10.1370    23.6570   -16.5510 
  210.2500     2.3890    84.4200     9.7540     7.8380    10.6270    23.6120   -16.7320 
