~V
VERS. 2.00: Ver 2.00
~W
STRT.M 52.0000:
STOP.M 271.0000:
STEP.M 0.1250:
NULL. -999.2500:
UWI. F10212:
~C
DEPT.M :
GR.API :
RML.OHMM :
RI. :
RXO.OHMM :
CALI.CM :
SP.MV :
DEN.GM/CC :
~A
# ...
  119.5000    52.6300    30.8740    27.3860    45.0340    24.4110    -9.8880     2.4680 
  119.6250    50.8980    30.2550    27.4940    48.5440    24.4140    -9.3150     2.5300 
  119.7500    54.6360    25.6350    23.7500    34.4630    24.4140    -8.8320     2.5560 
  119.8750    62.0020    20.0660    18.9360    18.7870    24.4130    -8.4350     2.5370 
  120.0000    67.2170    16.1960    15.3310    12.1010    24.4170    -8.1120     2.4810 
  120.1250    67.6850    15.4580    13.9630    11.1890    24.4350    -7.8290     2.4150 
  120.2500    67.3740    17.4860    14.5620    12.9630    24.4720    -7.5350     2.3750 
  120.3750    63.8040    22.3190    17.3190    19.7900    24.5190    -7.2040     2.3810 
  120.5000    55.3710    29.9310    22.5550    34.5270    24.5480    -6.8300     2.4370 
  120.6250    48.5540    39.8200    30.4620    44.3910    24.5370    -6.4290     2.5230 
  120.7500    46.7270    49.2760    38.9210    45.8890    24.5140    -6.1000     2.5960 
  120.8750    46.5240    55.5800    45.3980    47.3060    24.5170    -5.8500     2.6370 
  121.0000    45.2090    57.6520    48.4320    49.6120    24.5350    -5.6640     2.6470 
  121.1250    44.7720    56.5690    48.3590    50.7780    24.5210    -5.5220     2.6400 
  121.2500    44.5980    54.6730    47.1260    49.3970    24.4980    -5.4020     2.6310 
  121.3750    43.2190    52.5140    45.3550    44.6900    24.4690    -5.3180     2.6280 
  121.5000    41.1280    50.0180    43.1520    43.1750    24.4240    -5.3160     2.6280 
  121.6250    40.8410    47.1880    40.6260    42.5650    24.3900    -5.4090     2.6260 
  121.7500    43.1740    44.3750    38.1380    39.9580    24.3740    -5.5080     2.6210 
  121.8750    46.3690    41.8210    35.9120    35.3540    24.3500    -5.6120     2.6170 
  122.0000    48.9370    39.6010    34.0160    30.5300    24.3820    -5.7190     2.6160 
  122.1250    50.2610    37.5860    32.3590    29.8630    24.4610    -5.8360     2.6140 
  122.2500    50.9910    35.4970    30.6900    29.9300    24.5010    -5.9780     2.6060 
  122.3750    50.5290    33.2270    28.9040    27.9520    24.4820    -6.1660     2.5940 
  122.5000    49.7860    30.8600    27.0380    25.3460    24.4350    -6.3840     2.5820 
  122.6250    50.1920    28.7100    25.3060    22.5720    24.3120    -6.5960     2.5700 
  122.7500    51.3810    27.0480    23.9140    20.2150    24.0150    -6.7930     2.5570 
  122.8750    53.0910    25.9990    22.9740    18.8430    23.6110    -6.9530     2.5440 
  123.0000    54.1390    25.4840    22.4590    18.7610    23.3030    -7.0620     2.5300 
  123.1250    53.7900    25.2790    22.2350    19.3580    23.1940    -7.1350     2.5240 
  123.2500    52.1400    25.0720    22.0540    20.2730    23.3930    -7.1840     2.5270 
  123.3750    50.1720    24.7560    21.8100    20.9800    23.9900    -7.1820     2.5300 
  123.5000    48.6910    24.3760    21.5060    20.7700    24.7340    -7.1040     2.5220 
  123.6250    48.0490    24.1080    21.2510    19.6280    24.9870    -6.9490     2.5020 
  123.7500    48.4100    24.0530    21.1410    19.3490    24.9090    -6.7410     2.4880 
  123.8750    48.0850    24.1930    21.1960    20.3610    24.8940    -6.5520     2.4870 
  124.0000    47.8770    24.4200    21.3600    22.1310    24.9460    -6.4390     2.4930 
  124.1250    49.8330    24.5770    21.5220    21.8690    24.9360    -6.3640     2.5010 
  124.2500    52.7150    24.5850    21.5900    20.7130    24.9080    -6.2870     2.5120 
  124.3750    54.0490    24.4450    21.5340    19.8740    24.9070    -6.1810     2.5270 
  124.5000    53.0550    24.2170    21.3810    19.7370    24.8900    -6.0730     2.5400 
  124.6250    53.8070    23.9850    21.1960    19.6600    24.8020    -6.0000     2.5420 
  124.7500    56.4640    23.8140    21.0510    19.8380    24.7040    -5.9840     2.5330 
  124.8750    59.7650    23.7400    20.9900    19.7200    24.6550    -5.9920     2.5250 
  125.0000    61.4130    23.7790    21.0350    19.4630    24.6830    -5.9940     2.5230 
  125.1250    57.7660    23.8910    21.1700    19.8220    24.6770    -5.9940     2.5310 
  125.2500    53.2640    23.9300    21.2750    20.1490    24.6270    -6.0030     2.5410 
  125.3750    51.7090    23.7550    21.2280    20.0990    24.5890    -6.0390     2.5450 
  125.5000    53.0120    23.2740    20.9420    20.4740    24.6050    -6.0970     2.5370 
  125.6250    53.2330    22.4480    20.3540    19.5870    24.6430    -6.2010     2.5210 
  125.7500    51.7820    21.4910    19.6100    18.0310    24.5390    -6.3200     2.5040 
  125.8750    51.3590    20.6210    18.8820    17.4320    24.2630    -6.4210     2.4910 
  126.0000    51.6800    20.0130    18.3270    17.1440    23.9970    -6.4940     2.4870 
  126.1250    50.2470    19.7950    18.0740    17.1630    23.8770    -6.5140     2.4990 
  126.2500    48.7310    19.8810    18.0800    17.0770    23.7890    -6.4820     2.5180 
  126.3750    48.3180    20.1740    18.2890    17.8720    23.6930    -6.4360     2.5290 
  126.5000    48.5430    20.5400    18.6050    18.9120    23.6940    -6.3900     2.5270 
  126.6250    48.6420    20.8480    18.9240    18.4380    23.9560    -6.3030     2.5150 
  126.7500    49.7570    21.0650    19.1930    17.6610    24.0490    -6.1550     2.5000 
  126.8750    51.7110    21.2020    19.4020    17.5260    23.9190    -5.9520     2.4860 
  127.0000    52.3860    21.2880    19.5560    17.7420    23.7860    -5.7250     2.4790 
  127.1250    52.7670    21.3300    19.6570    17.5030    23.8980    -5.5720     2.4850 
  127.2500    53.0180    21.2850    19.6800    17.4160    24.2090    -5.4870     2.4940 
  127.3750    51.4100    21.1070    19.5840    17.2020    24.6300    -5.4060     2.5010 
  127.5000    48.7130    20.8350    19.3840    17.1010    24.9330    -5.3160     2.5080 
  127.6250    48.5010    20.6050    19.1860    17.2780    24.9160    -5.2410     2.5170 
  127.7500    50.1070    20.4850    19.0650    16.6900    24.7060    -5.2220     2.5260 
  127.8750    50.2690    20.4180    18.9910    16.0100    24.5970    -5.2660     2.5320 
  128.0000    48.5220    20.2840    18.8710    16.5440    24.5340    -5.3590     2.5340 
  128.1250    47.4890    19.9220    18.5760    18.5780    24.4090    -5.4020     2.5350 
  128.2500    48.7800    19.3390    18.0930    18.3160    24.3430    -5.4020     2.5330 
  128.3750    51.3740    18.6480    17.4940    15.5730    24.3550    -5.4020     2.5260 
  128.5000    53.4280    18.0200    16.9050    13.2820    24.4010    -5.4080     2.5120 
  128.6250    53.8780    17.6450    16.4720    13.4610    24.4450    -5.4400     2.4970 
  128.7500    54.2090    17.5410    16.2360    14.6470    24.5120    -5.4810     2.4940 
  128.8750    54.7780    17.6610    16.1900    15.4550    24.5900    -5.5220     2.5010 
  129.0000    54.8510    17.8760    16.2580    15.2030    24.6330    -5.5540     2.5110 
  129.1250    54.8700    17.9880    16.2830    14.9010    24.6270    -5.6170     2.5180 
  129.2500    55.3830    17.9660    16.1970    15.3950    24.5990    -5.7340     2.5200 
  129.3750    56.1000    17.9790    16.1080    16.3850    24.5710    -5.9070     2.5190 
  129.5000    55.8140    18.3230    16.2390    16.4340    24.5510    -6.1280     2.5170 
  129.6250    56.3960    19.4840    16.9580    15.5200    24.5010    -6.3780     2.5140 
  129.7500    61.2120    21.6020    18.4120    15.4330    24.3950    -6.6160     2.5080 
  129.8750    68.6680    24.6300    20.6640    18.8650    24.2100    -6.8270     2.5010 
  130.0000    75.2660    28.1320    23.5120    27.8150    24.0630    -7.0010     2.5000 
  130.1250    78.4920    31.1030    26.2480    34.3620    24.0550    -7.1560     2.5060 
  130.2500    79.6680    32.7140    28.0100    31.0400    24.1000    -7.2810     2.5090 
  130.3750    80.7020    32.7750    28.4320    26.0390    24.1200    -7.3700     2.5000 
  130.5000    82.4120    31.8130    27.7930    23.5230    24.0710    -7.3910     2.4800 
  130.6250    84.1760    30.7650    26.8040    24.1590    23.9260    -7.3090     2.4570 
