~V
VERS. 2.00: Ver 2.00
~W
STRT.M 58.0000:
STOP.M 273.0000:
STEP.M 0.1250:
NULL. -999.2500:
UWI. F10226:
~C
DEPT.M :
SP.MV :
DEN.GM/CC :
GR.API :
RML.OHMM :
RI. :
RXO.OHMM :
CALI.CM :
~A
# ...
  170.5000   -26.4330     2.1950    62.3040   193.7910   176.2720   124.9630    26.0250 
  170.6250   -26.5130     2.1880    64.3060   194.8830   175.5880   130.7390    26.0650 
  170.7500   -26.5640     2.1810    65.2330   195.9580   174.9640   133.3020    25.9750 
  170.8750   -26.6380     2.1760    64.0640   196.5180   174.1270   129.5560    25.9060 
  171.0000   -26.7120     2.1730    63.8190   196.7040   173.2940   116.4430    25.9690 
  171.1250   -26.7850     2.1700    65.3470   196.8690   172.8610   103.5880    26.1780 
  171.2500   -26.8500     2.1690    67.1440   197.2730   173.1090    99.4990    26.3630 
  171.3750   -26.9350     2.1700    65.9820   197.8570   174.0100   100.8950    26.3510 
  171.5000   -27.0250     2.1740    63.4910   198.1020   174.9470   104.9110    26.2140 
  171.6250   -27.0980     2.1780    63.2540   197.3500   175.2260   109.3260    26.0700 
  171.7500   -27.1610     2.1810    64.7710   195.0810   174.2780   112.3090    25.9880 
  171.8750   -27.1930     2.1800    63.9770   191.1250   171.8410   117.4310    25.9620 
  172.0000   -27.2190     2.1760    62.4660   186.3880   168.6790   117.4390    25.9770 
  172.1250   -27.2410     2.1700    63.6860   181.7350   165.5970   112.0330    26.0320 
  172.2500   -27.2790     2.1640    67.0410   177.9600   163.3490   105.3820    26.0460 
  172.3750   -27.2730     2.1600    66.1420   176.0040   162.8380   101.9640    25.9440 
  172.5000   -27.2840     2.1560    62.0490   175.8750   164.1180   104.7190    25.8500 
  172.6250   -27.2930     2.1500    60.6540   176.9060   166.6750   111.2450    25.8030 
  172.7500   -27.3000     2.1440    62.7480   177.1700   168.8650   115.7740    25.7520 
  172.8750   -27.3310     2.1420    64.7940   172.4490   166.8900   118.6920    25.7190 
  173.0000   -27.3900     2.1480    65.6950   160.8920   158.5690   124.0160    25.7320 
  173.1250   -27.4640     2.1630    66.5830   143.5730   141.2800   124.9390    25.7140 
  173.2500   -27.5450     2.1810    66.8360   124.0260   122.7900   114.2870    25.6830 
  173.3750   -27.6910     2.1980    66.1260   106.5770   106.3230    91.8820    25.7230 
  173.5000   -27.8630     2.2080    66.4290    93.0540    93.0930    70.6880    25.8390 
  173.6250   -28.1010     2.2120    67.4780    83.8010    83.7260    62.0150    25.9760 
  173.7500   -28.3550     2.2120    67.5460    78.6070    78.2060    62.2450    26.0820 
  173.8750   -28.6340     2.2100    66.8480    77.8450    76.9370    62.5990    26.1270 
  174.0000   -28.9500     2.2080    65.7180    81.0290    79.4580    60.4890    26.0100 
  174.1250   -29.2780     2.2060    64.1830    88.3310    85.9470    58.7590    25.9010 
  174.2500   -29.6510     2.2040    63.7100    99.8750    96.5640    66.1450    25.9320 
  174.3750   -29.9750     2.2010    65.1340   115.4630   111.1920    89.4260    25.9520 
  174.5000   -30.3180     2.1960    66.8800   132.1230   127.0380   114.8000    25.9030 
  174.6250   -30.5700     2.1910    68.1160   145.8020   140.3610   126.6320    25.8490 
  174.7500   -30.8490     2.1890    67.9850   152.2200   147.1560   123.0150    25.8390 
  174.8750   -31.0850     2.1900    66.8360   148.6040   144.4240   116.8310    25.8030 
  175.0000   -31.2580     2.1900    64.8070   139.7180   136.0830   110.8250    25.7920 
  175.1250   -31.4110     2.1860    63.2390   130.6150   126.7450   106.9710    25.7070 
  175.2500   -31.5100     2.1790    62.7370   125.0130   120.1660    98.9200    25.6600 
  175.3750   -31.6810     2.1690    62.9390   125.9380   119.5470    90.8320    25.7820 
  175.5000   -31.7200     2.1610    63.6530   133.1030   124.9460    89.8080    25.9050 
  175.6250   -31.8110     2.1580    63.2940   145.2340   135.3580   109.6020    25.8430 
  175.7500   -31.8230     2.1600    60.9960   159.1380   147.9460   135.1670    25.6990 
  175.8750   -31.7750     2.1640    57.5000   168.6790   157.2190   160.7270    25.6020 
  176.0000   -31.7860     2.1670    55.9720   170.4400   159.6940   179.4700    25.4620 
  176.1250   -31.7290     2.1700    57.5220   165.7440   155.9250   177.5420    25.2670 
  176.2500   -31.6630     2.1730    60.5020   159.6720   150.0280   150.5020    25.1300 
  176.3750   -31.6230     2.1730    62.6930   158.8870   148.1030   121.1000    25.0520 
  176.5000   -31.5880     2.1680    63.8820   166.1520   153.2940   110.7210    25.0750 
  176.6250   -31.4990     2.1620    63.7790   182.0750   166.4670   126.4900    25.2950 
  176.7500   -31.5210     2.1540    62.8240   205.1860   186.3160   168.4860    25.7970 
  176.8750   -31.6110     2.1510    61.3400   230.7250   208.5610   201.3140    26.3530 
  177.0000   -31.5680     2.1540    60.1850   250.7520   226.2790   209.7590    26.4880 
  177.1250   -31.5890     2.1600    60.0490   259.8080   234.7220   205.9360    26.2370 
  177.2500   -31.7090     2.1670    61.4980   257.5750   233.2610   202.0860    25.9870 
  177.3750   -31.7820     2.1710    62.8940   248.0340   224.8140   202.3620    25.8360 
  177.5000   -31.8600     2.1700    62.1010   237.2450   214.7350   198.1750    25.7020 
  177.6250   -31.9600     2.1630    60.9020   227.8760   205.6380   182.1270    25.7010 
  177.7500   -32.0650     2.1450    61.5660   221.1310   198.8620   161.1890    26.0000 
  177.8750   -32.2630     2.1190    62.8450   217.9820   195.5860   158.5660    26.6300 
  178.0000   -32.5050     2.0900    61.6710   217.7840   195.4090   165.9690    27.1260 
  178.1250   -32.6340     2.0700    59.5890   219.7510   197.7470   181.0230    27.3120 
  178.2500   -32.5910     2.0620    59.0330   222.7070   201.6110   204.5350    27.3190 
  178.3750   -32.5340     2.0720    60.2530   224.7340   205.3590   232.2200    27.2820 
  178.5000   -32.6100     2.0980    62.2760   223.6950   206.8890   226.4140    27.2520 
  178.6250   -32.7300     2.1350    64.1440   217.0960   203.7950   198.5620    27.2210 
  178.7500   -32.7610     2.1760    63.9670   202.7010   193.7090   184.2060    27.1870 
  178.8750   -32.6370     2.2050    61.6000   179.2620   174.6250   171.5670    27.1280 
  179.0000   -32.4800     2.2130    60.9640   151.3400   150.0380   151.3620    27.0310 
  179.1250   -32.3500     2.2010    62.9600   123.6930   124.2020   125.8480    26.9350 
  179.2500   -32.1960     2.1790    65.2770   100.1110   101.1010   100.9550    26.8620 
  179.3750   -31.9130     2.1690    66.8300    83.4010    84.0550    78.9520    26.8070 
  179.5000   -31.5310     2.1760    68.1060    72.6570    72.7070    71.7270    26.7350 
  179.6250   -31.1290     2.1970    69.7190    67.0400    66.3460    65.4450    26.6540 
  179.7500   -30.7480     2.2170    70.9720    65.8660    64.2720    54.8890    26.5810 
  179.8750   -30.4450     2.2180    71.0070    69.3930    66.6890    53.5270    26.5160 
  180.0000   -30.2400     2.1970    70.6470    77.1870    73.1730    59.9690    26.4580 
  180.1250   -30.1570     2.1590    69.9570    89.8640    84.3070    70.2170    26.4790 
  180.2500   -30.1840     2.1170    68.7110   108.5430   101.1740    85.1200    26.6120 
  180.3750   -30.2870     2.0900    65.9860   135.1700   125.5560   129.0480    26.7200 
  180.5000   -30.3900     2.0840    62.1670   166.7870   154.4000   169.6340    26.7680 
  180.6250   -30.4380     2.0970    58.8900   196.3690   181.1520   196.0150    26.7880 
  180.7500   -30.4040     2.1180    56.5810   213.4140   196.7250   226.6350    26.7920 
  180.8750   -30.2920     2.1340    55.9290   208.8170   193.1740   234.6340    26.7300 
  181.0000   -30.1250     2.1360    55.8450   190.7630   177.0540   197.7140    26.6380 
  181.1250   -29.9500     2.1290    55.7050   168.3640   156.2140   147.3320    26.5510 
  181.2500   -29.7520     2.1240    55.9400   147.2570   136.1400   130.8890    26.4720 
  181.3750   -29.4830     2.1340    58.1480   130.0020   119.6630   143.7340    26.4140 
  181.5000   -29.1410     2.1510    62.0120   116.5570   106.8740   136.4170    26.3980 
  181.6250   -28.7970     2.1590    65.1410   107.0630    97.9330   106.6320    26.3920 
