~V
VERS. 2.00: Ver 2.00
~W
STRT.M 50.0000:
STOP.M 274.0000:
STEP.M 0.1250:
NULL. -999.2500:
UWI. F10206:
~C
DEPT.M :
SP.MV :
DEN.GM/CC :
GR.API :
RML.OHMM :
RI. :
RXO.OHMM :
CALI.CM :
~A
# ...
   95.0000   -30.6810     2.1550    51.8940     8.4850     7.1910    11.7540    23.5650 
   95.1250   -30.7680     2.1520    54.5070     8.4900     7.2580    11.7530    23.5650 
   95.2500   -30.8310     2.1470    56.1790     8.4490     7.2580    11.7860    23.5650 
   95.3750   -30.8340     2.1420    55.0850     8.4010     7.2130    11.7130    23.5670 
   95.5000   -30.7540     2.1400    53.3450     8.3690     7.1670    11.5380    23.5840 
   95.6250   -30.6460     2.1370    54.0410     8.3560     7.1740    11.2830    23.6940 
   95.7500   -30.4860     2.1330    54.3530     8.3460     7.2240    11.0040    23.9010 
   95.8750   -30.2840     2.1270    52.3550     8.3340     7.2680    10.7790    24.1380 
   96.0000   -30.0280     2.1210    49.4190     8.3240     7.2760    10.6730    24.3090 
   96.1250   -29.7180     2.1210    48.4770     8.3250     7.2730    10.6400    24.3100 
   96.2500   -29.3170     2.1270    49.0050     8.3470     7.2970    10.6200    24.1810 
   96.3750   -28.8290     2.1350    49.8740     8.3800     7.3300    10.6120    23.9370 
   96.5000   -28.3010     2.1400    51.3570     8.3740     7.3140    10.6000    23.8370 
   96.6250   -27.6860     2.1350    54.2710     8.2180     7.1350    10.5520    23.7980 
   96.7500   -27.0010     2.1240    57.0720     7.8490     6.7640    10.3450    23.7800 
   96.8750   -26.3060     2.1140    58.4870     7.2640     6.2350     9.7110    23.7030 
   97.0000   -25.6760     2.1140    58.0290     6.5870     5.6720     8.6740    23.5450 
   97.1250   -25.0870     2.1320    56.6160     6.1140     5.2640     7.9660    23.6280 
   97.2500   -24.6200     2.1650    57.6150     6.0600     5.1290     7.8060    23.8550 
   97.3750   -24.3410     2.2090    61.1030     6.5410     5.3560     7.8050    23.9880 
   97.5000   -24.1810     2.2610    63.7350     7.5670     5.9960     8.5660    24.0270 
   97.6250   -24.2240     2.3160    60.9260     9.0310     7.0710    12.0860    24.0490 
   97.7500   -24.4340     2.3570    55.7950    10.4340     8.2850    19.2010    24.0190 
   97.8750   -24.7040     2.3680    53.9950    11.2760     9.2500    20.8230    23.8970 
   98.0000   -25.0410     2.3420    55.9950    11.2800     9.6150    14.6560    23.7390 
   98.1250   -25.4020     2.2910    58.6670    10.5650     9.2810    11.5570    23.7120 
   98.2500   -25.6730     2.2490    58.8270     9.7170     8.7000    11.1590    23.6910 
   98.3750   -25.8580     2.2350    57.2390     9.0300     8.1540    11.5110    23.6310 
   98.5000   -25.9880     2.2470    55.6950     8.5750     7.7490    11.4680    23.4910 
   98.6250   -26.0500     2.2630    54.9190     8.2750     7.4580    11.3010    23.3740 
   98.7500   -26.0940     2.2590    54.1120     8.0120     7.1860    11.0810    23.3650 
   98.8750   -26.1610     2.2330    54.1710     7.7740     6.9120    10.6810    23.5670 
   99.0000   -26.2680     2.1930    55.7200     7.5730     6.6710    10.3500    23.7020 
   99.1250   -26.4410     2.1520    58.3050     7.4290     6.5270    10.0310    23.8150 
   99.2500   -26.6920     2.1170    59.2230     7.3440     6.4730     9.7600    24.0130 
   99.3750   -27.0130     2.0930    58.0270     7.3240     6.4670     9.5790    24.2080 
   99.5000   -27.3490     2.0820    57.0230     7.3570     6.4730     9.6160    24.3550 
   99.6250   -27.6780     2.0890    57.4780     7.4020     6.4730     9.9780    24.4510 
   99.7500   -28.0140     2.1050    57.8200     7.4020     6.4540    10.2490    24.5010 
   99.8750   -28.3220     2.1240    57.6760     7.3310     6.4120    10.3210    24.6480 
  100.0000   -28.5820     2.1340    58.0830     7.2080     6.3570    10.4850    24.7160 
  100.1250   -28.8300     2.1320    59.4360     7.1060     6.3020    10.2090    24.7390 
  100.2500   -29.0420     2.1230    59.1010     7.0910     6.2790     9.9560    24.7710 
  100.3750   -29.2180     2.1150    56.2450     7.1920     6.3290    10.1740    24.9270 
  100.5000   -29.4180     2.1100    53.9570     7.3880     6.4650    10.9760    25.0030 
  100.6250   -29.5810     2.1110    53.8490     7.6190     6.6370    11.8740    24.9140 
  100.7500   -29.6830     2.1170    53.1750     7.8110     6.7730    12.2270    24.8850 
  100.8750   -29.7530     2.1270    51.1090     7.9310     6.8520    12.1680    24.8370 
  101.0000   -29.7350     2.1390    49.2670     7.9720     6.8920    11.8540    24.6980 
  101.1250   -29.5950     2.1560    49.3350     7.9390     6.9260    11.7700    24.6850 
  101.2500   -29.3870     2.1780    51.5350     7.8710     6.9660    11.3420    24.5610 
  101.3750   -29.1060     2.2030    56.8960     7.7930     6.9850    10.8110    23.9800 
  101.5000   -28.7830     2.2220    62.4660     7.7330     6.9460    10.7050    23.5870 
  101.6250   -28.4850     2.2210    61.8960     7.7510     6.8480    11.0080    23.6160 
  101.7500   -28.2400     2.2020    56.3450     7.8600     6.7580    11.1880    23.6900 
  101.8750   -28.0490     2.1750    51.3810     8.0180     6.7130    11.1210    23.7090 
  102.0000   -27.9160     2.1540    51.2060     8.1380     6.7100    11.0280    23.7060 
  102.1250   -27.9030     2.1460    53.4300     8.1220     6.7070    10.9510    23.9050 
  102.2500   -27.9800     2.1460    54.0010     7.9670     6.6640    10.7770    23.9560 
  102.3750   -28.1040     2.1480    52.7600     7.7190     6.5810    10.6520    24.0510 
  102.5000   -28.2400     2.1470    53.1680     7.4800     6.5020    10.6500    24.2500 
  102.6250   -28.3790     2.1440    56.1030     7.4370     6.5250    10.9240    24.3870 
  102.7500   -28.4780     2.1420    58.3130     7.7310     6.7290    11.2800    24.4080 
  102.8750   -28.5720     2.1470    58.4500     8.4690     7.2010    11.6830    24.4260 
  103.0000   -28.7100     2.1640    55.9100     9.6730     8.0130    12.6120    24.5150 
  103.1250   -28.8060     2.2000    51.7070    11.2270     9.1860    15.5550    24.5480 
  103.2500   -28.9140     2.2500    48.8360    12.6240    10.4130    24.0210    24.4970 
  103.3750   -29.0910     2.2980    48.3900    13.2880    11.2420    36.1120    24.4870 
  103.5000   -29.3020     2.3240    49.2930    12.8340    11.2420    31.8910    24.3930 
  103.6250   -29.5440     2.2990    51.2240    11.4020    10.3310    17.3840    24.1330 
  103.7500   -29.8050     2.2300    54.4750     9.8700     9.1650    13.0080    24.1540 
  103.8750   -30.0300     2.1450    56.0310     8.7310     8.1750    11.7610    24.2080 
  104.0000   -30.1930     2.0760    53.9860     8.1440     7.5530    11.2810    24.3150 
  104.1250   -30.2830     2.0580    50.5510     8.0690     7.3370    11.0150    24.3920 
  104.2500   -30.3120     2.0820    49.4090     8.2070     7.3350    11.1740    24.4110 
  104.3750   -30.2630     2.1290    49.6340     8.3930     7.4130    11.6770    24.4450 
  104.5000   -30.1440     2.1720    50.1060     8.5410     7.4880    12.2000    24.5260 
  104.6250   -29.9880     2.1860    50.5220     8.6010     7.5410    12.4670    24.6380 
  104.7500   -29.8110     2.1750    50.0450     8.5720     7.5810    12.5240    24.6520 
  104.8750   -29.6110     2.1500    50.0430     8.4710     7.5970    12.4330    24.6310 
  105.0000   -29.4180     2.1270    50.4970     8.3470     7.5740    12.1680    24.5900 
  105.1250   -29.2560     2.1170    52.0320     8.2680     7.5380    11.7570    24.5750 
  105.2500   -29.0880     2.1180    54.3380     8.2620     7.5390    11.1710    24.5680 
  105.3750   -28.9430     2.1240    56.5830     8.3180     7.5910    10.6790    24.5430 
  105.5000   -28.8200     2.1310    58.0320     8.3920     7.6700    10.4720    24.5300 
  105.6250   -28.6670     2.1350    57.2940     8.4160     7.7110    10.4690    24.5280 
  105.7500   -28.5200     2.1390    55.3870     8.3560     7.6680    10.2640    24.5290 
  105.8750   -28.3790     2.1440    54.8460     8.2120     7.5490     9.9740    24.5340 
  106.0000   -28.2280     2.1510    57.2590     8.0190     7.4080     9.8260    24.5650 
  106.1250   -28.0990     2.1600    60.0240     7.8400     7.2990     9.8590    24.5650 
