~V
VERS. 2.00: Ver 2.00
~W
STRT.M 50.0000:
STOP.M 284.0000:
STEP.M 0.1250:
NULL. -999.2500:
UWI. F10254:
~C
DEPT.M :
GR.API :
RML.OHMM :
RI. :
RXO.OHMM :
CALI.CM :
DEN.GM/CC :
SP.MV :
~A
# ...
  241.2500    62.5730    12.6770    11.3010    12.9670    24.3740     2.2590   -23.4240 
  241.3750    65.8650    12.9070    11.3560    13.2690    24.3070     2.2660   -23.1000 
  241.5000    64.5620    14.1400    12.0830    13.2280    24.2290     2.2940   -22.6780 
  241.6250    59.0720    17.3000    14.1860    15.0710    24.1490     2.3530   -22.1620 
  241.7500    55.5720    22.5570    17.9880    21.8110    24.1820     2.4290   -21.5610 
  241.8750    55.4380    29.6600    23.6030    38.5250    24.3790     2.5030   -20.8680 
  242.0000    55.5570    37.1680    30.2300    73.6830    24.6630     2.5530   -20.1650 
  242.1250    53.8050    41.7420    35.3910   107.3200    24.8220     2.5630   -19.4920 
  242.2500    52.7950    42.3900    37.6110    91.6640    24.7990     2.5520   -18.7640 
  242.3750    53.1810    41.1330    37.9060    52.2990    24.6650     2.5420   -17.9290 
  242.5000    53.5820    41.3660    38.9880    36.5460    24.6030     2.5510   -16.9930 
  242.6250    53.6930    47.2120    45.3970    54.7720    24.7010     2.5880   -15.9040 
  242.7500    54.2970    61.1720    61.0420   107.6570    24.8710     2.6400   -14.7100 
  242.8750    54.7120    87.8960    91.5910   192.3790    25.0300     2.6930   -13.4880 
  243.0000    54.9760   134.3490   142.7250   307.9360    25.1280     2.7360   -12.2190 
  243.1250    56.9150   199.1020   208.0080   397.9550    25.1440     2.7620   -10.8310 
  243.2500    58.7290   222.4120   238.5820   446.4860    25.1210     2.7730    -9.3440 
  243.3750    57.7330   167.1130   197.0960   476.7890    25.0670     2.7700    -7.8820 
  243.5000    54.9690    94.5460   119.7950   426.7080    24.9780     2.7550    -6.5670 
  243.6250    57.2230    52.4140    64.4150   148.2520    24.8600     2.7250    -5.4860 
  243.7500    64.8300    30.1540    34.4630    43.1030    24.8150     2.6850    -4.5220 
  243.8750    72.7140    18.9810    20.2890    15.4550    24.8310     2.6400    -3.6070 
  244.0000    77.6540    13.9580    14.3160    10.4880    24.9100     2.6000    -2.8280 
  244.1250    78.2450    12.9480    12.7040    12.5670    25.0590     2.5770    -2.3300 
  244.2500    75.4740    14.0100    13.0800    17.2560    25.1650     2.5760    -2.0440 
  244.3750    71.5790    16.2070    14.7850    21.4300    25.1900     2.5940    -1.8790 
  244.5000    69.5830    18.3560    16.9300    23.8690    25.1670     2.6320    -1.7990 
  244.6250    68.7200    18.7910    17.8320    23.9680    25.1460     2.6860    -1.8220 
  244.7500    66.7200    17.3070    16.8620    22.2600    25.1310     2.7360    -1.8220 
  244.8750    66.4960    14.6700    14.6130    18.0130    25.1250     2.7600    -1.7780 
  245.0000    70.2260    11.8940    12.0660    11.7940    25.1380     2.7400    -1.6560 
  245.1250    74.3280     9.7230     9.9540     9.2800    25.1840     2.6700    -1.3390 
  245.2500    75.0670     8.2100     8.3960     8.3450    25.2230     2.5790    -0.8390 
  245.3750    73.4050     7.2580     7.3380     8.1630    25.2120     2.4930    -0.2070 
  245.5000    70.9050     6.7220     6.6820     7.5000    25.1270     2.4270     0.5250 
  245.6250    66.7970     6.4970     6.3640     6.4130    24.9460     2.3890     1.3410 
  245.7500    61.3870     6.4330     6.2440     5.8290    24.7990     2.3720     2.0880 
  245.8750    57.2450     6.4820     6.2700     5.6670    24.7130     2.3710     2.7140 
  246.0000    56.4330     6.6110     6.4010     5.8100    24.6840     2.3820     3.2610 
  246.1250    59.3180     6.7730     6.5850     6.2280    24.7200     2.4000     3.7080 
  246.2500    64.1520     6.9000     6.7450     6.4660    24.8040     2.4150     3.9540 
  246.3750    70.2610     6.9690     6.8430     6.5180    24.9020     2.4210     3.9900 
  246.5000    75.9100     7.0010     6.8770     6.6210    24.9690     2.4180     3.8470 
  246.6250    79.6710     7.0300     6.8640     6.5660    25.0090     2.4070     3.6550 
  246.7500    82.2110     7.0660     6.8250     6.7290    25.0220     2.3930     3.4720 
  246.8750    83.5240     7.0920     6.7590     6.9610    25.0250     2.3830     3.2700 
  247.0000    82.8840     7.0980     6.6710     7.1610    25.0250     2.3800     3.0000 
  247.1250    80.7500     7.1180     6.5960     7.0100    25.0250     2.3870     2.6180 
  247.2500    79.0390     7.2210     6.5840     6.7700    25.0250     2.3990     2.2510 
  247.3750    78.7210     7.4610     6.6750     6.9120    25.0250     2.4100     1.9290 
  247.5000    79.1710     7.8480     6.8810     7.6220    25.0250     2.4140     1.6330 
  247.6250    79.4930     8.3180     7.1740     8.6140    25.0240     2.4060     1.2740 
  247.7500    79.0460     8.7360     7.4630     9.2340    25.0150     2.3920     0.8930 
  247.8750    78.5820     9.0140     7.6770     9.3240    24.9930     2.3760     0.5610 
  248.0000    79.1490     9.1310     7.7860     9.2070    24.9690     2.3640     0.2720 
  248.1250    81.4210     9.1380     7.8100     9.0650    24.9570     2.3590     0.0320 
  248.2500    83.4700     9.1400     7.8250     9.1020    24.9450     2.3580    -0.1420 
  248.3750    82.9510     9.1830     7.8670     9.3840    24.9210     2.3580    -0.2820 
  248.5000    80.3000     9.2880     7.9570     9.6340    24.9100     2.3550    -0.3410 
  248.6250    78.0660     9.5200     8.1500    10.0860    24.9340     2.3480    -0.2540 
  248.7500    77.8040     9.9240     8.4820    10.3430    24.9890     2.3430    -0.1090 
  248.8750    78.1780    10.5030     8.9680    10.2440    25.0460     2.3460     0.0500 
  249.0000    78.1340    11.1670     9.5520    10.4550    25.0870     2.3590     0.2580 
  249.1250    77.3380    11.6660    10.0520    12.6890    25.1010     2.3790     0.5170 
  249.2500    76.5130    11.7570    10.2470    14.5330    25.0730     2.3950     0.7110 
  249.3750    77.0440    11.3440    10.0180    13.3560    25.0380     2.4040     0.8510 
  249.5000    78.8020    10.5500     9.4310    10.3800    25.0090     2.4030     0.9360 
  249.6250    79.3040     9.6820     8.7060     9.1580    24.9680     2.3960     0.9570 
  249.7500    78.1770     9.0200     8.0820     8.5870    24.9280     2.3890     0.9550 
  249.8750    78.2500     8.6460     7.6490     8.1090    24.8860     2.3850     0.9150 
  250.0000    81.0410     8.5050     7.4000     7.7110    24.8340     2.3840     0.8190 
  250.1250    83.7460     8.4690     7.2840     7.8040    24.7920     2.3860     0.6180 
  250.2500    83.2670     8.4490     7.2330     8.1840    24.7870     2.3880     0.3630 
  250.3750    80.6890     8.5130     7.2810     8.5180    24.8210     2.3860     0.0920 
  250.5000    78.3570     8.8110     7.5160     8.7440    24.8760     2.3790    -0.2360 
  250.6250    76.9480     9.5720     8.1010     9.3320    24.9020     2.3640    -0.7480 
  250.7500    75.7510    10.7920     9.0580    11.0210    24.8570     2.3410    -1.4150 
  250.8750    74.5170    12.3840    10.3810    13.2740    24.7550     2.3130    -2.1320 
  251.0000    72.8070    14.1300    11.9580    15.0570    24.6710     2.2850    -2.8090 
  251.1250    70.8020    15.6740    13.5300    16.7180    24.5940     2.2620    -3.3770 
  251.2500    69.6670    16.8210    14.8410    17.1990    24.5490     2.2450    -3.8480 
  251.3750    69.3290    17.5960    15.8180    17.1280    24.5210     2.2350    -4.2250 
  251.5000    69.2240    18.1860    16.5560    17.3940    24.5120     2.2290    -4.4240 
  251.6250    68.9910    18.8030    17.2050    18.3140    24.5160     2.2280    -4.2870 
  251.7500    69.5150    19.4900    17.8500    19.2970    24.5380     2.2310    -3.9060 
  251.8750    69.4620    20.1300    18.4300    19.6930    24.5960     2.2360    -3.4080 
  252.0000    68.8320    20.4940    18.7850    20.1110    24.6830     2.2420    -2.8680 
  252.1250    69.5960    20.1270    18.5360    20.5550    24.7900     2.2470    -2.3140 
  252.2500    70.7990    18.9280    17.5710    20.4180    24.9320     2.2500    -1.7670 
  252.3750    71.7210    17.0870    16.0480    20.4210    25.0560     2.2610    -1.2590 
