~V
VERS. 2.00: Ver 2.00
~W
STRT.M 53.0000:
STOP.M 286.0000:
STEP.M 0.1250:
NULL. -999.2500:
UWI. F10262:
~C
DEPT.M :
DEN.GM/CC :
GR.API :
RML.OHMM :
RI. :
RXO.OHMM :
CALI.CM :
SP.MV :
~A
# ...
  199.2500     2.2140    64.5100    86.3460    83.6720    84.8690    25.1360   -19.4580 
  199.3750     2.2300    61.9770    83.4700    81.7150    81.3370    24.9940   -19.5290 
  199.5000     2.2440    61.4010    77.8070    76.9370    73.6960    24.8810   -19.5670 
  199.6250     2.2550    63.6570    71.8380    71.4560    63.6650    24.8100   -19.6010 
  199.7500     2.2640    65.2650    67.5820    67.1870    58.1540    24.7890   -19.6410 
  199.8750     2.2670    65.8090    66.3610    65.5310    56.8350    24.7650   -19.6710 
  200.0000     2.2670    67.5780    67.3410    65.9420    59.0510    24.6820   -19.7720 
  200.1250     2.2680    68.9390    69.5040    67.5810    59.5970    24.5700   -19.8450 
  200.2500     2.2720    66.4030    71.6610    69.3810    58.1180    24.4950   -19.9400 
  200.3750     2.2840    60.5600    72.7240    70.2860    57.3680    24.6550   -20.1410 
  200.5000     2.3000    59.6620    72.9800    70.3810    59.0680    24.6770   -20.3270 
  200.6250     2.3160    64.7750    73.5220    70.5210    55.5220    24.6900   -20.5500 
  200.7500     2.3330    70.5760    75.7110    71.8940    51.9780    24.6730   -20.8060 
  200.8750     2.3510    71.0710    81.0400    75.8950    55.4350    24.6080   -21.0730 
  201.0000     2.3690    68.0850    89.3310    82.5170    62.3870    24.5610   -21.3370 
  201.1250     2.3790    65.4360   100.1400    91.4810    69.5490    24.4140   -21.6100 
  201.2500     2.3720    64.4330   112.4320   101.9470    83.5460    24.2650   -21.9110 
  201.3750     2.3430    64.6310   124.6980   112.5680    90.6120    24.1530   -22.1580 
  201.5000     2.3030    65.1180   135.9190   122.2880    90.9460    24.1030   -22.3630 
  201.6250     2.2610    65.3900   145.9040   130.8440    94.7410    24.1490   -22.5490 
  201.7500     2.2270    64.8640   154.7350   138.3150   102.6520    24.3270   -22.6070 
  201.8750     2.2060    62.2070   162.2340   144.6770   106.5200    24.6180   -22.5980 
  202.0000     2.1930    57.8630   168.3830   150.0520   106.9220    24.8330   -22.5370 
  202.1250     2.1860    53.8400   172.6940   154.1200   106.6260    24.9290   -22.3700 
  202.2500     2.1830    52.8500   174.4110   156.2460   109.4440    24.9500   -22.1800 
  202.3750     2.1840    54.4320   172.2060   155.2270   112.7980    24.9510   -21.9100 
  202.5000     2.1880    56.6610   166.3600   151.1140   111.0870    24.9150   -21.6520 
  202.6250     2.1960    59.4180   157.5170   144.2430   106.1920    24.8980   -21.4400 
  202.7500     2.2080    63.9360   147.3610   135.8500   101.2080    24.9240   -21.2640 
  202.8750     2.2210    71.1700   138.4690   128.0560    91.9800    24.9450   -21.1730 
  203.0000     2.2290    77.1050   132.1600   122.3100    86.3130    24.9610   -21.0750 
  203.1250     2.2290    76.7800   128.2320   118.7150    85.7490    24.9730   -21.0000 
  203.2500     2.2210    69.5180   125.2720   116.2270    91.1460    24.9690   -20.9590 
  203.3750     2.2130    62.3860   121.0570   112.9500   102.2010    24.9690   -20.8890 
  203.5000     2.2150    61.0410   114.8400   107.9550   103.7430    25.0010   -20.8430 
  203.6250     2.2280    63.7530   107.7000   101.8760    94.8120    24.9890   -20.7510 
  203.7500     2.2460    67.5320   101.9370    96.5460    80.6200    24.9110   -20.6230 
  203.8750     2.2530    68.2990   100.8990    94.9270    72.9270    24.7830   -20.5390 
  204.0000     2.2420    64.7310   105.5780    98.2820    73.0930    24.5610   -20.4580 
  204.1250     2.2120    60.6740   115.7480   106.7560    86.1950    24.2590   -20.4140 
  204.2500     2.1740    59.0290   128.6080   118.0710   114.7790    23.9360   -20.3910 
  204.3750     2.1450    59.2720   136.5900   125.7240   130.2830    23.9480   -20.3870 
  204.5000     2.1360    58.5270   134.0290   124.4610   130.3780    24.3440   -20.4130 
  204.6250     2.1460    56.2430   121.7850   114.3570   126.7840    24.8780   -20.4020 
  204.7500     2.1680    53.4430   106.1630   100.3500   121.5670    25.1020   -20.4220 
  204.8750     2.1890    52.5680    94.4530    88.9850    91.6400    25.0070   -20.4310 
  205.0000     2.2020    54.8940    88.6080    82.7790    68.5510    24.8530   -20.4460 
  205.1250     2.2120    58.5060    87.9280    81.4530    75.5700    24.8120   -20.5160 
  205.2500     2.2320    62.5560    90.6620    83.5200    87.5730    24.7740   -20.5320 
  205.3750     2.2760    66.6200    94.6690    87.1430    91.3400    24.7220   -20.5470 
  205.5000     2.3370    68.0260    97.7620    90.2340    87.4060    24.6300   -20.5500 
  205.6250     2.3910    67.5920    99.1220    91.8690    85.0180    24.4470   -20.5620 
  205.7500     2.4170    68.1430    98.7440    91.8810    84.1940    24.1510   -20.6170 
  205.8750     2.3960    70.5920    96.2250    89.8780    82.3370    23.8600   -20.6400 
  206.0000     2.3510    71.3030    91.3800    85.7570    79.7640    23.8260   -20.6260 
  206.1250     2.3060    70.0260    84.5070    79.7200    79.7110    23.9930   -20.5530 
  206.2500     2.2770    69.1280    77.1100    73.0030    75.6280    24.1450   -20.4100 
  206.3750     2.2690    68.4580    71.6740    67.7400    60.3930    23.9940   -20.3360 
  206.5000     2.2670    67.0980    69.4640    65.1650    49.3820    23.8050   -20.2630 
  206.6250     2.2610    65.9780    70.6700    65.6050    53.0010    23.5550   -20.2040 
  206.7500     2.2490    66.5060    74.2920    68.3730    70.9770    23.3430   -20.1900 
  206.8750     2.2360    69.4650    77.9880    71.6430    85.1400    23.4800   -20.1460 
  207.0000     2.2280    71.3050    79.0960    73.0390    85.3320    23.9800   -20.1750 
  207.1250     2.2280    70.5180    76.4770    71.3510    79.2560    24.5030   -20.2910 
  207.2500     2.2370    68.1340    71.0020    67.0030    70.1120    24.9510   -20.4710 
  207.3750     2.2530    67.1110    65.1630    61.8810    59.2370    25.2050   -20.6750 
  207.5000     2.2720    68.5060    60.9510    57.8780    52.5770    25.0890   -20.8670 
  207.6250     2.2890    71.4340    58.7240    55.4970    53.2480    24.6760   -21.0370 
  207.7500     2.2990    73.8240    58.0990    54.5470    54.5360    24.2830   -21.1660 
  207.8750     2.2970    72.4370    58.5220    54.6540    54.5170    24.0600   -21.2490 
  208.0000     2.2850    70.1480    59.1920    55.1190    55.4500    24.3060   -21.2980 
  208.1250     2.2670    71.3100    59.7580    55.5990    56.9850    24.8240   -21.2500 
  208.2500     2.2500    75.5310    60.1040    55.9390    56.7150    24.9620   -21.1660 
  208.3750     2.2370    78.9240    60.2110    56.0970    59.7510    24.4060   -21.0520 
  208.5000     2.2280    79.1910    60.1030    56.0880    61.5010    23.9120   -20.8770 
  208.6250     2.2240    76.1750    59.7590    55.8750    61.6750    23.6580   -20.6870 
  208.7500     2.2250    72.0970    59.2460    55.4790    62.0020    23.5720   -20.4040 
  208.8750     2.2350    71.5350    58.8090    55.0480    62.2430    23.6400   -20.1370 
  209.0000     2.2520    74.6470    58.7530    54.8430    61.8290    23.8930   -19.9180 
  209.1250     2.2700    76.6530    59.2570    55.0420    59.1840    24.3060   -19.7000 
  209.2500     2.2800    75.3800    60.2740    55.6420    58.1040    24.7360   -19.5800 
  209.3750     2.2790    74.1740    61.4500    56.3870    60.1980    24.9230   -19.5050 
  209.5000     2.2720    74.7620    62.1950    56.7960    63.5880    24.9780   -19.5120 
  209.6250     2.2660    75.4980    62.1020    56.5190    64.0870    24.9750   -19.6070 
  209.7500     2.2630    74.3090    61.1610    55.5050    63.4690    24.9810   -19.7570 
  209.8750     2.2640    71.5860    59.9840    54.1950    61.6690    24.9950   -20.0100 
  210.0000     2.2650    70.6400    59.6180    53.4470    61.1790    24.9980   -20.2270 
  210.1250     2.2630    71.5500    60.8630    53.9390    59.6330    25.0000   -20.4620 
  210.2500     2.2570    71.9260    64.2020    56.1350    57.8740    25.0390   -20.7030 
  210.3750     2.2470    70.0250    69.9870    60.4510    62.5300    25.0870   -20.8700 
