~V
VERS. 2.00: Ver 2.00
~W
STRT.M 50.0000:
STOP.M 273.0000:
STEP.M 0.1250:
NULL. -999.2500:
UWI. F10249:
~C
DEPT.M :
DEN.GM/CC :
GR.API :
RML.OHMM :
RI. :
RXO.OHMM :
CALI.CM :
SP.MV :
~A
# ...
  151.2500     2.5340    62.6390     9.3730     9.0610     9.9740    24.7720   -17.4290 
  151.3750     2.5220    61.0520     9.1190     8.6820     8.7280    24.8710   -17.4180 
  151.5000     2.5130    60.3660     9.0570     8.4900     8.3930    24.9040   -17.4390 
  151.6250     2.5100    59.7440     9.1780     8.5200     9.0540    24.8390   -17.4750 
  151.7500     2.5130    56.6590     9.3560     8.6780     9.9590    24.7510   -17.5280 
  151.8750     2.5190    54.2790     9.4870     8.8700    10.7080    24.7820   -17.5610 
  152.0000     2.5270    55.6940     9.4950     8.9980    11.1790    24.9120   -17.5910 
  152.1250     2.5400    57.2820     9.3600     8.9910    11.3530    25.0000   -17.6770 
  152.2500     2.5590    55.3960     9.1920     8.9140    11.2100    25.0000   -17.7880 
  152.3750     2.5840    52.1990     9.1080     8.8650    10.9230    24.9690   -17.8900 
  152.5000     2.6060    52.1890     9.2100     8.9410    10.7430    24.9460   -17.9720 
  152.6250     2.6140    55.8730     9.5970     9.2470    11.1270    24.9350   -18.0550 
  152.7500     2.6130    60.9080    10.2160     9.7830    11.3040    24.9390   -18.1560 
  152.8750     2.6100    66.5800    10.9670    10.5260    11.3590    24.9510   -18.2670 
  153.0000     2.6090    70.6720    11.6470    11.3500    12.0870    24.9460   -18.3720 
  153.1250     2.6030    72.6800    11.8480    11.8700    13.1780    24.9070   -18.4280 
  153.2500     2.5820    73.8450    11.3320    11.6840    13.4520    24.8070   -18.4480 
  153.3750     2.5440    75.2920    10.2070    10.6180    12.4500    24.6440   -18.4780 
  153.5000     2.4950    77.3500     8.8760     8.9370    10.9630    24.5030   -18.5370 
  153.6250     2.4500    81.2260     7.7330     7.2400     8.8750    24.3440   -18.5720 
  153.7500     2.4090    85.3030     6.9080     5.9750     6.3990    24.1930   -18.6070 
  153.8750     2.3660    87.3390     6.5870     5.2900     4.8020    24.1290   -18.7080 
  154.0000     2.3170    86.8230     7.0410     5.2290     5.0260    24.1750   -18.8350 
  154.1250     2.2730    82.6830     8.5690     5.9640     7.5350    24.3250   -18.9420 
  154.2500     2.2460    76.1870    10.9720     7.4890    11.5830    24.6640   -19.0770 
  154.3750     2.2400    70.3930    14.0900     9.8810    15.4060    25.0870   -19.2310 
  154.5000     2.2490    67.3660    17.5180    13.0480    18.0390    25.3560   -19.3370 
  154.6250     2.2570    64.6100    20.4260    16.4430    22.4540    25.4740   -19.4110 
  154.7500     2.2570    60.9390    22.1180    19.0380    29.5230    25.5330   -19.4920 
  154.8750     2.2490    59.8460    22.2960    20.1270    32.4640    25.5180   -19.5450 
  155.0000     2.2410    63.2750    21.2110    19.6860    29.4410    25.4410   -19.5720 
  155.1250     2.2410    70.2960    19.6180    18.3300    23.9810    25.3410   -19.5750 
  155.2500     2.2490    75.1680    18.4840    17.1190    20.2380    25.2530   -19.5560 
  155.3750     2.2650    75.2260    18.2570    16.6140    19.6770    25.1770   -19.5510 
  155.5000     2.2830    72.1540    18.9020    17.0210    20.1780    25.1310   -19.6100 
  155.6250     2.3000    69.2370    19.8030    18.1440    22.4140    25.1190   -19.7050 
  155.7500     2.3160    67.3300    19.9390    18.9380    26.7270    25.1450   -19.7650 
  155.8750     2.3350    67.0920    18.6660    18.3060    29.1670    25.2000   -19.8400 
  156.0000     2.3520    69.9300    16.0000    15.8690    22.0670    25.2270   -19.9460 
  156.1250     2.3600    76.3210    12.6670    12.4890    15.5130    25.2330   -20.0640 
  156.2500     2.3600    81.7340     9.7480     9.5280    16.2340    25.2880   -20.1720 
  156.3750     2.3560    85.5680     7.7040     7.4140     8.2070    25.3410   -20.2700 
  156.5000     2.3580    89.0270     6.5730     6.1240     5.8100    25.2340   -20.3530 
  156.6250     2.3730    90.9240     6.2640     5.5840     5.4360    24.9160   -20.3970 
  156.7500     2.3950    92.2570     6.4390     5.5220     5.3790    24.6180   -20.4830 
  156.8750     2.4120    94.8940     6.9600     5.8330     5.6070    24.6330   -20.5970 
  157.0000     2.4200    98.3320     7.7320     6.4320     6.0020    25.0650   -20.6700 
  157.1250     2.4170    97.3130     8.7210     7.2890     6.7270    25.5680   -20.7270 
  157.2500     2.4080    91.0270     9.8630     8.3230     8.1010    25.5960   -20.8380 
  157.3750     2.3970    84.1610    11.1540     9.4990    10.4150    25.3060   -20.9590 
  157.5000     2.3880    81.1350    12.6220    10.8020    12.2260    25.1100   -21.0250 
  157.6250     2.3780    83.1410    14.3790    12.2990    13.9130    25.0700   -21.1250 
  157.7500     2.3650    86.0760    16.4630    14.0440    17.7240    25.0300   -21.2730 
  157.8750     2.3460    86.8240    18.9020    16.0940    23.4070    24.9390   -21.4010 
  158.0000     2.3240    84.1830    21.6690    18.4690    27.2220    24.8110   -21.5200 
  158.1250     2.3040    80.1700    24.7180    21.1550    30.9870    24.6700   -21.6550 
  158.2500     2.2900    78.6200    27.9310    24.0100    37.5530    24.5220   -21.7810 
  158.3750     2.2830    78.7700    31.2940    27.0040    45.7940    24.3900   -21.9010 
  158.5000     2.2800    77.0440    34.7980    30.2120    49.9640    24.2750   -22.0540 
  158.6250     2.2770    74.0040    38.2080    33.7050    48.8270    24.1830   -22.1820 
  158.7500     2.2740    72.8930    40.8650    37.0360    49.2590    24.1290   -22.2820 
  158.8750     2.2740    73.1500    41.8630    39.2650    58.0080    24.1020   -22.3820 
  159.0000     2.2800    72.2490    40.4920    39.2180    64.1920    24.0930   -22.5040 
  159.1250     2.2940    72.7560    36.5790    36.0460    58.9810    24.1020   -22.6250 
  159.2500     2.3120    77.8610    31.7300    31.3980    46.7410    24.1230   -22.7230 
  159.3750     2.3280    85.0580    27.2730    26.8520    33.2620    24.1440   -22.8360 
  159.5000     2.3380    91.6330    24.0560    23.4150    22.5560    24.1530   -22.9360 
  159.6250     2.3400    94.1980    22.4760    21.5250    21.0050    24.1750   -23.0070 
  159.7500     2.3410    92.1880    22.0340    20.7030    23.7610    24.2420   -23.0850 
  159.8750     2.3440    88.3560    22.5440    20.7280    29.6790    24.3440   -23.1680 
  160.0000     2.3500    84.7680    24.0760    21.5750    31.2790    24.4550   -23.2340 
  160.1250     2.3470    80.1020    27.3490    23.7970    27.4400    24.5620   -23.3500 
  160.2500     2.3300    73.6800    32.8480    28.0340    25.2940    24.7210   -23.5170 
  160.3750     2.3000    68.5500    41.1990    35.3060    32.8350    24.8890   -23.6550 
  160.5000     2.2670    66.5800    52.5180    46.3790    54.2420    25.0160   -23.7990 
  160.6250     2.2470    65.9550    65.4660    60.8950    82.0330    25.0640   -24.0550 
  160.7500     2.2440    65.8520    76.2980    74.4060    93.0840    25.0950   -24.2940 
  160.8750     2.2540    67.2940    81.9940    82.0780    89.5400    25.1160   -24.5100 
  161.0000     2.2680    68.2590    81.9880    82.1760    83.4140    25.1280   -24.7700 
  161.1250     2.2770    66.3430    78.8140    77.7780    79.2260    25.1390   -25.0660 
  161.2500     2.2740    65.1550    76.9930    74.5120    78.0920    25.1620   -25.3640 
  161.3750     2.2580    66.5770    78.7730    74.9390    72.9200    25.1830   -25.6530 
  161.5000     2.2320    67.9720    84.7850    80.1050    73.6390    25.1900   -25.9320 
  161.6250     2.2070    64.9230    94.5850    90.4100    84.4200    25.1800   -26.1960 
  161.7500     2.1900    60.9930   104.9430   102.8800   100.5030    25.1680   -26.4720 
  161.8750     2.1860    60.8180   112.4260   113.8040   109.9760    25.1730   -26.7480 
  162.0000     2.1920    63.3860   114.0800   119.0870   110.5910    25.1840   -26.9980 
  162.1250     2.2040    66.7490   108.2740   115.4380   108.7800    25.1890   -27.2370 
  162.2500     2.2180    69.7220    98.5630   106.2970   101.5890    25.1770   -27.4750 
  162.3750     2.2320    70.6340    88.1200    95.3580    90.2410    25.1500   -27.7130 
