~V
VERS. 2.00: Ver 2.00
~W
STRT.M 55.0000:
STOP.M 274.0000:
STEP.M 0.1250:
NULL. -999.2500:
UWI. F10255:
~C
DEPT.M :
GR.API :
RML.OHMM :
RI. :
RXO.OHMM :
CALI.CM :
DEN.GM/CC :
SP.MV :
~A
# ...
  111.2500    58.7260     9.7410     8.1740    10.4090    24.2010     2.2210   -10.4270 
  111.3750    60.9250     9.7270     8.1840    10.5850    24.2860     2.2280   -10.5370 
  111.5000    61.0660     9.6920     8.1850    10.6530    24.4900     2.2310   -10.6380 
  111.6250    57.8620     9.6540     8.1870    10.6660    24.7590     2.2270   -10.7770 
  111.7500    56.2620     9.6370     8.1960    10.5720    24.9310     2.2170   -10.9030 
  111.8750    58.7120     9.6510     8.2170    10.5890    25.0350     2.2050   -10.9800 
  112.0000    63.0230     9.6900     8.2450    10.8600    25.0660     2.1970   -11.0290 
  112.1250    64.0450     9.7250     8.2650    11.1720    25.0780     2.1980   -11.1260 
  112.2500    61.8280     9.7250     8.2590    11.2630    25.0780     2.2100   -11.2240 
  112.3750    59.1380     9.6740     8.2130    11.1980    25.0470     2.2270   -11.2440 
  112.5000    58.3140     9.5710     8.1220    11.1360    25.0300     2.2450   -11.2060 
  112.6250    59.0410     9.4210     7.9850    10.7760    25.0380     2.2570   -11.1410 
  112.7500    59.5560     9.2340     7.8200    10.2920    25.0270     2.2570   -11.1080 
  112.8750    59.1630     9.0150     7.6330    10.1270    24.9740     2.2470   -11.0880 
  113.0000    59.9030     8.7870     7.4420    10.3590    24.8980     2.2250   -11.0350 
  113.1250    62.0400     8.6380     7.3150    10.5360    24.8690     2.1990   -10.9220 
  113.2500    62.7970     8.6910     7.3610    10.5670    24.8770     2.1870   -10.8300 
  113.3750    60.9970     9.0900     7.7210    10.8700    24.8580     2.2110   -10.7520 
  113.5000    58.3870     9.9630     8.5110    13.2410    24.7170     2.2800   -10.6440 
  113.6250    56.8050    11.3680     9.8180    24.5990    24.5800     2.3830   -10.5130 
  113.7500    55.6120    12.8140    11.2960    48.3800    24.6650     2.4700   -10.3820 
  113.8750    54.9690    13.6180    12.3710    66.5760    24.7250     2.5060   -10.2640 
  114.0000    55.7800    13.2580    12.4120    54.4560    24.5860     2.4800   -10.1500 
  114.1250    58.5310    11.7410    11.1800    30.0920    24.4310     2.4070   -10.0690 
  114.2500    63.2730     9.9930     9.5180    14.5650    24.3190     2.3300   -10.0060 
  114.3750    67.2860     8.5960     8.0230     8.9570    24.2400     2.2740    -9.9760 
  114.5000    67.1730     7.7670     6.9870     7.7530    24.2050     2.2440    -9.9970 
  114.6250    64.0360     7.5440     6.5270     8.1000    24.1870     2.2390   -10.1050 
  114.7500    63.3240     7.7060     6.4690     8.4530    24.1210     2.2410   -10.2560 
  114.8750    65.3600     8.1090     6.6880     8.5960    23.9800     2.2420   -10.4300 
  115.0000    66.6210     8.5970     7.0470     8.4850    23.6990     2.2360   -10.6380 
  115.1250    65.0880     9.0100     7.4160     8.2440    23.1850     2.2230   -10.8380 
  115.2500    62.3230     9.2880     7.7170     8.1990    22.9220     2.2090   -11.0160 
  115.3750    58.1780     9.4360     7.9300     8.4310    23.0830     2.1990   -11.2220 
  115.5000    53.7190     9.4920     8.0620     8.7900    23.2960     2.1960   -11.4560 
  115.6250    51.8240     9.4960     8.1210     9.0140    23.3840     2.1980   -11.6130 
  115.7500    51.8260     9.4960     8.1460     9.1880    23.4150     2.2040   -11.6660 
  115.8750    52.5050     9.5030     8.1520     9.1300    23.4410     2.2110   -11.6510 
  116.0000    54.1690     9.5050     8.1420     9.1590    23.4740     2.2210   -11.6080 
  116.1250    57.3960     9.4760     8.1020     9.5600    23.6100     2.2320   -11.5440 
  116.2500    60.1210     9.4130     8.0340    10.4280    23.7690     2.2430   -11.4370 
  116.3750    61.4050     9.3380     7.9480    10.9570    23.8740     2.2520   -11.2390 
  116.5000    63.1890     9.2860     7.8680    10.1310    23.8960     2.2580   -11.0100 
  116.6250    65.5860     9.2950     7.8230     9.6070    23.7810     2.2580   -10.8320 
  116.7500    65.8470     9.3620     7.8160     9.7130    23.6470     2.2520   -10.6680 
  116.8750    64.1370     9.4650     7.8350     9.7850    23.5690     2.2390   -10.5050 
  117.0000    62.2710     9.5700     7.8620     9.2280    23.4810     2.2240   -10.3750 
  117.1250    59.6010     9.6280     7.8670     8.7820    23.3520     2.2100   -10.2820 
  117.2500    55.4580     9.6010     7.8280     8.6460    23.2650     2.2020   -10.1890 
  117.3750    51.9050     9.4620     7.7240     8.8360    23.2610     2.2000   -10.1330 
  117.5000    51.7730     9.2180     7.5510     9.1200    23.3430     2.1980   -10.1070 
  117.6250    53.4720     8.9560     7.3590     9.4630    23.5140     2.1980   -10.0180 
  117.7500    54.7860     8.8630     7.3070     9.5280    23.6890     2.2180    -9.8750 
  117.8750    55.1010     9.1490     7.5950     9.3770    23.8110     2.2790    -9.7130 
  118.0000    54.4710    10.0280     8.4110     9.6980    23.8420     2.3790    -9.5150 
  118.1250    54.6410    11.6900     9.9370    11.0930    23.7820     2.4800    -9.2860 
  118.2500    56.1380    13.5860    11.8290    15.2160    23.8010     2.5270    -9.0510 
  118.3750    57.9250    14.8260    13.4030    25.3070    23.8630     2.4950    -8.7750 
  118.5000    58.9240    14.6630    13.7850    29.3930    23.9920     2.4000    -8.4280 
  118.6250    59.9610    13.0600    12.5780    19.8090    24.2140     2.2870    -8.0900 
  118.7500    61.8480    11.1800    10.8370    12.1790    24.4300     2.2040    -7.8150 
  118.8750    64.3860     9.7030     9.2740     9.8970    24.5660     2.1640    -7.5500 
  119.0000    66.8060     8.7790     8.1620     9.4380    24.5230     2.1630    -7.2200 
  119.1250    67.0840     8.2280     7.4910     9.4180    24.4000     2.1940    -6.7580 
  119.2500    67.4600     7.7050     6.9680     9.2220    24.3200     2.2440    -6.1910 
  119.3750    71.9540     7.0680     6.4070     8.5120    24.3640     2.3030    -5.5660 
  119.5000    80.8870     6.3330     5.7530     7.2120    24.4250     2.3580    -4.9070 
  119.6250    88.0450     5.6550     5.1070     5.8060    24.4560     2.3950    -4.2260 
  119.7500    89.3940     5.1650     4.5980     5.3160    24.5000     2.4140    -3.5460 
  119.8750    88.6440     4.9150     4.2910     5.1820    24.5040     2.4190    -2.9150 
  120.0000    91.0490     4.9000     4.2050     5.1290    24.5340     2.4170    -2.3980 
  120.1250    94.1780     5.1180     4.3550     5.2270    24.6080     2.4110    -2.0110 
  120.2500    93.0640     5.4710     4.6560     5.5960    24.6770     2.4030    -1.7360 
  120.3750    89.6060     5.8710     5.0370     6.0670    24.6820     2.3900    -1.6030 
  120.5000    87.3980     6.2150     5.4070     6.6990    24.6680     2.3730    -1.5740 
  120.6250    85.6460     6.3820     5.6450     6.5670    24.6850     2.3560    -1.5740 
  120.7500    82.7840     6.3710     5.7130     6.5780    24.7370     2.3440    -1.5800 
  120.8750    81.2690     6.2260     5.6260     6.2980    24.8060     2.3380    -1.6050 
  121.0000    82.1230     6.0290     5.4490     5.9230    24.8830     2.3330    -1.6230 
  121.1250    85.9810     5.8660     5.2630     5.7360    24.9520     2.3260    -1.6350 
  121.2500    92.0070     5.7720     5.1210     5.6500    24.9800     2.3190    -1.6750 
  121.3750    95.1750     5.7500     5.0360     5.7740    24.9810     2.3140    -1.7280 
  121.5000    91.7070     5.7790     4.9970     5.9390    24.9850     2.3140    -1.8000 
  121.6250    87.7730     5.8310     4.9840     5.9350    24.9950     2.3160    -1.9630 
  121.7500    88.7590     5.8810     4.9810     5.8570    24.9790     2.3170    -2.1630 
  121.8750    89.9440     5.9300     4.9910     5.9570    24.9140     2.3130    -2.3450 
  122.0000    86.8470     6.0070     5.0360     6.2200    24.8350     2.3100    -2.5510 
  122.1250    83.5910     6.1760     5.1680     6.4760    24.7830     2.3140    -2.8730 
  122.2500    82.1930     6.4780     5.4200     6.7130    24.6930     2.3180    -3.2620 
  122.3750    80.0190     6.9400     5.8160     7.1830    24.5150     2.3130    -3.6280 
