~V
VERS. 2.00: Ver 2.00
~W
STRT.M 58.0000:
STOP.M 273.0000:
STEP.M 0.1250:
NULL. -999.2500:
UWI. F10226:
~C
DEPT.M :
SP.MV :
DEN.GM/CC :
GR.API :
RML.OHMM :
RI. :
RXO.OHMM :
CALI.CM :
~A
# ...
  204.2500   -23.7820     2.3750    83.6630    10.2760     8.3730     8.8870    23.2450 
  204.3750   -24.1910     2.4010    81.9250    10.9790     8.7420     9.9050    23.5500 
  204.5000   -24.6230     2.4220    81.0830    11.4700     9.0210    10.2690    23.9280 
  204.6250   -25.0370     2.4370    81.3710    11.6980     9.1430    10.1540    24.1910 
  204.7500   -25.3140     2.4380    83.3790    11.6810     9.0930     9.7740    24.2510 
  204.8750   -25.5450     2.4200    85.7400    11.4820     8.8900     9.3910    24.2260 
  205.0000   -25.8140     2.3870    87.9760    11.2190     8.6150     8.9860    24.1540 
  205.1250   -26.0280     2.3490    90.5580    10.9580     8.3210     8.7970    24.1100 
  205.2500   -26.2060     2.3220    93.3390    10.7330     8.0470     8.5710    24.1530 
  205.3750   -26.5020     2.3200    94.8630    10.5910     7.8420     8.2970    24.3580 
  205.5000   -26.8590     2.3340    95.1190    10.5550     7.7280     7.8260    24.6570 
  205.6250   -27.1920     2.3470    96.4140    10.6370     7.7170     7.8820    24.8570 
  205.7500   -27.5750     2.3480    98.2210    10.8170     7.7970     8.6420    24.8800 
  205.8750   -28.0230     2.3370    96.3160    11.0630     7.9520     9.1680    24.8410 
  206.0000   -28.3910     2.3300    92.1890    11.3270     8.1460     9.3530    24.7820 
  206.1250   -28.6810     2.3360    88.3390    11.6010     8.3630     9.2910    24.7460 
  206.2500   -28.9740     2.3600    84.7620    11.9190     8.6060     9.2680    24.7320 
  206.3750   -29.1330     2.3940    82.6060    12.3420     8.8990     9.7040    24.7090 
  206.5000   -29.0650     2.4200    84.1370    12.8370     9.2280    10.2670    24.5510 
  206.6250   -28.8600     2.4250    87.0590    13.2990     9.5340    10.7540    24.3900 
  206.7500   -28.5970     2.4040    88.1650    13.5670     9.7190    11.4880    24.2980 
  206.8750   -28.2260     2.3690    87.3140    13.4400     9.6430    12.1330    24.3530 
  207.0000   -27.7420     2.3420    86.4650    12.9770     9.3280    11.1720    24.5910 
  207.1250   -27.1910     2.3370    85.8520    12.3580     8.8790     9.6960    24.8960 
  207.2500   -26.5690     2.3530    86.7290    11.8150     8.4450     8.8890    25.0560 
  207.3750   -25.8670     2.3750    88.3640    11.5800     8.1930     8.8330    25.0220 
  207.5000   -25.1830     2.3920    88.2050    11.6850     8.1680     9.1490    24.8400 
  207.6250   -24.5680     2.4000    87.4590    12.1120     8.3890     9.7300    24.6490 
  207.7500   -23.9390     2.4090    89.0610    12.8100     8.8400    10.2840    24.4580 
  207.8750   -23.2190     2.4280    91.9900    13.7580     9.5270    10.7720    24.3180 
  208.0000   -22.5420     2.4580    91.6890    14.8850    10.3820    11.3860    24.2780 
  208.1250   -21.9110     2.4880    88.2650    16.1490    11.3610    12.5430    24.3100 
  208.2500   -21.1990     2.5080    83.6630    17.4610    12.3960    15.3600    24.2450 
  208.3750   -20.4340     2.5120    80.2940    18.5450    13.3110    18.1070    24.0470 
  208.5000   -19.6790     2.5000    78.1120    19.0430    13.8480    18.5840    23.8400 
  208.6250   -18.8340     2.4760    78.1390    18.6240    13.7460    17.7400    23.7310 
  208.7500   -17.8520     2.4440    83.7050    17.2090    12.9010    15.3540    23.6570 
  208.8750   -16.8410     2.4080    92.4870    15.0440    11.4440    13.1180    23.5860 
  209.0000   -15.8080     2.3740    96.4290    12.7920     9.8500    10.7300    23.5510 
  209.1250   -14.7100     2.3440    90.5260    10.8830     8.4340     8.6690    23.5140 
  209.2500   -13.6690     2.3220    77.9270     9.5200     7.3570     7.1820    23.4450 
  209.3750   -12.7740     2.3120    67.3750     8.8030     6.7150     6.5580    23.3260 
  209.5000   -11.8980     2.3110    61.9120     8.5330     6.4130     6.3640    23.2760 
  209.6250   -11.0990     2.3190    61.5970     8.5390     6.3660     6.3770    23.3130 
  209.7500   -10.5010     2.3330    64.4970     8.6500     6.4790     6.3360    23.2940 
  209.8750   -10.0860     2.3460    69.3830     8.7210     6.6550     6.2400    23.0510 
  210.0000    -9.7490     2.3530    75.1260     8.7090     6.8180     6.1870    22.7560 
  210.1250    -9.5230     2.3510    77.8350     8.6330     6.9440     6.2770    22.4580 
  210.2500    -9.4130     2.3470    75.6580     8.5310     7.0320     6.4560    22.2910 
  210.3750    -9.3280     2.3470    73.6950     8.4350     7.0850     6.5980    22.4290 
  210.5000    -9.2610     2.3530    76.7680     8.3580     7.1140     6.5230    22.7520 
  210.6250    -9.2500     2.3640    82.8680     8.3070     7.1220     6.3900    23.0080 
  210.7500    -9.2640     2.3770    86.3590     8.2740     7.1060     6.3760    23.2110 
  210.8750    -9.2490     2.3840    86.2200     8.2310     7.0520     6.5410    23.3510 
  211.0000    -9.2520     2.3830    84.8480     8.1420     6.9440     6.6390    23.4740 
  211.1250    -9.3200     2.3740    83.8740     7.9790     6.7690     6.6900    23.6070 
  211.2500    -9.3590     2.3590    84.0890     7.7500     6.5340     6.6020    23.7040 
  211.3750    -9.3910     2.3460    84.5920     7.4960     6.2730     6.4270    23.6940 
  211.5000    -9.5420     2.3380    86.5700     7.3050     6.0510     6.1760    23.5610 
  211.6250    -9.7150     2.3340    90.6460     7.2580     5.9280     5.9710    23.4940 
  211.7500    -9.8180     2.3340    92.5850     7.4090     5.9510     5.9340    23.5290 
  211.8750    -9.9400     2.3330    88.1150     7.7690     6.1480     6.3400    23.6690 
  212.0000   -10.1220     2.3280    83.1960     8.2260     6.4550     7.0850    23.8240 
  212.1250   -10.2720     2.3200    82.1310     8.6950     6.8190     8.0600    23.9430 
  212.2500   -10.4300     2.3050    82.4060     9.1650     7.2170     9.0810    23.9940 
  212.3750   -10.6620     2.2870    81.9140     9.7770     7.7170     9.5600    24.0220 
  212.5000   -10.8520     2.2690    82.2430    10.7210     8.4270     9.9130    24.0580 
  212.6250   -10.9960     2.2550    83.1280    12.1670     9.4680    10.9810    24.0820 
  212.7500   -11.1840     2.2460    82.5120    14.1470    10.9110    13.9580    24.0950 
  212.8750   -11.4360     2.2430    80.5150    16.4330    12.7130    17.9940    24.1130 
  213.0000   -11.6350     2.2430    78.3990    18.4620    14.5030    20.6620    24.1370 
  213.1250   -11.7950     2.2420    74.8930    19.7870    15.8960    21.0310    24.1500 
  213.2500   -11.9840     2.2400    70.0730    20.2950    16.6840    20.6540    24.1560 
  213.3750   -12.1540     2.2350    67.5860    20.2970    16.9530    19.4840    24.1810 
  213.5000   -12.2480     2.2320    69.4310    20.4170    17.1450    18.8690    24.2350 
  213.6250   -12.3240     2.2330    71.6340    20.9740    17.5420    19.9790    24.2990 
  213.7500   -12.4130     2.2380    69.6990    21.9610    18.2310    22.6620    24.3460 
  213.8750   -12.4360     2.2420    67.5920    23.0990    19.1070    23.8530    24.3640 
  214.0000   -12.4080     2.2420    69.1970    23.9570    19.8700    23.5810    24.3830 
  214.1250   -12.4090     2.2380    72.4750    24.2340    20.2580    23.5460    24.4260 
  214.2500   -12.3860     2.2320    74.1550    23.8480    20.1480    22.8040    24.4760 
  214.3750   -12.2530     2.2290    73.4340    22.9840    19.6120    22.4810    24.4630 
  214.5000   -12.1620     2.2270    72.0910    22.0920    18.9940    21.4880    24.3760 
  214.6250   -12.1630     2.2260    71.1280    21.4760    18.5390    20.0880    24.2610 
  214.7500   -12.1580     2.2230    71.6000    21.3420    18.4260    18.8480    24.2030 
  214.8750   -12.1160     2.2190    73.4030    21.9250    18.8610    19.5410    24.1740 
  215.0000   -12.1570     2.2170    74.8510    23.1820    19.8440    21.2840    24.1620 
  215.1250   -12.2470     2.2140    74.5900    25.0590    21.3680    22.7590    24.1550 
  215.2500   -12.3230     2.2090    72.3640    27.4350    23.3630    24.2160    24.1490 
  215.3750   -12.4360     2.1990    69.9320    30.0530    25.6690    28.0930    24.1320 
