~V
VERS. 2.00: Ver 2.00
~W
STRT.M 50.0000:
STOP.M 271.0000:
STEP.M 0.1250:
NULL. -999.2500:
UWI. F10251:
~C
DEPT.M :
DEN.GM/CC :
GR.API :
RML.OHMM :
RI. :
RXO.OHMM :
CALI.CM :
SP.MV :
~A
# ...
  140.0000     2.4220    86.2140     8.8190     6.3090     9.2520    24.4820    -4.2390 
  140.1250     2.4770    73.2310    12.3970     8.8810    19.8090    24.4650    -4.5060 
  140.2500     2.4850    64.4130    16.2630    12.0750    33.9490    24.3660    -4.8640 
  140.3750     2.4160    61.1580    19.0550    14.8970    33.2660    24.2960    -5.2820 
  140.5000     2.3110    60.6050    19.6420    16.1880    23.0380    24.3610    -5.7030 
  140.6250     2.2390    60.9820    18.1100    15.5880    18.1320    24.4660    -6.0320 
  140.7500     2.2040    62.1770    16.1810    14.3480    16.7290    24.5410    -6.3090 
  140.8750     2.1850    63.1690    14.7170    13.2070    16.9020    24.6220    -6.5770 
  141.0000     2.1670    65.4130    13.9620    12.4590    17.1960    24.6690    -6.7940 
  141.1250     2.1500    70.2140    13.9140    12.1840    17.0640    24.5380    -6.8350 
  141.2500     2.1400    73.4530    14.3310    12.2480    16.5180    24.1850    -6.7590 
  141.3750     2.1370    70.6360    15.0950    12.5870    15.7570    23.8110    -6.6710 
  141.5000     2.1360    65.4940    15.9830    13.0740    15.6150    23.7370    -6.6030 
  141.6250     2.1340    66.4030    16.4140    13.3350    17.3900    23.8030    -6.4640 
  141.7500     2.1410    69.3530    15.8810    12.9560    19.1000    23.7160    -6.2240 
  141.8750     2.1670    69.5770    14.2350    11.7680    18.2930    23.5620    -5.9790 
  142.0000     2.2080    70.0230    11.8620    10.0020    13.1840    23.5280    -5.7410 
  142.1250     2.2510    76.5200     9.5440     8.1950     9.7030    23.8700    -5.4750 
  142.2500     2.2810    85.2240     7.8190     6.7590     7.2300    24.3120    -5.1970 
  142.3750     2.2910    89.5830     6.7840     5.7980     6.2800    24.4990    -4.9420 
  142.5000     2.2850    89.6600     6.3070     5.2630     6.0520    24.4630    -4.6710 
  142.6250     2.2770    88.7720     6.1970     5.0700     6.2500    24.2890    -4.4330 
  142.7500     2.2760    87.5230     6.1860     5.0240     6.5140    24.0480    -4.3010 
  142.8750     2.2850    85.2050     6.1510     5.0190     6.4300    23.8630    -4.1600 
  143.0000     2.2990    84.0800     6.0530     4.9890     6.1640    23.6870    -3.9740 
  143.1250     2.3110    86.8990     5.9170     4.9180     5.7870    23.5330    -3.8610 
  143.2500     2.3130    90.9240     5.7960     4.8430     5.6710    23.6520    -3.8210 
  143.3750     2.3070    91.3150     5.7130     4.7860     5.6670    24.0210    -3.7350 
  143.5000     2.2980    87.4530     5.6600     4.7460     5.7100    24.3730    -3.5940 
  143.6250     2.2840    84.4370     5.5920     4.6910     5.7230    24.5210    -3.5080 
  143.7500     2.2670    85.2250     5.4680     4.5910     5.5810    24.5850    -3.4440 
  143.8750     2.2570    88.4220     5.2810     4.4410     5.4540    24.5960    -3.3520 
  144.0000     2.2670    92.7770     5.0570     4.2580     5.3190    24.4960    -3.2750 
  144.1250     2.2940    98.1700     4.8520     4.0800     5.4560    24.3180    -3.2840 
  144.2500     2.3130   103.1040     4.7050     3.9420     5.5180    24.2030    -3.2770 
  144.3750     2.3120   107.5140     4.6330     3.8610     5.4810    24.2530    -3.2160 
  144.5000     2.3030   109.3470     4.6400     3.8500     5.3360    24.4290    -3.2130 
  144.6250     2.2960   104.6090     4.7670     3.9420     5.4270    24.5370    -3.2460 
  144.7500     2.2980    95.9070     5.0620     4.1560     5.8400    24.5840    -3.1970 
  144.8750     2.3110    89.3720     5.5960     4.5360     6.1690    24.5620    -3.1930 
  145.0000     2.3350    87.7900     6.3840     5.1050     6.5690    24.5260    -3.2720 
  145.1250     2.3740    86.1590     7.3070     5.8250     7.9550    24.4840    -3.2640 
  145.2500     2.4190    82.7860     8.0400     6.4760     9.8280    24.4350    -3.2290 
  145.3750     2.4580    81.2390     8.3030     6.8140    12.0420    24.3880    -3.2710 
  145.5000     2.4680    83.6580     7.9870     6.6950    12.6260    24.3770    -3.2890 
  145.6250     2.4380    87.7730     7.2240     6.1500    10.2070    24.4140    -3.3190 
  145.7500     2.3980    87.9850     6.4290     5.5040     7.1950    24.4820    -3.3920 
  145.8750     2.3780    84.8030     5.8490     4.9620     6.4170    24.5080    -3.3820 
  146.0000     2.3880    80.9920     5.6130     4.6480     7.1430    24.4720    -3.3850 
  146.1250     2.4170    79.7360     5.8750     4.6960     7.9400    24.4380    -3.4550 
  146.2500     2.4540    80.6580     6.6310     5.1190     8.1270    24.4210    -3.4850 
  146.3750     2.5000    80.2950     7.9180     5.9630     8.6910    24.4450    -3.4920 
  146.5000     2.5560    75.9430     9.7100     7.2450    11.4210    24.4240    -3.5360 
  146.6250     2.6080    68.5950    11.8500     8.9410    15.3320    24.3330    -3.5190 
  146.7500     2.6410    62.8350    13.8420    10.7180    18.6540    24.2080    -3.4960 
  146.8750     2.6490    58.8610    15.1790    12.1680    19.8830    24.1290    -3.4950 
  147.0000     2.6340    56.2000    15.5390    12.9250    19.1430    24.0950    -3.4060 
  147.1250     2.6120    56.5600    14.9790    12.8510    17.4330    24.0720    -3.3220 
  147.2500     2.6000    57.7620    14.2030    12.4180    15.7970    24.0840    -3.3110 
  147.3750     2.5990    56.5690    13.6580    11.9830    15.3760    24.1450    -3.2540 
  147.5000     2.6020    52.4460    13.5450    11.7670    15.7430    24.2120    -3.1360 
  147.6250     2.6050    50.1250    13.8900    11.8910    16.2900    24.2320    -3.0950 
  147.7500     2.6090    52.2140    14.4600    12.2600    17.4760    24.2330    -3.0170 
  147.8750     2.6160    55.8840    15.0940    12.7770    19.4170    24.2090    -2.9250 
  148.0000     2.6250    58.2530    15.6710    13.3250    21.4650    24.1950    -2.9330 
  148.1250     2.6260    58.0820    16.1160    13.7950    21.6870    24.1750    -2.9680 
  148.2500     2.6200    57.7450    16.4550    14.1690    20.0140    24.1560    -2.9420 
  148.3750     2.6100    57.0420    16.7030    14.4620    19.4690    24.1420    -2.9290 
  148.5000     2.6020    54.8290    16.8570    14.6770    19.4470    24.0770    -3.0540 
  148.6250     2.5950    53.0360    16.8750    14.7740    19.6160    23.9870    -3.1210 
  148.7500     2.5840    52.6110    16.7760    14.7380    20.0280    23.8890    -3.1570 
  148.8750     2.5650    53.1930    16.5970    14.5790    20.3490    23.8470    -3.2800 
  149.0000     2.5400    53.0760    16.4380    14.3700    19.9800    23.8330    -3.4250 
  149.1250     2.5210    53.1980    16.4580    14.2520    19.1940    23.7680    -3.4850 
  149.2500     2.5200    58.2520    16.6720    14.2900    18.7550    23.7010    -3.5000 
  149.3750     2.5370    69.6490    16.9840    14.4560    18.9770    23.6310    -3.5470 
  149.5000     2.5600    85.0680    17.2180    14.6410    19.9560    23.5980    -3.5760 
  149.6250     2.5670    94.2650    17.1560    14.6810    22.1580    23.6090    -3.5530 
  149.7500     2.5570    89.8420    16.8190    14.5260    21.9210    23.6380    -3.5450 
  149.8750     2.5360    75.2880    16.3460    14.2340    18.9080    23.7100    -3.5370 
  150.0000     2.5140    62.4680    15.9290    13.9280    16.6580    23.8000    -3.4770 
  150.1250     2.5020    59.8180    15.7240    13.7530    16.9860    23.8630    -3.3890 
  150.2500     2.5020    59.9420    15.6980    13.7380    19.5780    23.8660    -3.3910 
  150.3750     2.5060    58.5420    15.7630    13.8530    20.6640    23.8210    -3.4240 
  150.5000     2.5110    57.2290    15.8150    14.0220    19.1830    23.7950    -3.3840 
  150.6250     2.5180    57.5450    15.7730    14.1480    17.5120    23.7510    -3.4170 
  150.7500     2.5300    58.5770    15.6700    14.1990    17.3580    23.7200    -3.5110 
  150.8750     2.5420    59.9200    15.5640    14.2010    17.5310    23.7550    -3.5320 
  151.0000     2.5480    61.0670    15.4780    14.1850    18.0250    23.8300    -3.5040 
  151.1250     2.5420    60.1810    15.3540    14.1320    17.6240    23.8080    -3.5400 
