~V
VERS. 2.00: Ver 2.00
~W
STRT.M 48.0000:
STOP.M 276.0000:
STEP.M 0.1250:
NULL. -999.2500:
UWI. F10244:
~C
DEPT.M :
GR.API :
RML.OHMM :
RI. :
RXO.OHMM :
CALI.CM :
DEN.GM/CC :
SP.MV :
~A
# ...
  138.0000    75.7790    10.0670     9.5370    15.3260    24.7130     2.5850    -5.8380 
  138.1250    74.7770    12.3890    11.8940    19.8390    24.6850     2.5690    -5.9640 
  138.2500    72.1020    14.4070    14.0870    21.0260    24.6500     2.5120    -6.0990 
  138.3750    67.7360    15.0510    14.9520    18.7530    24.5690     2.4330    -6.2990 
  138.5000    66.7130    14.3390    14.3760    18.7400    24.4390     2.3600    -6.5380 
  138.6250    71.3080    12.8210    12.8960    15.5000    24.2790     2.3070    -6.7900 
  138.7500    79.4810    11.1850    11.2080    11.2320    24.1540     2.2760    -7.0260 
  138.8750    85.6330     9.9170     9.8090     9.8970    24.1960     2.2580    -7.1970 
  139.0000    86.4780     9.0280     8.7700     9.4210    24.3300     2.2430    -7.3000 
  139.1250    83.1150     8.4360     8.0510     8.7110    24.4360     2.2240    -7.3180 
  139.2500    80.2040     8.0610     7.5840     7.9520    24.4360     2.2070    -7.3320 
  139.3750    82.4270     7.9090     7.3740     8.2370    24.3770     2.2120    -7.3040 
  139.5000    86.4530     7.9980     7.4310     8.4650    24.3450     2.2520    -7.2310 
  139.6250    87.3230     8.4140     7.8430     8.2140    24.3660     2.3250    -7.1290 
  139.7500    83.7760     9.2040     8.6690     7.9630    24.4160     2.4090    -7.0420 
  139.8750    79.2400    10.2470     9.8630    10.6150    24.4880     2.4600    -6.9650 
  140.0000    74.8830    11.0470    10.9920    16.2660    24.5390     2.4590    -6.9130 
  140.1250    71.0510    11.1420    11.5280    19.1650    24.5470     2.4120    -6.8670 
  140.2500    70.6290    10.3890    11.1240    15.4530    24.5200     2.3470    -6.8000 
  140.3750    75.4760     9.0880     9.8960    10.5110    24.4830     2.2980    -6.7300 
  140.5000    81.0150     7.8660     8.5490     8.4910    24.4270     2.2740    -6.6670 
  140.6250    84.3790     6.9870     7.4530     7.6330    24.3920     2.2690    -6.6170 
  140.7500    86.0230     6.4740     6.7380     7.1170    24.4620     2.2740    -6.5260 
  140.8750    86.8880     6.2570     6.4010     7.0200    24.6650     2.2840    -6.4380 
  141.0000    87.0350     6.1540     6.2450     7.0420    24.7740     2.2960    -6.3050 
  141.1250    86.5750     6.0650     6.1510     7.0090    24.7960     2.3040    -6.1840 
  141.2500    87.8850     5.9430     6.0460     6.7590    24.7610     2.3040    -6.0350 
  141.3750    91.4380     5.8120     5.9210     6.4710    24.7250     2.2980    -5.9060 
  141.5000    94.2200     5.7670     5.8570     6.3870    24.7380     2.3040    -5.7610 
  141.6250    94.3810     5.9140     5.9710     6.4970    24.7430     2.3340    -5.5980 
  141.7500    93.0750     6.3450     6.3670     6.8380    24.7270     2.3900    -5.4150 
  141.8750    89.9480     7.1360     7.1240     7.7030    24.6540     2.4520    -5.2450 
  142.0000    84.5070     8.0710     8.0580     9.7350    24.5300     2.4940    -5.1290 
  142.1250    78.5030     8.8280     8.8780    13.2190    24.3670     2.5020    -5.0120 
  142.2500    74.9380     9.1030     9.2390    13.9960    24.2520     2.4830    -4.9230 
  142.3750    76.3550     8.8090     8.9660    10.9320    24.2380     2.4600    -4.8370 
  142.5000    80.2600     8.3830     8.4960     8.7370    24.2040     2.4570    -4.7540 
  142.6250    82.2440     8.2170     8.2360     8.6830    24.0640     2.4800    -4.7200 
  142.7500    80.4590     8.5980     8.4910     9.6340    23.8480     2.5180    -4.7060 
  142.8750    74.4920     9.8720     9.6000    12.1180    23.6410     2.5550    -4.7300 
  143.0000    65.8070    12.0070    11.5080    16.3890    23.5250     2.5790    -4.7820 
  143.1250    57.8930    14.8190    14.0380    19.0840    23.5260     2.5920    -4.8410 
  143.2500    54.9720    17.7950    16.7360    19.8720    23.6520     2.5990    -4.8590 
  143.3750    56.7400    20.1200    18.8530    19.7070    24.0140     2.6030    -4.8470 
  143.5000    56.1430    21.5320    20.1360    19.6900    24.3730     2.6040    -4.8140 
  143.6250    52.4950    22.2260    20.7660    19.4760    24.5930     2.6040    -4.7820 
  143.7500    49.8000    22.6120    21.1140    20.9530    24.7150     2.6040    -4.7780 
  143.8750    51.2110    23.0310    21.4670    20.9890    24.7580     2.6100    -4.7660 
  144.0000    53.4610    23.5490    21.8760    21.6430    24.7380     2.6220    -4.7420 
  144.1250    52.3260    24.0860    22.2840    22.8020    24.6970     2.6340    -4.7480 
  144.2500    48.6850    24.5470    22.6180    23.8020    24.6530     2.6450    -4.7700 
  144.3750    47.3490    24.8550    22.8220    24.7590    24.6410     2.6500    -4.8080 
  144.5000    47.1240    25.0360    22.9330    24.3100    24.6240     2.6510    -4.9030 
  144.6250    45.3320    25.1120    22.9720    23.1460    24.6030     2.6450    -4.9670 
  144.7500    44.0510    25.0950    22.9510    22.0060    24.5790     2.6330    -5.0440 
  144.8750    45.6360    24.9700    22.8660    22.6480    24.6210     2.6130    -5.1060 
  145.0000    47.5450    24.7420    22.7110    24.0820    24.6920     2.5900    -5.1650 
  145.1250    48.7320    24.4040    22.4530    24.9690    24.7670     2.5710    -5.2050 
  145.2500    49.9180    23.9380    22.0630    23.1570    24.7910     2.5570    -5.2700 
  145.3750    52.9030    23.2900    21.4950    20.9450    24.7830     2.5520    -5.3200 
  145.5000    56.0760    22.4700    20.7650    19.6310    24.7740     2.5530    -5.3420 
  145.6250    57.5920    21.5110    19.8980    19.2690    24.7470     2.5550    -5.3880 
  145.7500    57.9420    20.5110    18.9710    18.8860    24.7460     2.5570    -5.4230 
  145.8750    59.5240    19.6630    18.1450    18.1090    24.7810     2.5570    -5.4670 
  146.0000    63.5360    19.1110    17.5830    16.8190    24.7940     2.5570    -5.4830 
  146.1250    69.0960    18.9550    17.3990    15.9310    24.8150     2.5570    -5.4870 
  146.2500    72.7850    19.2290    17.6270    17.1350    24.8220     2.5560    -5.5030 
  146.3750    71.7010    19.9220    18.2440    19.2350    24.7820     2.5560    -5.5640 
  146.5000    68.0790    20.7610    19.0120    21.6180    24.7160     2.5560    -5.6240 
  146.6250    66.0980    21.4410    19.6890    24.2260    24.7100     2.5570    -5.6600 
  146.7500    66.6630    21.6310    20.0010    24.2410    24.8020     2.5570    -5.6560 
  146.8750    65.4940    21.0010    19.6250    21.6370    24.8650     2.5530    -5.6500 
  147.0000    63.6230    19.7300    18.6280    21.6860    24.7810     2.5440    -5.6640 
  147.1250    63.4310    18.0840    17.1750    22.0000    24.5070     2.5320    -5.6840 
  147.2500    63.6790    16.3940    15.5510    21.7740    24.1610     2.5230    -5.6890 
  147.3750    62.2580    15.0080    14.1240    16.4910    24.0280     2.5240    -5.6220 
  147.5000    59.8130    14.0410    13.0750    13.9130    24.0870     2.5330    -5.5600 
  147.6250    57.6220    13.5010    12.4510    12.4620    24.3090     2.5410    -5.4790 
  147.7500    56.0120    13.3120    12.2090    13.0510    24.5590     2.5410    -5.4310 
  147.8750    55.0240    13.3580    12.2570    15.4540    24.7110     2.5320    -5.3160 
  148.0000    55.0920    13.4800    12.4080    16.6690    24.7330     2.5230    -5.2370 
  148.1250    55.6100    13.6590    12.6160    15.3820    24.7040     2.5260    -5.1530 
  148.2500    55.6290    13.9430    12.9280    14.2690    24.6980     2.5460    -5.0520 
  148.3750    55.1070    14.3070    13.4110    14.5040    24.7090     2.5730    -4.9450 
  148.5000    55.6680    14.4340    13.8610    15.2110    24.7180     2.5830    -4.8750 
  148.6250    58.5530    13.8950    13.8690    16.4400    24.7220     2.5610    -4.8410 
  148.7500    63.2870    12.4530    13.0090    17.9030    24.7140     2.5040    -4.7860 
  148.8750    68.0350    10.2930    11.1430    15.6710    24.6720     2.4260    -4.7580 
  149.0000    74.8350     8.1470     8.9850    11.2320    24.6590     2.3570    -4.7340 
  149.1250    83.9020     6.4390     7.0790     7.3620    24.6580     2.3140    -4.7340 
