~V
VERS. 2.00: Ver 2.00
~W
STRT.M 60.0000:
STOP.M 271.0000:
STEP.M 0.1250:
NULL. -999.2500:
UWI. F10205:
~C
DEPT.M :
DEN.GM/CC :
GR.API :
RML.OHMM :
RI. :
RXO.OHMM :
CALI.CM :
SP.MV :
~A
# ...
  172.5000     2.2650    70.2000    90.0580    89.3100    55.7500    25.3110   -16.6330 
  172.6250     2.2580    71.2600    92.2410    89.7160    67.0080    25.2780   -17.0480 
  172.7500     2.2500    75.1220    98.7920    94.1480    98.0680    25.2350   -17.3770 
  172.8750     2.2460    77.6020   106.3110    99.9880   122.1400    25.1750   -17.6150 
  173.0000     2.2480    76.5920   111.3970   104.7490   105.4960    25.1190   -17.8110 
  173.1250     2.2570    73.7870   112.4280   106.6220    82.3650    25.0670   -18.0110 
  173.2500     2.2660    71.6330   111.6260   106.4950    71.7640    24.9740   -18.1830 
  173.3750     2.2710    70.7900   110.6450   105.7930    75.9200    24.9650   -18.3460 
  173.5000     2.2720    70.6260   110.2940   105.8050    88.4330    25.0760   -18.5070 
  173.6250     2.2680    70.7990   111.4410   107.2480   100.4270    25.1910   -18.6000 
  173.7500     2.2650    71.2610   114.0000   109.5180   102.7410    25.2770   -18.6680 
  173.8750     2.2630    71.8150   117.0190   111.8420   101.0600    25.3050   -18.7690 
  174.0000     2.2620    71.7210   119.0320   113.3560    99.0200    25.2920   -18.8850 
  174.1250     2.2590    68.7370   119.0490   112.8960   101.4450    25.2550   -19.0050 
  174.2500     2.2550    67.5810   117.8740   110.1640   104.0290    25.2050   -19.1260 
  174.3750     2.2530    71.4260   115.7260   105.0940    93.9820    25.1330   -19.2510 
  174.5000     2.2550    75.2990   111.4650    98.1000    76.8820    25.0870   -19.3430 
  174.6250     2.2600    73.8560   103.8770    89.9720    67.5790    25.1890   -19.4050 
  174.7500     2.2660    72.2230    94.5940    81.9460    62.5650    25.2010   -19.4400 
  174.8750     2.2720    75.3230    85.6920    74.7640    55.0580    25.0830   -19.4210 
  175.0000     2.2760    78.8530    78.5930    68.8530    48.9940    24.9760   -19.3730 
  175.1250     2.2790    77.9550    73.7560    64.6030    47.1260    25.0410   -19.2600 
  175.2500     2.2820    76.2550    70.5610    61.7610    47.1450    25.2340   -19.0990 
  175.3750     2.2860    74.9060    68.9270    60.2630    48.2000    25.4520   -18.8730 
  175.5000     2.2910    72.6480    68.6810    60.0130    49.0890    25.5750   -18.6350 
  175.6250     2.2920    69.6890    69.7050    60.9600    50.4140    25.5970   -18.4710 
  175.7500     2.2840    68.5760    71.4100    62.5960    52.2890    25.5420   -18.3690 
  175.8750     2.2580    70.4240    73.4070    64.5710    53.5510    25.4660   -18.3260 
  176.0000     2.2180    74.4410    75.3750    66.5630    51.2750    25.4610   -18.3110 
  176.1250     2.1740    78.4860    77.0820    68.2930    48.1850    25.5260   -18.3520 
  176.2500     2.1430    80.2080    78.5640    69.7200    47.7480    25.5130   -18.4640 
  176.3750     2.1330    80.4750    79.9360    70.8980    48.4050    25.3240   -18.6480 
  176.5000     2.1430    80.7510    81.3590    71.9440    47.7120    24.9430   -18.8730 
  176.6250     2.1620    79.2100    83.0820    73.0570    49.1890    24.6620   -19.0630 
  176.7500     2.1790    76.1680    85.2980    74.4760    48.9550    24.6610   -19.2570 
  176.8750     2.1910    74.0680    88.2240    76.4480    47.8770    24.7690   -19.4690 
  177.0000     2.2000    75.5510    92.0460    79.2050    47.7470    24.7490   -19.6720 
  177.1250     2.2120    77.6140    97.0170    83.0650    47.4450    24.5370   -19.8780 
  177.2500     2.2270    79.6990   102.8580    87.8720    51.7930    24.3240   -20.0810 
  177.3750     2.2420    82.2320   109.2160    93.4210    57.3420    24.1570   -20.2570 
  177.5000     2.2540    83.6110   115.4740    99.2500    60.3630    24.0030   -20.3930 
  177.6250     2.2610    80.5490   120.6380   104.5200    54.7190    23.9210   -20.5250 
  177.7500     2.2650    75.7350   124.3310   108.7090    50.2640    23.8910   -20.6400 
  177.8750     2.2650    72.9660   126.6000   111.7540    55.0480    23.8900   -20.6950 
  178.0000     2.2570    72.3510   127.7730   113.9350    68.1930    23.9370   -20.7040 
  178.1250     2.2330    72.4570   127.8580   115.4060    92.7390    24.1800   -20.6560 
  178.2500     2.2000    73.4420   126.6130   116.0150   116.5700    24.6600   -20.6060 
  178.3750     2.1680    73.8010   123.3700   115.0820   127.2730    25.1650   -20.5830 
  178.5000     2.1500    73.8960   117.7220   111.9530   127.6140    25.4880   -20.5760 
  178.6250     2.1560    74.6550   109.8770   106.2880   132.4920    25.6210   -20.5300 
  178.7500     2.1790    74.1770   101.6350    99.4860   103.2910    25.6310   -20.4720 
  178.8750     2.2100    71.6150    94.5720    92.9680    76.6430    25.6110   -20.4320 
  179.0000     2.2420    69.6720    89.9460    88.0890    65.4770    25.5630   -20.4350 
  179.1250     2.2670    71.9100    89.0050    86.3220    62.9270    25.5090   -20.4920 
  179.2500     2.2810    75.2070    91.2730    87.5650    64.6140    25.4350   -20.5450 
  179.3750     2.2840    76.8110    96.4750    91.6560    56.9520    25.2810   -20.5390 
  179.5000     2.2780    77.6400   104.3710    98.3450    42.6930    24.9470   -20.5150 
  179.6250     2.2640    76.2350   115.4010   107.9850    41.2430    24.6430   -20.5700 
  179.7500     2.2490    73.0580   129.2750   120.2760    64.6990    24.6470   -20.7070 
  179.8750     2.2360    70.0170   146.0480   135.2890    87.6220    24.9440   -20.8760 
  180.0000     2.2280    68.3940   165.4970   152.8420    93.6280    25.3620   -21.0330 
  180.1250     2.2300    67.8420   187.2310   172.5270   131.4550    25.6460   -21.1660 
  180.2500     2.2380    68.2030   209.9580   192.9710   157.9510    25.6320   -21.3050 
  180.3750     2.2460    68.9660   233.0760   213.3870   121.8380    25.3850   -21.5400 
  180.5000     2.2470    68.6180   256.5030   233.5400    88.7370    24.9630   -21.8570 
  180.6250     2.2370    65.9470   280.6720   253.8410    83.2380    24.8440   -22.1660 
  180.7500     2.2190    61.7620   305.5390   274.6790   114.4640    25.3370   -22.3940 
  180.8750     2.2010    59.3430   330.2830   295.6800   196.5610    26.1200   -22.5960 
  181.0000     2.1870    60.7900   353.1020   315.4520   257.7810    26.6470   -22.8090 
  181.1250     2.1850    63.6850   370.5790   331.0960   233.2300    26.7510   -22.9900 
  181.2500     2.1930    65.0560   381.4220   341.4110   231.8200    26.5660   -23.1180 
  181.3750     2.2080    65.9750   385.0150   345.9830   254.3340    26.2700   -23.1310 
  181.5000     2.2230    66.7210   381.7190   345.2310   282.4990    26.0630   -23.0660 
  181.6250     2.2260    65.4860   371.9430   339.3950   298.8140    26.0030   -22.9790 
  181.7500     2.2150    63.6890   358.7900   330.5630   282.8480    25.9670   -22.9220 
  181.8750     2.1930    62.3620   344.7030   320.4050   248.5550    25.8670   -22.8570 
  182.0000     2.1680    60.7270   332.0420   310.8360   217.8690    25.6490   -22.8460 
  182.1250     2.1540    59.5230   322.9870   303.9600   210.9180    25.2590   -22.8460 
  182.2500     2.1540    59.7470   316.8450   299.6270   212.9710    24.8700   -22.8310 
  182.3750     2.1650    60.9180   311.4220   296.0470   230.9720    24.6850   -22.8980 
  182.5000     2.1820    62.9630   303.2130   289.8780   247.0260    24.6570   -23.0660 
  182.6250     2.1970    65.2050   288.1400   276.6510   258.2590    24.5780   -23.2550 
  182.7500     2.2090    66.2690   267.8610   257.2310   266.0070    24.4690   -23.3950 
  182.8750     2.2220    67.1570   246.6810   235.2700   246.6860    24.4070   -23.5220 
  183.0000     2.2370    70.0340   230.2640   216.2510   181.1220    24.3610   -23.5420 
  183.1250     2.2520    73.3790   225.4760   207.1940   114.0910    24.2190   -23.6230 
  183.2500     2.2600    74.8720   233.3610   209.8570    75.3920    23.9050   -23.7490 
  183.3750     2.2590    74.3130   254.1800   224.5590    74.6810    23.4730   -23.8120 
  183.5000     2.2470    72.0170   286.1870   249.3480    88.2800    23.0910   -23.7560 
  183.6250     2.2300    69.8430   324.8130   279.7270    80.8310    22.8830   -23.5560 
