~V
VERS. 2.00: Ver 2.00
~W
STRT.M 50.0000:
STOP.M 271.0000:
STEP.M 0.1250:
NULL. -999.2500:
UWI. F10251:
~C
DEPT.M :
DEN.GM/CC :
GR.API :
RML.OHMM :
RI. :
RXO.OHMM :
CALI.CM :
SP.MV :
~A
# ...
  252.5000     2.4250    57.0330     8.6150     6.8180     9.3980    23.6460     0.4830 
  252.6250     2.4250    55.0810     8.4480     6.6390     9.3480    23.6200     0.4430 
  252.7500     2.4250    53.9080     8.3600     6.5150     9.2100    23.6100     0.5230 
  252.8750     2.4260    55.0180     8.3570     6.4650     8.7440    23.5950     0.6070 
  253.0000     2.4310    57.1210     8.4340     6.4910     8.1640    23.6010     0.5940 
  253.1250     2.4450    58.9610     8.5830     6.5930     7.8890    23.6520     0.6200 
  253.2500     2.4660    61.4820     8.7590     6.7290     7.7880    23.6880     0.7350 
  253.3750     2.4850    62.8090     8.9240     6.8610     7.8620    23.7140     0.8360 
  253.5000     2.4840    62.0760     9.0470     6.9610     8.0530    23.7300     0.9070 
  253.6250     2.4650    60.1700     9.1120     7.0190     8.2320    23.7360     1.0840 
  253.7500     2.4450    57.9070     9.1530     7.0580     8.1950    23.7620     1.1910 
  253.8750     2.4340    56.7740     9.1990     7.0960     8.0660    23.7780     1.2670 
  254.0000     2.4290    58.0750     9.2690     7.1460     7.9590    23.7660     1.4390 
  254.1250     2.4260    60.8280     9.3780     7.2160     7.8100    23.7880     1.6550 
  254.2500     2.4220    61.7700     9.5200     7.3010     7.6630    23.8140     1.7640 
  254.3750     2.4210    60.2300     9.6790     7.3920     7.5340    23.7810     1.8310 
  254.5000     2.4230    58.8320     9.8370     7.4800     7.6690    23.7450     1.9170 
  254.6250     2.4270    58.7420     9.9830     7.5650     8.0000    23.7400     1.8810 
  254.7500     2.4300    58.6090    10.1290     7.6620     8.2080    23.7350     1.8720 
  254.8750     2.4330    57.2230    10.2890     7.7820     8.1880    23.7300     1.9000 
  255.0000     2.4360    53.4730    10.4740     7.9250     7.9100    23.7390     1.8630 
  255.1250     2.4410    50.2770    10.6660     8.0720     7.6510    23.7420     1.7420 
  255.2500     2.4450    51.3710    10.8140     8.1930     7.7100    23.7380     1.6780 
  255.3750     2.4500    56.3380    10.8960     8.2780     8.1250    23.7190     1.6280 
  255.5000     2.4510    61.5300    10.9460     8.3500     8.9640    23.6950     1.5170 
  255.6250     2.4450    62.1050    11.0740     8.4720    10.4640    23.6660     1.4920 
  255.7500     2.4370    59.3790    11.3710     8.6910    12.0440    23.6980     1.5030 
  255.8750     2.4380    56.4360    11.8640     9.0330    12.4950    23.7140     1.4630 
  256.0000     2.4550    54.1090    12.4860     9.4710    13.3060    23.7060     1.3780 
  256.1250     2.4780    52.8410    13.0450     9.8990    16.4940    23.6810     1.3820 
  256.2500     2.4990    53.0500    13.3460    10.1740    21.7630    23.6520     1.3480 
  256.3750     2.5140    54.1330    13.2980    10.2100    25.5820    23.6560     1.2690 
  256.5000     2.5280    53.6230    12.9410    10.0090    27.7200    23.6860     1.2760 
  256.6250     2.5350    52.2340    12.4540     9.6660    30.1260    23.7430     1.2430 
  256.7500     2.5310    52.5790    12.0880     9.3680    31.1810    23.8100     1.1270 
  256.8750     2.5200    54.1470    11.9600     9.2270    30.5120    23.8090     1.0710 
  257.0000     2.5040    55.8810    12.0670     9.2820    24.3650    23.7460     1.0880 
  257.1250     2.4890    56.1270    12.3000     9.5060    18.0490    23.6760     1.0120 
  257.2500     2.4760    54.6450    12.4810     9.7580    18.3990    23.6260     0.9700 
  257.3750     2.4670    53.6960    12.5240     9.9350    22.7710    23.5860     0.9830 
  257.5000     2.4650    54.8530    12.4280     9.9880    24.4270    23.5540     0.9310 
  257.6250     2.4720    55.9770    12.2630     9.9330    18.3280    23.5280     0.8750 
  257.7500     2.4860    55.1490    12.1210     9.8540    13.4110    23.5220     0.9010 
  257.8750     2.5010    54.4370    12.0300     9.7900    10.9690    23.4790     0.8770 
  258.0000     2.5100    54.7000    11.9730     9.7400    10.0860    23.3640     0.8040 
  258.1250     2.5130    53.7310    11.8910     9.6720     9.8150    23.2830     0.8520 
  258.2500     2.5090    53.1500    11.7400     9.5600     9.7580    23.2810     0.8880 
  258.3750     2.4980    55.2340    11.5270     9.4120     9.0810    23.3690     0.8180 
  258.5000     2.4860    57.8120    11.3060     9.2640     8.0660    23.4740     0.7940 
  258.6250     2.4800    56.2580    11.1740     9.1850     7.7030    23.5500     0.8190 
  258.7500     2.4790    52.5700    11.1750     9.2140     8.2110    23.5900     0.7240 
  258.8750     2.4750    51.5430    11.3180     9.3660     9.5100    23.5960     0.6350 
  259.0000     2.4680    53.5140    11.5840     9.6370    12.7990    23.6060     0.5940 
  259.1250     2.4700    55.2380    11.9620    10.0180    20.5350    23.6340     0.4650 
  259.2500     2.4810    55.8640    12.4150    10.4580    27.9090    23.6120     0.2830 
  259.3750     2.4940    56.6490    12.9330    10.9300    27.7790    23.5710     0.1710 
  259.5000     2.5030    57.4480    13.5040    11.4250    21.4280    23.5560     0.0340 
  259.6250     2.5150    57.1610    14.0990    11.9410    17.4110    23.5560    -0.0890 
  259.7500     2.5360    55.7200    14.6450    12.4440    16.0240    23.5650    -0.1450 
  259.8750     2.5570    54.1290    15.0640    12.8730    15.8920    23.5830    -0.2790 
  260.0000     2.5640    52.9000    15.2910    13.1600    16.0060    23.5700    -0.4830 
  260.1250     2.5520    53.5220    15.2820    13.2390    15.5240    23.5810    -0.6460 
  260.2500     2.5400    55.6100    15.1400    13.1790    15.1360    23.6120    -0.7820 
  260.3750     2.5390    58.5630    14.9690    13.0610    14.7250    23.6310    -0.9450 
  260.5000     2.5470    60.4760    14.8620    12.9640    14.9050    23.5990    -1.0680 
  260.6250     2.5510    59.8360    14.9030    12.9630    14.6960    23.5810    -1.2450 
  260.7500     2.5470    59.5810    15.0800    13.0790    15.1680    23.5730    -1.4460 
  260.8750     2.5360    60.0470    15.3360    13.3000    16.3940    23.5750    -1.5460 
  261.0000     2.5230    60.1470    15.5650    13.5640    18.7000    23.5920    -1.5610 
  261.1250     2.5090    60.1470    15.6030    13.7290    23.7030    23.5790    -1.6260 
  261.2500     2.4920    60.1470    15.3990    13.6990    31.5880    23.4960    -1.7250 
  261.3750     2.4720    60.1470    14.9950    13.4610    38.9990    23.3300    -1.8690 
  261.5000     2.4550    60.1470    14.5250    13.1050    41.7070    23.1520    -2.0350 
  261.6250     2.4490    60.1470    14.2090    12.8090    29.5870    23.0760    -2.1910 
  261.7500     2.4590    60.1470    14.1550    12.7050    20.5090    23.0420    -2.4340 
  261.8750     2.4860    60.1470    14.3760    12.8390    15.4490    23.0110    -2.7930 
  262.0000     2.5240    60.1470    14.7950    13.1820    14.3570    23.0460    -3.1690 
  262.1250     2.5570    60.1470    15.2510    13.6310    14.4980    23.1600    -3.5100 
  262.2500     2.5720    60.1470    15.5600    14.0080    14.3340    23.3070    -3.7970 
  262.3750     2.5680    60.1470    15.6270    14.1980    14.1960    23.4280    -3.9370 
  262.5000     2.5500    60.1470    15.4480    14.1650    14.2080    23.4620    -4.0530 
  262.6250     2.5320    60.1470    15.0680    13.9210    14.1520    23.4460    -4.2280 
  262.7500     2.5210    60.1470    14.6270    13.5750    13.6760    23.4820    -4.3080 
  262.8750     2.5190    60.1470    14.2090    13.2020    13.0940    23.5340    -4.2380 
  263.0000     2.5200    60.1470    13.8630    12.8610    12.4710    23.5560    -4.1910 
  263.1250     2.5170    60.1470    13.6210    12.6110    11.6660    23.5570    -4.1130 
  263.2500     2.5100    60.1470    13.4620    12.4490    11.1330    23.5540    -4.0290 
  263.3750     2.5050    60.1470    13.3690    12.3640    11.0130    23.5510    -3.9770 
  263.5000     2.5010    60.1470    13.3250    12.3260    11.4710    23.5540    -3.8910 
  263.6250     2.5000    60.1470    13.3200    12.3120    11.6170    23.5560    -3.6880 
