~V
VERS. 2.00: Ver 2.00
~W
STRT.M 47.0000:
STOP.M 270.0000:
STEP.M 0.1250:
NULL. -999.2500:
UWI. F10221:
~C
DEPT.M :
SP.MV :
GR.API :
RML.OHMM :
RI. :
RXO.OHMM :
CALI.CM :
DEN.GM/CC :
~A
# ...
  227.0000   -13.9880    54.6570    75.1200    68.1370   117.2520    24.4740     2.5300 
  227.1250   -13.6600    58.1880    62.9130    57.3280    65.6970    24.5220     2.4870 
  227.2500   -13.3180    62.5800    56.1210    50.3580    36.2800    24.5990     2.4660 
  227.3750   -12.9880    66.0670    54.0540    47.4480    29.4830    24.6930     2.4780 
  227.5000   -12.6850    68.0090    53.2200    46.1520    40.0140    24.5610     2.5030 
  227.6250   -12.3900    68.3250    48.8990    42.2140    66.5510    24.2740     2.5160 
  227.7500   -12.0960    66.5320    39.4750    34.0400    88.8890    23.9690     2.5170 
  227.8750   -11.8040    64.1900    27.5080    24.0240    64.4130    23.7880     2.5090 
  228.0000   -11.5340    63.9170    17.7870    16.1510    29.5190    23.7160     2.4800 
  228.1250   -11.3280    64.4350    11.7180    11.1220    12.9460    23.6220     2.4340 
  228.2500   -11.1540    63.3070     8.6580     8.3160     7.4920    23.4970     2.3980 
  228.3750   -10.9990    61.9950     7.5600     7.0030     6.3750    23.4760     2.3870 
  228.5000   -10.9070    59.9950     7.6710     6.7710     6.5790    23.5850     2.3930 
  228.6250   -10.8550    56.2940     8.1360     7.0420     7.2480    23.6950     2.3950 
  228.7500   -10.8310    53.2130     8.4710     7.4210     7.6970    23.8070     2.3880 
  228.8750   -10.8280    54.3960     8.3500     7.5340     7.6610    23.9350     2.3750 
  229.0000   -10.8760    60.2070     7.6730     7.1460     7.1010    24.0080     2.3590 
  229.1250   -10.9530    65.4070     6.8000     6.5080     6.2740    24.0180     2.3470 
  229.2500   -11.0750    69.2350     6.0410     5.8920     5.6010    23.9820     2.3440 
  229.3750   -11.2490    73.8760     5.6130     5.5090     5.3040    23.9570     2.3490 
  229.5000   -11.4930    81.2080     5.6960     5.5260     5.4550    23.9780     2.3580 
  229.6250   -11.8130    86.8050     6.2090     5.8930     6.7320    24.0440     2.3660 
  229.7500   -12.1660    88.1520     7.0490     6.5430     9.5040    24.2720     2.3740 
  229.8750   -12.5610    87.2670     8.0390     7.3490    11.8230    24.5960     2.3780 
  230.0000   -12.9620    87.0620     8.9140     8.1110     9.8720    24.7440     2.3760 
  230.1250   -13.3510    87.3820     9.4960     8.6570     8.7170    24.7790     2.3710 
  230.2500   -13.7360    88.2420     9.7360     8.9180     8.4960    24.7730     2.3700 
  230.3750   -14.1050    91.4960     9.7080     8.9300     8.5840    24.7630     2.3730 
  230.5000   -14.3920    97.4810     9.5470     8.7870     8.5990    24.7570     2.3780 
  230.6250   -14.6300   102.9710     9.4050     8.6050     8.4640    24.7550     2.3810 
  230.7500   -14.8590   104.7340     9.3420     8.4200     8.2420    24.7570     2.3840 
  230.8750   -15.0760   103.7310     9.3650     8.2460     8.0690    24.7590     2.3880 
  231.0000   -15.2830   105.8480     9.4330     8.0830     8.1290    24.7620     2.3910 
  231.1250   -15.4970   112.7020     9.4710     7.9160     8.2200    24.7580     2.3930 
  231.2500   -15.7060   122.1220     9.4610     7.7420     8.2870    24.7590     2.3950 
  231.3750   -15.9060   128.3920     9.4710     7.5970     8.2820    24.7720     2.3940 
  231.5000   -16.1270   128.1450     9.7180     7.5990     8.3290    24.7750     2.3910 
  231.6250   -16.3480   121.8870    10.4200     7.8680     8.6720    24.7750     2.3870 
  231.7500   -16.5740   113.8790    11.8400     8.5630     9.2950    24.7840     2.3800 
  231.8750   -16.8090   106.0660    14.2460     9.8790    10.3240    24.8400     2.3700 
  232.0000   -17.0530    95.4830    18.0650    12.2130    13.8010    24.9360     2.3630 
  232.1250   -17.3000    84.2260    23.1120    15.6250    20.3680    24.9930     2.3630 
  232.2500   -17.5520    77.3760    29.0780    20.1120    29.0610    25.0160     2.3560 
  232.3750   -17.7920    77.0760    35.3030    25.3100    37.4250    25.0340     2.3270 
  232.5000   -17.9920    77.9760    40.6820    30.3050    40.4090    25.0920     2.2850 
  232.6250   -18.1550    76.1490    44.6540    34.2820    41.4550    25.0950     2.2620 
  232.7500   -18.2680    74.6270    47.1960    37.0250    40.9890    25.0070     2.2670 
  232.8750   -18.3350    74.9700    48.5890    38.6790    40.8030    24.8640     2.2860 
  233.0000   -18.3440    74.3420    48.9270    39.2950    42.5510    24.7570     2.3010 
  233.1250   -18.2770    70.3420    48.4190    39.1250    43.6930    24.7540     2.3040 
  233.2500   -18.1590    65.3130    47.0740    38.2260    42.7900    24.8290     2.2990 
  233.3750   -18.0360    63.8810    45.0430    36.7390    39.8090    24.9290     2.2900 
  233.5000   -17.9120    68.4020    42.7850    34.9870    35.7110    25.0440     2.2820 
  233.6250   -17.7890    74.6720    41.0050    33.5090    32.7660    25.1260     2.2800 
  233.7500   -17.6740    79.0480    40.2350    32.7140    32.3010    25.1860     2.2850 
  233.8750   -17.5290    79.6580    40.8080    32.8820    32.7860    25.1940     2.2940 
  234.0000   -17.3900    78.9450    43.0510    34.3520    33.2520    25.1910     2.3020 
  234.1250   -17.2760    79.1470    46.5480    36.9280    35.2240    25.1890     2.3050 
  234.2500   -17.1570    78.5530    50.8890    40.4090    40.5110    25.1770     2.3010 
  234.3750   -17.0170    74.1790    55.4330    44.3570    49.4980    25.1200     2.2890 
  234.5000   -16.8400    68.1860    59.0730    47.9110    54.5470    25.0010     2.2710 
  234.6250   -16.6470    66.1290    60.9140    50.1830    55.3360    24.8920     2.2570 
  234.7500   -16.4280    68.2130    60.4030    50.5540    54.3560    24.7960     2.2550 
  234.8750   -16.2050    70.5980    57.6430    48.9310    52.6770    24.7570     2.2640 
  235.0000   -15.9330    70.4030    53.2980    45.7170    50.6320    24.8010     2.2790 
  235.1250   -15.6370    69.8400    48.7330    42.0890    47.3490    24.8810     2.2910 
  235.2500   -15.3090    69.9900    44.7160    38.7520    41.0270    24.9150     2.2970 
  235.3750   -14.9600    70.4850    41.5970    36.0840    35.0660    24.8780     2.2990 
  235.5000   -14.6090    72.5970    39.4430    34.2240    33.7070    24.8280     2.3020 
  235.6250   -14.2210    75.2430    37.8620    32.9000    34.2610    24.8180     2.3090 
  235.7500   -13.8200    75.6040    36.7090    31.9990    34.6130    24.8360     2.3270 
  235.8750   -13.3910    72.9580    35.9020    31.4350    33.4840    24.8810     2.3510 
  236.0000   -12.9960    71.1430    35.3230    31.0650    31.6660    24.9330     2.3680 
  236.1250   -12.6190    71.5100    34.6620    30.5850    30.7380    24.9110     2.3770 
  236.2500   -12.2920    72.3980    33.6000    29.7200    33.4930    24.8810     2.3830 
  236.3750   -11.9990    75.5410    31.8940    28.2750    35.7830    24.8660     2.3900 
  236.5000   -11.7280    82.1810    29.5480    26.2820    31.1530    24.8750     2.3930 
  236.6250   -11.4870    88.3030    27.1110    24.2260    24.2000    24.8760     2.3960 
  236.7500   -11.3050    90.4820    25.0490    22.4780    20.2340    24.8670     2.4000 
  236.8750   -11.1630    85.9520    23.7140    21.2990    19.0890    24.8670     2.3980 
  237.0000   -11.0380    75.4600    23.4370    20.9600    19.4150    24.8610     2.3740 
  237.1250   -10.9440    67.0350    24.0270    21.3570    20.0520    24.8290     2.3390 
  237.2500   -10.8810    65.8280    25.3280    22.4040    20.4790    24.7170     2.3140 
  237.3750   -10.8340    67.6550    27.1250    23.9590    20.8640    24.5850     2.3020 
  237.5000   -10.8310    65.0590    29.0340    25.7580    24.3880    24.6360     2.2970 
  237.6250   -10.8430    62.3660    30.4220    27.2300    28.7510    24.8380     2.2880 
  237.7500   -10.8600    65.3920    30.7670    27.8230    29.7570    24.9360     2.2780 
  237.8750   -10.8830    72.5960    29.9000    27.2690    27.7970    24.9180     2.2700 
  238.0000   -10.9300    77.3380    28.1500    25.7620    24.8800    24.8780     2.2670 
  238.1250   -10.9740    78.5040    26.4550    24.1430    21.8350    24.8640     2.2680 
