~V
VERS. 2.00: Ver 2.00
~W
STRT.M 30.0000:
STOP.M 271.0000:
STEP.M 0.1250:
NULL. -999.2500:
UWI. F10210:
~C
DEPT.M :
DEN.GM/CC :
GR.API :
RML.OHMM :
RI. :
RXO.OHMM :
CALI.CM :
SP.MV :
~A
# ...
   63.7500     2.0830    64.5250     8.5040     7.8300    11.2460    25.8000   -19.7770 
   63.8750     2.0670    60.1850     8.1960     7.5400    11.1380    25.8890   -20.3170 
   64.0000     2.0570    62.3140     7.8100     7.1760    10.8660    26.0070   -20.4950 
   64.1250     2.0640    70.0320     7.5860     6.9650    10.4850    26.0360   -20.3270 
   64.2500     2.1040    74.4360     7.7150     7.0860    10.6130    26.0420   -19.9040 
   64.3750     2.1900    74.2330     8.3680     7.7020    12.2180    26.0330   -19.2880 
   64.5000     2.3160    73.4310     9.6850     8.9440    16.0940    26.0300   -18.5980 
   64.6250     2.4370    74.2590    11.8100    10.9470    22.7310    26.0320   -17.9850 
   64.7500     2.5000    73.9160    14.2900    13.2860    27.4950    26.0390   -17.5460 
   64.8750     2.4980    72.6220    16.3090    15.1900    29.6330    26.0440   -17.4140 
   65.0000     2.4480    71.5650    16.8740    15.7230    30.4150    26.0330   -17.6350 
   65.1250     2.3620    71.1440    15.4370    14.3680    27.1230    26.0310   -18.2600 
   65.2500     2.2730    72.1110    13.1610    12.2220    19.4850    25.9940   -19.2290 
   65.3750     2.2040    74.5540    10.9530    10.1400    13.1990    26.0110   -20.4370 
   65.5000     2.1640    76.6670     9.2830     8.5650    10.8270    26.0360   -21.7870 
   65.6250     2.1450    77.3090     8.3450     7.6800    10.5250    26.0460   -23.1760 
   65.7500     2.1330    78.0400     7.9130     7.2730    10.5730    26.0360   -24.5130 
   65.8750     2.1240    78.8790     7.7990     7.1660    10.6100    26.0340   -25.7130 
   66.0000     2.1200    77.5260     7.8050     7.1710    10.6330    26.0770   -26.7390 
   66.1250     2.1280    72.6340     7.8510     7.2140    10.7720    26.1980   -27.5890 
   66.2500     2.1480    68.3990     8.0910     7.4410    10.9150    26.3690   -28.3210 
   66.3750     2.1760    67.6540     8.7740     8.0840    11.0960    26.4530   -28.9830 
   66.5000     2.2170    68.7520    10.0850     9.3210    11.4480    26.5900   -29.5970 
   66.6250     2.2860    68.8350    12.1220    11.2420    14.5960    26.6100   -30.1850 
   66.7500     2.3650    67.8420    14.3470    13.3400    25.4870    26.6290   -30.8030 
   66.8750     2.3890    66.7780    15.8690    14.7750    49.5580    26.6390   -31.4720 
   67.0000     2.3090    65.8680    15.8020    14.7120    55.1580    26.6820   -32.1870 
   67.1250     2.1800    64.2950    14.6360    13.0540    29.2810    26.8560   -32.9100 
   67.2500     2.0950    62.7710    10.6620    11.0160    15.5360    27.0660   -33.5760 
   67.3750     2.0630    62.0980     9.0060     9.2860    12.0280    27.1310   -34.1730 
   67.5000     2.0600    62.9990     8.1900     8.1430    11.6680    27.1790   -34.7210 
   67.6250     2.0680    66.4630     8.1500     7.6920    11.6950    27.5790   -35.2110 
   67.7500     2.0840    70.2050     8.4760     7.6900    11.8270    27.8150   -35.6190 
   67.8750     2.1010    72.2210     8.8970     7.9540    11.9130    27.8790   -35.9170 
   68.0000     2.1050    71.0090     9.2270     8.3080    11.7610    27.9470   -36.1200 
   68.1250     2.0890    67.9090     9.3860     8.6010    11.4380    28.3380   -36.2200 
   68.2500     2.0630    66.2130     9.4220     8.7620    10.9750    28.5780   -36.2520 
   68.3750     2.0330    66.8080     9.3680     8.7780    10.5560    28.5670   -36.2020 
   68.5000     2.0080    67.7680     9.2620     8.6810    10.0050    28.1470   -36.0490 
   68.6250     1.9950    67.3420     9.1640     8.5310     9.5740    27.7850   -35.8260 
   68.7500     1.9890    67.0760     9.1260     8.4030     9.5900    27.5350   -35.5950 
   68.8750     1.9890    67.6520     9.1690     8.3320    10.3150    27.4370   -35.3820 
   69.0000     1.9960    68.4980     9.2790     8.3260    11.3140    27.3400   -35.1470 
   69.1250     2.0150    68.8050     9.4020     8.3630    11.4010    26.9300   -34.8860 
   69.2500     2.0370    68.8100     9.4910     8.3970    10.9970    26.5750   -34.6140 
   69.3750     2.0510    67.6790     9.5470     8.4050    10.7570    26.4520   -34.4050 
   69.5000     2.0550    65.0020     9.5940     8.3880    10.8510    26.4490   -34.3060 
   69.6250     2.0580    63.1540     9.6520     8.3600    11.1840    26.4450   -34.2720 
   69.7500     2.0730    63.8400     9.7130     8.3330    11.3180    26.4160   -34.2640 
   69.8750     2.1020    66.6830     9.7630     8.3040    11.3020    26.3770   -34.2940 
   70.0000     2.1320    69.4180     9.7890     8.2620    11.5810    26.3710   -34.4180 
   70.1250     2.1410    69.3280     9.7960     8.2060    11.8760    26.3660   -34.7080 
   70.2500     2.1310    67.0980     9.8120     8.1490    11.9810    26.3580   -35.1230 
   70.3750     2.1160    64.3020     9.8440     8.1100    12.0930    26.3630   -35.5980 
   70.5000     2.1060    61.9310     9.8850     8.0970    12.2800    26.3540   -36.1040 
   70.6250     2.1040    61.2180     9.9310     8.1160    12.5550    26.3570   -36.6080 
   70.7500     2.1030    62.3320     9.9810     8.1520    12.6540    26.3510   -37.0660 
   70.8750     2.1000    65.0710    10.0270     8.1840    12.6340    26.3450   -37.4190 
   71.0000     2.0930    66.6060    10.0550     8.1920    12.4480    26.3130   -37.6130 
   71.1250     2.0870    65.3280    10.0530     8.1550    12.1260    26.2110   -37.5940 
   71.2500     2.0860    64.6670    10.0210     8.0760    11.8120    26.1090   -37.4430 
   71.3750     2.0910    66.1240     9.9550     7.9660    11.6600    26.1120   -37.2050 
   71.5000     2.0980    69.3840     9.8600     7.8470    11.6080    26.1130   -36.9010 
   71.6250     2.1030    71.5130     9.7560     7.7520    11.5500    26.1180   -36.5560 
   71.7500     2.1050    72.3720     9.6820     7.7030    11.2600    26.1250   -36.1960 
   71.8750     2.1060    73.2070     9.6810     7.7130    10.8730    26.1250   -35.8820 
   72.0000     2.1080    73.7940     9.7730     7.7770    10.7900    26.1000   -35.6510 
   72.1250     2.1050    73.2830     9.9350     7.8770    10.8810    26.1090   -35.5350 
   72.2500     2.0970    72.0710    10.0850     7.9680    11.0680    26.1120   -35.4780 
   72.3750     2.0870    71.2220    10.1650     8.0140    11.1420    26.1200   -35.4570 
   72.5000     2.0780    70.0470    10.1510     7.9950    11.0820    26.1190   -35.4630 
   72.6250     2.0720    67.7360    10.0630     7.9140    11.0070    26.1060   -35.5280 
   72.7500     2.0730    66.7510     9.9570     7.8100    11.1330    26.1110   -35.6690 
   72.8750     2.0830    67.9760     9.8750     7.7150    11.1800    26.1080   -35.8690 
   73.0000     2.0960    71.0460     9.8490     7.6540    11.6990    26.1140   -36.1300 
   73.1250     2.1020    73.2880     9.8910     7.6380    12.1260    26.1380   -36.4080 
   73.2500     2.1090    71.1210     9.9440     7.6480    12.1810    26.2120   -36.7230 
   73.3750     2.1220    66.7450     9.9530     7.6660    12.0820    26.2710   -37.0560 
   73.5000     2.1340    64.1190     9.8860     7.6680    11.9670    26.2860   -37.4010 
   73.6250     2.1360    64.2250     9.7340     7.6290    11.8470    26.2830   -37.7440 
   73.7500     2.1280    64.8400     9.5510     7.5450    11.6660    26.2940   -38.0490 
   73.8750     2.1180    67.0000     9.3890     7.4280    11.5280    26.2860   -38.3130 
   74.0000     2.1110    69.2300     9.2750     7.2980    11.3700    26.2850   -38.5200 
   74.1250     2.1070    67.0260     9.2270     7.1880    11.3030    26.3450   -38.6790 
   74.2500     2.1060    62.2060     9.2380     7.1210    11.5710    26.5940   -38.8040 
   74.3750     2.1070    59.2780     9.2870     7.1040    11.9630    26.8210   -38.9210 
   74.5000     2.1130    59.9540     9.3390     7.1270    12.1500    26.8820   -39.0220 
   74.6250     2.1210    63.3560     9.3500     7.1680    12.0220    26.8950   -39.1460 
   74.7500     2.1220    65.9820     9.3150     7.2030    12.0960    26.9580   -39.2940 
   74.8750     2.1150    64.5430     9.2400     7.2230    12.2520    27.2380   -39.4470 
