~V
VERS. 2.00: Ver 2.00
~W
STRT.M 50.0000:
STOP.M 283.0000:
STEP.M 0.1250:
NULL. -999.2500:
UWI. F10256:
~C
DEPT.M :
DEN.GM/CC :
GR.API :
RML.OHMM :
RI. :
RXO.OHMM :
CALI.CM :
SP.MV :
~A
# ...
   83.7500     2.2760    83.6160     6.4610     5.4090     6.0740    25.1780    -5.2560 
   83.8750     2.2900    86.6390     6.1650     5.0600     5.3290    25.1590    -4.4900 
   84.0000     2.3020    88.6560     6.1540     4.9400     5.1820    25.1330    -3.8630 
   84.1250     2.3160    90.9500     6.3200     5.0030     5.4230    25.0880    -3.3490 
   84.2500     2.3310    93.3130     6.5030     5.1310     5.5640    25.1420    -3.0000 
   84.3750     2.3400    95.3870     6.6170     5.2510     5.5380    25.2930    -2.8180 
   84.5000     2.3410    96.3950     6.6220     5.3130     5.5990    25.4530    -2.7770 
   84.6250     2.3340    94.3900     6.5190     5.2900     5.6120    25.4840    -2.8030 
   84.7500     2.3260    91.5270     6.3820     5.2200     5.4150    25.4600    -2.8780 
   84.8750     2.3200    90.8150     6.2730     5.1470     5.3130    25.3690    -3.0170 
   85.0000     2.3130    92.6230     6.2440     5.1130     5.2910    25.2480    -3.2410 
   85.1250     2.3000    94.2240     6.3430     5.1580     5.3180    25.1770    -3.6080 
   85.2500     2.2780    91.8560     6.5510     5.2800     5.4310    25.1020    -4.0610 
   85.3750     2.2500    85.4390     6.8370     5.4640     5.6820    24.9870    -4.5700 
   85.5000     2.2220    78.3000     7.1470     5.6780     6.0290    24.8660    -5.1160 
   85.6250     2.2010    75.4180     7.4140     5.8780     6.3750    24.7770    -5.7160 
   85.7500     2.1870    75.6710     7.6090     6.0370     6.5900    24.6810    -6.3520 
   85.8750     2.1790    75.6590     7.7380     6.1510     6.7890    24.6160    -6.9870 
   86.0000     2.1740    75.2660     7.8430     6.2380     6.9360    24.6260    -7.5940 
   86.1250     2.1670    74.5040     7.9840     6.3360     7.1300    24.6710    -8.1360 
   86.2500     2.1600    72.2130     8.1910     6.4680     7.2870    24.7510    -8.6550 
   86.3750     2.1530    70.0880     8.4510     6.6370     7.4840    24.8840    -9.1360 
   86.5000     2.1480    69.2340     8.7220     6.8200     7.8330    25.0160    -9.5480 
   86.6250     2.1480    68.2210     8.9430     6.9810     8.2090    25.0310    -9.8900 
   86.7500     2.1500    65.1720     9.0960     7.1020     8.4020    24.9530   -10.1770 
   86.8750     2.1570    63.0020     9.2080     7.1910     8.4730    24.8350   -10.4480 
   87.0000     2.1660    63.3890     9.3330     7.2810     8.5920    24.7130   -10.7390 
   87.1250     2.1750    63.7970     9.5390     7.4170     8.7320    24.6640   -11.0580 
   87.2500     2.1790    62.8340     9.8110     7.6020     8.8920    24.6970   -11.3630 
   87.3750     2.1710    62.1540    10.0860     7.8010     9.1000    24.7730   -11.6790 
   87.5000     2.1530    63.6850    10.2750     7.9560     9.4730    24.8360   -12.0650 
   87.6250     2.1310    65.8000    10.2750     7.9920     9.8180    24.8930   -12.5240 
   87.7500     2.1140    64.7940    10.1130     7.9090     9.8300    24.9470   -12.9880 
   87.8750     2.1060    60.3790     9.8580     7.7400     9.4210    24.9630   -13.4090 
   88.0000     2.1070    55.4610     9.6000     7.5460     9.1110    24.9480   -13.7590 
   88.1250     2.1120    53.9970     9.4260     7.3890     8.9890    24.9590   -14.0550 
   88.2500     2.1160    55.0880     9.3340     7.2840     8.9260    24.9650   -14.2770 
   88.3750     2.1200    56.4910     9.2990     7.2240     8.8700    24.9520   -14.4140 
   88.5000     2.1260    57.1830     9.2880     7.1870     8.8120    24.9700   -14.4430 
   88.6250     2.1350    58.0470     9.2870     7.1660     8.7180    24.9920   -14.3570 
   88.7500     2.1460    60.7390     9.3080     7.1640     8.5930    24.9870   -14.2580 
   88.8750     2.1550    64.4860     9.3650     7.1970     8.5150    24.9710   -14.1890 
   89.0000     2.1590    67.0250     9.4650     7.2700     8.5630    24.9850   -14.1490 
   89.1250     2.1570    64.6800     9.6040     7.3890     8.9020    24.9890   -14.1150 
   89.2500     2.1520    59.4150     9.7580     7.5330     9.4110    24.9720   -14.0820 
   89.3750     2.1480    55.9820     9.9070     7.6840     9.7640    24.9730   -14.0820 
   89.5000     2.1480    56.1490    10.0270     7.8220     9.8350    24.9900   -14.1130 
   89.6250     2.1520    55.5990    10.0860     7.9210     9.8840    24.9880   -14.1240 
   89.7500     2.1540    51.8010    10.0750     7.9700    10.0550    24.9910   -14.0730 
   89.8750     2.1520    48.3840     9.9930     7.9650    10.1440    25.0080   -13.9480 
   90.0000     2.1420    48.5750     9.8580     7.9120     9.9680    24.9870   -13.7550 
   90.1250     2.1250    51.7760     9.7060     7.8260     9.6330    24.9450   -13.4290 
   90.2500     2.1080    55.6200     9.5590     7.7250     9.2760    24.9370   -13.0410 
   90.3750     2.1020    58.4150     9.3960     7.6020     8.9530    24.9350   -12.5720 
   90.5000     2.1130    59.0070     9.1620     7.4240     8.9140    24.8800   -12.0130 
   90.6250     2.1480    58.6030     8.7780     7.1400     9.0730    24.8710   -11.3930 
   90.7500     2.1940    61.2600     8.2690     6.7600     9.3290    24.9560   -10.7010 
   90.8750     2.2370    66.5220     7.7070     6.3270     9.7600    25.0700    -9.9450 
   91.0000     2.2630    70.7290     7.1970     5.9110     9.5670    25.1520    -9.1930 
   91.1250     2.2640    70.9490     6.8630     5.6010     8.1310    25.1940    -8.5250 
   91.2500     2.2520    69.4900     6.7160     5.4210     6.3830    25.1830    -7.9200 
   91.3750     2.2360    69.4760     6.7250     5.3690     6.2170    25.1130    -7.3780 
   91.5000     2.2230    71.4550     6.8330     5.4200     6.2980    25.0520    -6.9070 
   91.6250     2.2170    74.1580     6.9890     5.5510     6.2940    25.0110    -6.5450 
   91.7500     2.2210    74.6390     7.1510     5.7160     6.1420    24.9830    -6.3130 
   91.8750     2.2360    71.1200     7.3070     5.8910     6.0060    24.9790    -6.1970 
   92.0000     2.2570    65.7170     7.4420     6.0540     6.0430    25.0140    -6.1010 
   92.1250     2.2700    64.3060     7.5060     6.1610     6.2440    25.0300    -5.9740 
   92.2500     2.2680    66.9300     7.4560     6.1750     6.3060    25.0170    -5.8250 
   92.3750     2.2570    68.7180     7.2650     6.0710     6.3270    25.0130    -5.6510 
   92.5000     2.2460    68.4890     6.9430     5.8470     6.3300    25.0350    -5.4370 
   92.6250     2.2500    69.9460     6.5390     5.5270     6.2490    25.1150    -5.1970 
   92.7500     2.2660    72.8570     6.1390     5.1840     5.8420    25.2450    -4.9340 
   92.8750     2.2880    75.9020     5.8020     4.8730     5.4540    25.3720    -4.6870 
   93.0000     2.3070    78.7730     5.5670     4.6310     5.1440    25.4260    -4.5420 
   93.1250     2.3150    82.1260     5.4750     4.5030     5.0900    25.4250    -4.5640 
   93.2500     2.3110    83.0370     5.5250     4.4890     5.0480    25.4140    -4.7050 
   93.3750     2.2930    80.7790     5.7270     4.5970     5.0490    25.3570    -4.9990 
   93.5000     2.2670    79.3590     6.0810     4.8290     5.2690    25.2380    -5.4430 
   93.6250     2.2380    78.1350     6.5830     5.1910     5.6860    25.1150    -6.0310 
   93.7500     2.2160    72.7690     7.1470     5.6190     6.1700    24.9720    -6.7100 
   93.8750     2.2010    65.3710     7.6850     6.0500     6.7090    24.8080    -7.3960 
   94.0000     2.1930    62.6220     8.0970     6.4040     7.2440    24.6850    -8.0190 
   94.1250     2.1880    65.9790     8.2600     6.5770     7.4500    24.6280    -8.5520 
   94.2500     2.1850    68.3430     8.1910     6.5650     7.5890    24.5720    -9.0140 
   94.3750     2.1810    69.2730     7.9590     6.4040     7.5030    24.5210    -9.4140 
   94.5000     2.1750    70.7370     7.7060     6.1880     7.2650    24.5140    -9.7480 
   94.6250     2.1690    71.1070     7.6640     6.0780     7.3300    24.5130   -10.0110 
   94.7500     2.1680    68.3270     7.9840     6.1970     7.3570    24.4770   -10.2700 
   94.8750     2.1840    64.2870     8.7230     6.6160     7.4170    24.4650   -10.5750 
