~V
VERS. 2.00: Ver 2.00
~W
STRT.M 58.0000:
STOP.M 277.0000:
STEP.M 0.1250:
NULL. -999.2500:
UWI. F10219:
~C
DEPT.M :
SP.MV :
DEN.GM/CC :
GR.API :
RML.OHMM :
RI. :
RXO.OHMM :
CALI.CM :
~A
# ...
  193.0000   -25.2730     2.2100    63.0620   117.6140   106.6040    84.5530    25.2440 
  193.1250   -25.3820     2.2120    62.9150   122.3190   111.2710    86.8680    25.2880 
  193.2500   -25.5580     2.2110    62.3320   124.9590   114.3670    88.2990    25.3920 
  193.3750   -25.8140     2.2010    60.7940   126.1840   116.3670    89.8560    25.5360 
  193.5000   -26.0780     2.1830    59.6000   126.4860   117.6780    93.4900    25.6740 
  193.6250   -26.3730     2.1650    59.7230   125.4010   117.9080    98.6710    25.7830 
  193.7500   -26.6270     2.1510    59.9790   121.8340   116.0180   103.0190    25.8370 
  193.8750   -26.8370     2.1410    59.3220   115.0060   111.0880   104.0080    25.9230 
  194.0000   -26.9950     2.1310    59.2100   105.4230   103.2580   100.3700    26.0940 
  194.1250   -27.0740     2.1330    60.5180    94.3420    93.4260    91.6610    26.2680 
  194.2500   -27.1050     2.1570    62.2620    83.8200    83.3990    77.3020    26.2950 
  194.3750   -27.0290     2.1950    63.8270    75.7840    75.1600    60.1540    25.9900 
  194.5000   -26.8850     2.2240    65.6120    71.0480    69.8500    47.3720    25.3880 
  194.6250   -26.6730     2.2320    66.9670    69.7140    67.8340    43.2630    24.8180 
  194.7500   -26.4340     2.2290    66.9590    71.4550    69.0140    47.1790    24.5610 
  194.8750   -26.2360     2.2260    66.6000    75.3870    72.6800    55.0170    24.5360 
  195.0000   -26.0540     2.2250    66.9830    80.1010    77.4800    61.8120    24.5650 
  195.1250   -25.9090     2.2260    67.4090    84.4280    82.2420    66.2920    24.5860 
  195.2500   -25.7800     2.2300    67.3410    87.1630    85.6560    69.9080    24.5930 
  195.3750   -25.7270     2.2370    67.3110    87.5690    86.7900    72.3640    24.5780 
  195.5000   -25.7860     2.2410    67.9250    85.9220    85.6850    71.7110    24.5270 
  195.6250   -25.9160     2.2390    68.1160    82.9810    82.9240    68.1960    24.4460 
  195.7500   -26.1160     2.2310    66.8370    80.0700    79.7080    62.5340    24.3530 
  195.8750   -26.2860     2.2210    65.1110    78.6400    77.5200    55.3250    24.2830 
  196.0000   -26.4650     2.2150    64.8640    79.5510    77.4480    48.0400    24.2530 
  196.1250   -26.6730     2.2150    66.0510    82.9720    79.9030    43.2200    24.2560 
  196.2500   -26.8720     2.2180    67.0300    88.2330    84.5150    43.2630    24.2750 
  196.3750   -27.0420     2.2230    67.2370    93.6320    89.8420    49.2630    24.2920 
  196.5000   -27.1330     2.2290    67.7360    96.8840    93.6610    61.1580    24.3000 
  196.6250   -27.2530     2.2300    68.7450    96.1920    94.0760    73.7630    24.2970 
  196.7500   -27.4000     2.2270    68.8730    90.7000    89.9030    79.3500    24.2400 
  196.8750   -27.5600     2.2180    67.4780    81.6430    81.8990    74.8040    24.0460 
  197.0000   -27.7040     2.2030    66.1230    72.0560    72.7610    63.5740    23.7670 
  197.1250   -27.8060     2.1810    66.0280    64.1610    64.7130    51.2230    23.7210 
  197.2500   -27.9100     2.1640    66.3890    59.2190    59.2750    41.5680    24.2240 
  197.3750   -27.9800     2.1650    66.4300    57.2070    56.7440    37.0300    25.0150 
  197.5000   -28.0480     2.1810    66.4100    57.0360    56.2480    36.5380    25.5170 
  197.6250   -28.0540     2.2020    66.0190    57.7620    56.9090    38.1200    25.5790 
  197.7500   -28.0330     2.2210    65.3810    58.4360    57.7560    40.0270    25.4410 
  197.8750   -28.0140     2.2330    65.4920    58.3400    57.9590    40.7700    25.3170 
  198.0000   -27.9550     2.2400    66.0690    57.2810    57.1560    40.6870    25.2440 
  198.1250   -27.8890     2.2370    66.2460    55.4540    55.4230    40.5670    25.2300 
  198.2500   -27.7880     2.2170    66.0700    53.3810    53.1910    39.9760    25.2570 
  198.3750   -27.7240     2.1860    66.0500    51.7460    51.1170    38.1680    25.3270 
  198.5000   -27.7100     2.1670    65.5170    51.1610    49.8570    36.7080    25.5600 
  198.6250   -27.7320     2.1700    63.3970    52.0840    49.9130    38.0630    26.0220 
  198.7500   -27.7680     2.1910    59.9530    54.9040    51.7370    44.1360    26.4670 
  198.8750   -27.7920     2.2090    57.2870    59.6550    55.4430    54.3570    26.7780 
  199.0000   -27.8660     2.2160    56.7750    65.7690    60.5480    66.5100    27.0650 
  199.1250   -27.9460     2.2170    57.1140    72.5640    66.4180    77.4880    27.3160 
  199.2500   -28.0480     2.2150    56.6880    79.1170    72.1390    82.3450    27.4210 
  199.3750   -28.1330     2.2120    56.3580    84.6470    76.8930    81.5670    27.3630 
  199.5000   -28.1480     2.2060    56.8760    89.0070    80.4620    80.8420    27.3090 
  199.6250   -28.1170     2.2010    57.1160    92.5040    83.0990    82.1570    27.4430 
  199.7500   -28.0300     2.1990    56.6380    95.5900    85.2480    84.7370    27.6610 
  199.8750   -27.9560     2.2000    56.3020    98.3430    87.0950    88.6130    27.7450 
  200.0000   -27.8500     2.2030    56.2410   100.1820    88.2690    94.2350    27.7240 
  200.1250   -27.7160     2.2100    55.7130   100.1570    88.0320   100.2460    27.6820 
  200.2500   -27.5550     2.2220    55.1560    97.3860    85.6590   102.3210    27.6570 
  200.3750   -27.3530     2.2380    54.9220    91.9410    81.1570    97.6930    27.6390 
  200.5000   -27.1490     2.2560    54.6320    85.1890    75.5580    88.9430    27.6210 
  200.6250   -26.9370     2.2770    54.3540    78.5490    69.9650    79.6220    27.5580 
  200.7500   -26.7650     2.3080    55.0610    73.3290    65.4640    72.2420    27.4090 
  200.8750   -26.5580     2.3610    57.7650    70.0550    62.5770    67.4280    27.1740 
  201.0000   -26.3170     2.4390    61.2550    68.0450    60.8490    64.3680    26.8440 
  201.1250   -26.0590     2.5260    63.0430    66.0560    59.2930    63.2700    26.3380 
  201.2500   -25.7440     2.5980    61.7510    62.2970    56.3400    63.5120    25.7770 
  201.3750   -25.4050     2.6360    59.6470    55.4020    50.6660    63.4290    25.4480 
  201.5000   -25.0570     2.6400    60.3980    45.6930    42.3580    60.5390    25.3090 
  201.6250   -24.7620     2.6050    63.8060    34.7220    32.6740    51.4560    25.2610 
  201.7500   -24.5300     2.5350    67.4730    24.7990    23.7240    35.5110    25.2580 
  201.8750   -24.4080     2.4540    71.0620    17.5620    17.0770    20.1740    25.3400 
  202.0000   -24.4130     2.3940    76.0420    13.2500    12.8340    12.3330    25.6170 
  202.1250   -24.4880     2.3650    81.3690    11.4440    10.5990     9.8100    26.1500 
  202.2500   -24.6290     2.3640    83.5910    11.3240     9.9600     9.7220    26.8100 
  202.3750   -24.7780     2.3900    81.6870    12.4150    10.5270    10.7880    27.3240 
  202.5000   -24.8860     2.4390    78.4580    14.0560    11.7830    12.6300    27.4540 
  202.6250   -24.8740     2.4990    75.7390    15.6580    13.2530    14.7230    27.0620 
  202.7500   -24.6650     2.5420    74.8440    16.5110    14.2860    16.3990    26.3690 
  202.8750   -24.2630     2.5470    76.4750    16.1270    14.3060    16.6050    25.8230 
  203.0000   -23.7040     2.5200    79.6110    14.6640    13.2600    14.3870    25.5700 
  203.1250   -23.1230     2.4850    83.4490    12.6620    11.5460    10.9370    25.5320 
  203.2500   -22.6350     2.4650    87.5260    10.8910     9.8490     8.0460    25.7330 
  203.3750   -22.3290     2.4620    90.6290     9.9250     8.7110     7.1380    26.1220 
  203.5000   -22.1800     2.4650    91.3980     9.8800     8.2910     7.7410    26.4340 
  203.6250   -22.1770     2.4690    90.2710    10.7080     8.6060     9.1390    26.4740 
  203.7500   -22.3590     2.4800    88.4790    12.2800     9.6420    10.8130    26.2980 
  203.8750   -22.6710     2.5070    86.7790    14.2930    11.2480    12.5920    26.0640 
  204.0000   -23.0910     2.5450    85.0620    16.2040    13.0180    14.2730    25.8590 
  204.1250   -23.5680     2.5790    82.2740    17.4400    14.4480    15.6260    25.6200 
