~V
VERS. 2.00: Ver 2.00
~W
STRT.M 50.0000:
STOP.M 278.0000:
STEP.M 0.1250:
NULL. -999.2500:
UWI. F10217:
~C
DEPT.M :
SP.MV :
DEN.GM/CC :
GR.API :
RML.OHMM :
RI. :
RXO.OHMM :
CALI.CM :
~A
# ...
   95.0000   -26.4890     2.1630    59.9330    11.3270     8.5480    25.3560    24.4820 
   95.1250   -26.1820     2.2410    64.9740    10.7820     8.3550    25.0200    24.1920 
   95.2500   -25.8640     2.2780    70.7190     9.8860     7.8200    15.6630    23.9650 
   95.3750   -25.5490     2.2630    73.0750     9.0270     7.1820    10.1310    23.8490 
   95.5000   -25.2560     2.2160    70.0100     8.4750     6.6570     8.6210    23.8640 
   95.6250   -24.9890     2.1770    65.6580     8.3530     6.3960     8.6420    23.9280 
   95.7500   -24.7530     2.1580    64.5060     8.4580     6.3370     8.8180    23.9640 
   95.8750   -24.5300     2.1530    66.1010     8.5810     6.3730     9.0000    24.0180 
   96.0000   -24.2980     2.1490    68.5220     8.5450     6.3730     8.9610    24.1350 
   96.1250   -24.0340     2.1420    70.1280     8.2660     6.2360     8.6390    24.3390 
   96.2500   -23.7910     2.1340    74.0790     7.8750     6.0010     8.2150    24.4660 
   96.3750   -23.5900     2.1270    79.7060     7.5030     5.7350     7.5060    24.5180 
   96.5000   -23.4370     2.1230    82.5470     7.2510     5.5100     6.7000    24.5470 
   96.6250   -23.3380     2.1220    83.3880     7.1860     5.3890     6.7760    24.5750 
   96.7500   -23.2480     2.1210    83.4810     7.2520     5.3640     7.2020    24.5920 
   96.8750   -23.2040     2.1210    81.9150     7.3910     5.4140     7.5920    24.6060 
   97.0000   -23.2240     2.1230    78.1010     7.5400     5.5050     7.7480    24.6150 
   97.1250   -23.3020     2.1260    77.1950     7.6450     5.6000     7.7000    24.6170 
   97.2500   -23.3980     2.1280    78.1110     7.7000     5.6750     7.7300    24.6120 
   97.3750   -23.5080     2.1290    75.6390     7.7120     5.7210     7.7080    24.5870 
   97.5000   -23.5900     2.1260    71.1990     7.6990     5.7370     7.7070    24.5310 
   97.6250   -23.6650     2.1210    71.4890     7.6760     5.7250     7.7920    24.4700 
   97.7500   -23.7430     2.1140    74.4550     7.6670     5.7010     7.7700    24.4320 
   97.8750   -23.8340     2.1090    75.0010     7.6880     5.6780     7.7170    24.4040 
   98.0000   -23.9140     2.1080    71.0940     7.7490     5.6710     7.7960    24.3980 
   98.1250   -24.0000     2.1130    66.8080     7.8520     5.6940     7.8650    24.3790 
   98.2500   -24.0570     2.1210    66.7590     7.9790     5.7460     7.8830    24.3650 
   98.3750   -24.0950     2.1290    70.6630     8.1150     5.8210     7.9320    24.3580 
   98.5000   -24.1150     2.1350    73.9000     8.2410     5.9060     8.0620    24.3440 
   98.6250   -24.1040     2.1380    73.8020     8.3360     5.9790     8.2580    24.3040 
   98.7500   -24.0690     2.1420    73.8720     8.3970     6.0320     8.4330    24.2610 
   98.8750   -24.0020     2.1460    75.3230     8.4260     6.0610     8.5250    24.2220 
   99.0000   -23.9010     2.1510    74.6620     8.4320     6.0710     8.5120    24.1710 
   99.1250   -23.7760     2.1560    69.7380     8.4230     6.0690     8.4550    24.0880 
   99.2500   -23.6630     2.1610    64.1800     8.4060     6.0640     8.4810    24.0120 
   99.3750   -23.5180     2.1660    60.9250     8.3790     6.0580     8.5290    23.9710 
   99.5000   -23.3760     2.1740    61.6540     8.3380     6.0490     8.5630    23.9600 
   99.6250   -23.1920     2.1830    66.8160     8.2840     6.0360     8.5220    23.9550 
   99.7500   -23.0040     2.1900    71.9850     8.2250     6.0220     8.5840    23.9420 
   99.8750   -22.8120     2.1930    74.5230     8.1700     6.0110     8.6670    23.9300 
  100.0000   -22.6200     2.1920    74.0910     8.1220     6.0050     8.8370    23.9350 
  100.1250   -22.4090     2.1850    72.0160     8.0700     5.9970     9.3880    23.9740 
  100.2500   -22.1620     2.1740    69.9190     7.9870     5.9680     9.9400    24.0350 
  100.3750   -21.8730     2.1600    69.0210     7.8410     5.8940     9.4540    24.0850 
  100.5000   -21.5450     2.1480    70.0000     7.6040     5.7530     8.6350    24.1010 
  100.6250   -21.2200     2.1440    72.6280     7.2540     5.5250     7.9720    24.0800 
  100.7500   -20.9010     2.1490    76.7690     6.8400     5.2380     7.4800    24.0360 
  100.8750   -20.5920     2.1640    80.8160     6.4170     4.9280     6.8890    23.9810 
  101.0000   -20.3190     2.1840    82.4880     6.0390     4.6350     6.2970    23.9190 
  101.1250   -20.0990     2.2040    82.3280     5.7580     4.4000     5.9770    23.8220 
  101.2500   -19.9520     2.2210    81.1410     5.5850     4.2390     6.0000    23.6890 
  101.3750   -19.9160     2.2340    80.1220     5.5380     4.1690     6.2800    23.6050 
  101.5000   -19.9580     2.2420    80.4950     5.6340     4.2000     6.7060    23.6250 
  101.6250   -20.0940     2.2460    82.5320     5.9070     4.3640     6.7870    23.7280 
  101.7500   -20.2580     2.2450    83.4860     6.3000     4.6280     6.7320    23.8840 
  101.8750   -20.4070     2.2340    82.1850     6.7200     4.9430     6.7480    24.0690 
  102.0000   -20.4890     2.2110    78.9820     7.0170     5.2090     7.2610    24.2370 
  102.1250   -20.4770     2.1790    74.5050     6.9790     5.2660     7.5610    24.3540 
  102.2500   -20.3830     2.1490    74.1050     6.6180     5.0830     7.6750    24.3890 
  102.3750   -20.1920     2.1360    80.0200     6.0620     4.7150     7.2520    24.3340 
  102.5000   -19.9520     2.1460    88.9560     5.5070     4.2850     6.3060    24.2140 
  102.6250   -19.6750     2.1780    93.4650     5.1500     3.9430     5.3210    24.1640 
  102.7500   -19.3880     2.2120    90.5060     5.0150     3.7450     4.9430    24.1610 
  102.8750   -19.1150     2.2350    84.4630     5.0810     3.7000     5.2250    24.1730 
  103.0000   -18.8960     2.2400    80.7180     5.3230     3.7970     5.6900    24.1670 
  103.1250   -18.7510     2.2320    80.9180     5.7530     4.0490     5.9660    24.1260 
  103.2500   -18.6580     2.2200    79.8460     6.3320     4.4200     6.3660    24.0680 
  103.3750   -18.6070     2.2070    76.9620     7.0130     4.8800     7.2660    24.0020 
  103.5000   -18.5790     2.1930    74.1520     7.6890     5.3710     9.0740    23.9290 
  103.6250   -18.5530     2.1760    71.4330     8.1410     5.7660    12.0240    23.8790 
  103.7500   -18.5580     2.1600    69.9130     8.2520     5.9630    13.0410    23.8630 
  103.8750   -18.5900     2.1500    72.2100     8.0420     5.9280    10.5260    23.8750 
  104.0000   -18.6770     2.1510    77.7330     7.6580     5.7150     8.4780    23.9150 
  104.1250   -18.8110     2.1620    80.1610     7.3020     5.4350     7.6550    23.9620 
  104.2500   -18.9880     2.1780    77.8040     7.0770     5.1950     7.4560    23.9870 
  104.3750   -19.2200     2.1920    73.8850     6.9830     5.0330     7.3740    23.9900 
  104.5000   -19.4580     2.1960    70.8420     6.9740     4.9450     7.3810    23.9770 
  104.6250   -19.6900     2.1870    69.9950     6.9970     4.9120     7.2740    23.9610 
  104.7500   -19.9040     2.1700    70.7230     7.0130     4.9010     7.2040    23.9650 
  104.8750   -20.1030     2.1530    72.0380     7.0240     4.9010     7.0810    24.0150 
  105.0000   -20.2700     2.1450    71.0910     7.0410     4.9110     7.1420    24.1020 
  105.1250   -20.4560     2.1510    67.2330     7.0810     4.9360     7.4540    24.1750 
  105.2500   -20.6510     2.1650    65.0630     7.1360     4.9710     7.7880    24.2260 
  105.3750   -20.8560     2.1780    65.7290     7.1970     5.0150     7.8940    24.2910 
  105.5000   -21.0630     2.1820    66.2160     7.2540     5.0620     7.9420    24.3950 
  105.6250   -21.2420     2.1740    65.2490     7.3060     5.1090     7.8890    24.4700 
  105.7500   -21.3900     2.1590    65.8360     7.3560     5.1490     7.8280    24.4850 
  105.8750   -21.5060     2.1430    70.0140     7.3900     5.1730     7.8390    24.4730 
  106.0000   -21.5760     2.1290    73.5990     7.3780     5.1650     7.9250    24.4600 
  106.1250   -21.5480     2.1210    71.5010     7.2740     5.0990     7.9220    24.4460 
