~V
VERS. 2.00: Ver 2.00
~W
STRT.M 52.0000:
STOP.M 271.0000:
STEP.M 0.1250:
NULL. -999.2500:
UWI. F10212:
~C
DEPT.M :
GR.API :
RML.OHMM :
RI. :
RXO.OHMM :
CALI.CM :
SP.MV :
DEN.GM/CC :
~A
# ...
   74.5000    67.5350     9.5040     6.5360    13.6950    24.7690   -46.3680     2.1000 
   74.6250    68.8660     9.3440     6.3720    12.9160    24.5230   -45.8620     2.1130 
   74.7500    70.4320     9.3050     6.2750    12.5710    24.4170   -45.5320     2.1340 
   74.8750    71.0740     9.4070     6.2670    12.9610    24.4430   -45.4130     2.1550 
   75.0000    69.3030     9.6300     6.3510    13.6690    24.6190   -45.4830     2.1700 
   75.1250    68.6920     9.9340     6.5160    14.0960    24.9820   -45.6920     2.1760 
   75.2500    71.6830    10.2330     6.7110    14.3570    25.4460   -46.0110     2.1750 
   75.3750    73.9550    10.4700     6.8930    14.8010    25.9150   -46.4400     2.1660 
   75.5000    71.6130    10.6100     7.0280    15.3360    26.1790   -46.9300     2.1500 
   75.6250    67.3610    10.6370     7.0930    15.5170    26.1460   -47.3190     2.1340 
   75.7500    66.2920    10.6050     7.1100    15.3710    26.0740   -47.5770     2.1280 
   75.8750    68.7210    10.5640     7.1070    15.2760    26.0030   -47.7290     2.1340 
   76.0000    72.2870    10.5610     7.1120    15.4520    25.9520   -47.8030     2.1460 
   76.1250    72.3700    10.6380     7.1540    15.8510    26.0500   -47.8010     2.1560 
   76.2500    68.4020    10.7770     7.2310    16.2300    26.4640   -47.7480     2.1620 
   76.3750    64.0210    10.9520     7.3350    16.4610    27.1530   -47.6390     2.1610 
   76.5000    62.3980    11.1260     7.4490    16.5230    27.7640   -47.4490     2.1520 
   76.6250    61.9520    11.2210     7.5340    16.2470    28.1210   -47.1680     2.1410 
   76.7500    60.6500    11.1830     7.5510    16.1200    28.3130   -46.7920     2.1350 
   76.8750    59.3900    10.9820     7.4780    16.1750    28.3970   -46.2940     2.1310 
   77.0000    59.8330    10.6430     7.3180    16.1320    28.3410   -45.6910     2.1280 
   77.1250    64.6160    10.2440     7.1110    15.0000    27.7600   -45.0100     2.1250 
   77.2500    69.8700     9.9060     6.9310    13.0200    26.5780   -44.2660     2.1230 
   77.3750    70.7950     9.6940     6.8310    12.3520    25.4060   -43.4200     2.1230 
   77.5000    66.5760     9.6240     6.8360    13.8910    24.7260   -42.4560     2.1240 
   77.6250    61.2980     9.7030     6.9660    15.0520    24.4460   -41.3660     2.1310 
   77.7500    60.9260     9.8970     7.1900    15.4220    24.3270   -40.1950     2.1380 
   77.8750    65.0090    10.1920     7.4860    15.3810    24.3360   -38.9270     2.1410 
   78.0000    68.9640    10.5210     7.7980    15.5240    24.3810   -37.4880     2.1440 
   78.1250    67.3610    10.6910     7.9800    15.6860    24.4120   -35.7390     2.1480 
   78.2500    62.2130    10.5330     7.9000    15.6200    24.4270   -33.7220     2.1530 
   78.3750    60.7320     9.9690     7.4940    15.2450    24.4400   -31.5220     2.1610 
   78.5000    68.2240     9.0840     6.8170    13.7000    24.4770   -29.3090     2.1760 
   78.6250    85.6880     8.0880     6.0190    10.3510    24.5250   -27.3100     2.2030 
   78.7500   103.2720     7.2130     5.2840     7.2840    24.4900   -25.6040     2.2370 
   78.8750   112.5110     6.5390     4.6900     6.0050    24.3080   -24.2370     2.2700 
   79.0000   113.4990     6.0610     4.2550     5.8060    24.0610   -23.2790     2.2980 
   79.1250   112.3420     5.8360     4.0260     5.7840    23.9240   -22.9280     2.3170 
   79.2500   114.3110     6.0020     4.0500     5.5740    23.8780   -23.1320     2.3330 
   79.3750   116.2520     6.8210     4.4430     5.5770    23.8990   -23.8910     2.3510 
   79.5000   113.5300     8.5350     5.3400     6.1420    23.9080   -25.1220     2.3740 
   79.6250   104.1240    11.3640     6.9800     8.9160    23.8170   -26.7460     2.4030 
   79.7500    90.4220    14.7130     9.2070    17.5000    23.7030   -28.5610     2.4360 
   79.8750    75.5320    17.5230    11.4870    33.2120    23.6410   -30.5190     2.4720 
   80.0000    65.2280    18.4320    12.7820    37.3800    23.5840   -32.6050     2.5030 
   80.1250    63.4400    16.6550    12.1770    22.5760    23.4790   -34.7460     2.4920 
   80.2500    65.6360    13.9110    10.6670    14.5030    23.3750   -36.8380     2.4230 
   80.3750    68.7960    11.5660     9.1600    12.6900    23.3220   -38.8010     2.3220 
   80.5000    71.6310    10.2170     8.1040    12.9800    23.3090   -40.5880     2.2380 
   80.6250    70.1070     9.9150     7.6490    13.5010    23.3220   -42.0670     2.1990 
   80.7500    65.0020    10.0980     7.5690    13.8760    23.3610   -43.2830     2.1860 
   80.8750    61.9610    10.4090     7.6790    14.2770    23.4300   -44.3020     2.1830 
   81.0000    62.8860    10.6300     7.8170    14.4700    23.5170   -45.1410     2.1820 
   81.1250    62.0120    10.7090     7.8920    14.3140    23.6380   -45.7630     2.1840 
   81.2500    58.3330    10.7670     7.9350    14.2590    23.7160   -46.2400     2.1890 
   81.3750    56.0420    10.8940     7.9930    14.2180    23.7100   -46.6310     2.1930 
   81.5000    56.8620    11.1250     8.0960    13.9450    23.6330   -46.9790     2.1900 
   81.6250    57.8370    11.4240     8.2330    13.8300    23.6470   -47.3420     2.1820 
   81.7500    56.8570    11.6710     8.3400    13.9570    23.8550   -47.7200     2.1710 
   81.8750    57.0490    11.7650     8.3500    14.0900    24.0510   -48.0570     2.1570 
   82.0000    59.9580    11.6420     8.2240    13.9140    24.0750   -48.3280     2.1420 
   82.1250    62.1100    11.2760     7.9530    13.8350    24.0170   -48.6010     2.1300 
   82.2500    62.5060    10.7690     7.6030    13.6490    23.9600   -48.9040     2.1300 
   82.3750    63.1270    10.2340     7.2380    13.3180    23.8890   -49.2220     2.1420 
   82.5000    64.5030     9.8610     6.9530    13.0260    23.8020   -49.5240     2.1570 
   82.6250    64.7840    10.0180     6.9430    13.0470    23.7620   -49.8060     2.1680 
   82.7500    62.8920    10.8350     7.3030    13.1310    23.8160   -50.0790     2.1760 
   82.8750    60.1310    12.2860     8.0760    13.7270    24.0370   -50.3290     2.1780 
   83.0000    57.2220    14.0850     9.1770    15.6090    24.2920   -50.5860     2.1680 
   83.1250    54.6930    15.5050    10.2480    21.3680    24.2550   -50.8500     2.1430 
   83.2500    53.6060    15.8300    10.7420    26.6630    24.1540   -51.0860     2.1270 
   83.3750    54.4540    14.8480    10.3760    21.7430    24.2330   -51.2630     2.1440 
   83.5000    56.2300    13.0380     9.3610    16.3200    24.2990   -51.3790     2.1880 
   83.6250    57.8530    11.2950     8.2140    14.4300    24.2090   -51.4490     2.2100 
   83.7500    60.5420    10.1640     7.3210    14.3890    24.0650   -51.4950     2.1910 
   83.8750    63.7070     9.7140     6.7830    14.8690    24.0700   -51.5460     2.1610 
   84.0000    63.7790     9.7640     6.5680    15.5800    24.4510   -51.5620     2.1470 
   84.1250    60.2020    10.0140     6.5790    16.0870    25.0100   -51.4740     2.1440 
   84.2500    56.9550    10.1910     6.6450    16.2190    25.3820   -51.2660     2.1400 
   84.3750    56.1230    10.2480     6.7010    16.1650    25.5380   -50.9490     2.1380 
   84.5000    57.3520    10.2350     6.7430    16.0550    25.5560   -50.5310     2.1380 
   84.6250    58.8460    10.2430     6.8040    16.0810    25.4650   -49.9710     2.1390 
   84.7500    60.2930    10.3330     6.9170    16.3620    25.4190   -49.2340     2.1390 
   84.8750    61.1260    10.5310     7.0990    16.8760    25.5300   -48.2540     2.1360 
   85.0000    60.8470    10.8350     7.3540    17.5240    25.6210   -47.0210     2.1330 
   85.1250    60.5010    11.2020     7.6580    18.2240    25.6020   -45.5050     2.1310 
   85.2500    61.3270    11.5120     7.9350    18.5920    25.4940   -43.7800     2.1310 
   85.3750    62.3140    11.6370     8.0990    18.3370    25.3810   -41.8870     2.1360 
   85.5000    62.5150    11.4700     8.0710    17.5400    25.4110   -39.8440     2.1470 
   85.6250    65.1630    10.9540     7.7900    16.5750    25.6310   -37.6630     2.1600 
