~V
VERS. 2.00: Ver 2.00
~W
STRT.M 50.0000:
STOP.M 275.0000:
STEP.M 0.1250:
NULL. -999.2500:
UWI. F10202:
~C
DEPT.M :
GR.API :
RML.OHMM :
RI. :
RXO.OHMM :
CALI.CM :
SP.MV :
DEN.GM/CC :
~A
# ...
  218.7500    59.1100   153.1970   144.7940   108.7810    25.2320   -22.8940     2.2020 
  218.8750    61.0840   154.9840   146.5870   124.2120    25.2930   -22.4030     2.1820 
  219.0000    60.8940   155.5150   147.1360   132.8020    25.2950   -21.9480     2.1620 
  219.1250    60.5420   154.5720   146.1180   160.2390    25.5430   -21.8350     2.1490 
  219.2500    61.3400   152.7880   144.1940   151.3710    25.8890   -21.9120     2.1420 
  219.3750    61.1590   150.8280   142.1100   141.1540    26.0210   -22.0470     2.1420 
  219.5000    58.6050   149.3400   140.5920   133.8200    25.9000   -22.2660     2.1470 
  219.6250    57.1980   148.8170   140.1680   130.7640    25.6790   -22.5720     2.1560 
  219.7500    59.8250   148.9780   140.4770   128.0620    25.5940   -22.8790     2.1650 
  219.8750    63.6140   149.4280   141.0400   128.3120    25.5790   -23.3230     2.1710 
  220.0000    64.5740   149.8000   141.4300   131.2330    25.5360   -23.9200     2.1750 
  220.1250    63.2490   149.9730   141.4900   130.7410    25.3920   -24.3420     2.1780 
  220.2500    62.6300   150.2920   141.6180   127.5910    25.2240   -24.6280     2.1830 
  220.3750    62.2090   151.3160   142.3880   126.5870    25.1590   -24.7480     2.1930 
  220.5000    59.6610   153.7650   144.4540   131.6760    25.1630   -24.6760     2.2050 
  220.6250    59.0960   158.7620   149.0160   134.4370    25.1090   -24.6430     2.2150 
  220.7500    62.3070   165.8910   156.1220   125.7580    25.0610   -24.7220     2.2180 
  220.8750    65.0420   173.4730   164.4400   113.8690    25.0020   -24.7600     2.2160 
  221.0000    63.9830   178.2210   170.4010   125.6890    24.9900   -24.4200     2.2090 
  221.1250    60.9100   174.6800   167.8040   155.4520    25.0020   -23.8880     2.2020 
  221.2500    59.0700   163.2960   155.7940   138.3740    24.9860   -23.4560     2.1980 
  221.3750    60.0970   147.3180   136.9720   106.9570    24.9550   -23.1520     2.1980 
  221.5000    63.9540   130.2850   116.6830    79.1430    24.9900   -22.9920     2.2030 
  221.6250    68.5940   114.5750   101.3570    69.2210    25.0270   -22.8610     2.2090 
  221.7500    68.7320   101.9150    92.6450    64.2730    25.0350   -22.7360     2.2150 
  221.8750    64.3770    94.1200    89.4640    63.8920    25.0030   -22.6970     2.2150 
  222.0000    59.7220    91.1310    89.3670    64.6750    24.9630   -22.9000     2.2110 
  222.1250    59.3300    90.4680    89.7760    68.5940    24.9090   -23.1320     2.2070 
  222.2500    61.4470    89.4220    89.0320    71.1510    24.8380   -23.0900     2.2060 
  222.3750    62.9940    87.4020    86.9090    68.2060    24.7520   -22.9230     2.2100 
  222.5000    63.4580    85.0140    84.1130    61.2370    24.6570   -22.7230     2.2170 
  222.6250    64.5740    83.3780    82.0250    53.7080    24.5950   -22.5840     2.2200 
  222.7500    69.7520    82.8440    81.3470    54.4250    24.5730   -22.5740     2.2190 
  222.8750    77.0050    83.1090    81.8910    59.6290    24.4900   -22.7230     2.2150 
  223.0000    81.5120    83.4220    82.7670    68.1920    24.3220   -23.0100     2.2110 
  223.1250    80.8930    82.7860    82.6250    79.8220    24.1710   -23.4500     2.2100 
  223.2500    79.4820    81.0080    81.0120    85.8130    24.2170   -23.8460     2.2090 
  223.3750    77.0240    78.3650    78.2180    75.9090    24.5310   -24.0330     2.2050 
  223.5000    71.8590    75.3570    74.9490    63.7390    24.9270   -24.0360     2.2010 
  223.6250    67.3070    72.3170    71.7980    61.8180    25.1430   -23.8830     2.2000 
  223.7500    65.4170    69.1440    68.6840    71.3700    25.1500   -23.4560     2.2060 
  223.8750    64.0770    65.5690    65.1960    81.6500    25.0340   -22.6810     2.2170 
  224.0000    64.8200    61.5340    61.0840    82.6160    24.8690   -21.6800     2.2240 
  224.1250    74.5490    57.5150    56.6630    64.9860    24.7060   -20.6360     2.2240 
  224.2500    82.8810    54.4040    52.9040    46.5680    24.5030   -19.8360     2.2240 
  224.3750    80.1200    53.0030    50.7360    34.6520    24.2740   -19.3620     2.2370 
  224.5000    67.9620    53.7700    50.8530    31.6840    23.8950   -19.1710     2.2760 
  224.6250    60.0810    56.6890    53.7920    31.6540    23.6940   -19.0950     2.3430 
  224.7500    60.9870    60.0580    58.1580    33.2680    23.6510   -19.1280     2.4180 
  224.8750    64.6670    61.9350    61.8290    38.2090    23.7540   -19.1990     2.4860 
  225.0000    66.6600    60.5130    62.1760    46.6580    23.9500   -19.2080     2.5380 
  225.1250    66.1610    54.5730    56.8430    61.4820    24.1970   -19.1360     2.5650 
  225.2500    67.0600    46.1580    47.9540    66.3900    24.4610   -19.1040     2.5680 
  225.3750    70.6570    37.4760    38.3260    53.0260    24.5740   -19.1180     2.5430 
  225.5000    75.0400    30.4390    30.3990    35.3500    24.5410   -19.1100     2.4930 
  225.6250    76.5560    26.4620    25.7070    27.7900    24.6270   -19.0400     2.4340 
  225.7500    79.1760    25.0410    23.5950    25.3660    24.4290   -18.9480     2.3900 
  225.8750    85.7850    25.7380    23.6040    23.0530    24.1330   -18.9480     2.3730 
  226.0000    91.8750    28.1000    25.3850    19.8210    24.1330   -18.9330     2.3850 
  226.1250    88.6980    31.7690    28.8950    16.1630    24.1000   -18.8830     2.4210 
  226.2500    79.0180    35.7480    33.3630    24.3090    24.0000   -18.7740     2.4730 
  226.3750    71.2470    38.9360    37.6840    42.5860    24.0000   -18.5420     2.5330 
  226.5000    67.6720    40.0670    40.1210    69.4690    23.8670   -18.2010     2.5910 
  226.6250    64.7670    37.7380    38.3860    76.2540    23.8670   -17.8970     2.6260 
  226.7500    62.9310    32.7590    33.1280    50.5070    24.1690   -17.6670     2.6280 
  226.8750    63.1500    26.4620    26.0950    26.7410    24.4290   -17.5690     2.6010 
  227.0000    67.1520    20.3920    19.4020    13.4570    24.3760   -17.7790     2.5590 
  227.1250    72.6180    15.7210    14.6900     9.4940    24.3250   -18.1640     2.5200 
  227.2500    78.7140    12.4470    11.7540     8.7110    24.2520   -18.5610     2.4920 
  227.3750    85.6230    10.4830    10.1370     8.9170    24.2170   -19.0260     2.4760 
  227.5000    91.0940     9.6230     9.3900     9.1820    24.2690   -19.5490     2.4670 
  227.6250    92.6070     9.5140     9.2390     9.4150    24.3260   -20.1380     2.4620 
  227.7500    90.4070     9.5890     9.3430     9.5830    24.3220   -20.7030     2.4600 
  227.8750    88.7790     9.7020     9.5340     9.5670    24.2460   -21.1120     2.4600 
  228.0000    91.3430     9.8040     9.7100     9.4660    24.1520   -21.2950     2.4590 
  228.1250    97.2450     9.8650     9.8150     9.6270    24.1350   -21.3070     2.4430 
  228.2500   101.9480     9.8940     9.8510     9.7160    24.2150   -21.2800     2.4070 
  228.3750   103.9490     9.8970     9.8190     9.5430    24.4470   -21.2200     2.3570 
  228.5000   106.0220     9.8710     9.7170     9.3080    24.9210   -21.1300     2.3100 
  228.6250   109.6620     9.8120     9.5280     9.4060    25.3010   -20.9590     2.2950 
  228.7500   112.1820     9.7330     9.2640     9.4140    25.1060   -20.8470     2.3140 
  228.8750   112.1890     9.6660     8.9460     9.3480    24.6150   -21.0040     2.3550 
  229.0000   112.3880     9.6690     8.6390     9.3600    24.2600   -21.4170     2.3980 
  229.1250   116.8500     9.8880     8.4860     9.5160    24.1550   -22.0550     2.4260 
  229.2500   120.2070    10.4080     8.6120     9.4080    24.1250   -22.8090     2.4400 
  229.3750   116.4240    11.3040     9.0980     9.4490    24.1170   -23.6310     2.4430 
  229.5000   107.3560    12.6540    10.1420    10.4760    24.1160   -24.5180     2.4400 
  229.6250   100.5330    14.5620    12.2880    14.0840    24.1160   -25.4270     2.4290 
  229.7500    97.5620    16.6830    14.9830    18.2800    24.1170   -26.3180     2.4130 
  229.8750    95.7990    18.5160    17.2210    20.0120    24.1270   -27.1500     2.3980 
