~V
VERS. 2.00: Ver 2.00
~W
STRT.M 60.0000:
STOP.M 271.0000:
STEP.M 0.1250:
NULL. -999.2500:
UWI. F10205:
~C
DEPT.M :
DEN.GM/CC :
GR.API :
RML.OHMM :
RI. :
RXO.OHMM :
CALI.CM :
SP.MV :
~A
# ...
   82.5000     2.1830    69.0020     7.3540     6.9340    10.9130    25.9450   -26.8010 
   82.6250     2.1940    68.4650     7.3150     6.8790    10.4110    25.9970   -26.3560 
   82.7500     2.2010    68.7650     7.2900     6.8430    10.0250    26.0090   -25.8460 
   82.8750     2.2040    69.5030     7.2800     6.8180     9.8850    26.0100   -25.3000 
   83.0000     2.2040    69.0520     7.2870     6.7940    10.0140    26.0120   -24.7810 
   83.1250     2.2040    67.1900     7.3070     6.7640    10.0890    26.0210   -24.3630 
   83.2500     2.2050    66.6240     7.3270     6.7270     9.9610    26.0390   -24.0450 
   83.3750     2.2070    67.4930     7.3300     6.6850     9.7740    26.0640   -23.8430 
   83.5000     2.2090    68.6560     7.3070     6.6350     9.5040    26.0790   -23.7680 
   83.6250     2.2090    69.2850     7.2600     6.5790     9.0530    26.0830   -23.8200 
   83.7500     2.2060    68.1780     7.2070     6.5170     8.9970    26.0830   -23.9110 
   83.8750     2.2040    65.6180     7.1620     6.4560     9.1390    26.0830   -24.0390 
   84.0000     2.2060    63.6730     7.1350     6.4000     9.4710    26.0830   -24.1950 
   84.1250     2.2100    65.6160     7.1280     6.3580     9.5860    26.0980   -24.3520 
   84.2500     2.2110    70.9330     7.1320     6.3300     9.5960    26.1590   -24.5220 
   84.3750     2.2070    74.7250     7.1390     6.3130     9.4970    26.2760   -24.6770 
   84.5000     2.2000    73.0200     7.1480     6.3030     9.5510    26.3840   -24.7930 
   84.6250     2.1940    66.6620     7.1580     6.3010     9.4040    26.4840   -24.8740 
   84.7500     2.1920    63.1070     7.1740     6.3040     9.3670    26.5600   -24.9370 
   84.8750     2.1910    64.6830     7.1910     6.3130     9.4310    26.6030   -25.0040 
   85.0000     2.1840    67.8250     7.2010     6.3280     9.6100    26.6350   -25.0860 
   85.1250     2.1690    68.2410     7.1900     6.3460     9.5460    26.6590   -25.2080 
   85.2500     2.1550    66.8810     7.1560     6.3580     9.4870    26.6670   -25.2940 
   85.3750     2.1480    65.3050     7.0970     6.3510     9.4180    26.6020   -25.3560 
   85.5000     2.1520    64.0130     7.0170     6.3160     9.3570    26.4230   -25.4030 
   85.6250     2.1610    62.4870     6.9130     6.2410     9.3250    26.1680   -25.4020 
   85.7500     2.1670    62.0770     6.7910     6.1380     9.3970    25.9320   -25.3330 
   85.8750     2.1650    63.0720     6.6570     6.0190     9.3380    25.7150   -25.1680 
   86.0000     2.1580    65.8840     6.5240     5.9020     9.2530    25.5320   -24.9210 
   86.1250     2.1530    70.2580     6.4130     5.8050     9.0790    25.4940   -24.5540 
   86.2500     2.1570    72.2770     6.3320     5.7320     8.8230    25.5490   -24.1340 
   86.3750     2.1670    71.8800     6.2790     5.6850     8.6200    25.5950   -23.6500 
   86.5000     2.1790    71.3480     6.2430     5.6600     8.5830    25.5890   -23.1090 
   86.6250     2.1840    72.6460     6.2210     5.6560     8.5870    25.5340   -22.5270 
   86.7500     2.1810    75.1540     6.2240     5.6800     8.4730    25.4510   -21.9090 
   86.8750     2.1770    78.0840     6.2790     5.7480     8.2200    25.3400   -21.2550 
   87.0000     2.1770    80.5930     6.3940     5.8730     7.6910    25.1460   -20.5150 
   87.1250     2.1870    80.5300     6.5200     6.0350     7.2800    24.7580   -19.6220 
   87.2500     2.2040    80.2430     6.5360     6.1340     7.6870    24.3910   -18.5740 
   87.3750     2.2260    80.3860     6.3260     6.0610     8.7290    24.2450   -17.2970 
   87.5000     2.2500    81.3900     5.8480     5.7440     9.3340    24.3640   -15.6870 
   87.6250     2.2700    86.9700     5.1750     5.1940     7.6780    24.7500   -13.6370 
   87.7500     2.2840    96.1280     4.5370     4.5990     5.0370    25.1950   -11.4110 
   87.8750     2.2900   103.6430     4.0960     4.1140     3.6800    25.3990    -9.1850 
   88.0000     2.2900   106.7230     3.9230     3.8380     3.4210    25.2990    -7.1360 
   88.1250     2.2880   107.6600     4.0100     3.8240     3.7310    25.0560    -5.4210 
   88.2500     2.2930   108.7850     4.1930     3.9640     4.5190    24.7690    -3.9770 
   88.3750     2.3040   109.1030     4.3430     4.1520     5.3130    24.6610    -2.7760 
   88.5000     2.3170   108.7520     4.3780     4.2850     4.9780    24.7860    -1.8500 
   88.6250     2.3250   108.8120     4.2930     4.2990     4.3000    24.9250    -1.3680 
   88.7500     2.3280   109.1590     4.2010     4.2510     4.1440    24.9490    -1.1330 
   88.8750     2.3320   109.4390     4.1910     4.2160     4.3270    24.9440    -1.0400 
   89.0000     2.3400   111.7730     4.2980     4.2500     4.6330    24.9300    -0.9710 
   89.1250     2.3500   115.1860     4.4830     4.3600     4.5970    24.9160    -0.8890 
   89.2500     2.3560   114.4330     4.6200     4.4650     4.8270    24.9950    -0.8340 
   89.3750     2.3550   109.0490     4.6110     4.4810     4.5610    25.1890    -0.8930 
   89.5000     2.3500   104.2230     4.4280     4.3610     4.2940    25.3440    -1.1120 
   89.6250     2.3510   105.4240     4.1720     4.1330     4.0020    25.2820    -1.4240 
   89.7500     2.3590   110.2220     4.0890     3.9560     3.8420    25.1790    -1.8230 
   89.8750     2.3770   113.9000     4.4670     4.0120     3.7550    25.0460    -2.3080 
   90.0000     2.4100   114.5910     5.5780     4.4980     3.9120    24.9570    -2.9000 
   90.1250     2.4650   108.0690     7.6670     5.7180     5.8210    25.0280    -3.6320 
   90.2500     2.5310    95.9710    10.2880     7.5870    11.7720    25.1910    -4.5330 
   90.3750     2.5870    83.0940    12.7110     9.7230    23.1790    25.3190    -5.6570 
   90.5000     2.6040    75.6570    13.9960    11.3610    38.4820    25.4120    -7.0380 
   90.6250     2.5560    76.3030    13.2940    11.5350    31.7380    25.3670    -8.6880 
   90.7500     2.4650    76.1870    11.3720    10.5000    16.9430    25.2750   -10.4960 
   90.8750     2.3590    73.5810     9.2400     8.9380     9.8420    25.1610   -12.3400 
   91.0000     2.2690    73.4930     7.6840     7.5400     8.3490    25.0270   -14.1430 
   91.1250     2.2160    79.0880     7.0480     6.7230     8.6540    24.9620   -15.7950 
   91.2500     2.1930    84.3450     6.9750     6.3710     8.9240    24.9710   -17.2550 
   91.3750     2.1870    86.1060     7.1880     6.3420     9.1320    25.0120   -18.4590 
   91.5000     2.1870    85.3800     7.4660     6.4860     9.3210    25.0480   -19.4040 
   91.6250     2.1840    84.2580     7.6400     6.6580     9.3450    25.0990   -20.1010 
   91.7500     2.1770    82.6240     7.6720     6.7610     9.1890    25.1680   -20.6060 
   91.8750     2.1650    80.6410     7.5850     6.7720     9.1060    25.2490   -20.9880 
   92.0000     2.1540    80.1380     7.4290     6.7030     9.3500    25.2870   -21.2410 
   92.1250     2.1480    79.0840     7.2650     6.5820     9.4080    25.2790   -21.3610 
   92.2500     2.1480    77.2200     7.1430     6.4570     9.3250    25.2630   -21.3630 
   92.3750     2.1530    75.0100     7.0830     6.3530     9.2220    25.2470   -21.3100 
   92.5000     2.1580    73.5160     7.0900     6.2840     9.2340    25.2370   -21.2040 
   92.6250     2.1630    72.5530     7.1530     6.2620     9.0670    25.2280   -20.9920 
   92.7500     2.1690    73.0110     7.2330     6.2690     8.7990    25.2160   -20.6980 
   92.8750     2.1760    76.0610     7.2990     6.2870     9.1290    25.2320   -20.3390 
   93.0000     2.1830    78.5810     7.3250     6.2980     9.8760    25.2890   -20.0020 
   93.1250     2.1880    78.4650     7.2910     6.2780    10.2690    25.3780   -19.7560 
   93.2500     2.1880    78.8670     7.2120     6.2270     9.3730    25.4490   -19.6270 
   93.3750     2.1820    79.8990     7.1060     6.1520     8.7690    25.5440   -19.5790 
   93.5000     2.1710    79.8070     6.9960     6.0690     8.9560    25.6430   -19.5810 
   93.6250     2.1610    79.0910     6.9040     5.9960     9.7960    25.7880   -19.6620 
