~V
VERS. 2.00: Ver 2.00
~W
STRT.M 56.0000:
STOP.M 284.0000:
STEP.M 0.1250:
NULL. -999.2500:
UWI. F10233:
~C
DEPT.M :
GR.API :
RML.OHMM :
RI. :
RXO.OHMM :
CALI.CM :
DEN.GM/CC :
SP.MV :
~A
# ...
  213.5000    62.8500    78.1760    62.3910    56.2790    24.1900     2.2250   -17.0370 
  213.6250    65.0590    82.1480    65.7690    51.2800    24.0290     2.2300   -17.0690 
  213.7500    67.9870    85.4670    68.6700    54.1700    24.2100     2.2330   -17.1650 
  213.8750    66.8210    88.0930    71.0880    62.0790    24.5510     2.2320   -17.1750 
  214.0000    61.6640    90.0220    73.0660    67.0140    24.8130     2.2250   -17.1470 
  214.1250    56.7850    91.0990    74.5320    68.1840    24.8790     2.2160   -17.1790 
  214.2500    56.1270    91.4280    75.5100    68.4450    24.8760     2.2040   -17.1840 
  214.3750    59.6090    91.0080    75.9280    66.0870    24.8760     2.1910   -17.1430 
  214.5000    64.3380    89.8880    75.7580    60.0430    24.9000     2.1790   -17.0860 
  214.6250    64.6270    88.2960    75.1000    56.3050    24.9070     2.1760   -17.0440 
  214.7500    61.2950    86.7100    74.3490    55.8890    24.8850     2.1810   -16.9830 
  214.8750    59.2970    85.3270    73.7410    54.9950    24.8450     2.1910   -16.9030 
  215.0000    59.4570    84.1040    73.3340    51.7610    24.7990     2.2020   -16.8610 
  215.1250    59.5360    82.8690    73.0250    54.2540    24.8280     2.2160   -16.8060 
  215.2500    60.6570    81.5470    72.6620    58.5280    24.8120     2.2290   -16.6720 
  215.3750    61.7160    80.1930    72.1990    60.2270    24.7140     2.2360   -16.5330 
  215.5000    61.6250    78.9510    71.6920    58.6780    24.5590     2.2330   -16.5010 
  215.6250    60.7830    78.0870    71.3390    57.1910    24.4620     2.2230   -16.4350 
  215.7500    61.7920    77.7030    71.3170    56.3190    24.4870     2.2120   -16.2750 
  215.8750    64.0140    77.8150    71.7240    56.9010    24.5590     2.2010   -16.1880 
  216.0000    62.5180    78.3350    72.5190    55.7970    24.5680     2.1920   -16.1350 
  216.1250    57.3810    79.0960    73.5540    53.9860    24.5770     2.1880   -15.9730 
  216.2500    56.0090    79.9030    74.6290    55.3300    24.5930     2.1850   -15.8450 
  216.3750    60.7890    80.8120    75.7150    59.5480    24.5340     2.1830   -15.7900 
  216.5000    66.2910    82.1310    76.9820    62.9660    24.3630     2.1870   -15.7630 
  216.6250    66.1740    84.5850    79.0570    63.5860    24.2610     2.1980   -15.6930 
  216.7500    64.2450    88.6260    82.5070    65.2060    24.2600     2.2020   -15.6500 
  216.8750    62.1920    94.6560    87.8080    69.7860    24.2510     2.1900   -15.6530 
  217.0000    59.8570   102.8090    95.1380    75.7640    24.2460     2.1710   -15.6780 
  217.1250    59.1110   112.9080   104.3590    85.4710    24.2720     2.1570   -15.7270 
  217.2500    59.4980   123.5200   114.1570   100.4530    24.4210     2.1510   -15.8240 
  217.3750    59.2830   133.4120   123.4450   110.3110    24.6330     2.1500   -15.9540 
  217.5000    58.6280   141.7980   131.5480   116.5900    24.7970     2.1500   -16.0440 
  217.6250    58.8020   148.5310   138.3750   111.9390    24.8090     2.1590   -16.1540 
  217.7500    60.3640   154.4290   144.6330   104.8360    24.7530     2.1780   -16.3310 
  217.8750    62.3480   159.5530   150.4200   104.0200    24.7190     2.1960   -16.4720 
  218.0000    64.0420   163.2210   155.1100   114.5840    24.7100     2.1980   -16.5270 
  218.1250    64.0730   164.0270   157.1870   125.7460    24.7180     2.1860   -16.6580 
  218.2500    62.6660   162.4060   156.6550   119.4180    24.7260     2.1820   -16.8230 
  218.3750    61.7740   159.5190   154.3680   103.9760    24.7020     2.1910   -16.9050 
  218.5000    61.4030   156.9200   151.8960    92.4070    24.6010     2.2030   -16.8870 
  218.6250    60.9760   156.1250   151.2370    83.2710    24.3720     2.2040   -16.9360 
  218.7500    59.7890   156.8160   152.6910    74.8600    24.1200     2.2000   -17.0060 
  218.8750    58.4740   157.6560   155.1580    69.0280    23.8300     2.1980   -16.9940 
  219.0000    58.0520   156.7290   156.5160    67.7570    23.5070     2.1990   -17.0090 
  219.1250    58.8210   151.6940   153.8240    67.6120    23.2170     2.2020   -17.0720 
  219.2500    59.0540   142.7690   146.6750    66.4890    23.0460     2.2040   -17.0550 
  219.3750    58.3960   131.3040   136.1410    75.5490    23.0680     2.2070   -16.9930 
  219.5000    57.4100   119.6790   117.1500    85.7990    23.2520     2.2090   -17.0340 
  219.6250    58.0750   110.7550   108.2850    77.5540    23.5430     2.2060   -17.1200 
  219.7500    59.9000   105.4880   102.6800    74.5770    23.8000     2.1990   -17.1110 
  219.8750    60.6050   104.1740   100.8450    81.3480    24.0210     2.1890   -17.1110 
  220.0000    60.0100   106.5540   102.7520    92.2720    24.2380     2.1790   -17.1810 
  220.1250    59.2720   112.1320   108.1270   116.4220    24.4020     2.1730   -17.2150 
  220.2500    58.7200   119.0050   115.0890   131.5040    24.4200     2.1720   -17.2150 
  220.3750    57.4680   125.6650   122.1890   134.4020    24.2810     2.1770   -17.2420 
  220.5000    56.6890   130.5350   127.8880   129.8970    24.1490     2.1840   -17.2910 
  220.6250    57.1830   131.6370   130.1930   124.1260    24.1580     2.1910   -17.3160 
  220.7500    57.2680   128.8640   128.7810   125.9300    24.1970     2.1970   -17.3370 
  220.8750    56.6410   122.0190   123.3460   131.1110    24.1550     2.2050   -17.4040 
  221.0000    57.3630   111.2450   113.8980   118.5780    24.0920     2.2160   -17.4870 
  221.1250    59.8980    97.6200    96.1060    95.6360    24.0910     2.2260   -17.4940 
  221.2500    61.9660    84.1330    83.5840    77.9040    24.1240     2.2380   -17.5660 
  221.3750    63.5100    72.7920    72.5920    66.7440    24.0700     2.2520   -17.7480 
  221.5000    64.5460    64.7260    64.3840    56.0080    23.8390     2.2580   -17.8840 
  221.6250    63.2280    60.7380    60.0250    55.3150    23.6010     2.2410   -17.9260 
  221.7500    60.5380    59.5940    58.5890    64.1660    23.4990     2.2120   -18.0450 
  221.8750    59.0410    60.2750    59.1750    55.1220    23.4110     2.1960   -18.2240 
  222.0000    61.7230    61.6000    60.6320    42.0700    23.2370     2.2000   -18.2990 
  222.1250    68.1540    62.1420    61.5310    43.3800    22.9620     2.2190   -18.3650 
  222.2500    73.5440    61.3430    61.1360    46.0590    22.6970     2.2380   -18.4850 
  222.3750    74.4920    59.6600    59.6970    44.4460    22.5130     2.2530   -18.5740 
  222.5000    71.0170    58.2170    58.1720    39.4610    22.4220     2.2580   -18.6350 
  222.6250    66.8750    58.5670    57.9420    38.0220    22.4230     2.2420   -18.6650 
  222.7500    64.6980    61.3430    59.7190    42.8580    22.5490     2.2130   -18.6720 
  222.8750    64.4540    66.8990    64.0130    50.1770    22.8180     2.1870   -18.6690 
  223.0000    65.3030    75.0780    70.8540    43.9170    23.0680     2.1760   -18.6840 
  223.1250    65.0140    85.1260    79.6380    39.8580    23.1790     2.1810   -18.7440 
  223.2500    64.6590    94.9330    88.3560    46.9170    23.1250     2.1920   -18.8090 
  223.3750    65.6980   102.6010    95.2620    54.4920    23.0250     2.2040   -18.8570 
  223.5000    67.7020   106.7870    99.1550    56.3400    22.9660     2.2150   -18.8800 
  223.6250    68.4650   106.9210    99.4280    58.7670    22.9620     2.2220   -19.0020 
  223.7500    67.2600   104.9400    97.5920    69.1150    22.9820     2.2230   -19.1760 
  223.8750    65.3010   102.3510    94.8930    78.9730    22.9840     2.2260   -19.2540 
  224.0000    62.8470   100.3080    92.4790    76.8950    22.9670     2.2340   -19.3250 
  224.1250    60.7070    99.4280    91.2280    66.3780    22.9640     2.2400   -19.4260 
  224.2500    60.8320    99.1610    90.8550    57.3710    23.0130     2.2360   -19.3990 
  224.3750    63.2740    98.7940    90.7210    59.8110    23.1700     2.2280   -19.2290 
  224.5000    66.2510    97.7120    90.1370    71.7570    23.4940     2.2230   -19.0020 
  224.6250    67.1750    95.6630    88.6820    83.5070    23.9680     2.2230   -18.7580 
