~V
VERS. 2.00: Ver 2.00
~W
STRT.M 48.0000:
STOP.M 276.0000:
STEP.M 0.1250:
NULL. -999.2500:
UWI. F10244:
~C
DEPT.M :
GR.API :
RML.OHMM :
RI. :
RXO.OHMM :
CALI.CM :
DEN.GM/CC :
SP.MV :
~A
# ...
   81.7500    62.3610     9.7840     8.0460     8.9990    22.5200     2.1300   -13.7370 
   81.8750    61.4360    10.0710     8.2250     9.0230    22.5290     2.1440   -13.9220 
   82.0000    62.0280    10.5160     8.5490     8.9150    22.4870     2.1850   -14.0510 
   82.1250    62.5860    11.0240     8.9700     8.8450    22.4470     2.2420   -14.1320 
   82.2500    62.7830    11.4100     9.3730     9.1000    22.4350     2.2920   -14.1480 
   82.3750    64.1440    11.4030     9.5220     9.1730    22.3870     2.3050   -14.0750 
   82.5000    66.1080    11.0070     9.3110     8.9140    22.3340     2.2840   -13.9590 
   82.6250    68.1000    10.3710     8.7920     8.7500    22.3230     2.2430   -13.7930 
   82.7500    71.2640     9.7290     8.1580     8.7240    22.3610     2.2020   -13.6570 
   82.8750    74.0190     9.3340     7.6780     8.4840    22.4470     2.1760   -13.4570 
   83.0000    74.5240     9.2370     7.4810     8.2440    22.6420     2.1680   -13.3100 
   83.1250    73.4230     9.4200     7.5870     8.3950    22.9290     2.1790   -13.1570 
   83.2500    71.7050     9.8210     7.9350     8.8990    23.1550     2.2060   -13.0600 
   83.3750    68.4650    10.3420     8.4310     9.0670    23.1250     2.2370   -12.9580 
   83.5000    65.4560    10.8340     8.9350     9.0350    22.9820     2.2570   -12.9190 
   83.6250    63.8050    11.2000     9.3590     9.0550    22.9780     2.2640   -12.9290 
   83.7500    62.6600    11.4050     9.6560     9.2760    23.0750     2.2610   -12.9480 
   83.8750    61.3520    11.4700     9.8050     9.8310    22.9820     2.2570   -12.9840 
   84.0000    62.1600    11.4850     9.8430    10.4210    22.6660     2.2530   -12.9840 
   84.1250    63.9680    11.4970     9.7940    10.4910    22.4120     2.2440   -12.9410 
   84.2500    65.0000    11.5220     9.6940    10.6210    22.3180     2.2300   -12.8590 
   84.3750    66.8910    11.5470     9.5800    10.7620    22.3080     2.2180   -12.8110 
   84.5000    69.5110    11.5530     9.4830    10.1180    22.2890     2.2150   -12.7620 
   84.6250    69.2870    11.5340     9.4210     9.7930    22.2510     2.2210   -12.7320 
   84.7500    64.9360    11.4920     9.3940     9.8770    22.2400     2.2300   -12.7140 
   84.8750    61.1950    11.4290     9.3720     9.9050    22.2560     2.2330   -12.6760 
   85.0000    60.9730    11.3450     9.3310     9.8040    22.3060     2.2250   -12.6530 
   85.1250    62.1270    11.2250     9.2640     9.8480    22.3780     2.2070   -12.6490 
   85.2500    62.2690    11.0630     9.1790    10.0340    22.4650     2.1860   -12.6740 
   85.3750    61.2970    10.9070     9.1060    10.4400    22.5570     2.1750   -12.6620 
   85.5000    60.5800    10.8590     9.1070    10.6110    22.6170     2.1810   -12.6490 
   85.6250    61.4410    11.0140     9.2370    10.3720    22.6920     2.2040   -12.5770 
   85.7500    64.8710    11.4050     9.5050    10.2410    22.8520     2.2350   -12.4640 
   85.8750    70.0680    11.9650     9.8700    10.8590    23.1110     2.2600   -12.3920 
   86.0000    73.8930    12.4480    10.2000    12.5000    23.2940     2.2700   -12.3590 
   86.1250    74.1100    12.6340    10.3600    14.1520    23.1080     2.2640   -12.4180 
   86.2500    70.9940    12.4180    10.2580    12.7040    22.6810     2.2500   -12.5040 
   86.3750    66.9650    11.8650     9.8940    10.9370    22.4480     2.2340   -12.6530 
   86.5000    65.1440    11.2700     9.4490     9.9270    22.3900     2.2180   -12.7540 
   86.6250    66.0080    10.8140     9.0570     9.6670    22.4040     2.2020   -12.8910 
   86.7500    67.6900    10.5710     8.8030     9.5370    22.4410     2.1820   -13.0520 
   86.8750    67.6220    10.5430     8.7270     9.5150    22.4640     2.1620   -13.1890 
   87.0000    66.9250    10.6140     8.7490     9.5070    22.4610     2.1480   -13.2820 
   87.1250    66.2040    10.7070     8.8060     9.4570    22.4560     2.1460   -13.3020 
   87.2500    65.4650    10.7800     8.8600     9.3680    22.4340     2.1560   -13.2860 
   87.3750    65.1440    10.8270     8.9050     9.4690    22.4030     2.1760   -13.2230 
   87.5000    66.4050    10.8740     8.9570     9.6210    22.3990     2.1980   -13.1970 
   87.6250    68.0580    10.9350     9.0200     9.6910    22.4250     2.2150   -13.1530 
   87.7500    67.7990    11.0050     9.0880     9.6890    22.4530     2.2240   -13.0840 
   87.8750    66.0730    11.0560     9.1350     9.8140    22.4780     2.2220   -13.0260 
   88.0000    65.9940    11.0580     9.1340     9.9220    22.4870     2.2120   -12.9760 
   88.1250    65.9750    10.9980     9.0730     9.8720    22.4920     2.1980   -12.9130 
   88.2500    63.9930    10.8800     8.9540     9.8030    22.4840     2.1840   -12.8190 
   88.3750    61.5200    10.7330     8.7980     9.7250    22.4740     2.1760   -12.6760 
   88.5000    60.3790    10.6000     8.6420     9.5880    22.4740     2.1730   -12.4800 
   88.6250    60.3750    10.5080     8.5130     9.4030    22.4660     2.1740   -12.2670 
   88.7500    61.7130    10.4660     8.4270     9.1580    22.4820     2.1760   -12.0050 
   88.8750    64.3980    10.4690     8.3880     9.0570    22.5400     2.1730   -11.7770 
   89.0000    66.2180    10.4810     8.3700     9.0360    22.6000     2.1650   -11.5050 
   89.1250    65.9950    10.4820     8.3550     9.0440    22.6310     2.1570   -11.2330 
   89.2500    64.8140    10.4640     8.3320     9.0840    22.6390     2.1540   -10.9410 
   89.3750    65.2140    10.4360     8.3030     9.1840    22.6370     2.1640   -10.7060 
   89.5000    66.9690    10.4170     8.2820     9.2640    22.6270     2.1840   -10.5100 
   89.6250    68.5920    10.4230     8.2830     9.2010    22.6030     2.2050   -10.3210 
   89.7500    67.9880    10.4580     8.3110     8.9160    22.5850     2.2160   -10.1840 
   89.8750    65.7710    10.5120     8.3610     8.8740    22.5760     2.2130   -10.0230 
   90.0000    65.3890    10.5570     8.4060     8.9780    22.5560     2.2020    -9.9060 
   90.1250    65.9760    10.5690     8.4300     9.1680    22.5080     2.1960    -9.8130 
   90.2500    65.7350    10.5400     8.4250     9.2980    22.4580     2.1990    -9.7810 
   90.3750    66.8160    10.4850     8.3980     9.3150    22.4570     2.2080    -9.7630 
   90.5000    69.0580    10.4400     8.3760     9.2780    22.5020     2.2120    -9.7250 
   90.6250    68.2100    10.4140     8.3700     9.2650    22.5310     2.2070    -9.6930 
   90.7500    64.3610    10.3860     8.3720     9.2940    22.4950     2.1950    -9.6040 
   90.8750    63.1210    10.3050     8.3470     9.1170    22.4330     2.1850    -9.5190 
   91.0000    65.3020    10.1470     8.2760     8.9120    22.3420     2.1830    -9.4070 
   91.1250    66.7680     9.9180     8.1540     8.8050    22.2770     2.1890    -9.2520 
   91.2500    66.8160     9.6460     7.9880     8.7010    22.2800     2.2010    -9.0320 
   91.3750    68.6110     9.3760     7.7960     8.7490    22.4150     2.2150    -8.7720 
   91.5000    72.3320     9.1500     7.6130     8.8950    22.5970     2.2300    -8.5040 
   91.6250    77.6850     8.9980     7.4760     8.8850    22.7830     2.2450    -8.2180 
   91.7500    83.3340     8.9300     7.4040     8.7200    22.9280     2.2610    -7.9600 
   91.8750    86.7010     8.9350     7.4030     8.3460    23.0810     2.2730    -7.6520 
   92.0000    87.9840     8.9450     7.4250     8.5490    23.3340     2.2810    -7.3560 
   92.1250    88.2310     8.8880     7.4140     9.5630    23.6110     2.2850    -7.0360 
   92.2500    87.7140     8.7060     7.3150    10.3680    23.9020     2.2860    -6.7200 
   92.3750    86.3790     8.3670     7.0830     8.6810    24.2690     2.2850    -6.3270 
   92.5000    86.6050     7.9450     6.7600     7.6740    24.6250     2.2850    -5.9620 
   92.6250    89.3350     7.5180     6.4000     7.1810    24.8430     2.2900    -5.6400 
   92.7500    91.7060     7.1630     6.0730     7.0550    24.9300     2.2990    -5.3660 
   92.8750    92.2550     6.9530     5.8620     6.9410    24.9640     2.3120    -5.1000 
