~V
VERS. 2.00: Ver 2.00
~W
STRT.M 48.0000:
STOP.M 276.0000:
STEP.M 0.1250:
NULL. -999.2500:
UWI. F10244:
~C
DEPT.M :
GR.API :
RML.OHMM :
RI. :
RXO.OHMM :
CALI.CM :
DEN.GM/CC :
SP.MV :
~A
# ...
   59.2500    75.0690     8.2800     7.6120     9.0750    22.6950     2.1800   -18.0150 
   59.3750    77.0890     8.4930     7.8170     9.1200    22.6350     2.1790   -18.4520 
   59.5000    79.3750     8.5290     7.8520     9.1010    22.5670     2.1760   -18.9340 
   59.6250    77.9270     8.4800     7.8050     9.1090    22.5000     2.1710   -19.4090 
   59.7500    72.9590     8.4490     7.7740     9.0230    22.4580     2.1680   -19.7310 
   59.8750    71.0170     8.5050     7.8280     9.1480    22.4310     2.1680   -19.8340 
   60.0000    73.4860     8.6060     7.9260     9.1780    22.4080     2.1720   -19.6830 
   60.1250    77.4840     8.6690     7.9860     9.1720    22.4150     2.1860   -19.3510 
   60.2500    80.4220     8.6010     7.9200     9.0150    22.4810     2.2140   -18.7890 
   60.3750    80.9920     8.3270     7.6580     8.7910    22.7210     2.2520   -18.0150 
   60.5000    82.1970     7.9300     7.2770     8.2370    23.2180     2.2890   -17.1290 
   60.6250    87.0640     7.5170     6.8810     7.4490    23.9410     2.3100   -16.1580 
   60.7500    95.0630     7.2020     6.5790     7.0310    24.5770     2.3070   -15.2110 
   60.8750    98.1540     7.0940     6.4750     7.1880    24.8060     2.2850   -14.3590 
   61.0000    95.1360     7.1740     6.5530     7.4460    24.5030     2.2640   -13.7050 
   61.1250    92.7000     7.3850     6.7540     7.8850    23.9130     2.2580   -13.2130 
   61.2500    96.0100     7.6140     6.9740     8.3540    23.5140     2.2690   -12.8990 
   61.3750   100.9610     7.7040     7.0600     8.4080    23.5780     2.2920   -12.7480 
   61.5000   103.2420     7.6110     6.9710     8.0560    23.9190     2.3110   -12.7100 
   61.6250   104.9990     7.3730     6.7430     7.4880    24.4110     2.3160   -12.7500 
   61.7500   106.7590     7.0690     6.4520     7.1200    24.8170     2.3060   -12.8350 
   61.8750   104.7390     6.7930     6.1860     7.1530    24.9570     2.2840   -12.9370 
   62.0000   100.1180     6.6150     6.0160     7.2670    24.9130     2.2620   -13.0000 
   62.1250    98.2240     6.5930     5.9950     7.2930    24.9000     2.2490   -13.0260 
   62.2500   100.9710     6.7540     6.1500     7.3090    24.9950     2.2550   -12.9800 
   62.3750   102.3740     7.1000     6.4820     7.6110    25.0920     2.2840   -12.9720 
   62.5000    99.1760     7.5460     6.9080     8.9590    25.1070     2.3190   -12.9720 
   62.6250    93.4080     8.0220     7.3660    11.7210    25.0720     2.3440   -12.9480 
   62.7500    88.3120     8.4580     7.7830    12.2480    25.0380     2.3500   -12.8190 
   62.8750    87.0760     8.7710     8.0830     9.6930    24.9200     2.3330   -12.7080 
   63.0000    89.7150     8.9410     8.2470     8.6760    24.5120     2.3100   -12.6410 
   63.1250    92.4440     8.9480     8.2530     8.9830    23.7190     2.2900   -12.6900 
   63.2500    90.9880     8.7880     8.1000     9.0620    22.8950     2.2770   -12.9310 
   63.3750    86.5840     8.5000     7.8230     8.5110    22.5490     2.2650   -13.2170 
   63.5000    85.5570     8.1880     7.5250     7.7760    22.4980     2.2490   -13.5680 
   63.6250    86.7840     7.9320     7.2790     7.0640    22.5080     2.2260   -13.9610 
   63.7500    85.7480     7.8020     7.1550     7.0110    22.4490     2.2010   -14.4620 
   63.8750    81.2100     7.8710     7.2210     7.5730    22.3130     2.1770   -14.9700 
   64.0000    75.7630     8.0820     7.4230     7.9630    22.1260     2.1580   -15.4290 
   64.1250    71.7710     8.3590     7.6890     7.9910    21.9420     2.1470   -15.7730 
   64.2500    70.1750     8.6210     7.9390     7.9610    21.9560     2.1450   -15.9850 
   64.3750    72.1850     8.7910     8.1030     7.9190    22.0830     2.1530   -16.1800 
   64.5000    74.9490     8.8710     8.1790     7.8760    22.1600     2.1680   -16.3430 
   64.6250    74.6750     8.8780     8.1860     7.9060    22.1720     2.1830   -16.5130 
   64.7500    71.5400     8.8370     8.1470     7.9720    22.1660     2.1930   -16.6780 
   64.8750    69.1920     8.7710     8.0830     7.9770    22.2160     2.1930   -16.7820 
   65.0000    69.5960     8.7100     8.0250     7.9800    22.2740     2.1870   -16.8750 
   65.1250    72.4490     8.6790     7.9950     7.9780    22.2790     2.1810   -17.0220 
   65.2500    74.5110     8.6930     8.0080     8.0810    22.2570     2.1820   -17.2660 
   65.3750    72.0970     8.7590     8.0720     8.1820    22.2510     2.1910   -17.5020 
   65.5000    66.8130     8.8530     8.1620     8.2990    22.2720     2.2020   -17.6000 
   65.6250    62.5590     8.9410     8.2460     8.4260    22.3130     2.2110   -17.5120 
   65.7500    64.8030     8.9740     8.2780     8.5740    22.3550     2.2150   -17.3380 
   65.8750    72.2130     8.8700     8.1780     8.5340    22.3580     2.2160   -17.1510 
   66.0000    77.4370     8.6110     7.9300     8.3030    22.3750     2.2220   -16.9440 
   66.1250    80.2600     8.2160     7.5520     7.9400    22.4690     2.2330   -16.6210 
   66.2500    85.0650     7.7740     7.1280     7.6110    22.6060     2.2450   -16.2020 
   66.3750    92.6880     7.4960     6.8610     7.3220    22.7170     2.2540   -15.6830 
   66.5000    93.4730     7.6000     6.9610     7.4330    22.8130     2.2670   -15.2600 
   66.6250    84.7660     8.2840     7.6160     8.1810    22.9400     2.3010   -15.0120 
   66.7500    75.1220     9.6840     8.9590     9.6000    23.2000     2.3660   -14.8410 
   66.8750    72.8600    12.1630    11.0620    14.4760    23.6980     2.4550   -14.7100 
   67.0000    75.2090    15.3590    13.3330    26.5050    24.0770     2.5270   -14.6310 
   67.1250    77.6890    16.7150    14.8520    33.8690    23.9150     2.5520   -14.6680 
   67.2500    79.5480    16.2950    14.8290    21.8170    23.2350     2.5190   -14.7600 
   67.3750    81.4490    14.4020    13.3160    13.6120    22.7950     2.4420   -14.9520 
   67.5000    80.4780    12.4040    11.5100    12.0500    22.6800     2.3610   -15.1470 
   67.6250    75.9870    10.9500    10.0220    11.3550    22.6740     2.2900   -15.3670 
   67.7500    70.5270    10.1530     9.0650    10.2820    22.6340     2.2300   -15.5900 
   67.8750    67.6250     9.9190     8.6690     9.4500    22.5960     2.1820   -15.7980 
   68.0000    67.3210     9.9390     8.5720     9.1130    22.5840     2.1540   -15.9650 
   68.1250    67.5420    10.0360     8.5970     9.0750    22.5900     2.1610   -16.0590 
   68.2500    69.0680    10.0860     8.6190     9.0470    22.5920     2.2040   -16.0900 
   68.3750    73.1180    10.0300     8.5780     8.7860    22.5310     2.2640   -16.0490 
   68.5000    76.3550     9.9070     8.4880     8.4720    22.4500     2.3020   -15.9890 
   68.6250    75.7000     9.7700     8.3810     8.2790    22.4140     2.2990   -15.8440 
   68.7500    72.7550     9.6730     8.3030     8.2970    22.4390     2.2560   -15.6380 
   68.8750    72.6380     9.6630     8.3000     8.4970    22.4820     2.1980   -15.4010 
   69.0000    74.5060     9.7210     8.3590     8.7420    22.5020     2.1580   -15.1510 
   69.1250    74.0650     9.8080     8.4470     8.9020    22.4980     2.1490   -14.9440 
   69.2500    70.3530     9.8720     8.5210     8.9990    22.5000     2.1670   -14.7600 
   69.3750    66.2560     9.8560     8.5270     8.9020    22.5880     2.1930   -14.6560 
   69.5000    63.7570     9.7680     8.4630     8.6960    22.7410     2.2050   -14.5310 
   69.6250    61.7700     9.6450     8.3500     8.5720    22.8850     2.1930   -14.4720 
   69.7500    59.7430     9.5450     8.2340     8.8380    23.0070     2.1620   -14.4540 
   69.8750    59.7610     9.5280     8.1700     9.1040    23.0900     2.1330   -14.4760 
   70.0000    62.8440     9.5890     8.1710     9.1470    23.1070     2.1270   -14.5430 
   70.1250    66.0140     9.6870     8.2200     9.0360    23.0530     2.1500   -14.6270 
   70.2500    65.8290     9.7650     8.2750     9.0090    22.9160     2.1910   -14.7040 
   70.3750    61.9190     9.7800     8.2820     8.8270    22.7130     2.2250   -14.7340 
