~V
VERS. 2.00: Ver 2.00
~W
STRT.M 50.0000:
STOP.M 275.0000:
STEP.M 0.1250:
NULL. -999.2500:
UWI. F10202:
~C
DEPT.M :
GR.API :
RML.OHMM :
RI. :
RXO.OHMM :
CALI.CM :
SP.MV :
DEN.GM/CC :
~A
# ...
  151.2500    96.8500     5.5670     4.4920     4.6890    23.2670     1.0280     2.3020 
  151.3750    89.1860     6.0970     5.0290     5.3360    23.4330     0.8070     2.2720 
  151.5000    87.1330     6.5920     5.5840     6.0860    23.4670     0.5680     2.2540 
  151.6250    89.0530     6.9160     6.0140     6.9010    23.6330     0.5080     2.2590 
  151.7500    93.6240     7.0300     6.2330     8.0590    23.7330     0.5550     2.2750 
  151.8750   103.5150     6.9360     6.2200     9.6230    23.7330     0.5660     2.2890 
  152.0000   111.7920     6.6770     6.0100     8.9290    23.8670     0.5310     2.2910 
  152.1250   109.3100     6.2910     5.6550     6.2610    24.8130     0.5550     2.2840 
  152.2500   100.8390     5.8480     5.2400     4.9110    24.8100     0.6130     2.2770 
  152.3750    93.6150     5.3820     4.8060     4.8010    24.7780     0.7450     2.2770 
  152.5000    88.9740     4.9320     4.3860     4.9950    24.5960     0.9400     2.2850 
  152.6250    86.2840     4.5660     4.0390     4.4750    24.3680     1.1550     2.2960 
  152.7500    86.6440     4.3330     3.8000     3.9170    24.2200     1.4830     2.3020 
  152.8750    87.8670     4.2770     3.7000     3.7770    24.1470     1.8940     2.3010 
  153.0000    87.7860     4.4500     3.7640     3.7490    24.1130     2.1850     2.2930 
  153.1250    87.7450     5.0130     4.1160     4.0270    24.0750     2.1670     2.2830 
  153.2500    88.1050     6.0160     4.8640     4.7130    24.0360     1.9870     2.2780 
  153.3750    86.9880     7.4030     6.0630     5.4450    24.0600     1.8070     2.2810 
  153.5000    86.7580     8.8510     7.4800     6.2410    24.1170     1.6720     2.2900 
  153.6250    89.6350     9.6610     8.3940     7.2270    24.1560     1.5690     2.2990 
  153.7500    93.8530     9.4780     8.3150     7.5340    24.1250     1.4860     2.3070 
  153.8750    95.8260     8.3740     7.2980     5.8880    24.0830     1.5730     2.3140 
  154.0000    93.7810     6.8230     5.8700     4.3380    24.0980     1.8980     2.3210 
  154.1250    90.9800     5.4890     4.7210     3.8280    24.1430     2.2810     2.3310 
  154.2500    90.1890     4.6720     4.0590     3.7240    24.1670     2.5700     2.3420 
  154.3750    91.9370     4.3240     3.7700     3.7190    24.1850     2.7160     2.3510 
  154.5000    95.3930     4.2510     3.6660     3.7280    24.2090     2.8020     2.3580 
  154.6250    97.9520     4.2790     3.6240     3.7120    24.2100     2.8490     2.3620 
  154.7500    99.7270     4.3120     3.5970     3.7030    24.2090     2.7130     2.3630 
  154.8750   100.1590     4.3480     3.5870     3.7050    24.2090     2.2060     2.3600 
  155.0000    98.5490     4.4040     3.6110     3.6880    24.1920     1.4590     2.3540 
  155.1250    96.4850     4.5150     3.7030     3.6840    24.1400     0.8120     2.3450 
  155.2500    95.5410     4.6840     3.8660     3.7910    23.8600     0.3330     2.3350 
  155.3750    95.4090     4.8970     4.0860     4.0960    23.7000    -0.0370     2.3220 
  155.5000    94.1720     5.1140     4.3260     4.3290    23.7330    -0.2930     2.3060 
  155.6250    92.7800     5.2650     4.5150     4.1460    23.8670    -0.2790     2.2910 
  155.7500    92.0260     5.3100     4.6100     4.1770    24.0000     0.0060     2.2820 
  155.8750    93.1830     5.2340     4.5950     4.6240    24.1330     0.5710     2.2800 
  156.0000    96.1270     5.0570     4.4930     4.8620    24.2670     1.1780     2.2820 
  156.1250    97.2840     4.8370     4.3560     4.5450    24.4360     1.6660     2.2820 
  156.2500    94.6680     4.6590     4.2520     4.2770    24.9470     2.1270     2.2760 
  156.3750    92.3580     4.5810     4.2150     4.1230    24.9460     2.5560     2.2650 
  156.5000    93.6590     4.6250     4.2470     4.1450    24.9030     2.8320     2.2560 
  156.6250    94.8510     4.7710     4.3250     4.2170    24.7990     2.7150     2.2530 
  156.7500    95.6410     4.9320     4.3960     4.2070    24.6190     2.3220     2.2560 
  156.8750    98.0810     5.0470     4.4310     4.1940    24.4230     1.7470     2.2640 
  157.0000    98.9950     5.0780     4.4240     4.1830    24.2530     1.0930     2.2750 
  157.1250    95.4540     5.0160     4.3820     4.0910    24.2200     0.5070     2.2890 
  157.2500    94.2590     4.9260     4.3250     4.0530    24.1680     0.0670     2.3030 
  157.3750    96.8300     4.9230     4.2970     4.0610    24.0070    -0.2530     2.3150 
  157.5000    97.3680     5.1810     4.4150     4.0440    23.7780    -0.5370     2.3240 
  157.6250    93.5090     5.9420     4.9040     4.1280    23.5740    -0.7600     2.3290 
  157.7500    91.6280     7.1110     5.7300     4.3560    23.3640    -0.8790     2.3340 
  157.8750    93.2950     8.4650     6.6790     4.8330    23.1910    -0.9020     2.3460 
  158.0000    94.0660     9.7670     7.4710     5.3760    22.6670    -0.7750     2.3700 
  158.1250    90.9440    11.0300     8.0430     6.5020    22.6670    -0.6730     2.4020 
  158.2500    85.3070    12.6570     8.8720     9.3570    22.6670    -0.7110     2.4270 
  158.3750    78.4000    15.1440    10.6130    14.9030    22.7670    -0.8590     2.4270 
  158.5000    72.6040    18.8130    13.7350    19.8870    22.9330    -0.9830     2.3950 
  158.6250    69.2890    23.5680    18.1140    20.5200    22.9670    -0.9960     2.3340 
  158.7500    66.3320    28.2910    22.4450    25.8110    23.1330    -0.9490     2.2690 
  158.8750    63.4490    31.9950    25.7390    29.3720    23.4000    -0.8700     2.2200 
  159.0000    63.6120    34.2790    27.7170    29.7690    23.7330    -0.8360     2.1920 
  159.1250    67.2510    35.5520    28.8040    29.0730    24.9920    -0.8160     2.1840 
  159.2500    68.1510    36.8170    29.8430    29.5470    24.9910    -0.8390     2.1860 
  159.3750    65.1750    38.3950    31.1170    32.4290    24.9930    -0.9080     2.1910 
  159.5000    63.3870    40.1140    32.5580    36.8530    25.0300    -1.0620     2.1930 
  159.6250    66.6430    41.5030    33.8430    40.1730    25.0960    -1.2620     2.1930 
  159.7500    71.2090    42.3160    34.7260    40.7290    25.1030    -1.3700     2.1950 
  159.8750    73.2440    42.5710    35.1660    39.3180    25.0630    -1.4010     2.2000 
  160.0000    72.5130    42.5230    35.3390    38.3100    24.9890    -1.3980     2.2090 
  160.1250    70.3340    42.6130    35.6150    38.4550    24.8780    -1.3150     2.2220 
  160.2500    67.4240    43.1220    36.2890    39.2870    24.8540    -1.1320     2.2350 
  160.3750    63.6410    44.0040    37.4150    40.9370    24.9810    -0.9770     2.2440 
  160.5000    61.2480    44.8460    38.7340    41.8700    25.2760    -0.9770     2.2440 
  160.6250    61.3240    44.6910    39.4150    42.2550    25.5980    -1.1470     2.2280 
  160.7500    62.7770    42.9380    38.6440    42.7810    25.8400    -1.3850     2.1990 
  160.8750    65.5350    39.4560    36.0210    44.6390    25.9750    -1.6140     2.1710 
  161.0000    69.6850    34.7710    31.8900    45.5580    25.9000    -1.8430     2.1580 
  161.1250    74.6390    29.9910    27.3200    41.5530    25.6870    -2.0680     2.1720 
  161.2500    79.8210    26.1790    23.5240    31.5500    25.5490    -2.2280     2.2020 
  161.3750    84.3870    23.8130    21.0380    19.6340    25.5350    -2.2740     2.2310 
  161.5000    84.4800    22.9260    19.9520    12.9090    25.6040    -2.1300     2.2470 
  161.6250    79.2370    23.3430    20.2000    11.6020    25.6760    -1.9870     2.2450 
  161.7500    75.2310    24.3100    21.1300    16.1190    25.7090    -1.9410     2.2330 
  161.8750    75.1480    25.2990    22.2450    20.6890    25.6720    -1.9550     2.2220 
  162.0000    77.2500    25.9060    23.0890    21.6830    25.5580    -1.9590     2.2150 
  162.1250    76.8250    25.8650    23.3000    20.3860    25.4460    -1.9360     2.2170 
  162.2500    74.0880    25.3850    23.0250    19.9690    25.3630    -1.9620     2.2230 
  162.3750    71.7410    24.6900    22.4840    19.6400    25.0330    -2.0800     2.2320 
