~V
VERS. 2.00: Ver 2.00
~W
STRT.M 50.0000:
STOP.M 273.0000:
STEP.M 0.1250:
NULL. -999.2500:
UWI. F10249:
~C
DEPT.M :
DEN.GM/CC :
GR.API :
RML.OHMM :
RI. :
RXO.OHMM :
CALI.CM :
SP.MV :
~A
# ...
   61.2500     2.3440    96.9600     7.7240     5.9510     5.8910    24.4590    -4.3150 
   61.3750     2.3160   102.0930     7.6740     5.8590     5.7620    24.6110    -4.6450 
   61.5000     2.2740   104.3190     7.9750     5.9890     6.1340    24.7250    -4.9660 
   61.6250     2.2340    99.5260     8.6690     6.4130     7.1390    24.7180    -5.3150 
   61.7500     2.2140    89.7120     9.5500     7.0260     8.3890    24.6240    -5.6990 
   61.8750     2.2160    80.5620    10.3740     7.6820     9.7410    24.4430    -6.0640 
   62.0000     2.2300    75.6140    10.8630     8.1760    11.2560    24.3820    -6.3690 
   62.1250     2.2430    73.3540    10.7480     8.2560    11.7780    24.4220    -6.5970 
   62.2500     2.2470    73.0530    10.1980     7.9710    10.7430    24.4300    -6.7050 
   62.3750     2.2410    75.1960     9.4600     7.4780     9.1020    24.4750    -6.6890 
   62.5000     2.2310    78.6560     8.7870     6.9660     8.0330    24.5770    -6.5970 
   62.6250     2.2200    81.3690     8.3640     6.5880     7.3970    24.6740    -6.3960 
   62.7500     2.2130    83.7860     8.1560     6.3600     7.1140    24.7520    -6.0930 
   62.8750     2.2160    86.2260     8.0860     6.2540     7.1760    24.7520    -5.7660 
   63.0000     2.2300    87.8390     8.0680     6.2220     7.4000    24.7100    -5.4800 
   63.1250     2.2500    88.9500     8.0330     6.2200     6.8550    24.7720    -5.1910 
   63.2500     2.2620    91.8730     7.9540     6.2150     6.3150    24.8660    -4.9150 
   63.3750     2.2600    92.6440     7.8360     6.1860     6.2170    24.8720    -4.7480 
   63.5000     2.2520    88.7430     7.7090     6.1270     6.6740    24.7870    -4.6930 
   63.6250     2.2530    85.5800     7.6400     6.0810     6.9920    24.7780    -4.6580 
   63.7500     2.2770    88.0570     7.6690     6.1060     6.6390    24.8790    -4.6140 
   63.8750     2.3230    93.3970     7.7900     6.2190     5.9700    24.9910    -4.5690 
   64.0000     2.3790    98.2680     7.9420     6.3830     5.9850    25.0680    -4.5090 
   64.1250     2.4220   103.5950     8.0190     6.5030     7.4090    25.0890    -4.5180 
   64.2500     2.4380   107.3540     7.9950     6.5280     9.0610    25.0560    -4.6010 
   64.3750     2.4310   106.8470     7.9360     6.4910     8.2580    25.0240    -4.6550 
   64.5000     2.4140   102.9460     7.9670     6.4930     6.6300    25.0110    -4.6670 
   64.6250     2.4020    98.9220     8.2170     6.6550     6.4030    25.0160    -4.7310 
   64.7500     2.3950    96.7110     8.6000     6.9610     8.1480    25.0310    -4.8860 
   64.8750     2.3840    96.6400     8.9170     7.3070    11.7190    25.0530    -5.0990 
   65.0000     2.3630    96.7760     8.9360     7.4980    14.0380    25.0460    -5.3280 
   65.1250     2.3350    95.2950     8.4970     7.3100     9.6780    24.9940    -5.5470 
   65.2500     2.3140    94.1290     7.8320     6.8600     7.5570    24.9060    -5.7500 
   65.3750     2.3030    95.3690     7.2140     6.3620     6.5560    24.8870    -5.9290 
   65.5000     2.2980    98.1720     6.8510     6.0080     5.8220    24.9330    -6.0700 
   65.6250     2.2910    98.4800     6.8530     5.9280     5.6930    24.9180    -6.2190 
   65.7500     2.2780    96.3940     7.0680     6.0540     6.3750    24.8010    -6.3430 
   65.8750     2.2630    94.4920     7.3500     6.2940     7.2420    24.7000    -6.4290 
   66.0000     2.2500    94.3680     7.5640     6.5340     7.4300    24.6860    -6.5270 
   66.1250     2.2400    94.3630     7.6020     6.6600     7.1760    24.6850    -6.6400 
   66.2500     2.2350    93.4620     7.5100     6.6550     7.3980    24.6160    -6.7270 
   66.3750     2.2350    94.5630     7.3880     6.5680     7.7080    24.5040    -6.8530 
   66.5000     2.2400    98.5190     7.3630     6.4990     7.7540    24.3460    -7.0220 
   66.6250     2.2440   101.4360     7.5690     6.5810     7.2370    24.1670    -7.1350 
   66.7500     2.2380    99.4500     7.9700     6.8390     7.0420    24.0090    -7.2350 
   66.8750     2.2230    93.0950     8.4400     7.2240     7.6160    23.8980    -7.3830 
   67.0000     2.2040    87.3920     8.7800     7.5940     8.7950    23.8430    -7.5620 
   67.1250     2.1980    84.9730     8.7260     7.6900     9.3450    23.7750    -7.7160 
   67.2500     2.2110    85.1680     8.2980     7.4280     9.3250    23.6240    -7.8320 
   67.3750     2.2350    88.1560     7.6630     6.9020     8.4500    23.4330    -7.8670 
   67.5000     2.2590    93.4180     7.1030     6.3280     6.7340    23.3020    -7.8350 
   67.6250     2.2650    97.4990     6.9720     5.9800     5.8250    23.2670    -7.8380 
   67.7500     2.2600    96.9980     7.3280     5.9680     6.0930    23.2870    -7.8950 
   67.8750     2.2540    93.5750     8.0740     6.3080     7.5590    23.3740    -7.9520 
   68.0000     2.2610    90.3110     8.9720     6.9040     8.9770    23.5360    -7.9750 
   68.1250     2.2790    86.5520     9.7260     7.5440    10.1890    23.7620    -8.0020 
   68.2500     2.3000    82.5470    10.3040     8.0680    11.7450    24.0370    -8.0920 
   68.3750     2.3230    82.0020    10.9530     8.5410    13.1520    24.3350    -8.2250 
   68.5000     2.3610    85.8300    12.0930     9.2110    10.0950    24.5490    -8.3870 
   68.6250     2.4180    86.5340    14.2490    10.5410     9.2870    24.5530    -8.5780 
   68.7500     2.4710    79.9860    17.1850    12.6690    13.4690    24.4260    -8.7550 
   68.8750     2.4830    70.5600    20.1540    15.3700    27.4740    24.2780    -8.9190 
   69.0000     2.4330    64.6330    21.9710    17.7540    39.3230    24.1510    -9.1240 
   69.1250     2.3290    65.1680    21.2950    18.1380    33.5200    23.9850    -9.3850 
   69.2500     2.2230    67.3680    18.7380    16.5330    21.9060    23.9190    -9.6440 
   69.3750     2.1510    66.0870    15.4650    14.0000    14.8680    24.0260    -9.9170 
   69.5000     2.1230    61.6020    12.6340    11.6430    11.8120    24.2840   -10.2150 
   69.6250     2.1280    59.4170    10.9600    10.0740    10.7430    24.4970   -10.4440 
   69.7500     2.1430    59.9990    10.1470     9.1470    10.1630    24.5670   -10.5870 
   69.8750     2.1550    61.8170     9.8830     8.6940     9.9660    24.5370   -10.7010 
   70.0000     2.1630    65.0720     9.8900     8.5490     9.9250    24.5030   -10.7990 
   70.1250     2.1660    67.8750     9.9480     8.5620     9.9240    24.4930   -10.8360 
   70.2500     2.1670    67.3120     9.9130     8.5680     9.9360    24.4930   -10.8150 
   70.3750     2.1670    66.0090     9.7470     8.4910     9.8830    24.4930   -10.7520 
   70.5000     2.1690    68.7780     9.4780     8.3160     9.6970    24.4930   -10.6340 
   70.6250     2.1760    74.9940     9.2040     8.0850     9.2170    24.4930   -10.5340 
   70.7500     2.1840    78.4460     9.0450     7.8990     8.6240    24.4930   -10.4910 
   70.8750     2.1940    77.6910     9.0700     7.8310     8.3320    24.4930   -10.4580 
   71.0000     2.2040    73.6590     9.2770     7.9110     8.6490    24.4930   -10.3870 
   71.1250     2.2140    69.9110     9.5810     8.1110     9.0370    24.4830   -10.3200 
   71.2500     2.2240    68.3160     9.8090     8.2980     9.2720    24.4590   -10.3230 
   71.3750     2.2320    69.4740     9.8430     8.3560     9.3540    24.4360   -10.3500 
   71.5000     2.2360    72.1150     9.6580     8.2210     9.3010    24.4350   -10.3610 
   71.6250     2.2350    74.0390     9.3680     7.9430     9.1230    24.4680   -10.3440 
   71.7500     2.2320    75.8350     9.2090     7.7180     9.1320    24.5150   -10.3170 
   71.8750     2.2240    78.7470     9.3370     7.6890     9.2370    24.5210   -10.2710 
   72.0000     2.2080    80.8630     9.7930     7.9260     9.6460    24.4330   -10.2150 
   72.1250     2.1790    78.5100    10.4690     8.4250    12.7060    24.2970   -10.1630 
   72.2500     2.1400    73.4330    11.0600     8.9780    21.0910    24.3360   -10.0790 
   72.3750     2.1020    69.3260    11.3260     9.3570    26.6820    24.4580    -9.9800 
