~V
VERS. 2.00: Ver 2.00
~W
STRT.M 55.0000:
STOP.M 270.0000:
STEP.M 0.1250:
NULL. -999.2500:
UWI. F10235:
~C
DEPT.M :
GR.API :
RML.OHMM :
RI. :
RXO.OHMM :
CALI.CM :
DEN.GM/CC :
SP.MV :
~A
# ...
  178.7500    67.6420    66.0880    62.4630    58.2450    25.1700     2.3010   -28.7200 
  178.8750    67.8870    67.0520    63.5600    63.2010    25.1270     2.2990   -28.4790 
  179.0000    70.9940    68.8410    65.5040    65.9010    25.1190     2.2980   -28.2350 
  179.1250    71.9850    70.6970    67.4680    67.6710    25.1020     2.2980   -28.0250 
  179.2500    69.5160    72.0480    68.7780    67.8150    25.0620     2.3000   -27.8810 
  179.3750    67.2490    72.8390    69.3830    63.7180    25.0200     2.3020   -27.7420 
  179.5000    68.1020    73.4130    69.7330    61.0890    25.0160     2.3020   -27.5940 
  179.6250    70.2900    74.3820    70.5620    61.2660    24.9860     2.3000   -27.4490 
  179.7500    69.6000    76.0290    72.1620    58.9950    24.8900     2.2970   -27.3300 
  179.8750    66.4480    78.2960    74.4510    58.0280    24.7170     2.2960   -27.2390 
  180.0000    63.8530    80.8870    77.0570    70.5880    24.6110     2.2970   -27.2110 
  180.1250    63.7940    83.3420    79.4840    81.0620    24.6330     2.2930   -27.2630 
  180.2500    66.3550    85.2450    81.4130    76.8160    24.7840     2.2800   -27.3240 
  180.3750    69.3580    86.2130    82.4760    69.4980    25.0340     2.2610   -27.4310 
  180.5000    70.4050    85.9330    82.2480    69.6360    25.2070     2.2450   -27.6360 
  180.6250    68.1070    84.1750    80.4140    82.9550    25.3370     2.2450   -27.9710 
  180.7500    66.7080    81.6130    77.7270    84.0870    25.4090     2.2620   -28.3210 
  180.8750    67.8750    78.9390    74.9460    63.2410    25.4230     2.2870   -28.6720 
  181.0000    69.5360    76.8310    72.7890    44.6890    25.4040     2.3080   -29.1270 
  181.1250    71.0890    75.8500    71.9040    46.9790    25.3900     2.3110   -29.7250 
  181.2500    71.4210    75.5950    71.9190    59.8630    25.4200     2.3000   -30.4140 
  181.3750    69.2950    75.2450    71.9960    77.9960    25.5180     2.2800   -31.2060 
  181.5000    66.4270    73.7370    70.8770    85.2890    25.6360     2.2620   -32.1380 
  181.6250    67.4220    70.0970    67.2150    76.5050    25.6370     2.2600   -33.2150 
  181.7500    71.7850    65.1690    61.9630    59.5180    25.5440     2.2730   -34.4410 
  181.8750    74.3590    60.3630    56.8400    50.0340    25.4050     2.2950   -35.8910 
  182.0000    74.8830    57.4670    53.6100    43.4970    25.2680     2.3140   -37.5750 
  182.1250    76.4710    58.5420    54.3730    42.3640    25.1590     2.3160   -39.5570 
  182.2500    76.0880    63.7680    59.9320    53.6970    25.1180     2.3010   -41.8980 
  182.3750    72.3080    74.3780    71.5370    74.2110    25.1290     2.2740   -44.5580 
  182.5000    67.5530    92.3250    90.3340    93.0340    25.1800     2.2420   -47.4010 
  182.6250    64.8190   120.2970   118.2850   100.1540    25.2560     2.2140   -50.4090 
  182.7500    62.0830   155.6470   153.1640   130.0500    25.3110     2.1940   -53.4150 
  182.8750    59.1580   195.6760   192.3370   198.4510    25.3630     2.1850   -56.0390 
  183.0000    57.5860   237.4670   232.3470   245.9630    25.4000     2.1840   -57.9690 
  183.1250    56.7980   277.7050   269.7640   259.4410    25.3730     2.1870   -59.1960 
  183.2500    55.8090   314.5810   303.2320   313.8470    25.3200     2.1890   -60.1270 
  183.3750    55.1800   347.5800   332.1970   385.3340    25.2570     2.1880   -60.9460 
  183.5000    54.4070   377.0600   357.3720   417.9210    25.1760     2.1850   -61.7110 
  183.6250    52.3300   402.7730   379.3420   418.5990    25.1070     2.1840   -62.0540 
  183.7500    50.5780   424.3110   397.6440   427.6760    25.0620     2.1840   -61.8880 
  183.8750    49.2330   439.9840   410.4500   474.1650    25.0590     2.1830   -61.5420 
  184.0000    47.3820   448.1650   416.7700   519.6560    25.1190     2.1780   -61.3100 
  184.1250    46.5200   446.1960   414.8060   450.2660    25.2830     2.1710   -61.2480 
  184.2500    47.4410   435.5930   404.9100   331.8950    25.4340     2.1660   -60.9770 
  184.3750    48.6620   418.4300   388.0800   272.5280    25.4900     2.1660   -60.1810 
  184.5000    49.2820   398.6050   368.0950   279.4640    25.5150     2.1700   -58.7470 
  184.6250    51.5460   381.1870   350.5080   370.6710    25.4780     2.1750   -56.8880 
  184.7500    54.4650   368.4640   337.8150   414.3960    25.4090     2.1740   -54.9630 
  184.8750    56.6660   360.0150   329.6480   376.8010    24.8460     2.1680   -52.8990 
  185.0000    59.0790   353.2430   323.6730   345.6700    24.6670     2.1590   -50.5200 
  185.1250    60.5690   343.0750   315.2160   465.2120    24.8000     2.1530   -47.7410 
  185.2500    58.9220   325.7840   300.4680   537.6130    24.8000     2.1520   -44.7540 
  185.3750    55.4860   299.9250   277.8520   433.8940    24.8000     2.1560   -41.7010 
  185.5000    53.8810   266.7700   248.3750   326.3400    24.8000     2.1660   -38.7010 
  185.6250    55.5240   229.4570   214.8970   236.2120    24.8000     2.1780   -35.9240 
  185.7500    59.1880   192.5660   181.6620   148.2870    24.8000     2.1880   -33.4020 
  185.8750    63.3070   158.6660   150.7750   110.9940    24.8000     2.1920   -31.1450 
  186.0000    65.7070   129.3760   123.4200   106.7000    24.8000     2.1900   -29.2760 
  186.1250    66.6140   106.4070   101.3100   101.0010    25.0590     2.1830   -27.7470 
  186.2500    68.4970    88.6600    84.0470    74.4470    25.8890     2.1750   -26.3900 
  186.3750    70.4850    75.2380    70.9570    48.3640    25.9700     2.1720   -25.2590 
  186.5000    70.9670    65.0020    60.9470    33.3730    25.9830     2.1740   -24.3970 
  186.6250    70.8580    57.0860    53.2800    27.3970    25.9460     2.1820   -23.7440 
  186.7500    70.9890    50.1110    46.6510    25.4130    25.8620     2.1900   -23.1060 
  186.8750    71.2680    43.3040    40.1530    25.4030    25.7360     2.1930   -22.4600 
  187.0000    70.9610    36.2610    33.2830    23.9410    25.6570     2.1860   -21.8400 
  187.1250    70.6150    29.3090    26.6110    21.8950    25.7710     2.1730   -21.1920 
  187.2500    70.7950    23.3660    21.1910    22.9990    25.9890     2.1660   -20.4750 
  187.3750    71.7820    19.3050    17.6280    19.4290    25.9840     2.1740   -19.6810 
  187.5000    74.4160    17.6650    16.0740    11.6140    25.6810     2.2040   -18.7620 
  187.6250    76.1860    18.8620    16.7860    12.3110    25.4320     2.2540   -17.6740 
  187.7500    75.0820    21.8010    19.2310    21.6290    25.3030     2.3090   -16.5680 
  187.8750    73.1580    25.2040    22.7400    34.5970    25.2470     2.3580   -15.5070 
  188.0000    73.2440    27.4470    25.7460    36.0720    25.1950     2.3920   -14.4030 
  188.1250    77.9720    26.8500    25.7080    25.6400    25.1530     2.4110   -13.3060 
  188.2500    83.8700    24.0240    22.9470    19.9050    25.1230     2.4250   -12.2660 
  188.3750    88.7230    20.2460    19.1770    16.2160    25.1260     2.4410   -11.2660 
  188.5000    91.8960    16.8650    15.8870    13.9690    25.1320     2.4560   -10.3560 
  188.6250    92.9500    14.9100    13.8500    14.1910    25.1340     2.4590    -9.6850 
  188.7500    91.5500    14.3980    12.9320    13.8460    25.1590     2.4450    -9.1850 
  188.8750    90.6570    15.4030    13.1470    12.9060    25.2090     2.4160    -8.8160 
  189.0000    92.0290    18.0360    14.6060    13.0460    25.2240     2.3820    -8.6310 
  189.1250    90.7470    22.5520    17.7140    18.0070    25.1600     2.3550    -8.6730 
  189.2500    84.5740    28.1370    22.1860    33.8230    25.1510     2.3380    -8.8620 
  189.3750    77.8350    33.6410    27.3350    55.5620    25.1990     2.3320    -9.1720 
  189.5000    76.3440    37.6220    31.6880    56.2490    25.2170     2.3340    -9.6010 
  189.6250    79.7720    38.7250    33.3450    38.7370    25.1770     2.3380   -10.0910 
  189.7500    84.0490    37.8590    32.9300    36.2440    25.1770     2.3380   -10.6040 
  189.8750    87.8030    36.3490    31.8100    42.7050    25.2650     2.3330   -11.1670 
