~V
VERS. 2.00: Ver 2.00
~W
STRT.M 56.0000:
STOP.M 275.0000:
STEP.M 0.1250:
NULL. -999.2500:
UWI. F10253:
~C
DEPT.M :
GR.API :
RML.OHMM :
RI. :
RXO.OHMM :
CALI.CM :
DEN.GM/CC :
SP.MV :
~A
# ...
  191.0000    61.3520    59.3750    55.0310    25.1230    23.3210     2.2800   -18.8010 
  191.1250    61.2960    64.9300    60.2860    25.5990    23.2890     2.2750   -18.8880 
  191.2500    59.2190    69.5480    65.0240    24.1880    23.2780     2.2670   -19.0220 
  191.3750    58.6240    71.7950    67.7420    22.6370    23.3150     2.2580   -19.1450 
  191.5000    59.1070    71.7410    68.2440    21.6230    23.3900     2.2490   -19.2370 
  191.6250    59.1460    69.9460    66.9560    20.8560    23.4690     2.2410   -19.3110 
  191.7500    57.5610    67.3150    64.7380    20.0700    23.5340     2.2340   -19.3970 
  191.8750    55.1160    64.8310    62.5160    19.1630    23.6430     2.2310   -19.5080 
  192.0000    53.5250    63.1540    60.9470    18.4940    23.7950     2.2310   -19.6060 
  192.1250    54.8240    62.5490    60.3100    18.2890    23.9020     2.2350   -19.6910 
  192.2500    57.8310    62.8950    60.5470    18.4500    23.9310     2.2420   -19.7540 
  192.3750    56.9000    63.6390    61.2210    18.7440    23.9250     2.2530   -19.8310 
  192.5000    53.0560    63.8300    61.4680    18.8660    23.9200     2.2630   -19.9420 
  192.6250    51.7760    62.7220    60.5630    18.6100    23.9040     2.2640   -20.0750 
  192.7500    55.7550    59.9420    58.0850    17.5040    23.9110     2.2450   -20.1840 
  192.8750    60.5620    55.6640    54.0890    15.1080    24.0660     2.1910   -20.2770 
  193.0000    61.5270    51.2420    49.8130    11.9380    24.2970     2.1190   -20.3900 
  193.1250    60.0930    47.9210    46.4120     8.6580    24.4860     2.0560   -20.4860 
  193.2500    58.6480    46.7170    44.8360     5.8640    24.6410     2.0270   -20.5660 
  193.3750    55.8900    48.6330    46.0550     5.4940    24.6800     2.0480   -20.6430 
  193.5000    50.8990    53.1190    49.7200     8.2660    24.4820     2.1030   -20.7470 
  193.6250    47.0730    59.5470    55.4270    14.3530    24.2290     2.1670   -20.8610 
  193.7500    48.9820    66.8970    62.3500    23.4190    23.9720     2.2150   -20.9840 
  193.8750    54.6210    73.7280    69.1420    33.5520    23.7470     2.2310   -21.1200 
  194.0000    56.6390    79.0630    74.5780    42.5330    23.6340     2.2300   -21.2390 
  194.1250    54.6470    82.7290    78.2160    49.9120    23.7620     2.2230   -21.3800 
  194.2500    52.5730    85.3440    80.4630    55.7860    24.0560     2.2150   -21.5480 
  194.3750    52.7070    88.1580    82.4240    59.4440    24.3070     2.2120   -21.7660 
  194.5000    51.9480    92.1560    85.2050    59.7680    24.3780     2.2140   -21.9680 
  194.6250    49.9670    97.6700    89.2630    56.9260    24.3450     2.2180   -22.1520 
  194.7500    48.3710   104.4890    94.5780    52.6880    24.2710     2.2240   -22.3320 
  194.8750    46.8900   111.8420   100.7070    50.1200    24.2380     2.2290   -22.5070 
  195.0000    45.1680   118.3770   106.5650    50.2550    24.2590     2.2320   -22.7000 
  195.1250    45.5950   122.9240   111.1790    51.2850    24.2930     2.2330   -22.9070 
  195.2500    49.2630   124.6740   113.7840    52.3020    24.3100     2.2330   -23.1350 
  195.3750    51.8900   123.1310   113.7900    50.6030    24.3200     2.2320   -23.3580 
  195.5000    50.5480   119.5520   112.0940    47.7170    24.3430     2.2320   -23.5850 
  195.6250    48.3060   115.0500   109.5050    46.0120    24.3830     2.2350   -23.8210 
  195.7500    48.8210   110.4130   106.7040    47.4670    24.4140     2.2390   -24.0960 
  195.8750    51.5450   106.2920   104.0040    52.4440    24.3830     2.2440   -24.3910 
  196.0000    52.5370   102.6370   101.2620    60.4320    24.3150     2.2470   -24.6960 
  196.1250    51.4400    99.7040    98.2580    69.7950    24.2090     2.2470   -24.9910 
  196.2500    50.1140    96.9330    94.9000    76.4660    24.0510     2.2450   -25.2530 
  196.3750    51.2520    94.0820    91.2290    77.3790    23.8690     2.2420   -25.4520 
  196.5000    53.8390    91.3160    87.3690    72.0480    23.7440     2.2390   -25.6390 
  196.6250    54.8670    88.0450    83.2420    61.2390    23.8080     2.2380   -25.8300 
  196.7500    52.6870    84.0180    78.7280    53.5350    24.0250     2.2370   -25.9940 
  196.8750    49.6950    79.7070    73.9330    54.0950    24.2780     2.2370   -26.1580 
  197.0000    49.4510    75.0130    69.6140    54.5980    24.4160     2.2400   -26.3190 
  197.1250    51.8860    71.8900    66.8970    53.3580    24.4730     2.2460   -26.4800 
  197.2500    54.2310    70.6840    67.1460    51.6360    24.4480     2.2540   -26.6750 
  197.3750    55.1060    74.2600    72.8290    55.8640    24.3760     2.2600   -26.9520 
  197.5000    56.3450    86.4820    84.9790    68.7470    24.3270     2.2610   -27.2930 
  197.6250    56.9780   108.5690   105.2260    88.1090    24.3500     2.2540   -27.6430 
  197.7500    54.5600   140.5890   134.9930   108.9580    24.4300     2.2410   -28.0140 
  197.8750    49.2260   185.9070   176.5800   135.2550    24.5360     2.2270   -28.4010 
  198.0000    45.3060   242.3150   226.8500   164.3880    24.6030     2.2240   -28.7880 
  198.1250    43.9040   306.2330   281.7900   200.8650    24.6070     2.2380   -29.1380 
  198.2500    42.0790   370.0370   334.7100   241.0740    24.5560     2.2660   -29.4030 
  198.3750    39.8680   419.1580   374.1250   272.4320    24.4320     2.2890   -29.5330 
  198.5000    40.0350   443.8310   393.6290   326.8250    24.3060     2.2900   -29.5200 
  198.6250    43.1310   439.9440   390.6140   411.0990    24.3330     2.2680   -29.4160 
  198.7500    45.4410   412.5810   368.7350   516.2790    24.5160     2.2340   -29.2230 
  198.8750    43.8790   372.6810   335.7410   621.7990    24.6600     2.2080   -28.8850 
  199.0000    42.1400   332.5890   301.8000   641.0800    24.7080     2.1950   -28.4370 
  199.1250    43.1380   296.4400   270.8520   574.1740    24.7100     2.1920   -27.9200 
  199.2500    44.5270   265.2290   244.1240   496.1690    24.6900     2.1930   -27.3640 
  199.3750    42.5720   239.3330   222.0860   406.2210    24.6820     2.1940   -26.7850 
  199.5000    41.4670   217.7430   203.7710   340.4970    24.6420     2.1960   -26.1420 
  199.6250    44.2190   200.9260   189.5300   267.3980    24.5640     2.1980   -25.4530 
  199.7500    47.3990   189.6870   180.1340   206.0430    24.4980     2.2020   -24.7300 
  199.8750    45.5380   185.7110   177.2790   170.1680    24.4700     2.2080   -24.0180 
  200.0000    42.3000   187.6560   179.9920   159.7930    24.4310     2.2130   -23.3430 
  200.1250    41.6000   193.7790   186.8730   169.2450    24.4100     2.2160   -22.6820 
  200.2500    42.4940   200.6060   194.8470   190.1900    24.4360     2.2170   -22.0660 
  200.3750    43.8170   201.7510   197.9540   217.5860    24.4650     2.2160   -21.4960 
  200.5000    45.2490   193.0210   191.8380   225.1370    24.4680     2.2130   -21.0150 
  200.6250    45.7310   173.1040   174.6650   216.3050    24.4700     2.2100   -20.6160 
  200.7500    44.8690   145.1460   148.5460   195.6490    24.4910     2.2090   -20.2680 
  200.8750    44.5880   116.6870   119.8220   156.5650    24.5220     2.2140   -19.9400 
  201.0000    47.0780    94.2640    95.8490   112.5110    24.5230     2.2240   -19.5980 
  201.1250    50.6790    79.9070    79.6980    81.5010    24.4670     2.2350   -19.2710 
  201.2500    52.9860    73.4200    71.6990    66.9880    24.3700     2.2440   -18.9350 
  201.3750    54.3740    74.8920    71.9890    65.0650    24.3360     2.2460   -18.5910 
  201.5000    55.1970    81.9420    78.0940    73.6580    24.3990     2.2460   -18.2280 
  201.6250    54.5480    93.0620    88.6110    91.2190    24.4710     2.2440   -17.8430 
  201.7500    51.9460   106.1310   101.5830   112.5260    24.4990     2.2430   -17.4480 
  201.8750    49.7270   117.9350   114.0040   131.6360    24.5010     2.2410   -17.0910 
  202.0000    49.6520   125.5740   122.8600   140.7550    24.5100     2.2380   -16.7570 
  202.1250    49.3990   127.0830   125.9930   137.8400    24.5280     2.2340   -16.4370 
