~V
VERS. 2.00: Ver 2.00
~W
STRT.M 60.0000:
STOP.M 271.0000:
STEP.M 0.1250:
NULL. -999.2500:
UWI. F10205:
~C
DEPT.M :
DEN.GM/CC :
GR.API :
RML.OHMM :
RI. :
RXO.OHMM :
CALI.CM :
SP.MV :
~A
# ...
  150.0000     2.3980   106.3240     5.0600     3.6890     4.0890    25.1680    -3.5040 
  150.1250     2.3890   108.4920     5.0220     3.6640     4.0570    25.1840    -3.5800 
  150.2500     2.3860   111.6260     5.0270     3.6580     3.9610    25.1670    -3.6720 
  150.3750     2.3870   111.6450     5.1150     3.7010     3.8750    25.1150    -3.7860 
  150.5000     2.3870   109.1610     5.2970     3.8150     3.8410    24.9840    -3.9310 
  150.6250     2.3860   107.6410     5.5500     4.0010     3.9840    24.7990    -4.1040 
  150.7500     2.3840   108.0340     5.7920     4.2050     4.3880    24.6210    -4.3100 
  150.8750     2.3810   107.0190     5.9600     4.3750     4.7640    24.4940    -4.5480 
  151.0000     2.3770   105.8540     6.0250     4.4710     4.7510    24.4660    -4.7980 
  151.1250     2.3700   109.1630     5.9950     4.4750     4.3020    24.5100    -5.0070 
  151.2500     2.3610   112.9650     5.9410     4.4340     4.0710    24.5910    -5.2220 
  151.3750     2.3510   113.0670     5.9060     4.3870     4.1950    24.6650    -5.4370 
  151.5000     2.3440   110.9860     5.8950     4.3520     4.7100    24.6860    -5.6650 
  151.6250     2.3400   109.9730     5.8690     4.3150     5.0400    24.6110    -5.9180 
  151.7500     2.3410   109.1620     5.7820     4.2420     4.9280    24.5730    -6.1840 
  151.8750     2.3470   107.3540     5.6190     4.1090     4.3270    24.6460    -6.4580 
  152.0000     2.3590   106.0710     5.4030     3.9230     3.7370    24.8940    -6.7020 
  152.1250     2.3730   108.5120     5.2010     3.7240     3.4360    25.1930    -6.8870 
  152.2500     2.3850   112.5720     5.0890     3.5790     3.3440    25.3680    -6.9920 
  152.3750     2.3910   114.0500     5.1210     3.5380     3.3690    25.2420    -7.0470 
  152.5000     2.3900   110.7470     5.3320     3.6360     3.3610    24.8420    -7.0870 
  152.6250     2.3800   105.7840     5.7500     3.9110     3.5580    24.4880    -7.0910 
  152.7500     2.3680   104.7190     6.2960     4.3170     4.2310    24.2200    -7.1050 
  152.8750     2.3580   105.7160     6.8800     4.8040     5.0990    24.0870    -7.0960 
  153.0000     2.3530   104.7800     7.3940     5.2950     6.0340    24.1650    -7.0690 
  153.1250     2.3560   103.2770     7.6990     5.6730     6.7760    24.3060    -7.0520 
  153.2500     2.3600   105.5360     7.7710     5.8780     7.1390    24.4730    -7.0260 
  153.3750     2.3620   110.6320     7.6350     5.8910     7.0610    24.5740    -6.9720 
  153.5000     2.3640   112.6700     7.3680     5.7490     6.6480    24.6290    -6.8490 
  153.6250     2.3680   109.5710     7.0650     5.5200     5.7440    24.7160    -6.7250 
  153.7500     2.3770   105.0390     6.8070     5.2910     4.8780    24.8760    -6.5620 
  153.8750     2.3890   100.2900     6.6130     5.1020     4.4800    25.0120    -6.3800 
  154.0000     2.3960    96.3300     6.4690     4.9640     4.7080    25.0540    -6.1710 
  154.1250     2.3900    93.2270     6.3390     4.8630     5.0020    25.1260    -5.9180 
  154.2500     2.3710    93.2900     6.1950     4.7730     4.7840    25.2680    -5.6500 
  154.3750     2.3450    96.4480     6.0370     4.6830     4.4070    25.3310    -5.3530 
  154.5000     2.3240    99.4660     5.8740     4.5930     3.9200    25.2040    -5.0540 
  154.6250     2.3190    99.1740     5.7170     4.5030     3.9650    24.9150    -4.7510 
  154.7500     2.3290    99.0550     5.5570     4.4070     4.2560    24.5100    -4.4930 
  154.8750     2.3470   101.7460     5.3810     4.2920     4.5880    24.1570    -4.2850 
  155.0000     2.3640   104.2220     5.1850     4.1520     4.6970    23.9470    -4.1330 
  155.1250     2.3720   103.1690     4.9860     3.9950     4.4650    23.9990    -4.0380 
  155.2500     2.3710   102.7790     4.8290     3.8570     3.9240    24.3470    -3.9920 
  155.3750     2.3660   104.3240     4.7500     3.7710     3.5090    24.7810    -4.0470 
  155.5000     2.3620   104.4580     4.7610     3.7570     3.5550    24.9010    -4.2060 
  155.6250     2.3620   103.9300     4.8440     3.8140     3.8410    24.6890    -4.4140 
  155.7500     2.3650   106.0890     4.9370     3.8970     4.0400    24.3810    -4.6300 
  155.8750     2.3690   109.2690     5.0050     3.9740     4.1550    24.1480    -4.8150 
  156.0000     2.3680   108.2650     5.0400     4.0290     4.3360    24.1620    -4.9810 
  156.1250     2.3590   102.9860     5.0670     4.0660     4.2250    24.3560    -5.1930 
  156.2500     2.3450   100.3560     5.1220     4.1110     4.1530    24.4390    -5.4480 
  156.3750     2.3300   101.3440     5.2160     4.1790     4.4570    24.3600    -5.6620 
  156.5000     2.3180   104.6480     5.3320     4.2690     4.7680    24.3120    -5.7990 
  156.6250     2.3140   105.6890     5.4390     4.3660     5.0090    24.3690    -5.8630 
  156.7500     2.3120   103.8460     5.5250     4.4570     5.1010    24.4990    -5.9060 
  156.8750     2.3110   101.4850     5.6100     4.5470     4.8840    24.5880    -5.9760 
  157.0000     2.3070   100.5160     5.7340     4.6560     4.6120    24.4590    -6.0610 
  157.1250     2.3050   101.1970     5.9530     4.8210     4.5340    24.1680    -6.1150 
  157.2500     2.3040   102.0490     6.2660     5.0500     4.7920    23.9820    -6.1500 
  157.3750     2.3070   102.1680     6.6460     5.3350     5.3350    24.0050    -6.1940 
  157.5000     2.3110   101.3810     7.0430     5.6530     5.8890    23.9830    -6.2380 
  157.6250     2.3170   100.0790     7.3950     5.9630     6.3590    23.9380    -6.3240 
  157.7500     2.3270    99.2110     7.6820     6.2330     6.6690    23.9150    -6.4000 
  157.8750     2.3390    97.9070     7.9370     6.4660     7.0300    23.9570    -6.4350 
  158.0000     2.3510    96.0440     8.2530     6.7140     7.4430    24.0240    -6.4520 
  158.1250     2.3570    96.2620     8.8470     7.1150     7.6650    24.0660    -6.4370 
  158.2500     2.3560    95.9220     9.8840     7.8090     7.6820    24.0000    -6.3730 
  158.3750     2.3550    93.1940    11.5120     8.9510     8.4750    23.8960    -6.2900 
  158.5000     2.3550    88.7190    13.7830    10.6650    10.9670    23.8740    -6.2450 
  158.6250     2.3560    84.9910    16.5920    13.0430    16.4560    24.0280    -6.2050 
  158.7500     2.3470    82.6760    19.3340    15.6670    21.1270    24.3690    -6.1770 
  158.8750     2.3260    81.1500    21.3190    17.9300    24.4030    24.7850    -6.1640 
  159.0000     2.3010    80.0300    22.0010    19.1940    26.5740    25.1440    -6.1350 
  159.1250     2.2980    81.0720    21.2610    19.0690    24.7500    25.2950    -6.1180 
  159.2500     2.3260    83.9520    20.1550    18.3050    22.6520    25.3070    -6.1350 
  159.3750     2.3750    85.9880    19.6990    17.7400    21.3870    25.2210    -6.1840 
  159.5000     2.4150    83.4000    20.7480    18.1820    19.1340    25.1550    -6.2510 
  159.6250     2.4100    77.0350    24.1540    20.6330    16.7090    25.2040    -6.3510 
  159.7500     2.3610    72.3110    29.9020    25.2290    26.6720    25.2770    -6.4920 
  159.8750     2.2880    71.0310    37.8280    31.7820    44.3590    25.3550    -6.6690 
  160.0000     2.2210    72.7190    46.5230    39.2630    55.4430    25.5200    -6.8670 
  160.1250     2.1850    75.1430    52.8600    45.4770    55.8520    25.6630    -7.0550 
  160.2500     2.1770    76.0130    55.3710    48.9310    55.1540    25.7860    -7.2270 
  160.3750     2.1860    75.6830    54.6030    49.4730    52.9730    25.8460    -7.3580 
  160.5000     2.2030    74.5780    52.2000    48.0620    49.3350    25.8620    -7.4350 
  160.6250     2.2220    73.6030    49.6130    45.9520    47.6040    25.8660    -7.4350 
  160.7500     2.2380    73.8690    47.5070    44.0240    46.7400    25.8830    -7.3580 
  160.8750     2.2480    75.9870    45.8850    42.4520    46.2470    25.9120    -7.2550 
  161.0000     2.2510    77.8210    44.5750    41.1880    44.4280    25.9210    -7.1780 
  161.1250     2.2480    74.1560    43.2490    40.0150    41.5890    25.9110    -7.1330 
