~V
VERS. 2.00: Ver 2.00
~W
STRT.M 52.0000:
STOP.M 271.0000:
STEP.M 0.1250:
NULL. -999.2500:
UWI. F10212:
~C
DEPT.M :
GR.API :
RML.OHMM :
RI. :
RXO.OHMM :
CALI.CM :
SP.MV :
DEN.GM/CC :
~A
# ...
  254.5000    65.7270    12.1970    11.5590    10.1580    21.9790    -5.7070     2.4630 
  254.6250    65.4630    12.7340    11.9840    10.5450    21.8140    -5.6580     2.4730 
  254.7500    65.2720    13.4950    12.6610    11.1640    21.5690    -5.5880     2.4870 
  254.8750    64.8220    14.3390    13.4960    11.2830    21.3060    -5.5130     2.4990 
  255.0000    64.9520    15.1060    14.3400    10.6800    21.2410    -5.4570     2.5040 
  255.1250    65.5860    15.6300    15.0070    10.0610    21.5920    -5.4340     2.4980 
  255.2500    65.6660    15.9140    15.4320    10.1350    22.1870    -5.4260     2.4860 
  255.3750    66.6980    16.0170    15.6250    10.4330    22.6520    -5.4370     2.4780 
  255.5000    68.8060    16.0370    15.6520    10.7690    22.8460    -5.4500     2.4800 
  255.6250    70.0690    16.0900    15.6160    11.1630    22.8640    -5.5340     2.4970 
  255.7500    69.1480    16.2510    15.6390    11.5830    22.8710    -5.6490     2.5160 
  255.8750    67.2650    16.5280    15.7740    12.2600    22.9000    -5.7630     2.5260 
  256.0000    65.9930    16.8700    16.0050    12.7870    22.9170    -5.8780     2.5230 
  256.1250    63.8690    17.1300    16.2200    12.7720    22.8980    -5.9780     2.5110 
  256.2500    62.6800    17.1770    16.2720    12.8680    22.8770    -6.0700     2.4990 
  256.3750    65.0520    16.9440    16.0790    13.5560    22.9530    -6.1290     2.4860 
  256.5000    69.4410    16.4700    15.6560    13.3420    23.0620    -6.1830     2.4730 
  256.6250    70.4870    15.9130    15.1340    12.4140    23.1850    -6.1780     2.4620 
  256.7500    67.8910    15.5000    14.7220    12.4880    23.3310    -6.1280     2.4560 
  256.8750    65.7560    15.3720    14.5600    13.3550    23.3820    -6.0820     2.4540 
  257.0000    66.5830    15.5920    14.7290    14.9110    23.2180    -6.0180     2.4600 
  257.1250    69.2600    16.1970    15.2940    15.5180    22.8990    -5.9780     2.4780 
  257.2500    71.4530    17.0470    16.1270    14.8340    22.2890    -5.9390     2.4980 
  257.3750    72.0330    18.0260    17.1120    13.5150    21.4140    -5.9450     2.5080 
  257.5000    71.8520    19.0080    18.1140    13.2470    20.7090    -5.9690     2.5060 
  257.6250    71.2170    19.8240    18.9670    13.5700    20.4110    -5.9660     2.5040 
  257.7500    69.8190    20.3830    19.5860    14.4270    20.3920    -5.9880     2.5130 
  257.8750    67.9600    20.6440    19.9340    15.8740    20.5870    -6.0090     2.5240 
  258.0000    66.4490    20.6290    20.0230    17.6850    20.9080    -6.0120     2.5260 
  258.1250    66.3570    20.3930    19.8870    18.2150    21.1310    -5.9910     2.5120 
  258.2500    66.1990    20.0790    19.6480    16.7950    21.2040    -5.9690     2.4940 
  258.3750    65.9320    19.7740    19.3880    15.4810    21.2900    -5.9250     2.4850 
  258.5000    65.9320    19.5430    19.1760    15.5780    21.5720    -5.8840     2.4900 
  258.6250    65.9320    19.4400    19.0720    16.6540    22.1770    -5.8750     2.5010 
  258.7500    65.9320    19.4440    19.0650    17.2370    22.7690    -5.8900     2.5060 
  258.8750    65.9320    19.5040    19.1180    17.9780    23.3500    -5.9140     2.5060 
  259.0000    65.9320    19.5440    19.1630    18.4260    23.9490    -5.9630     2.5040 
  259.1250    65.9320    19.4660    19.1120    18.4020    24.3140    -6.0210     2.5040 
  259.2500    65.9320    19.2580    18.9390    19.3310    24.4950    -6.0970     2.5030 
  259.3750    65.9320    18.9430    18.6560    21.5120    24.6460    -6.1740     2.4970 
  259.5000    65.9320    18.5790    18.3060    22.9330    24.7760    -6.2560     2.4870 
  259.6250    65.9320    18.2340    17.9510    22.8690    24.8270    -6.3540     2.4700 
  259.7500    65.9320    17.9530    17.6480    20.7540    24.7920    -6.4450     2.4520 
  259.8750    65.9320    17.7640    17.4270    18.2330    24.6940    -6.5410     2.4420 
  260.0000    65.9320    17.6840    17.3100    17.1920    24.6220    -6.6350     2.4460 
  260.1250    65.9320    17.7350    17.3190    17.9280    24.5900    -6.7470     2.4550 
  260.2500    65.9320    17.8750    17.4180    17.6530    24.5540    -6.8570     2.4550 
  260.3750    65.9320    18.0610    17.5740    16.2100    24.4950    -6.9900     2.4510 
  260.5000    65.9320    18.2570    17.7570    14.4580    24.4220    -7.1350     2.4530 
  260.6250    65.9320    18.4410    17.9460    13.6700    24.4100    -7.2570     2.4650 
  260.7500    65.9320    18.6230    18.1320    14.1100    24.4440    -7.3820     2.4780 
  260.8750    65.9320    18.8070    18.3160    16.4240    24.4750    -7.4980     2.4830 
  261.0000    65.9320    18.9850    18.4880    19.3250    24.4830    -7.6110     2.4790 
  261.1250    65.9320    19.1050    18.6020    20.4260    24.5080    -7.7010     2.4700 
  261.2500    65.9320    19.1250    18.6200    22.1650    24.5020    -7.7390     2.4670 
  261.3750    65.9320    19.0380    18.5270    25.3570    24.4100    -7.7180     2.4710 
  261.5000    65.9320    18.8880    18.3540    34.5590    24.3020    -7.6540     2.4750 
  261.6250    65.9320    18.7770    18.1850    27.8960    24.3560    -7.5990     2.4780 
  261.7500    65.9320    18.7740    18.0950    22.4140    24.4580    -7.5320     2.4840 
  261.8750    65.9320    18.8780    18.0980    20.1230    24.5680    -7.4780     2.4930 
  262.0000    65.9320    19.0370    18.1660    20.9230    24.6340    -7.4580     2.4950 
  262.1250    65.9320    19.1820    18.2480    19.2290    24.6270    -7.4600     2.4790 
  262.2500    65.9320    19.2920    18.3090    17.4690    24.5840    -7.5230     2.4560 
  262.3750    65.9320    19.3770    18.3470    18.5160    24.5240    -7.6350     2.4360 
  262.5000    65.9320    19.4400    18.3720    20.6660    24.3840    -7.7760     2.4120 
  262.6250    65.9320    19.4600    18.3930    20.5220    24.3050    -7.9470     2.3690 
  262.7500    65.9320    19.4290    18.4100    19.3670    24.2750    -8.0900     2.3210 
  262.8750    65.9320    19.3650    18.4210    19.2340    24.2950    -8.2150     2.2950 
  263.0000    65.9320    19.3100    18.4300    21.8230    24.3880    -8.3370     2.3070 
  263.1250    65.9320    19.2980    18.4340    26.1420    24.4470    -8.4380     2.3500 
  263.2500    65.9320    19.3180    18.4310    22.6210    24.4540    -8.5020     2.3920 
  263.3750    65.9320    19.3470    18.4250    16.1690    24.4460    -8.5530     2.4190 
  263.5000    65.9320    19.3680    18.4180    12.7020    24.4440    -8.5940     2.4360 
  263.6250    65.9320    19.3760    18.4100    11.3960    24.4370    -8.5980     2.4570 
  263.7500    65.9320    19.3810    18.3990    10.9300    24.4270    -8.6210     2.4900 
  263.8750    65.9320    19.3870    18.3850    10.2090    24.4360    -8.6170     2.5290 
  264.0000    65.9320    19.3970    18.3680     9.5840    24.4570    -8.5750     2.5650 
  264.1250    65.9320    19.4050    18.3470    10.5150    24.4740    -8.5330     2.5760 
  264.2500    65.9320    19.4070    18.3350    11.9050    24.4730    -8.4990     2.5590 
  264.3750    65.9320    19.4070    18.3350    11.8190    24.4990    -8.4430     2.5250 
  264.5000    65.9320    19.4070    18.3350    10.8120    24.5540    -8.3800     2.4960 
  264.6250    65.9320    19.4070    18.3350    10.5240    24.5810    -8.3480     2.4850 
  264.7500    65.9320    19.4070    18.3350    11.1400    24.5900    -8.3100     2.4820 
  264.8750    65.9320    19.4070    18.3350    11.6820    24.5930    -8.2950     2.4800 
  265.0000    65.9320    19.4070    18.3350    12.1190    24.5860    -8.3190     2.4770 
  265.1250    65.9320    19.4070    18.3350    12.4880    24.5230    -8.3690     2.4740 
  265.2500    65.9320    19.4070    18.3350    12.3820    24.3980    -8.4530     2.4690 
  265.3750    65.9320    19.4070    18.3350    11.9940    24.2830    -8.5830     2.4600 
  265.5000    65.9320    19.4070    18.3350    11.3100    24.1790    -8.6970     2.4530 
  265.6250    65.9320    19.4070    18.3350    11.2630    23.9890    -8.7280     2.4590 
