~V
VERS. 2.00: Ver 2.00
~W
STRT.M 50.0000:
STOP.M 271.0000:
STEP.M 0.1250:
NULL. -999.2500:
UWI. F10251:
~C
DEPT.M :
DEN.GM/CC :
GR.API :
RML.OHMM :
RI. :
RXO.OHMM :
CALI.CM :
SP.MV :
~A
# ...
  151.2500     2.5350    58.8830    15.1270    14.0030    18.2320    23.6880    -3.5950 
  151.3750     2.5290    58.8370    14.7920    13.7860    18.8160    23.6180    -3.6040 
  151.5000     2.5250    59.7720    14.4240    13.5220    18.6280    23.7080    -3.5760 
  151.6250     2.5150    60.2670    14.1510    13.2850    16.2650    24.0090    -3.5410 
  151.7500     2.5020    60.7280    14.0050    13.1100    15.1640    24.3230    -3.4840 
  151.8750     2.4970    63.4440    13.9210    12.9660    15.2060    24.4230    -3.4090 
  152.0000     2.5010    67.2520    13.7750    12.7850    16.1030    24.3400    -3.3490 
  152.1250     2.5110    67.4840    13.4250    12.4750    16.2810    24.2330    -3.3240 
  152.2500     2.5200    65.3780    12.9160    12.0550    15.6930    24.2580    -3.2810 
  152.3750     2.5270    64.1350    12.3760    11.6010    14.4550    24.2690    -3.2100 
  152.5000     2.5280    64.3460    11.9690    11.2210    13.6600    24.2050    -3.2070 
  152.6250     2.5250    63.9520    11.8390    11.0290    13.8310    24.1220    -3.2400 
  152.7500     2.5250    62.7880    11.9020    11.0000    14.4930    24.0930    -3.2370 
  152.8750     2.5250    62.3930    12.0250    11.0610    14.9680    24.0820    -3.2970 
  153.0000     2.5230    60.4060    12.0740    11.1180    14.9230    24.0820    -3.4310 
  153.1250     2.5210    56.2370    11.9640    11.0920    14.2430    24.0850    -3.5160 
  153.2500     2.5230    55.1240    11.7650    10.9980    13.0890    24.0890    -3.5520 
  153.3750     2.5280    56.8700    11.5670    10.8810    12.9650    24.0760    -3.6120 
  153.5000     2.5340    56.7870    11.4500    10.7950    13.5960    24.0610    -3.7040 
  153.6250     2.5380    54.1880    11.4570    10.7840    14.6500    24.0580    -3.7500 
  153.7500     2.5410    54.0880    11.5280    10.8300    14.9820    24.0590    -3.7980 
  153.8750     2.5420    56.0570    11.6140    10.9000    14.9000    24.0560    -3.9110 
  154.0000     2.5390    56.6670    11.6730    10.9560    15.0300    24.0320    -4.0080 
  154.1250     2.5350    55.7170    11.6460    10.9420    14.5540    23.9520    -4.0610 
  154.2500     2.5350    54.9300    11.5120    10.8360    13.4500    23.8490    -4.1570 
  154.3750     2.5410    56.6110    11.2640    10.6270    12.5710    23.7790    -4.3490 
  154.5000     2.5530    60.9920    10.9300    10.3370    13.1840    23.7820    -4.5190 
  154.6250     2.5650    65.3310    10.5940    10.0310    13.2300    23.8390    -4.6360 
  154.7500     2.5710    67.9470    10.3830     9.8110    12.0530    23.8600    -4.8170 
  154.8750     2.5690    69.6590    10.4010     9.7610    11.2760    23.8170    -4.9940 
  155.0000     2.5620    70.6110    10.6920     9.9340    12.3860    23.7840    -5.1030 
  155.1250     2.5510    70.5330    11.2680    10.3690    13.4900    23.7920    -5.2010 
  155.2500     2.5350    72.8990    11.9780    10.9610    14.5370    23.7960    -5.3320 
  155.3750     2.5220    76.3770    12.6810    11.6020    14.8590    23.7550    -5.4530 
  155.5000     2.5160    75.9400    13.2580    12.1880    15.7360    23.6810    -5.5350 
  155.6250     2.5120    72.5080    13.6870    12.6910    17.0990    23.6190    -5.6360 
  155.7500     2.4940    71.2560    14.1360    13.2310    17.9870    23.5690    -5.7760 
  155.8750     2.4540    72.4410    14.7830    13.9560    17.8500    23.4790    -5.8930 
  156.0000     2.4000    72.3290    15.7870    15.0080    17.9750    23.2990    -5.9980 
  156.1250     2.3480    69.0780    17.3240    15.7480    20.4580    23.1050    -6.1590 
  156.2500     2.3070    65.9740    19.3070    17.6980    24.5480    22.9640    -6.3360 
  156.3750     2.2820    64.4950    21.6310    20.0520    26.2430    22.9620    -6.3980 
  156.5000     2.2710    64.7790    24.0900    22.6330    26.7340    23.1820    -6.4230 
  156.6250     2.2650    65.6700    26.1060    24.9190    29.2110    23.6880    -6.5310 
  156.7500     2.2580    65.7980    26.8740    26.0820    32.1340    24.0940    -6.5750 
  156.8750     2.2530    65.4070    25.6230    25.2470    32.8930    24.1950    -6.5140 
  157.0000     2.2520    64.9440    22.1860    22.1200    29.4420    24.0230    -6.4590 
  157.1250     2.2510    66.5110    17.3540    15.1980    24.1100    23.8150    -6.4550 
  157.2500     2.2440    71.2600    12.8060    11.8280    17.8290    23.7500    -6.4460 
  157.3750     2.2390    78.9650     9.3690     8.7550    10.9230    23.7070    -6.4500 
  157.5000     2.2440    86.8980     7.2110     6.7440     7.1950    23.4580    -6.4810 
  157.6250     2.2630    90.3980     6.2690     5.7670     6.2870    23.2090    -6.5440 
  157.7500     2.2850    89.3640     6.1190     5.4840     6.3890    23.1460    -6.6180 
  157.8750     2.3100    86.2910     6.6540     5.8140     7.2780    23.0810    -6.6920 
  158.0000     2.3380    83.6890     7.8330     6.7320     8.9910    22.9410    -6.7970 
  158.1250     2.3560    81.6890     9.7090     8.3350    11.0740    22.9080    -6.9340 
  158.2500     2.3570    79.3690    12.0910    10.4950    13.6930    22.9040    -7.0280 
  158.3750     2.3450    78.4850    14.8090    13.0970    17.1560    22.8910    -7.1090 
  158.5000     2.3290    80.7120    17.5250    15.8490    23.0790    22.9780    -7.2410 
  158.6250     2.3190    81.6400    19.4870    18.0170    25.5150    23.2150    -7.3230 
  158.7500     2.3120    78.3960    20.1640    18.9470    25.5000    23.5900    -7.3690 
  158.8750     2.3100    74.7890    19.4580    18.4460    27.7240    23.8690    -7.5100 
  159.0000     2.3120    75.5200    17.9220    17.0110    30.2140    24.0200    -7.6980 
  159.1250     2.3210    80.3820    16.6680    15.6140    23.9550    24.0420    -7.8150 
  159.2500     2.3300    83.3480    16.6000    15.0190    18.3360    24.0270    -7.9070 
  159.3750     2.3290    81.7010    18.2450    15.6500    17.2390    23.9990    -8.0730 
  159.5000     2.3150    77.7100    21.9230    17.8740    23.5360    24.0170    -8.2580 
  159.6250     2.2970    74.3240    28.0110    22.3560    40.2370    24.0420    -8.3960 
  159.7500     2.2870    71.1620    35.5640    28.6720    54.4880    24.0390    -8.5560 
  159.8750     2.2870    67.7050    43.2270    35.8320    57.1110    24.0070    -8.7250 
  160.0000     2.2910    66.2750    49.3450    42.1570    53.3790    23.9490    -8.8660 
  160.1250     2.2940    68.9770    52.8990    46.1790    51.0170    23.8640    -8.9470 
  160.2500     2.2920    70.6960    55.3850    48.8670    48.4710    23.7740    -9.0400 
  160.3750     2.2850    71.1610    58.2420    51.5100    47.3940    23.7310    -9.1280 
  160.5000     2.2720    72.8330    62.2800    54.9990    48.8710    23.7670    -9.1210 
  160.6250     2.2520    73.1480    67.5730    59.6080    60.3710    23.8620    -9.1560 
  160.7500     2.2360    70.2470    73.1440    64.5790    72.5750    23.8690    -9.2270 
  160.8750     2.2320    66.4300    78.1010    69.1210    78.6240    23.7620    -9.2210 
  161.0000     2.2360    66.8680    81.8710    72.6760    74.9770    23.6090    -9.1560 
  161.1250     2.2430    69.4130    84.5550    75.2550    71.2150    23.4200    -9.1260 
  161.2500     2.2490    66.7940    87.3820    77.8750    71.2310    23.2450    -9.1280 
  161.3750     2.2500    60.3530    91.3990    81.4740    76.3460    23.1990    -9.1130 
  161.5000     2.2420    56.7080    97.0990    86.5780    82.3850    23.2350    -9.0940 
  161.6250     2.2270    58.7170   104.0990    93.0210    89.2420    23.2640    -9.1010 
  161.7500     2.2120    62.0380   110.6840    99.3800    94.7060    23.2520    -9.0990 
  161.8750     2.2010    63.9880   115.2380   104.2150    98.9860    23.1920    -9.0560 
  162.0000     2.1990    63.7680   116.6470   106.3970   101.1200    23.0670    -9.0070 
  162.1250     2.2090    61.4250   114.4140   105.2080   100.2330    22.8880    -9.0290 
  162.2500     2.2240    61.9960   110.1690   101.9540    97.0360    22.7140    -9.0700 
  162.3750     2.2380    66.4590   105.3270    97.8430    95.5120    22.6090    -9.0520 
