~V
VERS. 2.00: Ver 2.00
~W
STRT.M 50.0000:
STOP.M 284.0000:
STEP.M 0.1250:
NULL. -999.2500:
UWI. F10254:
~C
DEPT.M :
GR.API :
RML.OHMM :
RI. :
RXO.OHMM :
CALI.CM :
DEN.GM/CC :
SP.MV :
~A
# ...
  106.2500    59.6990    10.2520     9.3500     9.7020    24.3930     2.1230   -15.6550 
  106.3750    62.9430     9.8580     8.9910     9.3640    24.4320     2.1070   -15.7700 
  106.5000    66.3590     9.5360     8.6760     9.2530    24.4570     2.1020   -15.8470 
  106.6250    67.1470     9.3780     8.4890     9.1440    24.5260     2.0980   -15.8340 
  106.7500    66.9080     9.3620     8.4290     8.9020    24.5900     2.0910   -15.6480 
  106.8750    65.5250     9.4550     8.4740     8.6630    24.4910     2.0900   -15.3650 
  107.0000    62.1300     9.6190     8.5920     8.5540    24.2450     2.1150   -15.1240 
  107.1250    60.6090     9.8140     8.7500     9.3460    24.2730     2.1750   -14.9240 
  107.2500    63.3360     9.9710     8.8910    12.1620    24.6600     2.2460   -14.6810 
  107.3750    66.6090    10.0230     8.9630    16.4610    24.9780     2.2970   -14.3950 
  107.5000    67.3610     9.9410     8.9290    13.6720    24.9340     2.3080   -14.1730 
  107.6250    66.2570     9.7580     8.7980    10.3770    24.6000     2.2770   -14.1140 
  107.7500    64.2700     9.5750     8.6430     9.0080    24.2940     2.2360   -14.1440 
  107.8750    60.6530     9.4530     8.5170     8.9210    24.0940     2.2040   -14.2460 
  108.0000    58.2770     9.4210     8.4520     8.9120    24.0020     2.1860   -14.3620 
  108.1250    61.2050     9.4840     8.4740     8.9110    23.9610     2.1820   -14.4470 
  108.2500    65.0820     9.5930     8.5560     8.9250    23.9350     2.1850   -14.5350 
  108.3750    65.6710     9.7160     8.6740     9.0840    23.9200     2.1940   -14.6960 
  108.5000    64.6930     9.8330     8.8070     9.2840    23.9010     2.2020   -14.8370 
  108.6250    66.2670     9.9120     8.9290     9.6080    23.8560     2.2030   -14.8670 
  108.7500    67.5070     9.9270     9.0100     9.8020    23.8230     2.1970   -14.8830 
  108.8750    66.3530     9.8740     9.0340     9.5780    23.8350     2.1900   -14.8700 
  109.0000    65.2090     9.7800     9.0090     9.2640    23.8980     2.1830   -14.7920 
  109.1250    67.2610     9.6930     8.9620     9.1540    23.9510     2.1810   -14.7010 
  109.2500    69.7300     9.6520     8.9290     9.0140    23.9810     2.1780   -14.6450 
  109.3750    70.7590     9.6690     8.9280     8.9820    23.9890     2.1720   -14.6090 
  109.5000    70.2920     9.7290     8.9560     9.1700    23.9820     2.1620   -14.6030 
  109.6250    67.5040     9.7710     8.9760     9.2220    23.9600     2.1540   -14.6550 
  109.7500    63.7290     9.7220     8.9370     9.2310    23.9060     2.1520   -14.6450 
  109.8750    60.0560     9.5220     8.7970     9.2610    23.8240     2.1570   -14.5520 
  110.0000    57.6710     9.1400     8.5360     9.1910    23.7440     2.1640   -14.4730 
  110.1250    57.3120     8.6740     8.2140     8.9910    23.7030     2.1650   -14.3980 
  110.2500    59.2710     8.4550     8.0430     8.9000    23.7360     2.1620   -14.2220 
  110.3750    63.2000     8.8430     8.2630     9.0550    23.8670     2.1690   -13.8510 
  110.5000    66.1570    10.0650     9.0710     9.6210    24.1230     2.2060   -13.2610 
  110.6250    65.0190    12.1100    10.6100    11.5440    24.5450     2.2860   -12.3250 
  110.7500    62.2410    14.1880    12.4310    17.8170    24.8550     2.3800   -11.0990 
  110.8750    61.6410    15.3010    13.7310    33.2310    25.0190     2.4520    -9.5900 
  111.0000    64.6010    14.6400    13.5960    39.6320    25.1100     2.4740    -7.8890 
  111.1250    69.4550    12.2370    11.7830    21.4360    25.1510     2.4410    -6.1140 
  111.2500    75.9220     9.5260     9.5390    10.0280    25.1800     2.3890    -4.3100 
  111.3750    83.3400     7.8590     7.6020     7.2400    25.2030     2.3460    -2.5650 
  111.5000    88.4230     6.5930     6.2380     6.7000    25.2130     2.3260    -0.9920 
  111.6250    88.0690     5.9830     5.5250     6.2070    25.2130     2.3260     0.2280 
  111.7500    85.8710     5.8580     5.2440     5.5800    25.2110     2.3310     1.0820 
  111.8750    84.2690     6.0160     5.2640     5.2030    25.2020     2.3330     1.5220 
  112.0000    82.2250     6.3170     5.4720     5.4130    25.1800     2.3270     1.6130 
  112.1250    78.3310     6.6820     5.7960     6.2750    25.1850     2.3110     1.5060 
  112.2500    75.6470     7.0520     6.1640     6.7860    25.2020     2.2890     1.1570 
  112.3750    75.7970     7.4160     6.5530     7.0780    25.2100     2.2650     0.5250 
  112.5000    76.6830     7.8040     6.9670     7.3400    25.2030     2.2450    -0.3280 
  112.6250    74.8020     8.2660     7.4250     7.5870    25.1760     2.2330    -1.4330 
  112.7500    71.2040     8.7780     7.9030     8.2050    25.0990     2.2260    -2.7240 
  112.8750    68.7320     9.2510     8.3290     9.3290    24.9300     2.2200    -3.9960 
  113.0000    67.1930     9.5640     8.6020    10.3100    24.7070     2.2110    -5.1270 
  113.1250    65.9760     9.6220     8.6320    10.3850    24.5960     2.2000    -6.1010 
  113.2500    64.8570     9.5420     8.5160     9.7120    24.5960     2.1950    -6.8920 
  113.3750    65.3060     9.4600     8.3650     8.8840    24.5900     2.1990    -7.4490 
  113.5000    67.2160     9.4800     8.2710     8.2850    24.4810     2.2110    -7.7650 
  113.6250    69.3390     9.6630     8.3010     8.2280    24.2010     2.2270    -7.8690 
  113.7500    70.4430     9.9620     8.4440     8.4210    23.8540     2.2430    -7.9020 
  113.8750    72.9240    10.3560     8.6900     8.5390    23.5570     2.2610    -7.9290 
  114.0000    77.3200    10.8400     9.0340     8.6320    23.3700     2.2840    -7.9600 
  114.1250    79.1100    11.3890     9.4550     9.1780    23.3490     2.3090    -8.1800 
  114.2500    76.6190    11.8810     9.8620    11.3040    23.4690     2.3250    -8.5560 
  114.3750    72.9880    12.1560    10.1380    16.6220    23.6890     2.3240    -9.0050 
  114.5000    72.1770    12.0680    10.1630    20.4600    23.9200     2.3040    -9.5360 
  114.6250    74.7510    11.5620     9.8550    14.9720    24.0600     2.2740   -10.1270 
  114.7500    75.6900    10.9240     9.3960    11.4380    24.1720     2.2520   -10.6270 
  114.8750    72.9260    10.4260     8.9780    10.3780    24.2810     2.2530   -11.0590 
  115.0000    69.2250    10.2490     8.7510    10.1840    24.3830     2.2830   -11.5290 
  115.1250    69.8340    10.4500     8.8010    10.2630    24.4270     2.3350   -11.9430 
  115.2500    72.7930    10.8000     9.0090    10.8290    24.4280     2.3790   -12.2840 
  115.3750    73.6020    11.0670     9.2240    11.9560    24.3760     2.3920   -12.6650 
  115.5000    71.7100    11.0700     9.2950    12.4280    24.2470     2.3660   -13.0720 
  115.6250    68.9330    10.7520     9.1330    11.1750    24.1350     2.3100   -13.4050 
  115.7500    66.9420    10.3150     8.8520    10.3070    24.0310     2.2530   -13.6940 
  115.8750    66.8320     9.9210     8.5630     9.8840    23.9770     2.2120   -13.9600 
  116.0000    68.9120     9.6710     8.3490     9.7140    23.9790     2.1930   -14.1270 
  116.1250    71.3450     9.5890     8.2520     9.7240    24.0410     2.1870   -14.1840 
  116.2500    71.5010     9.5770     8.2190     9.7520    24.0110     2.1840   -14.1600 
  116.3750    69.7430     9.5610     8.2010     9.6650    23.9330     2.1790   -13.9600 
  116.5000    69.4770     9.5130     8.1680     9.2260    23.8860     2.1700   -13.6200 
  116.6250    71.0670     9.4490     8.1150     8.6770    23.8680     2.1620   -13.2860 
  116.7500    69.7810     9.4000     8.0560     8.3310    23.8240     2.1550   -13.0430 
  116.8750    66.2900     9.3760     7.9960     8.4170    23.7800     2.1510   -12.8300 
  117.0000    64.9680     9.3630     7.9260     8.9610    23.7520     2.1490   -12.5780 
  117.1250    66.4840     9.3150     7.8170     9.5620    23.7610     2.1500   -12.2760 
  117.2500    67.4220     9.1860     7.6460     9.5750    23.8040     2.1530   -11.9880 
  117.3750    67.6840     8.9440     7.3960     8.9620    23.8790     2.1580   -11.6800 
