~V
VERS. 2.00: Ver 2.00
~W
STRT.M 50.0000:
STOP.M 274.0000:
STEP.M 0.1250:
NULL. -999.2500:
UWI. F10208:
~C
DEPT.M :
SP.MV :
DEN.GM/CC :
GR.API :
RML.OHMM :
RI. :
RXO.OHMM :
CALI.CM :
~A
# ...
  230.0000   -29.5890     2.3610    68.0360     8.0250     7.2960     8.4670    24.0440 
  230.1250   -29.8190     2.4220    66.7010     8.5870     7.8060    10.6140    23.7710 
  230.2500   -30.1750     2.4590    60.3490     9.1900     8.3540    12.5770    23.6740 
  230.3750   -30.5940     2.4560    58.0120     9.6000     8.7280    12.6200    23.7820 
  230.5000   -31.0720     2.4250    61.5010     9.6860     8.8060    11.8320    23.9360 
  230.6250   -31.6130     2.3890    67.1190     9.4450     8.5870    11.2940    24.0160 
  230.7500   -32.2470     2.3670    74.8370     9.1060     8.2790    11.0120    23.9740 
  230.8750   -32.9440     2.3610    84.2440     8.8550     8.0500    10.7830    23.8630 
  231.0000   -33.6410     2.3630    90.6420     8.8490     8.0450    10.6760    23.8330 
  231.1250   -34.2650     2.3630    88.6620     9.2940     8.4490    11.2380    23.9160 
  231.2500   -34.8530     2.3580    84.3070    10.7840     9.3150    13.0360    24.0200 
  231.3750   -35.4490     2.3480    80.1850    13.6740    10.7100    16.6000    23.9180 
  231.5000   -36.0400     2.3360    76.0580    16.3940    12.6200    20.0760    23.9630 
  231.6250   -36.5850     2.3250    71.6940    19.0290    14.9110    21.9470    24.1040 
  231.7500   -37.0560     2.3160    67.8120    21.2310    17.1750    24.6260    24.1360 
  231.8750   -37.4410     2.3090    65.7530    22.7650    19.0790    27.4900    23.9900 
  232.0000   -37.7490     2.3000    64.6540    23.7170    20.4280    28.4870    23.8720 
  232.1250   -38.0250     2.2900    63.2330    24.3450    21.1730    28.6830    23.8660 
  232.2500   -38.2620     2.2780    62.0670    24.9210    21.5870    28.4400    24.0630 
  232.3750   -38.4160     2.2700    62.2210    25.5080    21.8240    27.8760    24.2430 
  232.5000   -38.4750     2.2680    62.1250    26.0910    22.0070    27.8220    24.3210 
  232.6250   -38.4770     2.2690    60.9550    26.6250    22.2570    28.3950    24.2830 
  232.7500   -38.3780     2.2710    61.2370    27.1650    22.6160    28.8710    24.2620 
  232.8750   -38.1550     2.2690    62.9930    27.8210    23.0830    28.3660    24.1870 
  233.0000   -37.8590     2.2620    63.3220    28.6570    23.6610    27.7160    24.2100 
  233.1250   -37.4930     2.2530    63.0470    29.6670    24.4270    29.0300    24.2410 
  233.2500   -37.0960     2.2460    62.8520    30.8050    25.4000    30.1190    24.1000 
  233.3750   -36.7270     2.2430    62.6810    32.1530    26.5600    30.8370    23.8520 
  233.5000   -36.4060     2.2480    62.7310    33.7950    27.8200    32.0940    23.7950 
  233.6250   -36.1610     2.2580    61.4970    35.5900    29.0070    34.7780    23.9230 
  233.7500   -36.0490     2.2660    57.9250    37.1190    29.9800    36.4800    23.8590 
  233.8750   -36.0380     2.2680    56.2890    38.1670    30.7040    35.9140    23.8990 
  234.0000   -36.0520     2.2630    58.5500    38.8180    31.2780    35.0500    23.9100 
  234.1250   -36.0520     2.2540    59.2360    39.3760    31.9470    35.1010    24.1740 
  234.2500   -35.9640     2.2480    55.1530    40.1060    32.8900    35.5720    24.2440 
  234.3750   -35.8020     2.2460    52.6660    40.9600    34.1060    36.3730    24.2180 
  234.5000   -35.6010     2.2450    54.4420    41.6350    35.3290    38.3980    24.1890 
  234.6250   -35.3370     2.2430    54.4320    41.4620    35.9040    41.3160    24.1110 
  234.7500   -34.9690     2.2370    52.5460    40.2750    35.4480    41.7790    24.0570 
  234.8750   -34.5690     2.2290    52.0360    38.3690    33.9800    38.8550    24.1340 
  235.0000   -34.1540     2.2220    53.2520    36.3940    31.9670    34.7110    24.1910 
  235.1250   -33.7410     2.2170    54.1020    35.1860    30.1730    32.6650    24.2010 
  235.2500   -33.3450     2.2140    57.4090    34.9030    29.0980    31.6790    24.1940 
  235.3750   -32.9360     2.2120    61.8830    35.3530    28.8970    31.2770    24.1480 
  235.5000   -32.5000     2.2130    62.1970    36.2380    29.4610    32.0890    24.1250 
  235.6250   -32.0500     2.2190    56.6380    37.3110    30.5270    34.3780    24.1020 
  235.7500   -31.5880     2.2270    52.2750    38.3520    31.6130    36.8130    24.1330 
  235.8750   -31.0980     2.2340    52.1410    39.1800    32.3990    37.0630    24.0200 
  236.0000   -30.6080     2.2360    54.1120    39.5550    32.6810    35.9400    23.9710 
  236.1250   -30.1270     2.2330    55.2000    39.1330    32.3530    35.7810    23.9730 
  236.2500   -29.7020     2.2290    55.2150    37.9810    31.7170    37.2080    23.9910 
  236.3750   -29.3630     2.2280    55.9300    36.3900    31.0570    39.1730    24.0410 
  236.5000   -29.1250     2.2330    58.5510    34.9530    30.6230    38.9000    24.1860 
  236.6250   -29.0030     2.2410    59.1820    34.3860    30.6520    35.5790    24.2620 
  236.7500   -28.9600     2.2480    56.1030    34.6980    31.1250    35.3690    24.2770 
  236.8750   -28.9080     2.2520    52.5510    35.5870    31.9180    38.1600    24.2790 
  237.0000   -28.7520     2.2540    52.1960    36.5500    32.7490    39.0670    24.2790 
  237.1250   -28.5040     2.2560    54.1440    37.0390    33.1850    39.9520    24.2770 
  237.2500   -28.3710     2.2580    56.3550    36.9530    33.0850    39.9410    24.2620 
  237.3750   -28.3800     2.2590    59.6280    36.3980    32.5130    39.6040    24.2250 
  237.5000   -28.3980     2.2580    62.6300    35.5700    31.6080    37.6300    24.2160 
  237.6250   -28.3620     2.2550    62.1960    34.5000    30.4010    34.2220    24.2320 
  237.7500   -28.3040     2.2510    61.0850    33.0690    28.9450    34.6590    24.0620 
  237.8750   -28.3050     2.2480    60.8440    31.0820    27.2600    36.9350    23.8770 
  238.0000   -28.4840     2.2480    60.6340    28.6220    25.4800    34.3060    23.8200 
  238.1250   -28.8390     2.2520    61.0430    26.3500    23.9550    28.6900    23.8530 
  238.2500   -29.1220     2.2620    64.8500    24.9190    22.9530    25.9290    23.9640 
  238.3750   -29.2620     2.2780    69.4590    24.4900    22.5600    26.6950    24.0450 
  238.5000   -29.3510     2.2980    70.2290    24.8090    22.6700    28.7020    23.8910 
  238.6250   -29.3830     2.3160    68.1520    25.3410    23.0170    27.5610    23.8230 
  238.7500   -29.3630     2.3280    67.5960    25.5140    23.1850    30.8990    23.7400 
  238.8750   -29.3610     2.3310    70.0390    25.1120    22.9570    33.8370    23.7060 
  239.0000   -29.3510     2.3270    73.6130    24.2680    22.3970    31.1630    23.5830 
  239.1250   -29.3200     2.3210    76.5680    23.3670    21.7710    26.3880    23.5890 
  239.2500   -29.2470     2.3170    76.8570    22.6690    21.2650    23.7580    23.8170 
  239.3750   -29.1320     2.3170    73.4740    22.1440    20.8690    23.7970    23.9330 
  239.5000   -28.9970     2.3210    68.8460    21.6430    20.4670    26.6740    23.9720 
  239.6250   -28.8960     2.3250    66.6110    20.9720    19.8290    26.9660    23.9690 
  239.7500   -28.8260     2.3270    67.4610    20.1200    18.8680    25.8490    24.1090 
  239.8750   -28.7830     2.3260    66.7240    19.1320    17.6400    22.8320    24.1690 
  240.0000   -28.8010     2.3230    61.5350    18.0270    16.2960    20.7360    24.0910 
  240.1250   -28.9000     2.3150    57.0760    16.7280    14.9820    18.9590    24.0420 
  240.2500   -29.0300     2.3040    57.2970    15.2500    13.7630    17.5160    24.1020 
  240.3750   -29.1740     2.2910    60.0360    13.7230    12.6840    15.6810    24.0990 
  240.5000   -29.3200     2.2790    60.3360    12.4070    11.8050    13.9820    23.9830 
  240.6250   -29.4800     2.2730    57.8520    11.6660    11.2420    12.5830    23.7420 
  240.7500   -29.6590     2.2780    55.7130    11.5700    10.9930    12.1110    23.8310 
  240.8750   -29.8010     2.2930    55.3910    12.0440    11.0810    12.5280    24.0210 
  241.0000   -29.8940     2.3130    56.8430    12.8540    11.5150    13.8300    24.0250 
  241.1250   -29.9410     2.3280    58.9720    13.7130    12.2770    15.1420    24.0980 
