~V
VERS. 2.00: Ver 2.00
~W
STRT.M 53.0000:
STOP.M 269.0000:
STEP.M 0.1250:
NULL. -999.2500:
UWI. F10224:
~C
DEPT.M :
DEN.GM/CC :
GR.API :
RML.OHMM :
RI. :
RXO.OHMM :
CALI.CM :
SP.MV :
~A
# ...
  120.3750     2.2940    79.9710     6.2700     5.7040     6.7100    22.3490   -17.8050 
  120.5000     2.2820    83.9540     5.9550     5.4160     6.1620    22.6490   -17.7380 
  120.6250     2.2680    88.6230     5.8640     5.2850     5.7470    22.7910   -17.6920 
  120.7500     2.2580    87.7660     5.9960     5.3250     5.8750    22.5920   -17.6550 
  120.8750     2.2560    81.3710     6.3620     5.5470     6.5740    22.1870   -17.6390 
  121.0000     2.2600    74.0320     6.9850     5.9590     7.5880    21.8270   -17.6090 
  121.1250     2.2650    69.7590     7.9800     6.6350     8.4410    21.6580   -17.5490 
  121.2500     2.2750    67.6790     9.3610     7.6010     9.1310    21.6160   -17.4710 
  121.3750     2.3010    64.8780    11.1360     8.9050    10.4920    21.8790   -17.3650 
  121.5000     2.3470    61.2220    13.2210    10.5470    13.7780    22.5610   -17.2230 
  121.6250     2.4120    57.9050    15.4070    12.4390    20.0600    23.3330   -17.0790 
  121.7500     2.4750    55.0770    17.4430    14.3330    26.2710    23.6780   -16.9520 
  121.8750     2.5190    52.8860    19.2910    16.0870    26.7540    23.7530   -16.8130 
  122.0000     2.5400    51.1180    21.1310    17.7350    23.6520    23.7530   -16.6630 
  122.1250     2.5450    51.2320    23.2420    19.4720    24.3000    23.7630   -16.5240 
  122.2500     2.5530    49.8480    25.5380    21.3570    29.0870    23.7740   -16.3740 
  122.3750     2.5680    45.8600    27.6260    23.1970    34.4320    23.7800   -16.2320 
  122.5000     2.5830    43.3490    28.9310    24.5840    35.7840    23.7930   -16.1220 
  122.6250     2.5870    45.8130    28.8180    24.9110    33.8860    23.8070   -16.0710 
  122.7500     2.5810    47.9670    27.7030    24.3100    30.3870    23.8420   -16.0480 
  122.8750     2.5690    45.4250    26.2380    23.2090    26.9340    23.8550   -16.0460 
  123.0000     2.5560    40.9330    25.0700    22.1490    25.5690    23.8880   -16.0660 
  123.1250     2.5450    39.3810    24.7400    21.6440    25.1640    23.9560   -16.0660 
  123.2500     2.5400    41.0760    25.2650    21.8250    23.6340    23.9770   -16.0700 
  123.3750     2.5430    43.5060    26.5440    22.6940    22.0040    23.9400   -16.0810 
  123.5000     2.5580    44.4290    28.2420    24.0620    22.6350    23.8970   -16.0650 
  123.6250     2.5840    42.7920    29.6570    25.4510    27.6180    23.8660   -16.0210 
  123.7500     2.6060    40.2770    30.0790    26.2130    34.5490    23.8600   -16.0050 
  123.8750     2.6140    39.1290    29.1980    25.9510    36.5770    23.8930   -16.0230 
  124.0000     2.6020    38.9660    27.3610    24.7630    31.0550    23.9340   -16.0540 
  124.1250     2.5740    39.1460    25.5130    23.2800    25.3870    23.9380   -16.1070 
  124.2500     2.5510    40.8860    24.4640    22.2420    22.9150    23.9220   -16.1270 
  124.3750     2.5420    42.7850    24.4690    21.9640    21.9330    23.9350   -16.1270 
  124.5000     2.5440    42.9080    25.3840    22.4600    21.8820    23.9320   -16.1360 
  124.6250     2.5530    41.5220    26.7060    23.4870    24.8190    23.8560   -16.1330 
  124.7500     2.5700    40.2360    27.6200    24.4030    29.8520    23.8180   -16.1120 
  124.8750     2.5910    39.0330    27.6180    24.7200    32.8740    23.8120   -16.0780 
  125.0000     2.6040    38.6580    26.6040    24.2170    30.5970    23.8070   -16.0520 
  125.1250     2.5960    41.1690    24.9130    23.0030    25.9220    23.7860   -16.0270 
  125.2500     2.5790    44.6980    23.2810    21.6540    22.8610    23.7580   -16.0510 
  125.3750     2.5620    47.4890    22.0970    20.5350    21.5620    23.7470   -16.0900 
  125.5000     2.5500    48.2780    21.4870    19.8320    21.1000    23.7280   -16.1060 
  125.6250     2.5400    46.9130    21.4280    19.6140    20.7030    23.6720   -16.0730 
  125.7500     2.5240    45.5380    21.6430    19.6880    20.4310    23.6140   -15.9910 
  125.8750     2.5040    45.8630    21.9720    19.9250    20.9900    23.5920   -15.8870 
  126.0000     2.4930    46.0490    22.2990    20.2140    22.1190    23.5920   -15.7750 
  126.1250     2.4990    44.8310    22.5450    20.4630    22.5030    23.5830   -15.6760 
  126.2500     2.5120    45.4230    22.7280    20.6430    21.9830    23.6050   -15.6100 
  126.3750     2.5190    48.0580    22.9180    20.7860    21.5950    23.6560   -15.5840 
  126.5000     2.5160    49.1330    23.1900    20.9620    22.0640    23.7240   -15.5820 
  126.6250     2.5030    44.2730    23.5700    21.2360    22.6380    23.7940   -15.6040 
  126.7500     2.4970    37.4630    23.9480    21.5680    23.0370    23.8210   -15.6270 
  126.8750     2.5110    35.4100    24.1750    21.8600    24.4120    23.8070   -15.6290 
  127.0000     2.5410    38.7330    24.0990    21.9680    26.6730    23.7450   -15.5990 
  127.1250     2.5620    42.6410    23.6170    21.7370    26.9390    23.6820   -15.5870 
  127.2500     2.5640    43.6460    22.9410    21.2780    24.7000    23.6900   -15.5660 
  127.3750     2.5550    42.4660    22.2980    20.7520    22.4580    23.6820   -15.5310 
  127.5000     2.5430    41.2350    21.8770    20.3250    21.5170    23.6470   -15.5330 
  127.6250     2.5280    42.0750    21.8260    20.1530    21.2900    23.5680   -15.5540 
  127.7500     2.5120    45.2030    22.0270    20.2070    21.7690    23.5360   -15.5650 
  127.8750     2.5010    47.6280    22.2880    20.3680    23.0590    23.5630   -15.5900 
  128.0000     2.5040    47.1020    22.3920    20.4600    23.8500    23.6200   -15.6330 
  128.1250     2.5220    45.8590    22.1890    20.3380    23.1380    23.6140   -15.6390 
  128.2500     2.5400    46.5930    21.8010    20.0660    22.3270    23.6370   -15.6230 
  128.3750     2.5540    49.1180    21.3880    19.7550    21.9890    23.6770   -15.5930 
  128.5000     2.5620    51.5880    21.0940    19.5160    21.2530    23.6620   -15.5680 
  128.6250     2.5680    53.9100    21.0180    19.4270    19.8410    23.5630   -15.5720 
  128.7500     2.5750    55.1990    21.0820    19.4440    19.2390    23.4350   -15.5940 
  128.8750     2.5820    53.1980    21.2030    19.5150    19.9250    23.3420   -15.6030 
  129.0000     2.5850    49.0000    21.3140    19.5960    20.8570    23.2400   -15.6030 
  129.1250     2.5780    46.9090    21.3590    19.6560    20.4030    23.1200   -15.6120 
  129.2500     2.5670    49.3550    21.3480    19.6960    19.8420    23.1030   -15.6070 
  129.3750     2.5590    50.8830    21.3140    19.7380    20.7270    23.3780   -15.5880 
  129.5000     2.5550    48.5840    21.2880    19.8000    22.5410    23.7690   -15.5560 
  129.6250     2.5510    48.4390    21.2320    19.8460    23.2280    23.9680   -15.5370 
  129.7500     2.5470    52.9030    21.0350    19.7680    22.7270    24.0190   -15.5460 
  129.8750     2.5470    57.0050    20.6000    19.4610    22.2160    23.9990   -15.5900 
  130.0000     2.5530    56.1130    19.9120    18.8940    22.2220    23.9560   -15.6560 
  130.1250     2.5600    51.9790    19.0630    18.1360    21.4580    23.9110   -15.7170 
  130.2500     2.5610    49.9270    18.2760    17.3880    19.4610    23.9070   -15.7370 
  130.3750     2.5550    50.0360    17.7100    16.7960    17.4900    23.9280   -15.7370 
  130.5000     2.5480    49.8710    17.4510    16.4580    16.9100    23.9290   -15.7280 
  130.6250     2.5430    47.7380    17.5290    16.4310    17.8840    23.9330   -15.7070 
  130.7500     2.5400    44.8540    17.7830    16.5990    18.6320    23.9350   -15.7040 
  130.8750     2.5390    43.0120    18.1080    16.8700    18.5290    23.9330   -15.7080 
  131.0000     2.5380    43.4220    18.4550    17.1810    18.3980    23.9360   -15.7080 
  131.1250     2.5380    47.6090    18.8570    17.5410    19.0010    23.9230   -15.7150 
  131.2500     2.5360    51.6580    19.3300    17.9660    19.4510    23.8530   -15.7620 
  131.3750     2.5310    51.7220    19.8150    18.4250    19.1530    23.7840   -15.8240 
  131.5000     2.5340    51.1630    20.1780    18.8090    19.4400    23.7510   -15.8350 
