~V
VERS. 2.00: Ver 2.00
~W
STRT.M 53.0000:
STOP.M 286.0000:
STEP.M 0.1250:
NULL. -999.2500:
UWI. F10262:
~C
DEPT.M :
DEN.GM/CC :
GR.API :
RML.OHMM :
RI. :
RXO.OHMM :
CALI.CM :
SP.MV :
~A
# ...
  143.0000     2.4420    72.7770    22.2680    21.3090    21.5890    24.8330    -9.3500 
  143.1250     2.4100    73.8240    22.1200    21.0980    21.6160    24.5820    -8.9090 
  143.2500     2.3750    73.4720    21.8720    20.8100    21.1250    24.9570    -8.4410 
  143.3750     2.3620    73.4410    21.5160    20.4420    20.3350    25.3880    -8.0330 
  143.5000     2.3730    73.5530    21.1390    20.0560    19.9010    25.3080    -7.6590 
  143.6250     2.3920    72.0360    20.7970    19.6940    19.3000    24.9600    -7.3540 
  143.7500     2.3850    68.6240    20.4980    19.3750    18.4470    24.7920    -7.1160 
  143.8750     2.3260    67.3780    20.2760    19.1400    18.3880    24.9580    -6.9150 
  144.0000     2.2500    67.8930    20.2160    19.0610    18.3830    25.2890    -6.7320 
  144.1250     2.2070    67.2960    20.4270    19.2320    19.4180    25.5580    -6.5390 
  144.2500     2.2340    66.6440    20.9700    19.7060    19.3720    25.3040    -6.3660 
  144.3750     2.3210    68.9590    21.8200    20.4850    18.8330    24.5500    -6.2040 
  144.5000     2.4020    70.7040    22.7040    21.3420    18.6970    23.9970    -5.9960 
  144.6250     2.4370    67.9000    23.3360    22.0210    21.5000    23.7450    -5.7930 
  144.7500     2.4210    64.6190    23.4800    22.2780    25.4950    23.6620    -5.6150 
  144.8750     2.3920    66.8070    22.9550    21.9010    23.3450    23.6150    -5.4710 
  145.0000     2.3880    71.0750    21.9830    21.0650    20.8430    23.6000    -5.3860 
  145.1250     2.4170    73.3410    20.8060    19.9840    19.5530    23.6690    -5.3690 
  145.2500     2.4580    73.4280    19.6850    18.9090    19.9420    23.7940    -5.4380 
  145.3750     2.4860    72.6510    18.8670    18.0770    19.6140    23.8500    -5.6250 
  145.5000     2.4900    70.2960    18.3830    17.5360    18.6440    23.8480    -5.8770 
  145.6250     2.4800    68.5140    18.2220    17.2880    17.9940    23.9080    -6.1520 
  145.7500     2.4670    67.1390    18.3340    17.3050    17.9250    24.0050    -6.3840 
  145.8750     2.4640    64.1410    18.6490    17.5590    17.3200    24.0370    -6.5820 
  146.0000     2.4710    62.9040    19.0470    17.9400    17.2000    24.0260    -6.7990 
  146.1250     2.4810    66.9240    19.4690    18.3820    17.0140    24.0410    -6.9830 
  146.2500     2.4860    72.7130    19.8510    18.8120    17.1000    24.0310    -7.1890 
  146.3750     2.4800    73.8970    20.0590    19.0910    18.0760    23.8900    -7.3160 
  146.5000     2.4670    72.7220    20.0310    19.1460    18.6670    23.7300    -7.3790 
  146.6250     2.4510    71.8610    19.7570    18.9590    18.8130    23.6800    -7.4600 
  146.7500     2.4400    71.8870    19.3150    18.5890    18.9440    23.8280    -7.5070 
  146.8750     2.4390    72.1340    18.8920    18.1790    19.2360    24.1040    -7.5620 
  147.0000     2.4460    73.3990    18.6780    17.9040    18.4000    24.1880    -7.6140 
  147.1250     2.4580    74.1940    18.7350    17.8350    17.3690    24.0300    -7.6520 
  147.2500     2.4730    73.3390    19.0020    17.9500    16.9730    23.7060    -7.7080 
  147.3750     2.4860    73.5480    19.3130    18.1330    17.4550    23.4000    -7.7950 
  147.5000     2.4930    74.8890    19.4780    18.2270    17.6710    23.3370    -7.8940 
  147.6250     2.4860    76.1950    19.4220    18.1550    17.9340    23.4440    -8.0030 
  147.7500     2.4640    76.1900    19.1970    17.9490    18.7830    23.5340    -8.1360 
  147.8750     2.4320    75.0370    18.9550    17.7270    19.0650    23.5610    -8.2790 
  148.0000     2.4060    75.3840    18.8450    17.6130    18.4770    23.6070    -8.4710 
  148.1250     2.3890    77.1180    18.9740    17.7000    17.2140    23.7240    -8.7140 
  148.2500     2.3770    76.8600    19.4320    18.0770    16.5240    23.9640    -8.9590 
  148.3750     2.3650    73.9030    20.3750    18.8940    17.2980    24.3520    -9.1840 
  148.5000     2.3580    74.2300    21.7710    20.1340    18.1240    24.6080    -9.3130 
  148.6250     2.3670    78.8900    23.5180    21.7410    18.0820    24.4390    -9.3060 
  148.7500     2.3960    81.7380    25.2930    23.4850    19.4380    24.0250    -9.1850 
  148.8750     2.4360    80.0930    26.3660    24.7610    24.8070    23.8710    -8.9900 
  149.0000     2.4680    77.4140    26.2480    25.0380    31.1580    23.8440    -8.6540 
  149.1250     2.4800    75.6030    24.8340    24.0980    31.8350    23.8760    -8.2000 
  149.2500     2.4750    76.3170    22.5220    22.2090    27.5590    23.9300    -7.7200 
  149.3750     2.4590    78.1080    20.0660    20.0100    23.4720    24.2280    -7.2230 
  149.5000     2.4470    77.6160    18.0830    18.1220    19.7780    24.9920    -6.8260 
  149.6250     2.4430    75.1960    16.7740    16.7770    17.0620    25.9480    -6.5170 
  149.7500     2.4520    74.0300    16.1270    16.0120    15.7770    26.5580    -6.2560 
  149.8750     2.4700    74.3880    16.0790    15.8190    15.9320    26.7330    -6.1210 
  150.0000     2.4810    71.0070    16.3290    15.9520    16.5300    26.8240    -6.1030 
  150.1250     2.4660    65.6830    16.7000    16.2470    16.4640    26.9920    -6.2220 
  150.2500     2.4090    63.5680    17.1000    16.5970    16.3720    27.2980    -6.4330 
  150.3750     2.3140    67.0340    17.5760    17.0100    16.6920    27.6710    -6.6580 
  150.5000     2.2300    70.9540    18.2100    17.5510    17.6690    27.6020    -6.9060 
  150.6250     2.2010    73.0940    19.0370    18.2650    18.3570    26.7980    -7.1570 
  150.7500     2.2480    76.3620    19.9920    19.1150    16.8900    25.5990    -7.4150 
  150.8750     2.3540    80.7020    20.8680    19.9410    16.4480    24.6820    -7.6270 
  151.0000     2.4520    81.8250    21.5250    20.5950    18.7680    24.4520    -7.7390 
  151.1250     2.5030    79.8270    22.0760    21.1260    22.8340    24.6350    -7.7450 
  151.2500     2.5030    78.7450    22.8740    21.7870    23.5310    24.8140    -7.6660 
  151.3750     2.4770    79.2210    24.5840    23.1140    21.3290    24.8420    -7.5500 
  151.5000     2.4570    76.9980    27.4500    25.4220    19.7340    24.7970    -7.3850 
  151.6250     2.4480    74.3350    31.2590    28.7260    20.8700    24.6660    -7.2060 
  151.7500     2.4470    75.8680    34.9520    32.2770    24.8420    24.3650    -7.0310 
  151.8750     2.4490    80.9040    36.0770    33.8440    31.2160    24.2010    -6.8710 
  152.0000     2.4580    80.9670    33.5830    32.0580    38.0670    24.0130    -6.7560 
  152.1250     2.4760    75.6050    28.2470    27.4130    39.6420    23.7590    -6.6920 
  152.2500     2.4980    70.2320    22.1450    21.8430    30.7400    23.6120    -6.6520 
  152.3750     2.5110    66.6480    17.3910    17.3600    16.4700    23.6660    -6.6100 
  152.5000     2.5090    62.9450    14.4120    14.4010    11.8450    23.8190    -6.6160 
  152.6250     2.4970    59.8930    12.9960    12.7970    10.8060    23.9330    -6.6080 
  152.7500     2.4840    59.9670    12.7550    12.2580    10.8010    24.0230    -6.6040 
  152.8750     2.4810    61.3740    13.3270    12.5830    11.0320    24.0750    -6.5780 
  153.0000     2.4870    61.1770    14.0930    13.2680    11.4260    24.0950    -6.5300 
  153.1250     2.5000    61.3930    14.6630    13.9330    11.9780    24.0480    -6.5420 
  153.2500     2.5140    63.7480    14.8240    14.2940    12.3900    23.9010    -6.5550 
  153.3750     2.5250    66.6800    14.5210    14.1950    12.1610    23.7200    -6.6050 
  153.5000     2.5300    67.3750    13.9750    13.7930    11.5130    23.5450    -6.7260 
  153.6250     2.5300    65.4850    13.3630    13.2450    10.9920    23.3940    -6.9100 
  153.7500     2.5220    64.4080    12.8460    12.7100    10.7580    23.3200    -7.1470 
  153.8750     2.5050    66.3430    12.5690    12.3370    10.8550    23.3130    -7.4340 
  154.0000     2.4850    69.4010    12.5310    12.1530    10.5360    23.2720    -7.7330 
  154.1250     2.4660    71.9240    12.7020    12.1480    10.4310    23.2550    -7.9950 
