~V
VERS. 2.00: Ver 2.00
~W
STRT.M 53.0000:
STOP.M 276.0000:
STEP.M 0.1250:
NULL. -999.2500:
UWI. F10245:
~C
DEPT.M :
GR.API :
RML.OHMM :
RI. :
RXO.OHMM :
CALI.CM :
DEN.GM/CC :
SP.MV :
~A
# ...
  176.7500    50.5310   197.0820   186.2150   112.4830    23.1430     2.2190   -16.9440 
  176.8750    52.3110   187.4100   174.7420   104.9280    23.0880     2.2020   -16.9180 
  177.0000    51.2740   185.0550   170.2600    89.8580    22.9960     2.1820   -16.8930 
  177.1250    48.3830   191.6490   174.7690    73.7620    22.7820     2.1680   -16.8430 
  177.2500    45.7040   205.1510   186.4090    70.3400    22.5480     2.1620   -16.7810 
  177.3750    45.0080   223.5930   203.5040    76.3030    22.4350     2.1600   -16.7050 
  177.5000    47.0120   243.0690   222.8060    80.8160    22.4530     2.1570   -16.6450 
  177.6250    49.9550   255.3950   237.4620    89.3220    22.5090     2.1480   -16.5680 
  177.7500    51.2710   253.5910   240.5950    95.1730    22.5290     2.1370   -16.4970 
  177.8750    50.3600   233.5190   227.4060    98.5020    22.5320     2.1340   -16.4440 
  178.0000    48.7270   197.3400   198.0490   101.7360    22.5400     2.1450   -16.4090 
  178.1250    49.2900   154.5550   158.7230   104.7420    22.5680     2.1740   -16.3560 
  178.2500    53.7090   117.2720   121.4830    98.6380    22.5960     2.2110   -16.3070 
  178.3750    60.2140    89.9730    92.5540    76.9890    22.6370     2.2450   -16.2660 
  178.5000    65.7230    72.5490    73.4240    54.8590    22.6880     2.2650   -16.2220 
  178.6250    67.1940    63.8790    63.5560    47.4430    22.7750     2.2680   -16.2060 
  178.7500    66.3520    60.3340    59.1020    43.6690    22.8680     2.2650   -16.2050 
  178.8750    65.0040    60.3130    58.3350    42.9430    22.9260     2.2640   -16.1680 
  179.0000    64.2590    62.5800    59.9960    47.3010    22.9440     2.2670   -16.0840 
  179.1250    66.1200    66.3610    63.3140    51.4940    22.9460     2.2730   -15.9690 
  179.2500    67.9880    70.8830    67.4250    53.9030    22.9590     2.2770   -15.8470 
  179.3750    67.4510    75.9700    72.0490    57.4300    23.0130     2.2750   -15.7120 
  179.5000    64.2770    81.5710    77.0370    65.5030    23.1380     2.2680   -15.5740 
  179.6250    61.7270    87.6890    82.2850    77.5000    23.4130     2.2590   -15.3780 
  179.7500    61.0250    94.0510    87.5300    88.3550    23.7550     2.2520   -15.1880 
  179.8750    61.6800   100.3670    92.4760    91.3680    24.1190     2.2490   -15.0480 
  180.0000    63.3050   106.2730    96.7750    94.0910    24.4060     2.2490   -14.9480 
  180.1250    63.9100   111.0680    99.8080    98.3270    24.5290     2.2500   -14.9160 
  180.2500    62.4540   114.0940   101.1910   101.8120    24.5600     2.2490   -14.9000 
  180.3750    58.8720   114.4150   100.3010   102.6700    24.5690     2.2460   -14.9160 
  180.5000    55.2070   111.3030    96.6590   102.3120    24.5950     2.2440   -14.9500 
  180.6250    54.8140   103.6990    90.1410    96.5250    24.6470     2.2460   -15.0090 
  180.7500    57.0970    94.4410    82.5540    90.5040    24.6910     2.2540   -15.0520 
  180.8750    60.1590    85.5120    75.6060    91.9370    24.7080     2.2650   -15.0630 
  181.0000    61.6970    77.7180    70.6710    91.8920    24.7150     2.2730   -15.0380 
  181.1250    61.9630    76.6700    68.7970    85.1720    24.7300     2.2720   -14.9390 
  181.2500    61.5840    78.0340    69.2190    81.5760    24.7610     2.2650   -14.7920 
  181.3750    60.5020    80.7820    71.1090    85.2510    24.7990     2.2550   -14.5990 
  181.5000    60.6860    83.7750    73.4960    87.9960    24.8220     2.2470   -14.3810 
  181.6250    62.1990    85.9130    75.4090    86.0890    24.8000     2.2460   -14.1660 
  181.7500    62.1710    86.9450    76.4800    83.1850    24.7390     2.2490   -13.9330 
  181.8750    60.1030    87.1030    76.8210    83.3220    24.6720     2.2540   -13.6870 
  182.0000    57.6600    86.8740    76.8370    84.7790    24.6320     2.2590   -13.4680 
  182.1250    57.5230    86.6970    76.9900    85.1680    24.6120     2.2620   -13.3190 
  182.2500    60.4410    86.7100    77.4630    84.5650    24.5990     2.2630   -13.2370 
  182.3750    65.4490    86.9320    78.2760    83.9130    24.5900     2.2630   -13.1960 
  182.5000    69.2930    87.3840    79.4090    83.8460    24.5840     2.2600   -13.1950 
  182.6250    68.1140    88.0510    80.7810    84.4120    24.5550     2.2530   -13.2430 
  182.7500    64.3510    88.6340    82.0640    86.2100    24.4910     2.2410   -13.3220 
  182.8750    62.6640    88.6140    82.7530    89.2360    24.4090     2.2250   -13.4500 
  183.0000    63.8300    87.2170    82.1020    91.7650    24.3520     2.2110   -13.6190 
  183.1250    63.2150    83.0760    78.7490    90.6780    24.2960     2.2050   -13.8150 
  183.2500    60.4660    76.2330    72.4160    86.0100    24.1900     2.2100   -14.0050 
  183.3750    60.4190    67.0630    63.3180    77.8850    24.0420     2.2280   -14.1900 
  183.5000    65.0650    56.9280    52.6660    68.3860    23.9150     2.2540   -14.3540 
  183.6250    68.1150    47.8910    42.7210    55.8830    23.7390     2.2830   -14.4960 
  183.7500    67.3920    41.3100    35.2000    38.0630    23.4950     2.3080   -14.6260 
  183.8750    66.5460    36.6820    30.7770    23.6440    23.3040     2.3250   -14.7430 
  184.0000    68.6330    36.0500    29.5040    19.1000    23.2250     2.3320   -14.8200 
  184.1250    72.4360    39.7760    31.7520    22.7300    23.2170     2.3250   -14.8620 
  184.2500    72.8670    46.6930    36.9380    31.4130    23.2210     2.3100   -14.8880 
  184.3750    69.0490    56.0390    44.8970    44.8950    23.2450     2.2940   -14.9050 
  184.5000    64.7830    66.7560    55.1330    64.1300    23.3040     2.2790   -14.9140 
  184.6250    63.8450    77.4130    66.7080    71.1820    23.4160     2.2700   -14.9020 
  184.7500    63.5430    86.6780    77.9180    66.1890    23.5730     2.2670   -14.8840 
  184.8750    61.8340    93.5510    87.3470    63.3250    23.7430     2.2710   -14.8480 
  185.0000    59.0930    97.0360    93.5350    66.3870    23.9180     2.2800   -14.8120 
  185.1250    56.7440    95.1270    93.9680    74.1530    23.9770     2.2910   -14.7430 
  185.2500    56.5030    87.7230    88.2400    78.2230    23.9150     2.2990   -14.6490 
  185.3750    57.8280    75.2430    76.5140    72.1610    23.7770     2.3050   -14.5500 
  185.5000    60.0260    59.7230    60.7880    62.5820    23.6360     2.3160   -14.4480 
  185.6250    62.9710    44.6860    45.0300    57.0740    23.5540     2.3380   -14.3600 
  185.7500    68.1930    32.6750    32.4870    44.3890    23.5120     2.3640   -14.2510 
  185.8750    73.9130    24.5270    24.0420    27.9300    23.5220     2.3820   -14.1370 
  186.0000    76.6260    20.3000    19.3780    18.9830    23.6090     2.3780   -14.0360 
  186.1250    75.5980    20.7010    18.5850    13.4690    23.8300     2.3490   -14.0300 
  186.2500    72.6400    25.8110    21.5350    13.2830    24.0770     2.3070   -14.1250 
  186.3750    69.5180    37.1530    29.8160    19.6160    24.3310     2.2650   -14.3170 
  186.5000    65.5690    56.8220    46.0050    39.2510    24.5850     2.2330   -14.5930 
  186.6250    59.6350    88.2750    74.4330    73.4490    24.7510     2.2180   -14.9430 
  186.7500    53.4640   128.7890   112.8930   134.8790    24.8610     2.2180   -15.3790 
  186.8750    50.4670   173.8410   156.8270   223.1220    24.8990     2.2250   -15.8830 
  187.0000    51.7250   216.0640   198.1380   213.1310    24.9040     2.2310   -16.4700 
  187.1250    53.3830   244.6270   225.3720   178.6920    24.9040     2.2280   -17.0650 
  187.2500    51.9560   258.4130   238.0950   181.1350    24.9040     2.2170   -17.6240 
  187.3750    49.5680   260.9810   239.9850   220.8890    24.9040     2.2020   -18.1470 
  187.5000    49.2090   255.3930   233.8430   294.1360    24.9040     2.1880   -18.6570 
  187.6250    49.5500   240.4360   218.8840   309.7660    24.9040     2.1790   -19.1580 
  187.7500    49.4840   218.9060   197.9110   237.3880    24.8860     2.1740   -19.6560 
  187.8750    50.8100   195.9120   175.3320   155.1130    24.8020     2.1740   -20.1450 
