~V
VERS. 2.00: Ver 2.00
~W
STRT.M 50.0000:
STOP.M 274.0000:
STEP.M 0.1250:
NULL. -999.2500:
UWI. F10208:
~C
DEPT.M :
SP.MV :
DEN.GM/CC :
GR.API :
RML.OHMM :
RI. :
RXO.OHMM :
CALI.CM :
~A
# ...
  218.7500   -18.1510     2.1420    45.7730    98.4530    80.4860    87.0400    24.6720 
  218.8750   -18.5320     2.1740    45.8810   101.1220    83.5530    93.4140    24.6140 
  219.0000   -18.8890     2.2140    46.6010   102.1430    85.6510    99.6110    24.4270 
  219.1250   -19.1650     2.2470    48.0660   100.7390    85.9340    95.5120    24.2560 
  219.2500   -19.3870     2.2610    48.6320    97.2060    84.3670    87.6050    24.5200 
  219.3750   -19.6310     2.2510    48.5290    92.0870    81.2110    85.6190    24.6770 
  219.5000   -19.9390     2.2240    48.3370    86.2230    77.0520    86.8950    24.7950 
  219.6250   -20.3080     2.1930    47.3220    80.4960    72.5370    87.0070    24.8340 
  219.7500   -20.6350     2.1680    46.3430    75.4480    68.2560    80.3560    24.7160 
  219.8750   -20.9020     2.1490    47.5440    71.4070    64.5770    74.0490    24.6200 
  220.0000   -21.1470     2.1370    50.8310    68.6780    61.9060    67.9310    24.6740 
  220.1250   -21.4020     2.1340    54.3610    67.8780    60.9650    57.4320    24.7830 
  220.2500   -21.6570     2.1380    56.5560    68.9230    61.8120    50.4820    24.7740 
  220.3750   -21.8710     2.1460    57.9690    71.6810    64.3980    50.1570    24.7090 
  220.5000   -22.0450     2.1510    57.3090    75.7190    68.3720    57.8850    24.4890 
  220.6250   -22.1710     2.1500    55.0430    80.1710    73.1170    67.8270    24.4110 
  220.7500   -22.2950     2.1440    53.1680    83.7050    77.4550    73.2600    24.1970 
  220.8750   -22.4460     2.1380    51.2040    85.2110    80.2740    75.2530    23.8320 
  221.0000   -22.6180     2.1350    47.9990    84.1170    80.7480    76.4890    24.2220 
  221.1250   -22.8180     2.1360    43.6890    80.5600    78.4970    76.7880    24.5330 
  221.2500   -23.0240     2.1360    41.8710    76.2090    74.8920    74.6170    24.5900 
  221.3750   -23.2120     2.1340    43.4030    72.4190    71.2190    66.9910    24.5470 
  221.5000   -23.3810     2.1310    46.2160    70.3110    68.6610    60.7590    24.5160 
  221.6250   -23.5860     2.1320    46.0320    70.9810    68.4780    61.3680    24.4570 
  221.7500   -23.8150     2.1430    42.9470    74.3500    70.8830    64.6110    24.3190 
  221.8750   -24.0660     2.1690    40.6800    80.5690    76.0950    68.7390    24.0380 
  222.0000   -24.3950     2.2040    41.1360    89.5880    84.0220    75.8220    23.7610 
  222.1250   -24.7880     2.2350    41.5030   101.1550    94.2640    94.3250    24.2260 
  222.2500   -25.1970     2.2510    39.8460   113.3210   104.9590   117.0320    24.7210 
  222.3750   -25.5790     2.2520    37.8230   123.9990   114.2660   131.0780    24.8630 
  222.5000   -25.9020     2.2430    37.2380   131.3790   120.5980   128.4820    24.9650 
  222.6250   -26.2230     2.2280    38.2400   134.2900   122.9810   123.3310    24.9130 
  222.7500   -26.5730     2.2100    39.5840   134.3140   122.9950   120.1150    24.8060 
  222.8750   -26.9020     2.1890    40.9620   132.5590   121.8700   117.3730    24.9020 
  223.0000   -27.1780     2.1690    42.6800   129.8980   120.4090   113.8370    24.9740 
  223.1250   -27.4190     2.1560    43.6920   126.7740   118.6670   122.7530    24.9670 
  223.2500   -27.6480     2.1500    43.6550   123.0620   116.1340   125.6460    24.8830 
  223.3750   -27.8860     2.1480    42.1400   118.5270   112.4400   115.1200    24.7790 
  223.5000   -28.1360     2.1480    42.2640   113.3240   107.7450   102.4730    24.7330 
  223.6250   -28.3360     2.1480    45.1540   108.2080   102.7750    95.6290    24.6810 
  223.7500   -28.4690     2.1460    47.6980   104.1470    98.5290    90.4490    24.6630 
  223.8750   -28.5690     2.1440    48.0500   101.6930    95.6510    86.2390    24.6220 
  224.0000   -28.6360     2.1420    45.0870   100.8690    94.3620    84.0490    24.5920 
  224.1250   -28.6550     2.1400    41.8950   101.3310    94.5510    83.3840    24.5470 
  224.2500   -28.6490     2.1380    42.3230   102.1850    95.4020    84.3630    24.5600 
  224.3750   -28.6150     2.1370    45.7230   102.9580    96.3890    85.9540    24.4870 
  224.5000   -28.5510     2.1350    48.2970   103.4750    97.1140    86.7650    24.4570 
  224.6250   -28.4430     2.1300    47.4990   104.0030    97.4570    84.9440    24.5000 
  224.7500   -28.3010     2.1270    45.4610   104.9540    97.7950    85.7620    24.3370 
  224.8750   -28.2180     2.1330    44.6190   106.6550    98.5560    97.2170    24.5670 
  225.0000   -28.2210     2.1490    46.5740   109.4100   100.1080   101.7490    24.6520 
  225.1250   -28.2260     2.1720    48.6940   113.5330   102.7980   102.2980    24.5490 
  225.2500   -28.2090     2.1910    46.6300   118.3500   106.2540    97.7720    24.3130 
  225.3750   -28.2020     2.2000    43.1400   122.9070   109.9160    99.7030    24.2530 
  225.5000   -28.2760     2.2000    43.6410   126.2230   113.0820   107.4130    24.3640 
  225.6250   -28.4690     2.1970    46.6680   127.5670   114.9500   108.9070    24.3970 
  225.7500   -28.7310     2.1960    46.6410   127.6310   115.5100   109.9410    24.4240 
  225.8750   -28.9430     2.1970    45.1080   127.0430   114.9870   112.8440    24.4160 
  226.0000   -29.0330     2.1980    45.5470   126.1300   113.7820   114.0000    24.3370 
  226.1250   -29.0900     2.1960    48.1360   124.4660   112.1250   109.4960    24.4130 
  226.2500   -29.2190     2.1870    49.8000   121.5290   109.9840   103.6470    24.5730 
  226.3750   -29.4090     2.1760    49.1390   117.2920   107.2400   100.7560    24.6590 
  226.5000   -29.5700     2.1650    48.0840   112.6230   104.1940    99.8450    24.6880 
  226.6250   -29.6300     2.1650    48.1060   109.5190   102.0870    97.3320    24.7560 
  226.7500   -29.5980     2.1840    47.4440   109.4080   102.3790    93.3530    24.7530 
  226.8750   -29.5150     2.2270    45.8820   112.5760   106.1660    89.6330    24.5620 
  227.0000   -29.4420     2.2930    44.6080   116.6960   112.3900    85.3060    24.2590 
  227.1250   -29.3580     2.3740    46.0930   113.2120   113.5080    87.1110    23.5190 
  227.2500   -29.2380     2.4520    48.6300    96.5960   101.5080    99.6680    23.3650 
  227.3750   -29.0850     2.5160    51.5120    71.2220    77.7300   116.0860    23.2640 
  227.5000   -28.8870     2.5570    53.6090    47.3060    52.3240    87.2390    23.2540 
  227.6250   -28.7360     2.5720    54.5610    33.5740    34.5020    42.6760    23.4120 
  227.7500   -28.6850     2.5700    57.3210    27.5850    23.7330    22.1750    23.8140 
  227.8750   -28.7080     2.5610    60.1480    19.4830    17.7120    16.6450    24.0330 
  228.0000   -28.7650     2.5560    59.4780    15.6060    14.1870    18.5860    23.8360 
  228.1250   -28.8700     2.5570    56.4630    13.0490    11.8630    18.6280    23.8210 
  228.2500   -28.9630     2.5540    53.9210    11.0830    10.0760    12.3550    23.7690 
  228.3750   -29.0610     2.5360    50.4310     9.6250     8.7500     8.5630    24.1010 
  228.5000   -29.1860     2.4990    44.9030     8.6550     7.8680     7.8740    24.1130 
  228.6250   -29.3440     2.4520    41.3000     8.2560     7.5050     8.1490    24.3420 
  228.7500   -29.5150     2.4090    40.9760     8.3260     7.5690     8.2560    24.3840 
  228.8750   -29.6500     2.3790    41.8710     8.7810     7.9820     8.5930    24.3560 
  229.0000   -29.7470     2.3630    42.7120     9.4710     8.6100     9.7640    24.3020 
  229.1250   -29.7690     2.3570    41.8530    10.1270     9.2060    10.4630    24.2840 
  229.2500   -29.7780     2.3530    39.4520    10.4280     9.4800    10.5890    24.2390 
  229.3750   -29.7780     2.3430    38.9250    10.1890     9.2630    10.5030    24.1460 
  229.5000   -29.7780     2.3230    41.9700     9.4710     8.6100    10.1010    24.0980 
  229.6250   -29.7120     2.2980    46.4110     8.6110     7.8280     8.8200    24.2030 
  229.7500   -29.6010     2.2890    52.0890     7.9990     7.2710     7.6620    24.2060 
  229.8750   -29.5400     2.3090    60.5670     7.7990     7.0900     7.5780    24.1770 
