~V
VERS. 2.00: Ver 2.00
~W
STRT.M 20.0000:
STOP.M 256.0000:
STEP.M 0.1250:
NULL. -999.2500:
UWI. F10201:
~C
DEPT.M :
DEN.GM/CC :
GR.API :
RML.OHMM :
RI. :
RXO.OHMM :
CALI.CM :
SP.MV :
~A
# ...
  200.0000     2.3300    96.0140     8.7450     6.8680     8.0540    25.3090   -35.6150 
  200.1250     2.3210    90.7570     8.9020     7.0590     7.5000    25.5600   -36.2040 
  200.2500     2.3240    89.0590     8.9140     7.2290     7.8150    25.5940   -36.6760 
  200.3750     2.3270    92.0410     8.8880     7.3760     8.4710    25.5600   -37.0300 
  200.5000     2.3170    94.7330     8.9070     7.5140     8.7860    25.5890   -37.2430 
  200.6250     2.2920    92.1010     9.0170     7.6600     8.8330    25.6360   -37.3390 
  200.7500     2.2680    86.5630     9.2240     7.8380     8.8470    25.5790   -37.3280 
  200.8750     2.2580    84.8750     9.5620     8.0910     8.9740    25.3120   -37.2080 
  201.0000     2.2680    86.8270    10.0730     8.4700     9.2590    24.9750   -36.9860 
  201.1250     2.2960    84.3190    10.7820     9.0200     9.7990    24.6710   -36.6580 
  201.2500     2.3290    76.7960    11.5350     9.6360    10.8150    24.4870   -36.1710 
  201.3750     2.3630    70.9100    12.0900    10.1410    11.9240    24.3660   -35.4820 
  201.5000     2.3940    72.5920    12.1750    10.3200    12.3900    24.3400   -34.6470 
  201.6250     2.4180    77.5080    11.5850     9.9770    12.5400    24.3880   -33.6830 
  201.7500     2.4310    80.2240    10.6300     9.2940    11.8300    24.4750   -32.6850 
  201.8750     2.4330    84.1210     9.6660     8.5070     9.5890    24.5870   -31.7280 
  202.0000     2.4260    90.2560     8.9880     7.8430     8.1020    24.6700   -30.8680 
  202.1250     2.4170    92.5380     8.7700     7.4870     8.1810    24.6540   -30.1190 
  202.2500     2.4110    90.4760     8.8660     7.4150     8.7700    24.6470   -29.4730 
  202.3750     2.4090    89.7440     9.1080     7.5610     9.0180    24.7010   -28.9460 
  202.5000     2.4110    93.5750     9.3020     7.7950     8.9540    24.7590   -28.4560 
  202.6250     2.4190    97.4530     9.2180     7.9070     8.9120    24.7330   -27.8780 
  202.7500     2.4330    98.0920     8.8260     7.7770     8.9060    24.6500   -27.2290 
  202.8750     2.4470    97.1460     8.1950     7.4010     8.6960    24.5730   -26.4840 
  203.0000     2.4540    93.4660     7.4630     6.8710     8.0420    24.5200   -25.5440 
  203.1250     2.4410    83.9900     6.7900     6.3250     7.1510    24.4890   -24.3670 
  203.2500     2.4110    73.6820     6.2580     5.8720     6.3410    24.4950   -23.0410 
  203.3750     2.3800    67.3180     5.8910     5.5570     5.9470    24.5520   -21.5360 
  203.5000     2.3640    64.4730     5.6740     5.3910     5.7940    24.6050   -19.9280 
  203.6250     2.3740    61.8360     5.6060     5.3780     5.6670    24.4830   -18.3480 
  203.7500     2.3960    60.9770     5.6460     5.4600     5.4870    24.2550   -16.7930 
  203.8750     2.4110    63.7480     5.7690     5.5970     5.3920    23.9710   -15.3390 
  204.0000     2.4050    69.7630     5.9400     5.7550     5.4700    23.6490   -14.0610 
  204.1250     2.3790    77.4190     6.1030     5.8960     5.6980    23.2180   -13.0090 
  204.2500     2.3560    83.8810     6.2050     5.9920     6.0050    23.0220   -12.1870 
  204.3750     2.3520    88.3810     6.2230     6.0240     6.0240    22.8600   -11.6480 
  204.5000     2.3680    91.7930     6.1610     5.9810     5.9490    22.5750   -11.3440 
  204.6250     2.3970    92.4410     6.0390     5.8620     5.8890    22.3540   -11.2340 
  204.7500     2.4230    88.8620     5.8970     5.7010     5.9110    22.5360   -11.2760 
  204.8750     2.4380    83.3800     5.7480     5.5190     5.7600    22.9900   -11.3780 
  205.0000     2.4430    81.6410     5.5960     5.3300     5.6820    23.4820   -11.4770 
  205.1250     2.4400    86.5810     5.4490     5.1480     5.6150    23.8100   -11.6130 
  205.2500     2.4320    92.3710     5.3400     5.0010     5.6830    23.9860   -11.7730 
  205.3750     2.4230    94.1410     5.3290     4.9290     5.9370    24.1290   -11.9140 
  205.5000     2.4150    89.6900     5.5060     4.9960     6.2190    24.3170   -12.0680 
  205.6250     2.4110    83.4020     6.0600     5.3380     6.5280    24.3930   -12.2660 
  205.7500     2.4100    80.1650     7.0840     6.0290     7.3350    24.4140   -12.4640 
  205.8750     2.4060    78.9210     8.6740     7.1730     9.0530    24.4120   -12.6580 
  206.0000     2.3940    77.1040    10.8410     8.8440    11.7490    24.4000   -12.9030 
  206.1250     2.3700    74.7120    13.4550    11.0710    15.3760    24.3640   -13.1680 
  206.2500     2.3430    75.4280    16.0020    13.4730    19.5900    24.3110   -13.4060 
  206.3750     2.3200    77.8130    17.9770    15.5860    22.5480    24.2650   -13.6670 
  206.5000     2.3050    78.2470    19.0870    17.0330    23.2250    24.2410   -13.9400 
  206.6250     2.2980    74.1630    19.5140    17.7810    22.1660    24.2410   -14.1990 
  206.7500     2.2970    69.1080    20.1070    18.4500    21.5190    24.2660   -14.4790 
  206.8750     2.3000    67.5360    21.5800    19.6220    23.0020    24.3030   -14.8010 
  207.0000     2.3070    70.7040    24.5240    21.8580    25.9510    24.3130   -15.1470 
  207.1250     2.3150    72.5640    29.8250    26.0590    30.3550    24.2820   -15.5540 
  207.2500     2.3180    68.1680    37.5460    32.4940    37.8900    24.2530   -15.9770 
  207.3750     2.3110    61.7490    47.6500    41.2700    49.0860    24.2810   -16.4040 
  207.5000     2.2940    59.7020    59.2690    51.7020    58.7660    24.3850   -16.8670 
  207.6250     2.2720    60.8410    69.5500    61.5380    64.6380    24.4910   -17.3610 
  207.7500     2.2520    60.3350    74.9870    67.8650    71.7970    24.5390   -17.8100 
  207.8750     2.2380    59.5300    73.7700    68.8230    77.1840    24.5480   -18.2490 
  208.0000     2.2330    62.8620    67.2610    64.6630    76.2990    24.5300   -18.6850 
  208.1250     2.2380    67.8200    59.2270    57.7170    65.5800    24.4730   -19.0390 
  208.2500     2.2490    68.9750    53.2080    51.5230    53.4530    24.4000   -19.3900 
  208.3750     2.2600    67.4510    50.6570    47.9480    44.3150    24.3660   -19.7310 
  208.5000     2.2630    66.4870    52.2690    48.1520    40.6830    24.3900   -19.9900 
  208.6250     2.2550    67.3730    59.3410    53.8120    44.0250    24.4630   -20.1840 
  208.7500     2.2400    67.1360    79.3110    64.7010    61.2070    24.5370   -20.4080 
  208.8750     2.2230    64.1410   106.6300    80.5580    88.9000    24.5550   -20.6360 
  209.0000     2.2090    59.5380   131.4450    99.6290   117.2880    24.5420   -20.8310 
  209.1250     2.2030    57.5250   153.1970   117.2230   151.8690    24.5400   -21.0220 
  209.2500     2.2060    57.7690   163.9760   128.2610   170.8180    24.5280   -21.2000 
  209.3750     2.2160    57.3050   161.6120   130.4920   171.1100    24.4290   -21.3280 
  209.5000     2.2340    54.9350   150.1630   125.0700   158.4830    24.2640   -21.4470 
  209.6250     2.2530    54.5550   135.6800   114.9900   118.9750    24.2330   -21.5610 
  209.7500     2.2640    56.7120   123.1440   104.7120    88.6580    24.4070   -21.6200 
  209.8750     2.2610    58.7480   114.4660    96.6320    77.0550    24.7490   -21.6110 
  210.0000     2.2400    60.4290   110.0020    91.8620    76.8140    25.1480   -21.5860 
  210.1250     2.2030    61.6770   108.7680    90.4000    83.6560    25.5480   -21.5160 
  210.2500     2.1650    62.2920   106.8720    89.4820    84.8850    25.8020   -21.4210 
  210.3750     2.1380    63.4940   100.8500    86.2020    85.6570    25.8820   -21.3400 
  210.5000     2.1310    64.3130    89.9410    78.9300    92.1950    25.7960   -21.2620 
  210.6250     2.1520    62.8410    77.7690    69.0310    90.8310    25.5080   -21.2030 
  210.7500     2.1830    60.4600    69.1790    60.6120    70.6550    25.1020   -21.1910 
  210.8750     2.2100    60.6380    66.4230    56.3660    47.4620    24.7310   -21.2330 
  211.0000     2.2200    63.2900    70.3800    57.8780    37.1470    24.5440   -21.2790 
  211.1250     2.2080    64.5580    82.6090    66.9890    50.0840    24.5620   -21.4130 
