~V
VERS. 2.00: Ver 2.00
~W
STRT.M 30.0000:
STOP.M 271.0000:
STEP.M 0.1250:
NULL. -999.2500:
UWI. F10210:
~C
DEPT.M :
DEN.GM/CC :
GR.API :
RML.OHMM :
RI. :
RXO.OHMM :
CALI.CM :
SP.MV :
~A
# ...
  198.7500     2.2970    54.1440     9.9160    10.6560    10.2240    22.9480   -15.2450 
  198.8750     2.2610    56.0980     9.1690     9.8290     9.4960    22.9260   -15.6530 
  199.0000     2.2390    57.5550     8.8760     9.3780     8.9240    22.9500   -16.0000 
  199.1250     2.2410    57.3440     9.0990     9.4140     8.7760    22.9790   -16.2400 
  199.2500     2.2540    55.8000     9.5860     9.7560     9.2800    23.0240   -16.3360 
  199.3750     2.2680    53.0180    10.0610    10.1860    10.4460    22.8950   -16.2860 
  199.5000     2.2770    50.1170    10.2010    10.4160    11.6940    22.7980   -16.0680 
  199.6250     2.2860    48.7330     9.7260    10.1430    10.2160    22.7620   -15.6600 
  199.7500     2.3000    49.8130     8.8670     9.4740     8.1610    22.6900   -15.1200 
  199.8750     2.3150    52.4520     7.9480     8.6310     6.7820    22.6660   -14.5070 
  200.0000     2.3230    53.8440     7.2450     7.8500     6.3320    22.5930   -13.8670 
  200.1250     2.3190    52.1340     6.9290     7.3170     6.3690    22.5090   -13.2690 
  200.2500     2.3100    49.5260     6.8890     7.0280     6.2610    22.5190   -12.7720 
  200.3750     2.3060    48.4350     7.0180     6.9420     6.1420    22.5850   -12.3890 
  200.5000     2.3090    49.3680     7.2300     7.0000     6.2480    22.7160   -12.1410 
  200.6250     2.3050    52.2670     7.5010     7.1600     6.5080    23.0490   -12.0890 
  200.7500     2.2840    58.0440     7.8200     7.3800     6.6140    23.3280   -12.2420 
  200.8750     2.2550    65.1660     8.1840     7.6430     6.8110    23.4750   -12.5740 
  201.0000     2.2310    71.2710     8.5660     7.9310     7.1380    23.6150   -13.0520 
  201.1250     2.2130    75.5920     8.9150     8.2080     7.7210    23.7720   -13.6410 
  201.2500     2.1970    81.2080     9.2030     8.4430     8.3470    24.0230   -14.2920 
  201.3750     2.1880    88.9430     9.4350     8.6220     8.8030    24.2460   -14.9930 
  201.5000     2.2000    95.2320     9.6510     8.7610     9.1730    24.3600   -15.7450 
  201.6250     2.2300    94.5290     9.9340     8.9120     9.6360    24.3640   -16.5130 
  201.7500     2.2560    90.5740    10.3270     9.1190    10.2520    24.3580   -17.2200 
  201.8750     2.2680    88.4290    10.8320     9.3910    11.0000    24.3640   -17.8310 
  202.0000     2.2720    89.1550    11.4030     9.7080    12.0970    24.3690   -18.3470 
  202.1250     2.2860    87.1620    11.9180    10.0040    13.6630    24.3710   -18.7230 
  202.2500     2.3070    82.0870    12.2310    10.1770    13.9020    24.3660   -18.9430 
  202.3750     2.3230    78.6390    12.2250    10.1300    12.8210    24.3700   -19.0160 
  202.5000     2.3250    80.9120    11.8640     9.8140    12.2100    24.3630   -18.9590 
  202.6250     2.3210    86.2180    11.2380     9.2780    12.5320    24.3690   -18.7780 
  202.7500     2.3230    88.6230    10.6700     8.7710    11.8310    24.3670   -18.4990 
  202.8750     2.3300    88.4320    10.4740     8.5310     9.9890    24.3570   -18.1470 
  203.0000     2.3400    88.5890    10.9200     8.7580     8.9050    24.2770   -17.7520 
  203.1250     2.3550    86.8420    12.2890     9.6610    10.4420    24.2290   -17.3750 
  203.2500     2.3770    81.3400    14.3410    11.1090    14.1280    24.1230   -17.0420 
  203.3750     2.3960    76.3480    16.6410    12.8690    18.6190    24.1030   -16.7170 
  203.5000     2.4020    75.0460    18.4400    14.4490    19.8940    24.0960   -16.3560 
  203.6250     2.3910    76.8810    18.6400    15.0050    17.3560    24.1170   -15.8970 
  203.7500     2.3770    80.1170    17.2750    14.3730    14.4020    24.1190   -15.3370 
  203.8750     2.3630    84.1620    14.9270    12.8650    13.1190    24.1130   -14.6400 
  204.0000     2.3490    85.8380    12.3880    11.0330    11.9470    24.1050   -13.7630 
  204.1250     2.3330    82.5530    10.3300     9.4010    10.1310    24.1160   -12.6560 
  204.2500     2.3190    76.9900     8.8880     8.1670     8.1670    24.1160   -11.3960 
  204.3750     2.3130    71.0640     8.0320     7.3700     6.9940    24.1180   -10.0720 
  204.5000     2.3180    66.9000     7.6590     6.9730     6.9200    24.1100    -8.7790 
  204.6250     2.3270    67.0340     7.6900     6.9530     7.1330    24.1030    -7.6300 
  204.7500     2.3310    68.1810     7.9180     7.1520     7.1350    24.1110    -6.6280 
  204.8750     2.3270    68.2290     8.1890     7.4550     7.1850    24.1120    -5.8130 
  205.0000     2.3200    69.4530     8.3750     7.7530     7.4170    24.0910    -5.1970 
  205.1250     2.3200    75.7050     8.4150     7.9440     7.4740    23.9600    -4.8280 
  205.2500     2.3270    82.6800     8.3710     8.0120     7.3870    23.9450    -4.6340 
  205.3750     2.3380    87.7070     8.2780     7.9540     7.2470    23.9500    -4.5710 
  205.5000     2.3480    89.8680     8.1260     7.7800     7.1820    23.9520    -4.5950 
  205.6250     2.3460    89.4770     7.8640     7.5010     7.0470    23.9290    -4.6610 
  205.7500     2.3320    88.2060     7.5130     7.1820     6.8670    23.8410    -4.7790 
  205.8750     2.3110    88.4750     7.1440     6.8770     6.6830    23.6640    -4.9470 
  206.0000     2.2930    90.2370     6.8850     6.6520     6.3960    23.5370    -5.1820 
  206.1250     2.2880    89.7980     6.9240     6.6250     6.0720    23.4740    -5.4600 
  206.2500     2.2910    86.8030     7.2730     6.8250     6.0750    23.3270    -5.7630 
  206.3750     2.2980    83.1470     7.8620     7.2230     6.5370    23.1340    -6.0520 
  206.5000     2.3020    80.3350     8.4980     7.6970     7.5110    23.1350    -6.3010 
  206.6250     2.2960    79.7400     8.8430     7.9940     8.2730    23.6250    -6.4810 
  206.7500     2.2800    80.0700     8.7380     7.9570     8.7150    23.7510    -6.6100 
  206.8750     2.2600    81.3650     8.2560     7.6000     8.1700    23.7740    -6.6880 
  207.0000     2.2510    82.7620     7.6930     7.1140     6.9330    23.7780    -6.7230 
  207.1250     2.2610    83.0770     7.4910     6.8120     6.5130    23.7780    -6.7450 
  207.2500     2.2730    82.3080     7.8170     6.8570     7.0120    23.7770    -6.7850 
  207.3750     2.2760    82.2140     8.6520     7.2830     7.6450    23.7670    -6.8760 
  207.5000     2.2680    81.9420     9.7910     8.0070     8.4020    23.7760    -7.0240 
  207.6250     2.2600    78.8820    10.8160     8.8040    10.0870    23.7770    -7.2240 
  207.7500     2.2610    76.6300    11.3840     9.3870    11.6060    23.7730    -7.4400 
  207.8750     2.2710    79.3970    11.4540     9.6550    11.3400    23.7630    -7.6460 
  208.0000     2.2790    83.8800    11.2870     9.7080     9.4460    23.7680    -7.8190 
  208.1250     2.2730    82.8690    11.3170     9.7900     9.1240    23.7850    -7.9610 
  208.2500     2.2610    78.2960    11.7580    10.0920    10.2870    23.8640    -8.0610 
  208.3750     2.2530    74.5320    12.6210    10.6900    12.0470    23.9320    -8.1240 
  208.5000     2.2590    73.1960    13.7690    11.5460    13.2340    23.9300    -8.1560 
  208.6250     2.2760    74.2980    14.9140    12.4930    13.9150    23.8990    -8.1780 
  208.7500     2.2940    76.4660    15.7630    13.2720    14.5970    23.8660    -8.1790 
  208.8750     2.3000    78.2130    16.1910    13.7390    15.2920    23.8510    -8.1880 
  209.0000     2.2910    78.3840    16.2530    13.8910    15.3600    23.8540    -8.2440 
  209.1250     2.2770    77.3360    16.1120    13.8220    14.7820    23.8210    -8.3340 
  209.2500     2.2670    74.5970    15.9990    13.7240    14.0420    23.7440    -8.4370 
  209.3750     2.2580    70.3270    16.0520    13.7160    13.7780    23.6940    -8.5390 
  209.5000     2.2470    67.3430    16.3300    13.8760    14.1440    23.6760    -8.6540 
  209.6250     2.2370    69.2720    16.8330    14.2480    15.1930    23.6660    -8.7950 
  209.7500     2.2330    73.7540    17.4100    14.7340    16.4480    23.6330    -8.9660 
  209.8750     2.2330    77.3240    17.9320    15.2370    18.1860    23.5320    -9.1560 
