~V
VERS. 2.00: Ver 2.00
~W
STRT.M 50.0000:
STOP.M 273.0000:
STEP.M 0.1250:
NULL. -999.2500:
UWI. F10249:
~C
DEPT.M :
DEN.GM/CC :
GR.API :
RML.OHMM :
RI. :
RXO.OHMM :
CALI.CM :
SP.MV :
~A
# ...
  230.0000     2.4400    98.0130     7.3960     7.8020     7.9370    24.8740    -5.8230 
  230.1250     2.4350   106.0350     7.4610     8.0430     7.8760    24.8760    -5.7450 
  230.2500     2.4370   112.5000     7.4270     8.1860     7.8630    24.8790    -5.7280 
  230.3750     2.4420   114.7120     7.3400     8.2480     7.9050    24.8470    -5.7530 
  230.5000     2.4460   116.5220     7.2450     8.2670     8.0000    24.7970    -5.7530 
  230.6250     2.4470   118.5660     7.1780     8.2700     8.1320    24.8120    -5.6940 
  230.7500     2.4430   119.1310     7.1430     8.2690     8.2510    24.8290    -5.6360 
  230.8750     2.4380   118.5690     7.1400     8.2690     8.3230    24.7320    -5.6290 
  231.0000     2.4360   119.6530     7.1690     8.2740     8.3220    24.4460    -5.6890 
  231.1250     2.4380   121.7250     7.2280     8.2940     8.2350    24.3480    -5.7620 
  231.2500     2.4400   121.3470     7.3050     8.3360     8.1500    24.5640    -5.7940 
  231.3750     2.4350   119.2670     7.3900     8.3980     8.1480    24.7780    -5.8020 
  231.5000     2.4200   116.2880     7.4690     8.4610     8.2160    24.8720    -5.8350 
  231.6250     2.3900   114.5580     7.5380     8.4970     8.2680    24.8850    -5.9230 
  231.7500     2.3570   116.3300     7.6050     8.4970     8.2940    24.8350    -6.0350 
  231.8750     2.3330   120.4310     7.6870     8.4740     8.3350    24.7520    -6.1150 
  232.0000     2.3260   122.4210     7.7930     8.4480     8.3830    24.6760    -6.1530 
  232.1250     2.3390   119.9980     7.9110     8.4280     8.3850    24.5690    -6.1930 
  232.2500     2.3610   116.0140     7.9910     8.3860     8.3890    24.4430    -6.2800 
  232.3750     2.3860   112.8480     7.9750     8.2650     8.4470    24.3140    -6.4000 
  232.5000     2.4070   111.0010     7.8220     8.0060     8.5130    24.2410    -6.5210 
  232.6250     2.4220   110.6460     7.5610     7.5810     8.4210    24.3170    -6.6300 
  232.7500     2.4320   111.0190     7.4090     7.1430     8.1540    24.4790    -6.7270 
  232.8750     2.4360   111.7070     7.7090     6.9140     7.8690    24.6170    -6.8100 
  233.0000     2.4390   111.1850     8.8760     7.1760     7.7650    24.6660    -6.8890 
  233.1250     2.4410   104.7110    11.9840     8.5340     9.4110    24.6320    -6.9670 
  233.2500     2.4400    93.2230    18.0410    11.6380    19.1890    24.5480    -7.0420 
  233.3750     2.4260    81.5070    27.9730    17.6390    43.2860    24.4420    -7.1300 
  233.5000     2.3960    72.6780    41.9170    27.8750    76.8190    24.4450    -7.2070 
  233.6250     2.3510    66.9860    59.0770    43.4580   103.0820    24.5640    -7.2180 
  233.7500     2.3030    63.0770    76.3500    60.8910   115.9850    24.6940    -7.2260 
  233.8750     2.2640    61.8220    91.1970    76.0980   121.1120    24.7760    -7.2760 
  234.0000     2.2360    62.7770   102.4920    87.3170   124.2500    24.7750    -7.3590 
  234.1250     2.2180    63.5960   111.0640    96.0250   126.4310    24.7480    -7.4750 
  234.2500     2.2040    63.4790   118.4790   104.3030   128.0690    24.7530    -7.5520 
  234.3750     2.1920    63.0770   123.5440   110.9290   128.9310    24.7590    -7.5780 
  234.5000     2.1850    63.6270   123.6670   112.9290   129.3500    24.7270    -7.6250 
  234.6250     2.1850    65.4720   116.1820   107.1370   128.3870    24.6050    -7.7380 
  234.7500     2.1910    67.0780   103.7510    96.0380   119.3300    24.4260    -7.8410 
  234.8750     2.1970    67.1080    89.4980    82.7720    99.4150    24.2290    -7.9160 
  235.0000     2.2000    66.2650    76.2010    70.1520    75.8980    24.0870    -7.9940 
  235.1250     2.1950    67.0310    65.8380    60.1300    58.9670    24.0020    -8.0730 
  235.2500     2.1900    69.0450    58.2180    52.6170    46.8310    23.8990    -8.2190 
  235.3750     2.1870    71.9290    52.9940    47.3500    36.2940    23.7570    -8.4220 
  235.5000     2.1930    75.7960    49.7130    43.9200    29.6460    23.6490    -8.6030 
  235.6250     2.2070    78.5460    48.2610    42.1200    28.8690    23.5900    -8.7470 
  235.7500     2.2250    77.7360    48.3200    41.5640    29.6700    23.5270    -8.8570 
  235.8750     2.2420    75.1950    50.1500    42.5510    29.6380    23.4600    -8.9430 
  236.0000     2.2490    73.7460    54.1450    45.6570    29.1440    23.4250    -9.0160 
  236.1250     2.2390    72.2150    60.9520    51.9350    31.9780    23.4190    -9.0780 
  236.2500     2.2180    69.3170    69.5990    60.9060    54.1430    23.4590    -9.1170 
  236.3750     2.1940    67.0690    78.2860    71.2330   119.3050    23.5990    -9.1040 
  236.5000     2.1780    66.3120    84.1590    79.9030   205.8530    23.8750    -9.0350 
  236.6250     2.1770    67.6960    83.6100    81.9330   228.8160    24.2090    -8.9190 
  236.7500     2.1910    70.2560    77.6190    77.2380   173.3580    24.4550    -8.8350 
  236.8750     2.2140    71.1830    68.6680    68.5560    97.0430    24.5640    -8.7840 
  237.0000     2.2390    69.8910    59.5450    59.3440    54.6560    24.5780    -8.6980 
  237.1250     2.2570    69.0080    51.9590    51.7560    45.2600    24.5590    -8.5460 
  237.2500     2.2650    70.0130    45.4650    45.3890    41.1730    24.5370    -8.3490 
  237.3750     2.2680    71.4060    39.4570    39.4120    38.2650    24.5280    -8.1710 
  237.5000     2.2720    73.4400    33.7880    33.4930    34.3740    24.5200    -8.0440 
  237.6250     2.2840    79.6290    29.2060    28.3790    27.9390    24.5000    -7.9220 
  237.7500     2.2990    87.9430    26.5160    24.9120    21.2270    24.4800    -7.7870 
  237.8750     2.3070    93.3330    26.4660    23.7000    16.7650    24.4870    -7.6720 
  238.0000     2.2970    92.4980    29.5550    25.2300    16.7130    24.5100    -7.6190 
  238.1250     2.2640    85.3760    36.4360    30.7690    32.7570    24.5200    -7.6600 
  238.2500     2.2240    78.5230    45.6380    40.0850    69.7070    24.5210    -7.7330 
  238.3750     2.1930    74.3880    54.7400    51.7180   107.2590    24.5100    -7.7680 
  238.5000     2.1820    73.1780    60.2930    61.4130   114.0400    24.4320    -7.7910 
  238.6250     2.1980    73.3250    58.8080    62.5870    83.6200    24.2150    -7.8790 
  238.7500     2.2270    74.2590    52.4730    56.6170    53.0630    23.9460    -8.0100 
  238.8750     2.2580    77.0870    44.6340    48.0120    37.8310    23.7620    -8.1300 
  239.0000     2.2820    80.5590    38.2300    40.6020    31.0330    23.6830    -8.2290 
  239.1250     2.2930    81.4400    34.9090    36.3430    27.1570    23.6320    -8.3030 
  239.2500     2.2940    82.1030    33.8740    34.5180    27.8720    23.5640    -8.3590 
  239.3750     2.2860    84.7160    34.3520    34.4340    32.1370    23.5150    -8.4280 
  239.5000     2.2730    86.5020    35.5640    35.3390    36.1590    23.5100    -8.5400 
  239.6250     2.2580    84.9450    36.8880    36.4490    36.5020    23.4960    -8.6710 
  239.7500     2.2460    82.8170    38.2070    37.3450    34.5740    23.4950    -8.7740 
  239.8750     2.2350    82.4940    40.0400    38.3530    32.5050    23.5330    -8.8300 
  240.0000     2.2260    81.4090    43.3580    40.3560    31.5380    23.6500    -8.8510 
  240.1250     2.2190    76.8700    49.9780    45.2300    35.2650    23.8390    -8.8760 
  240.2500     2.2150    72.2370    60.5850    54.1700    49.0720    24.0940    -8.9460 
  240.3750     2.2160    70.0240    75.5230    68.1440    74.8490    24.3560    -8.9970 
  240.5000     2.2190    70.7590    93.7970    86.8180   105.3110    24.5050    -8.9900 
  240.6250     2.2200    70.9380   111.6460   107.0670   126.0750    24.5530    -8.9710 
  240.7500     2.2150    68.5890   123.7610   122.4580   133.6020    24.5790    -8.9840 
  240.8750     2.2050    65.8480   126.8100   128.0700   132.4090    24.6080    -9.0200 
  241.0000     2.1910    64.6860   121.0450   123.3360   127.1050    24.6190    -9.0470 
  241.1250     2.1830    66.0100   109.9100   111.9370   116.7190    24.5850    -9.0520 
