~V
VERS. 2.00: Ver 2.00
~W
STRT.M 53.0000:
STOP.M 282.0000:
STEP.M 0.1250:
NULL. -999.2500:
UWI. F10240:
~C
DEPT.M :
GR.API :
RML.OHMM :
RI. :
RXO.OHMM :
CALI.CM :
DEN.GM/CC :
SP.MV :
~A
# ...
  233.0000    67.9470    77.2230    60.8040    78.9900    24.6130     2.2620   -20.1150 
  233.1250    64.8380    78.2550    62.1970    83.4940    24.5110     2.2690   -19.8740 
  233.2500    62.1590    78.0150    62.7270    85.7720    24.3620     2.2760   -19.6290 
  233.3750    62.9930    76.9560    62.5910    83.5100    24.3020     2.2770   -19.3830 
  233.5000    66.4510    75.7570    62.1880    79.7710    24.3260     2.2680   -19.1130 
  233.6250    70.1530    74.7260    61.7990    76.4050    24.4140     2.2510   -18.7820 
  233.7500    71.1390    73.5120    61.2410    76.1650    24.5860     2.2340   -18.3920 
  233.8750    68.5600    71.3810    60.0170    75.4830    24.7590     2.2260   -17.9860 
  234.0000    64.4060    67.3650    57.3590    71.8490    24.8130     2.2350   -17.6050 
  234.1250    62.1750    61.7870    53.3890    64.3820    24.8210     2.2560   -17.2210 
  234.2500    62.1160    55.4040    48.5860    55.2370    24.8160     2.2770   -16.8090 
  234.3750    62.8440    49.1570    43.6510    48.2290    24.8230     2.2870   -16.3880 
  234.5000    63.4440    43.9710    39.3400    44.2950    24.8070     2.2820   -15.9990 
  234.6250    64.3580    40.0140    35.9270    41.2090    24.8080     2.2710   -15.6680 
  234.7500    64.8260    37.2660    33.4820    38.8290    24.8070     2.2630   -15.3970 
  234.8750    64.7780    35.5830    31.9390    36.9680    24.8100     2.2610   -15.1740 
  235.0000    63.8200    34.8670    31.2550    35.1770    24.7810     2.2640   -14.9750 
  235.1250    60.7310    34.6210    31.0400    35.1480    24.7780     2.2640   -14.7810 
  235.2500    56.9620    34.3690    30.9210    35.7380    24.7840     2.2580   -14.6100 
  235.3750    55.9420    33.5710    30.4290    35.6530    24.8050     2.2460   -14.4790 
  235.5000    59.4780    31.6930    29.0360    34.4070    24.8260     2.2380   -14.4110 
  235.6250    62.6900    29.0470    26.9100    32.0540    24.8260     2.2350   -14.3390 
  235.7500    62.5300    26.1980    24.4840    28.0230    24.8150     2.2370   -14.2540 
  235.8750    60.1670    23.7870    22.2970    23.3980    24.8070     2.2400   -14.1810 
  236.0000    59.9300    22.3740    20.8540    21.5030    24.7960     2.2410   -14.1390 
  236.1250    61.5330    21.8130    20.1230    21.7510    24.7980     2.2430   -14.1180 
  236.2500    63.4490    21.8170    19.9410    23.0460    24.8110     2.2480   -14.0960 
  236.3750    65.0190    21.9950    20.0310    24.3760    24.8200     2.2590   -14.0420 
  236.5000    65.7000    21.9420    20.0660    24.4060    24.8320     2.2720   -13.9350 
  236.6250    65.8800    21.6000    19.9050    23.0930    24.8320     2.2840   -13.8530 
  236.7500    64.9280    21.1720    19.6450    21.2910    24.8370     2.2880   -13.8030 
  236.8750    63.2620    20.9530    19.4970    21.0900    24.8260     2.2840   -13.7440 
  237.0000    61.9900    21.2340    19.7130    21.9410    24.8330     2.2720   -13.6640 
  237.1250    61.1560    21.9460    20.2910    23.6270    24.8300     2.2580   -13.5820 
  237.2500    60.6670    22.9060    21.1200    25.6800    24.8340     2.2470   -13.5180 
  237.3750    58.7250    23.8390    21.9800    27.1530    24.8210     2.2440   -13.5000 
  237.5000    55.2340    24.4310    22.5710    27.2740    24.8220     2.2470   -13.5320 
  237.6250    54.2190    24.6290    22.7940    26.7170    24.8200     2.2520   -13.5710 
  237.7500    55.7060    24.4880    22.6680    25.8950    24.8300     2.2580   -13.5820 
  237.8750    56.8770    24.1220    22.2930    24.9120    24.8260     2.2640   -13.5680 
  238.0000    56.1110    23.6600    21.7930    24.9940    24.8070     2.2680   -13.5910 
  238.1250    56.3750    23.2460    21.3150    25.1760    24.7790     2.2620   -13.6600 
  238.2500    58.2730    23.0360    20.9860    24.7810    24.7280     2.2480   -13.7380 
  238.3750    59.8490    23.2280    20.9580    24.0940    24.6370     2.2340   -13.7950 
  238.5000    61.3840    24.1230    21.4660    23.9200    24.4980     2.2380   -13.8420 
  238.6250    64.2330    25.7080    22.5330    23.4370    24.3830     2.2680   -13.9110 
  238.7500    65.8280    27.9130    24.1650    24.0860    24.3300     2.3180   -14.0030 
  238.8750    65.4340    30.5280    26.2640    27.7820    24.4660     2.3690   -14.0890 
  239.0000    65.9160    33.2280    28.6440    28.5900    24.7240     2.3920   -14.1070 
  239.1250    68.4230    35.7110    31.0150    28.9950    24.8940     2.3860   -14.0710 
  239.2500    71.9780    37.8310    33.1990    28.8520    24.9300     2.3630   -14.0210 
  239.3750    72.4710    39.4930    35.0530    29.7120    24.9310     2.3350   -13.9860 
  239.5000    67.9140    40.5220    36.3520    34.3740    25.0220     2.3130   -13.9360 
  239.6250    62.9130    40.9770    37.1020    41.9740    25.1290     2.2950   -13.8250 
  239.7500    60.4740    40.9520    37.3350    45.8940    25.1690     2.2770   -13.6770 
  239.8750    61.1470    40.6990    37.2200    42.2720    25.1840     2.2550   -13.5290 
  240.0000    61.8110    40.5900    37.0540    39.4540    25.2210     2.2340   -13.4210 
  240.1250    61.1160    40.5130    36.8670    40.5830    25.2480     2.2260   -13.3590 
  240.2500    58.7270    39.7450    36.1170    43.9240    25.2610     2.2420   -13.3190 
  240.3750    56.3900    37.3910    34.0330    45.7410    25.2610     2.2780   -13.2610 
  240.5000    56.5150    32.9860    30.1900    44.4010    25.2480     2.3200   -13.1670 
  240.6250    58.6740    27.9130    25.7610    36.2640    25.1820     2.3460   -13.0730 
  240.7500    62.5680    23.5690    21.8770    25.6780    25.1020     2.3470   -13.0100 
  240.8750    67.0780    20.9450    19.2800    17.2310    25.1120     2.3260   -12.9940 
  241.0000    68.9020    20.6680    18.4580    19.0390    25.1490     2.2930   -12.9860 
  241.1250    66.3100    22.1030    19.0550    24.5230    25.2250     2.2630   -12.9390 
  241.2500    60.9700    24.7190    20.8470    29.8120    25.2320     2.2420   -12.8650 
  241.3750    56.1350    27.8060    23.4330    32.2410    25.1700     2.2310   -12.8050 
  241.5000    53.7830    30.3960    26.0580    32.6580    25.1410     2.2290   -12.7950 
  241.6250    52.7520    32.0340    28.0090    32.5850    25.1340     2.2300   -12.8090 
  241.7500    51.1170    32.8430    29.1470    33.5140    25.1340     2.2300   -12.8040 
  241.8750    49.5020    33.2240    29.7210    34.5650    25.1400     2.2300   -12.7700 
  242.0000    51.3590    33.4910    30.0060    35.1070    25.1140     2.2300   -12.7270 
  242.1250    55.4880    33.7660    30.2010    35.3740    25.0750     2.2300   -12.7180 
  242.2500    57.5940    34.0310    30.3210    35.9560    25.0260     2.2330   -12.7460 
  242.3750    55.0320    34.2210    30.3240    36.0990    24.9790     2.2380   -12.7770 
  242.5000    52.4120    34.1920    30.0950    35.5810    24.9560     2.2470   -12.7870 
  242.6250    54.6440    33.8610    29.6120    35.1000    24.9340     2.2560   -12.7800 
  242.7500    58.8760    33.1980    28.8870    34.4630    24.8960     2.2620   -12.7680 
  242.8750    59.8240    32.2680    27.9960    33.4930    24.8650     2.2640   -12.7710 
  243.0000    57.3550    31.2290    27.0680    32.1490    24.8420     2.2620   -12.7940 
  243.1250    55.9390    30.3050    26.2560    30.8550    24.8200     2.2570   -12.8240 
  243.2500    55.9690    29.6630    25.6810    30.6170    24.8220     2.2520   -12.8440 
  243.3750    56.2280    29.4220    25.4410    31.1070    24.8220     2.2520   -12.8450 
  243.5000    57.3430    29.7090    25.6550    30.7280    24.8310     2.2570   -12.8410 
  243.6250    57.9250    30.3990    26.2460    30.4390    24.8120     2.2650   -12.8700 
  243.7500    56.5140    31.2870    27.0870    31.4450    24.7670     2.2710   -12.9180 
  243.8750    54.3580    32.0210    27.9110    33.5220    24.7140     2.2740   -12.9380 
  244.0000    54.5130    32.1090    28.2910    34.2450    24.6510     2.2760   -12.9170 
  244.1250    55.5370    31.4930    28.0840    34.2270    24.5880     2.2810   -12.8740 
