~V
VERS. 2.00: Ver 2.00
~W
STRT.M 53.0000:
STOP.M 296.0000:
STEP.M 0.1250:
NULL. -999.2500:
UWI. F10258:
~C
DEPT.M :
GR.API :
RML.OHMM :
RI. :
RXO.OHMM :
CALI.CM :
DEN.GM/CC :
SP.MV :
~A
# ...
  131.7500    88.1780     8.9150     7.7110     8.8980    24.5030     2.2670   -17.0540 
  131.8750    90.8710     9.4200     8.1060     8.3460    24.5200     2.2600   -16.7630 
  132.0000    89.0750     9.9050     8.6340     8.2320    24.6020     2.2620   -16.3850 
  132.1250    83.5700    10.0080     8.9890     9.4220    24.6840     2.2880   -15.9880 
  132.2500    83.5730     9.6090     8.9200    11.6960    24.7630     2.3280   -15.5030 
  132.3750    91.4250     8.7970     8.3900    11.7830    24.8180     2.3670   -15.0520 
  132.5000   100.2940     7.8290     7.5980     7.9020    24.8820     2.3890   -14.6440 
  132.6250   101.5680     7.0450     6.8640     6.6100    24.9480     2.3860   -14.3110 
  132.7500    98.6650     6.5710     6.3580     7.2080    24.8980     2.3720   -14.0840 
  132.8750    97.8290     6.3760     6.1000     7.9220    24.7600     2.3580   -13.9840 
  133.0000   100.7110     6.3410     6.0330     7.1470    24.6880     2.3530   -13.9960 
  133.1250   103.6990     6.3050     6.0350     6.9060    24.7080     2.3570   -14.0810 
  133.2500   104.9930     6.1570     5.9530     6.9370    24.7000     2.3660   -14.1850 
  133.3750   105.0890     5.8750     5.7240     6.3780    24.6480     2.3750   -14.2970 
  133.5000   105.9650     5.5000     5.3690     5.7490    24.6230     2.3800   -14.4210 
  133.6250   109.0430     5.1080     4.9570     5.2090    24.6260     2.3740   -14.5690 
  133.7500   111.8470     4.7830     4.5730     4.7290    24.6190     2.3580   -14.7080 
  133.8750   112.9740     4.6090     4.2830     4.6630    24.5920     2.3320   -14.8150 
  134.0000   111.8260     4.6960     4.1680     5.1150    24.5890     2.3030   -14.9040 
  134.1250   109.1350     5.2820     4.4030     5.9540    24.7090     2.2800   -15.0250 
  134.2500   104.6980     6.4740     5.1040     7.0370    24.8880     2.2820   -15.2130 
  134.3750    97.3600     8.3560     6.4440     8.7120    25.0650     2.3170   -15.4750 
  134.5000    89.7430    10.8010     8.5390    12.5010    25.2280     2.3820   -15.8000 
  134.6250    83.9160    13.2010    11.2040    23.1650    25.3670     2.4440   -16.1600 
  134.7500    79.5470    14.6440    13.3540    34.2390    25.4920     2.4600   -16.5430 
  134.8750    76.9160    14.5860    13.9070    32.1470    25.7330     2.4090   -16.9540 
  135.0000    76.7090    13.1790    12.7490    18.6150    26.1730     2.3010   -17.3860 
  135.1250    78.2280    11.2180    10.8430    10.9720    26.6980     2.1750   -17.8100 
  135.2500    79.4370     9.6410     9.2340     8.7390    26.8120     2.0800   -18.1860 
  135.3750    82.1500     8.7430     8.1900     8.3940    26.4910     2.0380   -18.4910 
  135.5000    85.8190     8.4610     7.6890     8.5620    26.0850     2.0460   -18.7200 
  135.6250    87.4500     8.6040     7.6370     8.4610    25.7600     2.0860   -18.8760 
  135.7500    87.2350     8.8700     7.7800     8.1870    25.4900     2.1290   -18.9930 
  135.8750    86.5670     9.1220     7.9780     8.0200    25.2930     2.1640   -19.0900 
  136.0000    86.6340     9.2960     8.1450     8.2050    25.1910     2.1840   -19.1610 
  136.1250    87.6670     9.3690     8.2360     8.5660    25.1240     2.1920   -19.1740 
  136.2500    89.4680     9.3790     8.2690     8.9280    25.0530     2.1940   -19.1460 
  136.3750    89.8070     9.3500     8.2590     9.0120    24.9930     2.1950   -19.1120 
  136.5000    86.4000     9.2990     8.2180     8.7240    24.9860     2.1980   -19.0950 
  136.6250    84.1340     9.2340     8.1500     8.6810    25.0600     2.2050   -19.1000 
  136.7500    87.2000     9.1580     8.0580     8.6490    25.1870     2.2150   -19.0950 
  136.8750    92.2510     9.0710     7.9490     8.7050    25.3280     2.2200   -19.0610 
  137.0000    92.9550     8.9750     7.8320     8.8330    25.4750     2.2150   -19.0220 
  137.1250    87.2080     8.8870     7.7310     8.6200    25.6130     2.1940   -19.0340 
  137.2500    83.0730     8.8390     7.6710     8.5710    25.7170     2.1690   -19.0890 
  137.3750    84.4320     8.8760     7.6870     8.8030    25.7820     2.1560   -19.1520 
  137.5000    89.1480     9.0390     7.8160     8.9420    25.8480     2.1590   -19.1940 
  137.6250    92.4850     9.3740     8.1090     8.8410    25.9200     2.1720   -19.2050 
  137.7500    91.2490     9.8320     8.5440     9.0610    25.9460     2.1740   -19.2110 
  137.8750    87.3370    10.3380     9.0820    10.0200    25.9360     2.1570   -19.2250 
  138.0000    84.8310    10.7720     9.6460    11.2640    25.8880     2.1260   -19.2260 
  138.1250    85.1840    10.9370    10.0560    11.7440    25.7460     2.0990   -19.1600 
  138.2500    86.6860    10.7550    10.1600    11.5050    25.5570     2.0880   -19.0070 
  138.3750    86.2620    10.2240     9.8840    11.1550    25.4410     2.0980   -18.7640 
  138.5000    84.4490     9.4420     9.2870    10.6960    25.4710     2.1260   -18.4360 
  138.6250    85.1880     8.5680     8.5200     9.3700    25.6010     2.1660   -18.0200 
  138.7500    89.4320     7.7600     7.7720     7.8630    25.7140     2.2050   -17.5420 
  138.8750    93.5990     7.0720     7.1170     7.2110    25.7560     2.2350   -17.0110 
  139.0000    94.7660     6.4990     6.5620     7.2640    25.7260     2.2520   -16.4480 
  139.1250    97.9100     6.0230     6.0890     7.1030    25.6560     2.2630   -15.9050 
  139.2500   105.1190     5.6130     5.6660     6.4520    25.5890     2.2760   -15.4420 
  139.3750   113.2430     5.2800     5.3010     5.5590    25.5550     2.2970   -15.0890 
  139.5000   118.8910     5.0470     5.0190     4.9530    25.5440     2.3220   -14.8540 
  139.6250   119.9530     4.9470     4.8590     4.8130    25.4110     2.3430   -14.7420 
  139.7500   117.0580     4.9360     4.8000     4.7110    25.2520     2.3540   -14.7210 
  139.8750   112.1040     4.9590     4.8030     4.7240    25.2010     2.3580   -14.7860 
  140.0000   109.6500     4.9470     4.7980     4.5870    25.2400     2.3590   -14.9270 
  140.1250   111.7200     4.8420     4.6960     4.5930    25.2710     2.3620   -15.1140 
  140.2500   114.2690     4.6980     4.5120     4.4620    25.2780     2.3670   -15.3130 
  140.3750   114.3860     4.6280     4.3380     4.4700    25.2770     2.3750   -15.5200 
  140.5000   111.7090     4.7750     4.3040     4.5390    25.2860     2.3850   -15.7590 
  140.6250   107.3450     5.3420     4.5970     4.8860    25.4090     2.3980   -16.0680 
  140.7500    99.2650     6.3340     5.2670     6.0850    25.6520     2.4060   -16.4210 
  140.8750    88.1500     7.6860     6.3430     8.9240    25.8190     2.3970   -16.7880 
  141.0000    79.3430     9.1940     7.7460    13.9330    25.7460     2.3620   -17.1570 
  141.1250    76.3740    10.4770     9.1860    12.6370    25.4670     2.3000   -17.5300 
  141.2500    76.2590    11.2720    10.2600    11.3480    25.1820     2.2340   -17.9100 
  141.3750    77.6970    11.5420    10.7850    10.7060    24.8950     2.1810   -18.2940 
  141.5000    79.2140    11.4620    10.8620    10.6930    24.6630     2.1520   -18.6590 
  141.6250    76.2240    11.3250    10.7680    10.8020    24.4960     2.1430   -18.9570 
  141.7500    72.1080    11.3410    10.7540    10.9420    24.3960     2.1400   -19.1870 
  141.8750    71.7900    11.5360    10.8720    11.0530    24.4500     2.1360   -19.3640 
  142.0000    73.6380    11.8450    11.0870    11.0810    24.7060     2.1270   -19.5140 
  142.1250    72.9400    12.1610    11.3380    10.9890    25.0030     2.1160   -19.6720 
  142.2500    70.9000    12.3950    11.5500    11.0450    25.2820     2.1090   -19.8390 
  142.3750    69.0350    12.5020    11.6630    11.2420    25.7090     2.1100   -19.9890 
  142.5000    66.8660    12.4700    11.6470    11.7140    26.3010     2.1160   -20.1100 
  142.6250    65.3170    12.3180    11.5000    11.8720    26.6330     2.1230   -20.2250 
  142.7500    65.5630    12.1260    11.2980    11.3510    26.7710     2.1270   -20.3490 
  142.8750    66.3750    11.9550    11.1010    10.7150    26.8140     2.1270   -20.4680 
