~V
VERS. 2.00: Ver 2.00
~W
STRT.M 40.0000:
STOP.M 276.0000:
STEP.M 0.1250:
NULL. -999.2500:
UWI. F10236:
~C
DEPT.M :
SP.MV :
GR.API :
RML.OHMM :
RI. :
RXO.OHMM :
CALI.CM :
DEN.GM/CC :
~A
# ...
   51.2500    84.6390    46.4920    28.2680     7.6810     4.4950    24.7680  -999.2500 
   51.3750    84.6460    45.5600    22.6400    16.8560     0.8170    24.8040  -999.2500 
   51.5000    84.5090    43.1010     3.3280     6.2680     0.2240    24.8100  -999.2500 
   51.6250    84.3330    40.6820     0.9180     2.3570     0.2200    24.7770  -999.2500 
   51.7500    84.0860    41.2190     0.3010     0.5170     0.2190    24.7500  -999.2500 
   51.8750    83.8800    43.1260     0.2880     0.4930     0.2200    24.7660     1.9910 
   52.0000    83.6990    45.1830     0.2850     0.4760     0.2240    24.7690     1.9910 
   52.1250    83.5690    47.5600     0.2830     0.4720     0.2450    24.7410     1.9920 
   52.2500    83.4650    48.1510     0.2810     0.4690     0.2610    24.7420     1.9900 
   52.3750    83.3760    45.8510     0.2810     0.4680     0.2630    24.7620     1.9840 
   52.5000    83.3660    43.3970     0.2870     0.5140     0.2610    24.7710     1.9760 
   52.6250    83.4740    43.3660     0.2690     0.5640     0.2480    24.7610     1.9710 
   52.7500    83.6660    44.5260     0.2650     0.5020     0.2430    24.7410     1.9720 
   52.8750    83.9210    46.5430     0.2640     0.4280     0.2480    24.7450     1.9830 
   53.0000    84.2040    50.2930     0.2650     0.3970     0.2750    24.7660     2.0060 
   53.1250    84.4870    54.0050     0.2750     0.3460     0.2950    24.7770     2.0310 
   53.2500    84.6690    53.9010     0.3000     0.3290     0.2830    24.7650     2.0460 
   53.3750    84.7910    49.6000     0.3320     0.3650     0.2590    24.7340     2.0500 
   53.5000    84.8400    44.6550     0.3880     0.4420     0.2360    24.7140     2.0440 
   53.6250    84.8270    42.7090     0.4150     0.5140     0.2280    24.7200     2.0300 
   53.7500    84.7800    42.2570     0.3840     0.5720     0.2260    24.7360     2.0160 
   53.8750    84.6740    40.4710     0.3390     0.6380     0.2240    24.7420     2.0060 
   54.0000    84.5430    37.5340     0.3000     0.7690     0.2230    24.7240     1.9980 
   54.1250    84.3760    36.9980     0.2580     0.8800     0.2210    24.7170     1.9960 
   54.2500    84.2910    40.6350     0.2520     0.9090     0.2200    24.7210     1.9950 
   54.3750    84.2060    46.1380     0.2510     0.8500     0.2190    24.7150     1.9930 
   54.5000    84.1300    49.2090     0.2480     0.6180     0.2190    24.7070     1.9930 
   54.6250    84.0040    47.8310     0.2440     0.4690     0.2180    24.6990     1.9910 
   54.7500    83.8470    44.4260     0.2380     0.3500     0.2170    24.6800     1.9880 
   54.8750    83.7230    40.7490     0.2270     0.3190     0.2160    24.6500     1.9830 
   55.0000    83.5950    38.6340     0.2230     0.3230     0.2170    24.6710     1.9770 
   55.1250    83.4350    38.6840     0.2200     0.3550     0.2190    24.6910     1.9660 
   55.2500    83.1960    38.7660     0.2230     0.3620     0.2220    24.6920     1.9490 
   55.3750    82.9250    37.9840     0.2380     0.3630     0.2210    24.6620     1.9310 
   55.5000    82.5780    36.9700     0.2590     0.3570     0.2060    24.6810     1.9090 
   55.6250    82.1310    36.2190     0.2430     0.3240     0.2050    24.6730     1.8850 
   55.7500    81.6390    35.7300     0.2350     0.2930     0.2130    24.6140     1.8690 
   55.8750    81.0090    35.9000     0.2300     0.2750     0.2250    24.4610     1.8640 
   56.0000    80.2480    37.6570     0.2260     0.2680     0.2430    24.2420     1.8680 
   56.1250    79.1640    40.3100     0.2120     0.2660     0.2520    24.0260     1.8850 
   56.2500    77.7590    42.0270     0.2090     0.2620     0.2370    23.8710     1.9150 
   56.3750    75.9280    42.5700     0.2310     0.2480     0.2250    23.8080     1.9530 
   56.5000    73.6520    42.6620     0.2430     0.2410     0.2140    23.8000     1.9950 
   56.6250    70.7990    42.6170     0.2450     0.2590     0.2090    23.8190     2.0480 
   56.7500    67.3820    41.6440     0.2310     0.2490     0.2090    23.8200     2.1200 
   56.8750    63.3100    42.1530     0.2230     0.2240     0.2090    23.8170     2.2080 
   57.0000    58.5420    46.6350     0.2190     0.2120     0.2060    23.8520     2.3080 
   57.1250    52.9510    53.8320     0.2130     0.2090     0.2040    23.9580     2.4060 
   57.2500    46.6750    63.4840     0.2120     0.2070     0.4400    24.0690     2.4430 
   57.3750    39.8480    76.6400     0.3600     0.1750     1.4450    24.1120     2.3910 
   57.5000    32.7630    89.2650     0.5610     0.3140     2.6270    23.9460     2.3100 
   57.6250    25.8660    96.3310     1.0430     0.7230     3.4290    23.5350     2.2720 
   57.7500    19.3180    99.4010     1.8430     1.4250     4.3870    23.1290     2.2890 
   57.8750    13.3090   100.4360     2.7720     2.4210     5.4280    22.8550     2.3350 
   58.0000     7.9290    98.1180     3.5610     3.5710     5.7570    22.7280     2.3740 
   58.1250     3.5730    92.2720     4.1470     4.5800     6.2860    22.7210     2.3940 
   58.2500     0.1640    88.9750     4.6410     5.2890     6.4850    22.7350     2.3970 
   58.3750    -2.2940    90.1760     5.0220     5.7000     6.6060    22.7120     2.3690 
   58.5000    -4.0800    92.4100     5.2450     5.8890     6.8160    22.6760     2.3160 
   58.6250    -5.4550    90.2910     5.3260     5.9590     6.9390    22.7000     2.2690 
   58.7500    -6.6250    84.2670     5.3430     6.0250     7.0710    22.8110     2.2420 
   58.8750    -7.6390    78.4300     5.3430     6.1220     7.2420    22.9710     2.2250 
   59.0000    -8.4790    74.5000     5.3620     6.2510     7.4360    23.1140     2.2090 
   59.1250    -9.1710    71.7420     5.4570     6.4270     7.7140    23.1820     2.1900 
   59.2500    -9.6930    69.9400     5.6790     6.6670     7.9400    23.2390     2.1750 
   59.3750   -10.0400    68.7730     6.0250     6.9620     8.1480    23.3320     2.1720 
   59.5000   -10.1620    69.2970     6.4240     7.2790     8.4760    23.5480     2.1880 
   59.6250   -10.0570    73.0810     6.7920     7.6320     9.3940    23.9600     2.2320 
   59.7500    -9.8340    78.7080     7.1980     8.0830    10.7280    24.4150     2.2920 
   59.8750    -9.4830    82.8820     7.7650     8.7010    11.0430    24.7010     2.3520 
   60.0000    -9.0860    82.7200     8.5300     9.5020    11.2170    24.7800     2.3970 
   60.1250    -8.6610    79.7000     9.3320    10.3360    11.8730    24.7270     2.4330 
   60.2500    -8.3030    77.7510     9.6480    10.8340    18.2860    24.5380     2.4680 
   60.3750    -8.0470    79.1850     9.1000    10.6840    20.8790    24.2060     2.4860 
   60.5000    -7.8870    84.4080     7.9450     9.8530    13.3030    23.8280     2.4550 
   60.6250    -7.8760    92.9160     6.8560     8.6500     9.9010    23.6980     2.3810 
   60.7500    -7.9170    99.0550     6.1600     7.5560     8.6060    23.7240     2.3210 
   60.8750    -8.0030    99.0570     5.8520     6.7760     8.3200    23.7910     2.2970 
   61.0000    -8.1110    96.2440     5.8210     6.3320     8.7280    23.8380     2.3020 
   61.1250    -8.2160    97.7240     5.9120     6.1320     9.2550    23.9390     2.3150 
   61.2500    -8.2960   102.7010     5.9430     5.9910     9.3380    24.1550     2.3300 
   61.3750    -8.3360   106.7830     5.8640     5.8360     8.2080    24.4190     2.3460 
   61.5000    -8.3840   109.0430     5.7240     5.6690     7.3880    24.5450     2.3590 
   61.6250    -8.4450   110.2320     5.6120     5.5420     7.1360    24.5460     2.3550 
   61.7500    -8.5140   109.9860     5.5850     5.4920     7.1970    24.4650     2.3340 
   61.8750    -8.6800   106.9330     5.6720     5.5440     7.3190    24.3360     2.3070 
   62.0000    -8.8580   101.7690     5.8810     5.7070     7.3280    24.1930     2.2890 
   62.1250    -9.1320    98.4430     6.2270     5.9950     7.5360    24.1350     2.2810 
   62.2500    -9.4430    97.6030     6.6550     6.3620     7.8890    24.0700     2.2730 
   62.3750    -9.8180    96.6420     7.0670     6.7310     8.3990    24.0250     2.2580 
