~V
VERS. 2.00: Ver 2.00
~W
STRT.M 50.0000:
STOP.M 278.0000:
STEP.M 0.1250:
NULL. -999.2500:
UWI. F10217:
~C
DEPT.M :
SP.MV :
DEN.GM/CC :
GR.API :
RML.OHMM :
RI. :
RXO.OHMM :
CALI.CM :
~A
# ...
  196.2500   -19.5530     2.3160    83.9370    13.4870    13.8070    10.8420    24.0720 
  196.3750   -19.7480     2.3400    89.2450    12.4130    12.4100     9.7290    24.1020 
  196.5000   -19.9280     2.3600    91.4900    11.8350    11.4720     9.3780    24.1980 
  196.6250   -20.0420     2.3710    86.3300    11.7190    11.0030     9.5990    24.3540 
  196.7500   -20.1050     2.3720    81.5610    11.8730    10.8300    10.3730    24.5090 
  196.8750   -20.0940     2.3630    79.3910    12.2210    10.8700    11.3780    24.5910 
  197.0000   -20.0260     2.3490    79.1850    12.7800    11.0980    11.9220    24.6140 
  197.1250   -19.8750     2.3390    81.5860    13.7630    11.6410    12.2250    24.6050 
  197.2500   -19.6930     2.3360    83.9380    15.3340    12.6050    12.4490    24.5980 
  197.3750   -19.4750     2.3360    82.5200    17.6780    14.1410    14.1760    24.5920 
  197.5000   -19.2380     2.3330    76.9080    20.9170    16.3920    19.9850    24.5810 
  197.6250   -18.9790     2.3190    70.9910    25.2360    19.5840    30.8870    24.5970 
  197.7500   -18.7130     2.2970    66.8810    30.5120    23.5920    34.0910    24.6210 
  197.8750   -18.4430     2.2760    64.4620    37.0080    28.4970    30.3900    24.6360 
  198.0000   -18.1950     2.2590    64.0150    45.3480    34.6980    28.5610    24.6460 
  198.1250   -17.9640     2.2490    64.6450    57.0230    43.4440    38.5460    24.6810 
  198.2500   -17.7310     2.2360    63.8670    72.3120    55.2780    62.5220    24.7340 
  198.3750   -17.5060     2.2160    61.6780    90.4480    70.0300    90.3850    24.7950 
  198.5000   -17.2730     2.1860    57.5820   106.8130    84.6680   102.7700    24.8530 
  198.6250   -17.0290     2.1590    53.4380   107.0900    88.5800   108.8700    24.8530 
  198.7500   -16.7600     2.1520    50.8930    87.2810    76.1860   109.5060    24.7760 
  198.8750   -16.5100     2.1830    49.2780    58.8310    53.8330   106.2320    24.6310 
  199.0000   -16.2660     2.2570    49.2600    35.2430    33.0170    77.4800    24.4880 
  199.1250   -16.0350     2.3620    51.0670    18.1240    20.2310    34.0540    24.4050 
  199.2500   -15.8320     2.4540    53.4170    12.0510    13.1290    15.6110    24.4050 
  199.3750   -15.6480     2.5030    53.6190     9.0330     9.4940     9.3010    24.4230 
  199.5000   -15.5210     2.5000    52.6610     7.6980     7.7330     7.6900    24.4480 
  199.6250   -15.4420     2.4680    55.3390     7.3990     7.1210     8.0210    24.4950 
  199.7500   -15.4240     2.4390    59.1920     7.5780     7.1020     8.9420    24.5070 
  199.8750   -15.4370     2.4260    60.0850     8.0140     7.4610     9.8000    24.4770 
  200.0000   -15.4910     2.4240    58.0080     8.5760     8.0320     9.4410    24.4400 
  200.1250   -15.5650     2.4280    56.2250     9.1960     8.7130     8.0270    24.4660 
  200.2500   -15.6740     2.4320    55.4060     9.7870     9.3900     7.7580    24.4960 
  200.3750   -15.7960     2.4410    54.2220    10.2140     9.9270     8.6590    24.4750 
  200.5000   -15.9240     2.4550    51.7160    10.3270    10.1600    10.3710    24.4680 
  200.6250   -16.0800     2.4770    48.3510    10.0020     9.9210    11.8570    24.5530 
  200.7500   -16.2510     2.5010    46.5640     9.4310     9.3720    11.8460    24.5790 
  200.8750   -16.4350     2.5190    48.1180     8.8390     8.7230    11.8590    24.5480 
  201.0000   -16.6260     2.5240    51.0780     8.4230     8.1770    10.5390    24.5020 
  201.1250   -16.8530     2.5150    52.4160     8.2960     7.8830     8.8790    24.4850 
  201.2500   -17.0810     2.5030    52.0750     8.3420     7.7780     7.8390    24.4590 
  201.3750   -17.3450     2.5000    51.4810     8.4120     7.7540     7.9210    24.3720 
  201.5000   -17.6270     2.5060    49.8470     8.3640     7.6820     8.6330    24.2650 
  201.6250   -17.9460     2.5150    46.8030     8.1150     7.4600     8.4890    24.2520 
  201.7500   -18.3100     2.5130    44.8960     7.7770     7.1400     7.5140    24.3190 
  201.8750   -18.7300     2.4940    45.4460     7.4610     6.8070     6.5970    24.3390 
  202.0000   -19.2140     2.4620    49.2920     7.2340     6.5260     6.3010    24.2980 
  202.1250   -19.7430     2.4280    55.7220     7.1020     6.3230     6.3400    24.2730 
  202.2500   -20.3400     2.4040    61.6680     6.9970     6.1590     6.8390    24.2980 
  202.3750   -20.9780     2.3950    67.9400     6.8790     6.0040     7.2110    24.3550 
  202.5000   -21.6670     2.4020    77.4860     6.7520     5.8520     7.0490    24.3620 
  202.6250   -22.3770     2.4230    90.1600     6.6750     5.7340     6.5770    24.3100 
  202.7500   -23.0190     2.4420    97.9020     6.7090     5.6960     6.8000    24.3220 
  202.8750   -23.5200     2.4420    97.6050     6.9200     5.7900     7.4350    24.4480 
  203.0000   -23.8220     2.4140    92.4790     7.3780     6.0760     8.0970    24.6610 
  203.1250   -23.8720     2.3630    85.5190     8.2200     6.6610     8.4370    24.7620 
  203.2500   -23.6690     2.3140    80.1040     9.4490     7.5480     9.4040    24.7600 
  203.3750   -23.2380     2.2870    77.5880    11.0170     8.7330    11.5190    24.6940 
  203.5000   -22.5950     2.2970    75.6270    12.6980    10.1030    14.5000    24.6180 
  203.6250   -21.7700     2.3460    72.4960    13.9130    11.2800    16.7990    24.5030 
  203.7500   -20.8620     2.4120    71.1500    14.1600    11.7980    17.6850    24.3110 
  203.8750   -19.9580     2.4750    74.0610    13.2950    11.4190    18.5920    24.0480 
  204.0000   -19.1220     2.5190    80.3520    11.6900    10.3190    17.3210    23.8200 
  204.1250   -18.4430     2.5350    86.3910    10.0700     8.9920    13.6110    23.7230 
  204.2500   -17.9080     2.5300    88.7910     8.9310     7.9040     9.7300    23.6940 
  204.3750   -17.5050     2.5140    87.5860     8.3470     7.1930     8.7450    23.7150 
  204.5000   -17.1940     2.4960    86.5650     8.2020     6.8420     8.7620    23.7920 
  204.6250   -16.9490     2.4830    86.7410     8.3220     6.7890     8.7910    23.9950 
  204.7500   -16.7450     2.4760    86.0980     8.4820     6.8660     8.6150    24.2150 
  204.8750   -16.5450     2.4740    84.9650     8.6290     7.0040     8.4640    24.3730 
  205.0000   -16.3150     2.4740    83.5790     8.8710     7.2270     8.8830    24.4450 
  205.1250   -16.0090     2.4750    81.9430     9.4860     7.7080     9.7100    24.4330 
  205.2500   -15.6490     2.4740    79.8920    10.5240     8.5300    10.5770    24.3850 
  205.3750   -15.2160     2.4760    79.1120    11.8200     9.6590    11.6670    24.3460 
  205.5000   -14.6970     2.4820    79.2630    12.9240    10.8270    13.0610    24.3310 
  205.6250   -14.1300     2.4920    80.0830    12.9780    11.3290    14.5960    24.2350 
  205.7500   -13.5070     2.5000    82.0010    11.7660    10.7680    14.6610    23.8390 
  205.8750   -12.8710     2.4940    80.6380     9.6990     9.3130    11.2230    23.1040 
  206.0000   -12.2250     2.4710    73.1080     7.5640     7.5600     7.2860    22.5100 
  206.1250   -11.6300     2.4300    65.1530     6.0450     6.1110     5.6450    22.6940 
  206.2500   -11.0780     2.3860    63.5230     5.1480     5.1200     5.3600    23.3880 
  206.3750   -10.5990     2.3510    65.3860     4.7240     4.5500     5.4010    24.1290 
  206.5000   -10.2360     2.3310    65.7320     4.5910     4.3010     5.2520    24.5650 
  206.6250    -9.9720     2.3290    66.6240     4.5950     4.2740     4.8520    24.6800 
  206.7500    -9.8140     2.3410    70.2050     4.6100     4.3290     4.7110    24.7200 
  206.8750    -9.7490     2.3580    74.7220     4.6080     4.4110     4.6820    24.7030 
  207.0000    -9.7720     2.3770    79.7880     4.6050     4.5000     4.6510    24.6500 
  207.1250    -9.8590     2.3860    84.3780     4.6270     4.5920     4.7980    24.6120 
  207.2500   -10.0010     2.3800    82.5110     4.6740     4.6840     5.0570    24.5620 
  207.3750   -10.1610     2.3560    76.6360     4.7370     4.7720     5.2050    24.4720 
