~V
VERS. 2.00: Ver 2.00
~W
STRT.M 63.0000:
STOP.M 280.0000:
STEP.M 0.1250:
NULL. -999.2500:
UWI. F10220:
~C
DEPT.M :
SP.MV :
DEN.GM/CC :
GR.API :
RML.OHMM :
RI. :
RXO.OHMM :
CALI.CM :
~A
   63.0000    12.1610     2.5550    53.0930     0.1480     0.1180     1.5110    24.7860 
   63.1250     7.5230     2.4980    50.8900     0.2930     0.1900     2.0730    24.7970 
   63.2500     2.7410     2.3890    49.4580     0.6270     0.3880     3.7310    24.6990 
   63.3750    -1.8210     2.2820    51.1360     1.2470     0.7850     6.7010    24.6970 
   63.5000    -5.9350     2.2130    57.0080     2.2410     1.4610     8.4610    24.8720 
   63.6250    -9.4320     2.1820    63.4740     3.4540     2.4080     7.9900    25.1230 
   63.7500   -12.0660     2.1570    66.6030     4.3130     3.4560     7.1940    25.5240 
   63.8750   -13.8990     2.1310    66.9520     4.8290     4.4780     7.0760    26.1560 
   64.0000   -14.9800     2.1300    66.7980     5.4000     5.5810     8.1220    26.6300 
   64.1250   -15.4420     2.1750    66.5100     6.2900     6.9310    10.2460    26.4660 
   64.2500   -15.4450     2.2620    66.5410     7.5550     8.6070    16.3150    25.7840 
   64.3750   -15.2830     2.3610    67.9650     8.7880    10.2400    30.9290    25.1630 
   64.5000   -15.0890     2.4390    69.0280     9.3980    11.2310    44.9000    24.7380 
   64.6250   -14.9340     2.4400    68.4050     9.0260    11.1160    36.0170    24.6830 
   64.7500   -14.8460     2.3370    68.4440     8.0110    10.0140    19.8460    25.2440 
   64.8750   -14.7510     2.2200    71.3190     7.0710     8.7420    12.4450    26.1250 
   65.0000   -14.5820     2.1440    74.7340     6.3990     7.6670    10.1000    26.9150 
   65.1250   -14.3170     2.1180    76.0390     5.9540     6.8730     9.4830    27.1210 
   65.2500   -13.9620     2.1390    79.9970     5.6550     6.3340     8.5390    26.5160 
   65.3750   -13.6110     2.1870    90.3030     5.4640     5.9640     7.3640    25.6780 
   65.5000   -13.3330     2.2420   102.9240     5.4660     5.8120     6.5700    25.0540 
   65.6250   -13.1920     2.2910   110.1680     5.7580     5.9670     6.3750    24.6870 
   65.7500   -13.3000     2.3280   107.2390     6.4400     6.5540     6.7940    24.4510 
   65.8750   -13.7110     2.3580    98.7700     7.3860     7.4770     8.3190    24.2610 
   66.0000   -14.4500     2.3740    88.8630     8.3740     8.5570    12.1510    24.2040 
   66.1250   -15.4740     2.3490    79.2240     9.0460     9.4580    16.8500    24.3880 
   66.2500   -16.7050     2.2680    69.3070     9.0290     9.7290    14.8690    24.8800 
   66.3750   -17.9660     2.1820    63.1280     8.5920     9.4550    11.7560    25.4720 
   66.5000   -19.1500     2.1270    63.7250     8.1020     8.9380    10.4270    25.9090 
   66.6250   -20.1780     2.1090    68.2580     7.8130     8.4940    10.2000    26.0780 
   66.7500   -20.9290     2.1130    69.7450     7.8060     8.3220     9.9810    26.0090 
   66.8750   -21.3650     2.1160    68.6930     7.8920     8.3090    10.0780    26.1320 
   67.0000   -21.4390     2.1130    67.8780     7.8710     8.2620    10.5920    26.4270 
   67.1250   -21.1350     2.1050    68.5430     7.5830     7.9910    10.7270    26.6030 
   67.2500   -20.4960     2.1070    72.4180     7.0100     7.4020     9.9550    26.2450 
   67.3750   -19.7220     2.1390    79.2850     6.4550     6.7240     8.3690    25.4210 
   67.5000   -18.9430     2.2040    87.6120     6.2390     6.2420     6.9740    24.6780 
   67.6250   -18.2590     2.2850    93.6460     6.6270     6.2270     6.5660    24.3150 
   67.7500   -17.7910     2.3630    92.5110     7.9500     7.0330     7.4240    24.1530 
   67.8750   -17.5960     2.4360    84.7680    10.1600     8.6940    10.2010    23.9760 
   68.0000   -17.7460     2.5060    74.2650    13.0740    11.1340    17.4370    23.7520 
   68.1250   -18.3070     2.5510    66.4150    15.8570    13.7580    29.4810    23.4990 
   68.2500   -19.3200     2.5250    64.0210    16.4930    14.9280    31.2680    23.3050 
   68.3750   -20.6070     2.4300    64.2360    14.8460    14.0930    22.1380    23.2960 
   68.5000   -22.0500     2.3000    64.2870    12.4120    12.1420    13.9090    23.6870 
   68.6250   -23.5420     2.1800    63.0680    10.5520    10.2710    10.4790    24.5230 
   68.7500   -24.9580     2.1100    60.3830     9.7700     9.1700     9.9360    25.2750 
   68.8750   -26.2550     2.1010    58.3540     9.6510     8.7030     9.8160    25.7260 
   69.0000   -27.4050     2.1480    59.3180     9.8210     8.6380     9.4010    26.0430 
   69.1250   -28.3690     2.2150    60.9110     9.9270     8.6910     9.2240    26.4270 
   69.2500   -29.1060     2.2370    59.8620     9.7310     8.5990     9.4450    26.6230 
   69.3750   -29.6380     2.2110    58.6560     9.3760     8.3490     9.8230    26.5880 
   69.5000   -29.9920     2.1860    61.0400     9.0630     8.0560    10.0700    26.5030 
   69.6250   -30.2290     2.1840    65.6600     8.9150     7.8370    10.1080    26.4380 
   69.7500   -30.3790     2.1900    65.8990     8.9570     7.7630    10.1270    26.3750 
   69.8750   -30.4700     2.1870    62.3880     9.0680     7.7760    10.2750    26.3540 
   70.0000   -30.5150     2.1750    59.8590     9.1610     7.7980    10.4830    26.4120 
   70.1250   -30.5390     2.1580    61.9980     9.1950     7.7700    10.5280    26.4960 
   70.2500   -30.5590     2.1440    67.2100     9.1700     7.6710    10.2670    26.5040 
   70.3750   -30.6120     2.1440    70.0980     9.1280     7.5400    10.0220    26.4320 
   70.5000   -30.6790     2.1570    70.1390     9.0940     7.4080     9.8670    26.3410 
   70.6250   -30.7390     2.1750    68.3960     9.0810     7.2930     9.7930    26.2080 
   70.7500   -30.8170     2.1860    66.1910     9.0950     7.2010     9.8930    26.0830 
   70.8750   -30.9010     2.1900    64.9060     9.1220     7.1220    10.0550    26.0010 
   71.0000   -30.9800     2.1910    64.0450     9.1660     7.0560    10.1510    26.0240 
   71.1250   -31.0370     2.1940    64.5420     9.2570     7.0250    10.2330    26.0850 
   71.2500   -31.0580     2.1990    65.6750     9.4600     7.0850    10.3580    26.0070 
   71.3750   -31.0370     2.2030    64.0700     9.7810     7.2490    10.5600    25.8890 
   71.5000   -31.0060     2.2070    60.2140    10.1790     7.4980    11.0370    25.8930 
   71.6250   -30.9440     2.2100    58.8640    10.5560     7.7750    12.3130    25.9260 
   71.7500   -30.8480     2.2080    61.4200    10.7330     7.9750    14.1230    25.7680 
   71.8750   -30.7210     2.2000    62.9430    10.6450     8.0270    14.4250    25.5710 
   72.0000   -30.5440     2.1890    62.0950    10.3340     7.9210    13.0120    25.8580 
   72.1250   -30.2900     2.1730    60.5940     9.9430     7.7210    12.0300    26.6070 
   72.2500   -29.9270     2.1440    60.8560     9.6510     7.5310    11.7780    27.5370 
   72.3750   -29.4230     2.1140    62.5010     9.5050     7.4150    11.5070    28.1770 
   72.5000   -28.7130     2.0990    63.2540     9.4460     7.3610    11.2730    28.1630 
   72.6250   -27.7740     2.1040    64.1250     9.3490     7.3030    11.3140    27.8140 
   72.7500   -26.5700     2.1200    66.9070     9.0600     7.1270    11.3400    27.5490 
   72.8750   -25.1640     2.1380    70.5860     8.5970     6.8120    10.8400    27.1590 
   73.0000   -23.6630     2.1670    74.1120     8.0630     6.4030     9.5830    26.4330 
   73.1250   -22.1940     2.2080    79.4500     7.5910     5.9900     8.0140    25.6110 
   73.2500   -20.9080     2.2480    89.3500     7.3330     5.6870     6.8680    25.1540 
   73.3750   -19.8840     2.2750    96.7040     7.3060     5.5420     6.3080    25.0190 
   73.5000   -19.1980     2.2880    97.7200     7.4860     5.5620     6.2630    24.9850 
   73.6250   -18.9220     2.2950    93.0880     7.8130     5.7180     6.3980    24.9600 
   73.7500   -19.1060     2.3020    86.2940     8.2020     5.9620     6.7490    25.0880 
   73.8750   -19.6500     2.3120    82.2590     8.5320     6.2040     7.4850    25.4260 
   74.0000   -20.4830     2.3190    80.4800     8.7020     6.3710     8.2130    25.7440 
   74.1250   -21.4780     2.3050    78.5050     8.6690     6.4170     8.1290    25.8430 
