~V
VERS. 2.00: Ver 2.00
~W
STRT.M 58.0000:
STOP.M 273.0000:
STEP.M 0.1250:
NULL. -999.2500:
UWI. F10226:
~C
DEPT.M :
SP.MV :
DEN.GM/CC :
GR.API :
RML.OHMM :
RI. :
RXO.OHMM :
CALI.CM :
~A
   58.0000    89.5200  -999.2500    49.0800    22.1330     1.6250     1.1050    25.1740 
   58.1250    89.4200  -999.2500    50.3030    22.2010     1.6260     1.1350    25.1750 
   58.2500    89.2200     1.7700    51.2970    22.2080     1.6280     1.1440    25.1770 
   58.3750    89.1840     1.7700    50.9490    22.1820     1.6330     1.1100    25.1770 
   58.5000    89.6250     1.7700    48.5520    22.0360     1.6240     1.0810    25.1740 
   58.6250    89.7040     1.7760    47.9940    21.8510     1.6200     1.0640    25.1750 
   58.7500    89.6980     1.7870    48.4850    21.6210     1.6150     1.0880    25.1770 
   58.8750    89.6680     1.8000    50.4550    21.3150     1.6090     1.1310    25.1750 
   59.0000    89.5150     1.8130    53.2790    20.9510     1.6010     1.1540    25.1710 
   59.1250    89.2050     1.8290    55.4020    20.5870     1.5930     1.1470    25.1720 
   59.2500    88.8250     1.8470    56.0620    20.2890     1.5840     1.1490    25.1760 
   59.3750    88.4550     1.8640    55.3690    20.0920     1.5770     1.1480    25.1790 
   59.5000    88.1100     1.8730    53.9780    19.9450     1.5700     1.1390    25.1790 
   59.6250    87.7860     1.8730    52.1430    19.8000     1.5640     1.1320    25.1800 
   59.7500    87.4030     1.8670    49.8720    19.6350     1.5590     1.1330    25.1820 
   59.8750    86.8780     1.8610    50.1200    19.4740     1.5540     1.1590    25.1800 
   60.0000    86.3100     1.8620    54.0140    19.3100     1.5480     1.1720    25.1700 
   60.1250    85.7400     1.8670    57.9970    19.0870     1.5360     1.0970    25.1660 
   60.2500    85.1260     1.8690    58.7670    18.7330     1.5210     0.9520    25.1690 
   60.3750    84.4520     1.8660    56.3290    18.2360     1.5070     0.9250    25.1730 
   60.5000    83.7310     1.8570    54.5210    17.7640     1.4970     0.9830    25.1760 
   60.6250    82.9560     1.8440    53.2400    17.4830     1.4900     1.0200    25.1810 
   60.7500    82.2010     1.8320    51.9280    17.4820     1.4830     1.0860    25.1960 
   60.8750    81.6220     1.8250    52.9490    17.7160     1.4690     1.1610    25.2100 
   61.0000    81.1500     1.8310    56.0150    17.8830     1.4420     1.1850    25.2010 
   61.1250    80.6990     1.8520    59.6440    17.6630     1.3920     1.1930    25.1790 
   61.2500    80.2430     1.8940    62.4080    16.8790     1.3150     1.1980    25.1690 
   61.3750    79.7910     1.9510    63.2840    15.6150     1.2170     1.1800    25.1690 
   61.5000    79.3870     2.0090    60.7760    14.2630     1.1230     1.1300    25.1530 
   61.6250    79.0720     2.0620    55.2530    13.1040     1.0490     1.0780    25.0850 
   61.7500    78.7880     2.1080    50.8470    12.3040     1.0090     1.0550    24.9350 
   61.8750    78.3620     2.1530    50.7550    11.9360     1.0080     1.1270    24.7470 
   62.0000    77.7880     2.1970    52.6700    11.8260     1.0340     1.2730    24.5330 
   62.1250    77.1170     2.2280    54.0810    11.7900     1.0710     1.3790    24.2780 
   62.2500    76.3840     2.2300    54.5230    11.6430     1.1020     1.3790    23.9810 
   62.3750    75.4870     2.1940    54.7930    11.2350     1.1040     1.3220    23.7330 
   62.5000    74.3390     2.1360    55.5530    10.6610     1.0750     1.2390    23.6030 
   62.6250    72.9240     2.0720    56.8330    10.0990     1.0250     1.1170    23.6030 
   62.7500    71.2650     2.0160    57.3550     9.7500     0.9690     1.0030    23.6730 
   62.8750    69.3240     1.9810    56.7540     9.8200     0.9160     0.9370    23.7190 
   63.0000    67.0210     1.9720    55.8040    10.2060     0.8670     0.9400    23.7540 
   63.1250    64.2660     2.0130    53.4770    10.4870     0.8050     0.9780    23.8000 
   63.2500    61.0010     2.1180    50.4550     9.7910     0.7010     1.0420    23.8880 
   63.3750    57.1470     2.2690    49.8340     7.4540     0.5370     1.0950    23.9990 
   63.5000    52.7290     2.3870    51.3450     4.7890     0.3620     1.1220    24.1070 
   63.6250    47.6130     2.4060    52.0140     2.8330     0.2240     1.1380    24.2290 
   63.7500    41.6570     2.3070    51.0220     1.7750     0.1410     1.1100    24.3650 
   63.8750    34.6820     2.1420    52.6720     1.5230     0.1270     1.1840    24.4990 
   64.0000    27.0070     2.0080    57.3280     1.8570     0.1950     1.6500    24.5870 
   64.1250    19.0980     1.9530    62.0950     2.8050     0.3990     3.2160    24.7080 
   64.2500    11.4900     1.9610    65.7520     4.5080     0.8380     5.4260    24.8620 
   64.3750     4.5560     1.9890    68.7890     7.0690     1.7100     7.3610    24.8970 
   64.5000    -1.6780     2.0080    70.7820     9.5690     2.9810     8.5730    24.7710 
   64.6250    -7.0890     2.0250    70.9460    10.7980     4.4050     9.2750    24.7040 
   64.7500   -11.5000     2.0520    70.0590    10.7110     5.6570     9.7400    24.7400 
   64.8750   -14.5540     2.0920    71.1840    10.3970     6.5660    10.1070    24.6280 
   65.0000   -16.4250     2.1290    73.4020    10.4990     7.2470    10.7710    24.2980 
   65.1250   -17.5120     2.1550    74.9050    10.9540     7.7450    11.3000    24.0200 
   65.2500   -18.3200     2.1690    74.6120    11.4930     8.0470    11.8130    23.9230 
   65.3750   -19.0420     2.1740    73.7630    11.8200     8.1240    11.6420    23.8870 
   65.5000   -19.6510     2.1730    74.3670    11.9000     8.0590    11.3280    23.8990 
   65.6250   -20.1240     2.1680    74.7190    11.8610     7.9370    10.7890    24.0450 
   65.7500   -20.5300     2.1590    73.4480    11.8710     7.8410    10.1980    24.3810 
   65.8750   -20.9840     2.1430    71.9200    12.0380     7.8340     9.6200    25.0020 
   66.0000   -21.4640     2.1270    72.3940    12.3110     7.9060     9.5030    25.6820 
   66.1250   -21.8860     2.1210    73.9870    12.6010     8.0200    10.1210    26.2200 
   66.2500   -22.2600     2.1400    72.7170    12.8030     8.1230    11.1210    26.5110 
   66.3750   -22.6460     2.1890    68.4510    12.8380     8.1680    11.0610    26.6380 
   66.5000   -23.0700     2.2460    66.9010    12.7560     8.1590    10.1530    26.6700 
   66.6250   -23.5140     2.2860    70.9190    12.6430     8.1270     9.4980    26.6960 
   66.7500   -23.9060     2.2910    75.6770    12.5720     8.1060     9.3810    26.7930 
   66.8750   -24.2750     2.2600    75.2680    12.5780     8.1160     9.4620    27.0200 
   67.0000   -24.6800     2.2210    73.8810    12.6090     8.1400     9.5860    27.2110 
   67.1250   -25.1060     2.1960    75.5090    12.6120     8.1530     9.6990    27.3090 
   67.2500   -25.5110     2.1880    78.4390    12.5580     8.1420     9.8370    27.2900 
   67.3750   -25.9090     2.1880    79.6260    12.4590     8.1150     9.7930    27.1160 
   67.5000   -26.3490     2.1800    79.2310    12.3730     8.1070     9.8780    26.8470 
   67.6250   -26.7980     2.1590    76.8970    12.3390     8.1420    10.0710    26.6340 
   67.7500   -27.2860     2.1330    73.7260    12.3660     8.2230    10.2560    26.5920 
   67.8750   -27.7550     2.1170    73.8770    12.4300     8.3320    10.3720    26.8230 
   68.0000   -28.1770     2.1160    75.3550    12.4870     8.4330    10.5370    27.2200 
   68.1250   -28.6030     2.1270    75.2790    12.5070     8.5040    10.7390    27.5410 
   68.2500   -29.0420     2.1410    74.3470    12.4680     8.5330    10.8660    27.7150 
   68.3750   -29.4400     2.1480    75.2420    12.3650     8.5200    10.9490    27.9680 
   68.5000   -29.7960     2.1480    76.4940    12.2280     8.4860    10.9230    28.3080 
   68.6250   -30.1310     2.1500    76.7090    12.0500     8.4420    11.0030    28.5830 
   68.7500   -30.4490     2.1600    76.7360    11.7760     8.3850    11.1130    28.7080 
   68.8750   -30.7170     2.1760    76.2670    11.3640     8.3010    10.9160    28.6320 
   69.0000   -30.9730     2.1830    73.6880    10.9360     8.2020    10.5210    28.4000 
   69.1250   -31.2320     2.1660    70.0470    10.6490     8.1310     9.9080    28.1010 
