~V
VERS. 2.00: Ver 2.00
~W
STRT.M 60.0000:
STOP.M 276.0000:
STEP.M 0.1250:
NULL. -999.2500:
UWI. F10216:
~C
DEPT.M :
DEN.GM/CC :
GR.API :
RML.OHMM :
RI. :
RXO.OHMM :
CALI.CM :
SP.MV :
~A
# ...
  251.2500     2.3910    64.8380    16.4390    13.6530    15.8460    23.9870   -13.4640 
  251.3750     2.3850    64.2130    16.2260    13.5100    16.3780    24.0670   -13.4740 
  251.5000     2.3920    63.2410    15.9550    13.3090    16.8050    24.1910   -13.4900 
  251.6250     2.4100    63.1910    15.6710    13.0770    16.5690    24.1960   -13.4970 
  251.7500     2.4210    63.5500    15.3800    12.8320    15.2340    24.2110   -13.4920 
  251.8750     2.4160    64.1810    15.0640    12.5710    14.6770    24.1950   -13.4950 
  252.0000     2.3950    65.7900    14.7350    12.3060    15.0910    24.1170   -13.5170 
  252.1250     2.3730    68.8610    14.4890    12.0990    15.2910    24.0360   -13.5360 
  252.2500     2.3670    69.6430    14.4650    12.0340    13.8320    24.1020   -13.5190 
  252.3750     2.3890    65.2140    14.8060    12.2070    12.8450    24.2060   -13.4870 
  252.5000     2.4350    58.6780    15.5880    12.6940    14.6710    24.2250   -13.4770 
  252.6250     2.4830    56.4110    16.8130    13.5560    17.8810    24.1740   -13.4600 
  252.7500     2.5100    58.7230    18.1870    14.6370    21.1200    24.1370   -13.4330 
  252.8750     2.5130    62.7370    19.4010    15.7260    24.2030    24.1280   -13.4430 
  253.0000     2.5040    66.2820    20.1590    16.5610    27.0660    24.1280   -13.4500 
  253.1250     2.4900    67.5370    20.2400    16.8770    27.6970    24.1370   -13.4440 
  253.2500     2.4700    65.6710    19.9000    16.7880    27.0290    24.1710   -13.4850 
  253.3750     2.4380    62.9840    19.4040    16.4750    25.8760    24.1580   -13.5430 
  253.5000     2.3950    62.6360    18.9980    16.1380    25.2230    24.1670   -13.5620 
  253.6250     2.3540    64.2320    18.8760    15.9630    25.0340    24.1380   -13.5740 
  253.7500     2.3270    64.2770    18.9860    15.9680    23.1220    24.1510   -13.6250 
  253.8750     2.3150    62.7800    19.1900    16.0790    21.9690    24.1670   -13.6620 
  254.0000     2.3100    61.7290    19.3090    16.1630    20.8050    24.1900   -13.6930 
  254.1250     2.3030    62.9090    19.1270    16.0430    20.2170    24.1740   -13.7410 
  254.2500     2.3000    64.6480    18.6290    15.6850    20.6250    24.1750   -13.7890 
  254.3750     2.3100    64.8870    17.8980    15.1420    19.2110    24.2070   -13.8420 
  254.5000     2.3370    64.2810    17.0940    14.5330    16.8730    24.2480   -13.9100 
  254.6250     2.3830    64.2100    16.4340    14.0130    15.1730    24.1960   -13.9870 
  254.7500     2.4330    64.1440    16.0500    13.6800    16.0320    24.1120   -14.0490 
  254.8750     2.4710    63.3000    16.0140    13.5990    17.3630    24.0600   -14.0870 
  255.0000     2.4850    62.3010    16.3360    13.7900    19.1040    24.1150   -14.1260 
  255.1250     2.4760    62.4500    16.9880    14.2610    18.9090    24.1170   -14.1800 
  255.2500     2.4570    63.4250    17.7940    14.8890    18.3060    23.9750   -14.2130 
  255.3750     2.4340    64.6290    18.6030    15.5680    19.3850    23.7690   -14.2230 
  255.5000     2.4170    65.0290    19.2590    16.1810    20.2800    23.6890   -14.2510 
  255.6250     2.4120    64.8970    19.6350    16.6060    20.5440    23.8630   -14.2460 
  255.7500     2.4110    65.2270    19.8130    16.8730    20.7530    24.0690   -14.2160 
  255.8750     2.4110    66.0060    19.8990    17.0420    20.5920    24.1780   -14.2140 
  256.0000     2.4150    67.3810    19.9840    17.1790    20.9820    24.2040   -14.2110 
  256.1250     2.4220    68.7430    20.1170    17.3260    21.7210    24.1790   -14.1570 
  256.2500     2.4310    68.4700    20.2710    17.4790    23.7430    24.1600   -14.1090 
  256.3750     2.4400    67.1650    20.4000    17.6030    25.1040    24.1920   -14.1070 
  256.5000     2.4510    67.3780    20.4830    17.6790    23.0190    24.2250   -14.0920 
  256.6250     2.4630    67.8570    20.5490    17.7320    21.2770    24.2410   -14.0740 
  256.7500     2.4710    64.8650    20.6470    17.8050    21.1900    24.2260   -14.0630 
  256.8750     2.4750    61.4970    20.7890    17.9110    22.7310    24.2200   -14.0420 
  257.0000     2.4780    61.5690    20.9510    18.0350    22.0380    24.2650   -14.0280 
  257.1250     2.4840    64.6230    21.0780    18.1390    20.7040    24.2540   -13.9980 
  257.2500     2.4930    67.0960    21.1470    18.2070    19.5490    24.1910   -13.9620 
  257.3750     2.4950    67.9250    21.1940    18.2610    19.9390    24.1710   -13.9170 
  257.5000     2.4830    67.6480    21.3070    18.3640    22.3220    24.2050   -13.8720 
  257.6250     2.4610    65.7800    21.6230    18.6170    24.5840    24.1940   -13.8270 
  257.7500     2.4390    63.6360    22.1780    19.0480    23.8870    24.1370   -13.7880 
  257.8750     2.4290    61.6190    22.9690    19.6650    22.9970    24.1190   -13.7720 
  258.0000     2.4310    60.9750    23.9450    20.4470    23.7260    24.1240   -13.7590 
  258.1250     2.4440    62.8870    24.9820    21.3310    24.8980    24.1520   -13.8040 
  258.2500     2.4600    65.0470    25.8970    22.1750    26.3360    24.1750   -13.8520 
  258.3750     2.4790    64.8810    26.5560    22.8540    27.2660    24.1850   -13.8630 
  258.5000     2.5010    62.9670    26.8730    23.2690    27.9750    24.1920   -13.8780 
  258.6250     2.5260    62.1260    26.8030    23.3450    29.0080    24.1620   -13.9290 
  258.7500     2.5430    61.2400    26.5170    23.2100    32.2480    24.1290   -13.9890 
  258.8750     2.5450    59.5160    26.1830    23.0000    35.3220    24.1150   -14.0490 
  259.0000     2.5330    58.2020    25.9620    22.8490    32.7110    24.1350   -14.1180 
  259.1250     2.5080    58.3770    25.9900    22.8750    28.8020    24.1500   -14.1500 
  259.2500     2.4820    60.3510    26.2280    23.0680    26.5360    24.1310   -14.1810 
  259.3750     2.4670    63.3680    26.5870    23.3770    26.8790    24.0950   -14.2300 
  259.5000     2.4670    66.6400    26.9310    23.7060    28.2030    24.1480   -14.3100 
  259.6250     2.4810    67.6260    27.1020    23.9250    29.0440    24.2080   -14.3780 
  259.7500     2.4950    66.8460    27.0950    23.9970    28.5580    24.2260   -14.4280 
  259.8750     2.5000    65.5320    26.9770    23.9570    28.6100    24.2000   -14.4450 
  260.0000     2.4970    64.5090    26.8690    23.8970    29.5140    24.1960   -14.4480 
  260.1250     2.4910    63.6240    26.9150    23.9470    30.9980    24.2270   -14.4540 
  260.2500     2.4870    62.4700    27.1400    24.1530    29.9000    24.2190   -14.4640 
  260.3750     2.4850    61.1860    27.5160    24.5060    28.4470    24.1860   -14.5110 
  260.5000     2.4840    60.0350    27.9680    24.9510    29.2950    24.1760   -14.5240 
  260.6250     2.4860    60.7890    28.4020    25.4020    30.4780    24.1990   -14.5330 
  260.7500     2.4900    62.7690    28.7370    25.7770    31.2230    24.2060   -14.5340 
  260.8750     2.4940    64.0930    28.9280    26.0310    32.7310    24.1880   -14.5490 
  261.0000     2.4930    63.0940    28.9710    26.1490    36.2230    24.2040   -14.6060 
  261.1250     2.4850    62.0160    28.8990    26.1380    36.9060    24.2670   -14.6610 
  261.2500     2.4800    63.2610    28.7940    26.0760    34.9420    24.2840   -14.7080 
  261.3750     2.4850    64.5400    28.6890    26.0080    32.6810    24.2520   -14.7310 
  261.5000     2.5020    63.4610    28.5880    25.9530    29.9550    24.2060   -14.7670 
  261.6250     2.5180    61.3810    28.4720    25.9040    27.5590    24.2140   -14.7850 
  261.7500     2.5220    61.4540    28.3140    25.8350    26.8310    24.2280   -14.8140 
  261.8750     2.5130    63.7750    28.1010    25.7280    29.1470    24.1950   -14.8400 
  262.0000     2.4970    65.1790    27.8560    25.5950    31.1880    24.1520   -14.8190 
  262.1250     2.4890    64.1540    27.6410    25.4760    30.9650    24.1420   -14.8260 
  262.2500     2.4890    63.2840    27.5010    25.4000    31.0830    24.1480   -14.8420 
  262.3750     2.4930    63.9210    27.4650    25.3810    32.2690    24.1350   -14.8390 
