~V
VERS. 2.00: Ver 2.00
~W
STRT.M 50.0000:
STOP.M 281.0000:
STEP.M 0.1250:
NULL. -999.2500:
UWI. F10234:
~C
DEPT.M :
DEN.GM/CC :
GR.API :
RML.OHMM :
RI. :
RXO.OHMM :
CALI.CM :
SP.MV :
~A
# ...
  241.2500     2.2170    59.8920    45.0180    44.8210    31.9940    23.9320    -7.6110 
  241.3750     2.2190    61.0880    42.9970    42.4600    32.0220    23.9230    -7.2970 
  241.5000     2.2170    60.4640    42.4550    41.5930    33.6790    23.9170    -6.9950 
  241.6250     2.2090    59.9890    43.0670    41.9140    34.8070    23.9090    -6.6420 
  241.7500     2.2010    61.3110    44.3520    42.9110    35.8070    23.9000    -6.3260 
  241.8750     2.1950    63.3430    46.1660    44.4140    37.9660    23.8870    -6.0930 
  242.0000     2.1930    63.6430    48.4140    46.3150    41.4900    23.8660    -5.8530 
  242.1250     2.1960    60.4870    50.9690    48.5010    45.3180    23.8390    -5.6700 
  242.2500     2.2010    57.0660    53.5790    50.7290    48.4540    23.8080    -5.4990 
  242.3750     2.2020    54.4220    56.1520    52.8850    51.0690    23.7770    -5.3740 
  242.5000     2.1940    53.2600    58.6880    54.9540    52.7930    23.7510    -5.2370 
  242.6250     2.1830    54.0470    60.9640    56.7800    53.8110    23.7290    -5.1560 
  242.7500     2.1850    54.3460    62.3080    57.8650    54.7160    23.6830    -5.0930 
  242.8750     2.2170    52.4810    61.7140    57.3940    57.2480    23.5870    -4.9850 
  243.0000     2.2730    48.3480    58.4360    54.6920    61.6640    23.4410    -4.9070 
  243.1250     2.3210    44.7520    52.4990    49.6380    57.3660    23.2600    -4.7650 
  243.2500     2.3330    43.5620    45.9160    43.8800    42.2740    23.0940    -4.5960 
  243.3750     2.3250    45.6610    40.1420    38.6950    28.8610    22.9990    -4.3900 
  243.5000     2.3280    51.2170    35.8460    34.7390    22.3240    22.9950    -4.1990 
  243.6250     2.3570    55.1450    33.1000    32.1590    23.5310    23.0970    -3.9600 
  243.7500     2.3810    54.6530    31.1070    30.3140    30.2590    23.2780    -3.7320 
  243.8750     2.3680    53.5710    29.3280    28.7350    37.9920    23.5060    -3.5280 
  244.0000     2.3150    54.3240    27.3990    27.0570    33.6590    23.7220    -3.3020 
  244.1250     2.2480    55.4870    25.1840    25.0880    24.3950    23.8600    -3.1100 
  244.2500     2.1990    55.7560    22.8820    22.9740    20.8940    23.9100    -2.9170 
  244.3750     2.1830    57.0100    20.7200    20.9240    19.5920    23.8820    -2.7480 
  244.5000     2.1940    60.5630    18.9280    19.1640    17.9170    23.8190    -2.6120 
  244.6250     2.2160    64.0270    17.8010    17.9780    15.5370    23.7690    -2.5250 
  244.7500     2.2360    66.2370    17.3470    17.3860    13.5890    23.7400    -2.4230 
  244.8750     2.2490    66.7650    17.5850    17.4030    13.0120    23.7320    -2.3350 
  245.0000     2.2540    63.8960    18.4600    17.9930    14.3080    23.7440    -2.2400 
  245.1250     2.2470    57.8590    19.8310    19.0680    17.2890    23.7710    -2.1930 
  245.2500     2.2330    53.8750    21.2750    20.2680    19.2250    23.7990    -2.2060 
  245.3750     2.2150    54.6110    22.4520    21.2730    20.3440    23.8160    -2.2520 
  245.5000     2.1970    56.5710    23.1150    21.8320    20.6100    23.8210    -2.2950 
  245.6250     2.1840    56.0350    23.1240    21.7840    20.7440    23.8140    -2.3180 
  245.7500     2.1800    56.5430    22.7340    21.3500    20.9670    23.8020    -2.3770 
  245.8750     2.1830    58.4210    22.1800    20.7470    20.7350    23.7930    -2.4370 
  246.0000     2.1910    58.8280    21.7220    20.2080    18.8060    23.7900    -2.5270 
  246.1250     2.2030    55.5880    21.6520    19.9980    17.5780    23.7930    -2.6090 
  246.2500     2.2190    51.8070    22.0030    20.1690    17.1330    23.8000    -2.6550 
  246.3750     2.2380    50.6400    22.6950    20.6800    18.1040    23.8120    -2.6870 
  246.5000     2.2540    52.3850    23.5400    21.3910    21.3990    23.8250    -2.7280 
  246.6250     2.2540    54.6480    24.2430    22.0640    24.5990    23.8290    -2.7650 
  246.7500     2.2370    54.1910    24.5600    22.4520    24.8020    23.7990    -2.7620 
  246.8750     2.2090    52.8330    24.3180    22.3670    22.2920    23.7420    -2.7630 
  247.0000     2.1820    53.9450    23.4380    21.7000    20.1760    23.6720    -2.7470 
  247.1250     2.1710    56.1920    21.9040    20.4010    18.9180    23.6240    -2.7420 
  247.2500     2.1750    57.0670    20.0330    18.7520    16.9410    23.6040    -2.7530 
  247.3750     2.1930    57.8340    18.0890    16.9900    14.5350    23.6140    -2.7630 
  247.5000     2.2250    60.9910    16.3200    15.3410    12.5550    23.6530    -2.7160 
  247.6250     2.2630    65.0090    15.0030    14.0590    12.2720    23.7200    -2.7070 
  247.7500     2.2960    67.2980    14.2190    13.2280    12.2420    23.8070    -2.6950 
  247.8750     2.3120    67.6640    14.0700    12.9280    12.1550    23.8880    -2.6550 
  248.0000     2.3060    66.3620    14.6540    13.2300    11.7480    23.9330    -2.6670 
  248.1250     2.2820    63.4180    16.1430    14.2850    12.1700    23.9420    -2.6370 
  248.2500     2.2610    59.1100    18.2580    15.9160    14.1680    23.9290    -2.6000 
  248.3750     2.2580    54.7330    20.5720    17.8440    17.9220    23.9150    -2.5630 
  248.5000     2.2740    51.6030    22.3480    19.4870    20.7700    23.9080    -2.6000 
  248.6250     2.2970    51.1310    22.5150    19.8680    20.7860    23.9140    -2.6430 
  248.7500     2.3090    52.5390    21.2390    18.9720    18.6580    23.9290    -2.7400 
  248.8750     2.3070    54.2810    19.3560    17.4210    16.8000    23.9520    -2.8790 
  249.0000     2.2980    55.7910    17.9430    16.0580    15.2720    23.9820    -2.9660 
  249.1250     2.2860    56.0710    18.1490    15.7340    13.9280    24.0190    -3.0780 
  249.2500     2.2710    55.2380    20.1940    16.7090    15.1040    24.0480    -3.1800 
  249.3750     2.2560    53.4300    23.8830    19.0250    21.2140    24.0540    -3.2780 
  249.5000     2.2490    51.1680    28.1790    22.1490    29.5220    24.0340    -3.3330 
  249.6250     2.2600    48.5020    30.5030    24.2960    35.8640    23.9940    -3.3800 
  249.7500     2.2820    46.9210    29.2310    23.8990    37.0580    23.9450    -3.3390 
  249.8750     2.3020    47.3640    24.9530    21.0850    35.1770    23.8930    -3.2330 
  250.0000     2.3160    48.9540    18.0230    17.3340    27.2880    23.8430    -3.0940 
  250.1250     2.3260    48.6940    14.4260    14.1530    17.8340    23.7980    -2.9010 
  250.2500     2.3380    45.3760    12.0660    11.8570    13.5450    23.7640    -2.6920 
  250.3750     2.3460    41.9510    10.5950    10.2820    14.2800    23.7470    -2.4600 
  250.5000     2.3440    41.7230     9.6520     9.2060    14.3070    23.7480    -2.2030 
  250.6250     2.3280    45.4080     9.0360     8.5130     9.4480    23.7670    -1.9060 
  250.7500     2.3110    49.3530     8.5870     8.0480     7.5650    23.7990    -1.6300 
  250.8750     2.3000    51.6400     8.2880     7.7670     7.1370    23.8310    -1.4040 
  251.0000     2.2940    52.8580     8.1620     7.6660     7.4610    23.8550    -1.2020 
  251.1250     2.2910    52.6510     8.2330     7.7600     7.4200    23.8640    -1.0640 
  251.2500     2.2920    49.7120     8.3860     7.9450     7.4230    23.8590    -0.9520 
  251.3750     2.3020    46.4840     8.5230     8.1140     7.5730    23.8370    -0.8770 
  251.5000     2.3190    47.6200     8.5810     8.1890     7.8210    23.8010    -0.8180 
  251.6250     2.3340    53.8030     8.5430     8.1350     7.6680    23.7570    -0.7920 
  251.7500     2.3380    58.3720     8.4530     8.0030     7.1500    23.7230    -0.8000 
  251.8750     2.3270    58.1730     8.3580     7.8420     6.8230    23.7040    -0.7750 
  252.0000     2.3090    55.6440     8.3030     7.7040     6.7640    23.6980    -0.7750 
  252.1250     2.2960    54.4490     8.3270     7.6330     6.7530    23.6990    -0.7640 
  252.2500     2.2920    54.0760     8.4140     7.6190     6.7570    23.7000    -0.7720 
  252.3750     2.2950    52.7620     8.5430     7.6460     6.8040    23.7010    -0.7800 
