~V
VERS. 2.00: Ver 2.00
~W
STRT.M 57.0000:
STOP.M 259.0000:
STEP.M 0.1250:
NULL. -999.2500:
UWI. F10209:
~C
DEPT.M :
SP.MV :
DEN.GM/CC :
GR.API :
RML.OHMM :
RI. :
RXO.OHMM :
CALI.CM :
~A
# ...
  225.7500   -19.3490     2.3880    75.3070    64.7750    60.4080    57.5760    23.4500 
  225.8750   -19.1580     2.4400    68.6880    64.4350    60.4970    73.4500    23.4350 
  226.0000   -18.9800     2.4890    64.0890    56.1120    52.8610    89.5230    23.5540 
  226.1250   -18.7920     2.5330    65.3300    43.0430    40.3260    71.5860    23.6820 
  226.2500   -18.5130     2.5660    70.4010    30.2520    27.9860    33.5910    23.8260 
  226.3750   -18.1660     2.5690    72.1420    21.1670    19.4390    17.9670    23.9840 
  226.5000   -17.8810     2.5400    69.1040    15.3110    14.0220    13.2970    24.1280 
  226.6250   -17.7330     2.4830    64.8240    11.9320    10.8050    10.0020    24.2140 
  226.7500   -17.7130     2.4140    61.2020    10.3310     9.0750     8.1680    24.3510 
  226.8750   -17.8310     2.3560    56.8670    10.0430     8.4910     7.8710    24.3230 
  227.0000   -18.0520     2.3210    52.7330    10.3660     8.5440     8.2110    24.2290 
  227.1250   -18.3780     2.3090    51.7540    10.9520     8.9830     8.4970    24.1850 
  227.2500   -18.8060     2.3150    52.1920    11.4990     9.5490     9.0480    23.9470 
  227.3750   -19.2160     2.3290    49.7880    11.6680     9.9140     9.5440    23.9140 
  227.5000   -19.5010     2.3400    46.9380    11.3740     9.8950     8.6670    23.9500 
  227.6250   -19.5950     2.3380    45.6910    10.6970     9.4970     7.3770    23.9640 
  227.7500   -19.4830     2.3180    46.8100     9.8490     8.8830     7.4440    24.0850 
  227.8750   -19.1690     2.2800    50.7080     9.1370     8.3040     7.2460    24.2200 
  228.0000   -18.7930     2.2450    55.7560     8.7700     7.9470     6.8290    24.0780 
  228.1250   -18.4640     2.2280    58.0010     8.8440     7.8930     6.8860    23.6650 
  228.2500   -18.2010     2.2370    54.5080     9.3300     8.1430     7.8550    23.4570 
  228.3750   -17.9330     2.2640    49.9050    10.0530     8.6100     9.2790    23.6380 
  228.5000   -17.6340     2.2910    50.1780    10.6420     9.0300     9.7500    23.8220 
  228.6250   -17.3800     2.3110    54.0920    10.8300     9.1810     9.2570    23.7230 
  228.7500   -17.1880     2.3210    57.7960    10.5290     8.9600     8.3500    23.5040 
  228.8750   -16.9610     2.3240    59.2280     9.8800     8.4430     7.5330    23.5860 
  229.0000   -16.6660     2.3230    60.7130     9.2430     7.8990     6.9170    23.9100 
  229.1250   -16.3490     2.3240    60.2700     8.7950     7.4640     6.5830    24.1390 
  229.2500   -16.0290     2.3290    56.5790     8.5610     7.1760     6.9150    24.2510 
  229.3750   -15.7920     2.3380    54.5390     8.4800     7.0230     7.5460    24.3720 
  229.5000   -15.6990     2.3430    58.7560     8.4510     6.9420     7.8700    24.4900 
  229.6250   -15.7660     2.3350    66.7220     8.4540     6.9200     7.9320    24.5560 
  229.7500   -16.0040     2.3170    74.6800     8.5190     6.9640     7.6310    24.6010 
  229.8750   -16.3900     2.3010    80.4900     8.7180     7.1150     7.4830    24.6650 
  230.0000   -16.7240     2.3030    83.4030     9.0550     7.3750     8.2080    24.6540 
  230.1250   -16.9850     2.3260    83.3040     9.4900     7.7300     9.0860    24.6260 
  230.2500   -17.2490     2.3630    82.9020     9.9340     8.1310     9.3680    24.6130 
  230.3750   -17.4570     2.3960    86.5400    10.2530     8.4820     9.2830    24.6330 
  230.5000   -17.5760     2.4130    91.3400    10.3980     8.7120     9.1530    24.6580 
  230.6250   -17.6030     2.4150    96.4990    10.3900     8.7990     9.1170    24.6060 
  230.7500   -17.5540     2.4070   102.4570    10.3030     8.7760     8.8570    24.4050 
  230.8750   -17.4220     2.3950   106.1670    10.2350     8.7010     8.5170    24.2990 
  231.0000   -17.2770     2.3820   106.6010    10.2310     8.6290     8.3570    24.4250 
  231.1250   -17.0950     2.3700   106.2920    10.2950     8.5770     8.4860    24.5560 
  231.2500   -16.8650     2.3620   109.4180    10.3960     8.5370     8.6790    24.5520 
  231.3750   -16.6890     2.3600   113.3230    10.4590     8.4690     8.9050    24.4560 
  231.5000   -16.5500     2.3640   114.2510    10.4040     8.3280     8.9630    24.3810 
  231.6250   -16.4300     2.3700   112.5030    10.1980     8.1020     8.9430    24.3550 
  231.7500   -16.3580     2.3740   109.7250     9.9130     7.8430     8.8120    24.3620 
  231.8750   -16.4210     2.3730   108.2920     9.8200     7.7220     8.7190    24.3460 
  232.0000   -16.5780     2.3680   108.0860    10.2360     7.9170     8.7330    24.3080 
  232.1250   -16.8540     2.3640   108.5380    11.4680     8.6100     9.5700    24.2660 
  232.2500   -17.2740     2.3590   106.8630    13.7410     9.9860    12.2970    24.2400 
  232.3750   -17.7470     2.3500    99.7770    17.2590    12.3420    18.9510    24.2050 
  232.5000   -18.2260     2.3350    90.4120    21.4850    15.4870    26.2140    24.1470 
  232.6250   -18.7190     2.3140    82.9440    25.7030    19.0050    31.5620    24.1340 
  232.7500   -19.1660     2.2930    79.8580    29.0510    22.1710    32.6130    24.1810 
  232.8750   -19.4760     2.2760    79.4170    30.7990    24.1650    30.9340    24.2490 
  233.0000   -19.7430     2.2630    79.9370    31.5050    25.1690    30.2920    24.2680 
  233.1250   -19.9780     2.2540    79.8710    31.8210    25.6140    30.8590    24.2390 
  233.2500   -20.1180     2.2470    78.8500    32.2390    25.9150    31.6200    24.1490 
  233.3750   -20.1900     2.2420    78.0990    33.0630    26.3810    31.0170    24.0670 
  233.5000   -20.2860     2.2390    76.8780    34.3670    27.1700    29.6420    23.9940 
  233.6250   -20.3910     2.2390    74.1390    36.3110    28.4490    27.9250    23.8520 
  233.7500   -20.4540     2.2380    72.3060    39.1160    30.4130    27.7840    23.3390 
  233.8750   -20.4960     2.2320    73.4020    43.1370    33.4050    31.4930    23.0410 
  234.0000   -20.5510     2.2220    71.9440    48.1170    37.2950    37.8890    22.9800 
  234.1250   -20.5240     2.2130    67.2590    53.6200    41.8140    43.9730    23.0280 
  234.2500   -20.3250     2.2120    64.9050    58.8810    46.3940    49.4560    22.9940 
  234.3750   -19.9820     2.2240    67.4030    62.5400    49.9700    53.7590    22.9760 
  234.5000   -19.5470     2.2450    67.6260    63.8510    51.8050    55.9830    23.0680 
  234.6250   -19.0160     2.2680    64.9730    62.4950    51.5040    58.2960    23.2800 
  234.7500   -18.3910     2.2870    64.2700    58.7710    49.1590    59.7570    23.5980 
  234.8750   -17.7470     2.2970    66.6940    53.3390    45.1440    55.2590    23.9540 
  235.0000   -17.1120     2.3030    68.6840    47.5120    40.5530    47.1660    24.1290 
  235.1250   -16.4590     2.3080    71.3820    42.0420    36.0680    38.7270    24.1070 
  235.2500   -15.8270     2.3130    77.2780    37.3320    32.1110    33.2440    24.0160 
  235.3750   -15.2600     2.3200    83.3680    33.6640    28.9970    29.4010    24.1450 
  235.5000   -14.7500     2.3250    85.6850    30.9610    26.6980    27.9920    24.4830 
  235.6250   -14.2490     2.3270    86.0130    29.2900    25.2770    28.3060    24.5510 
  235.7500   -13.7890     2.3210    85.5970    28.6180    24.7170    27.7370    24.4190 
  235.8750   -13.4250     2.3060    84.2070    28.7020    24.8740    26.4360    24.2840 
  236.0000   -13.0590     2.2860    82.8620    28.7620    25.1260    26.6570    24.2870 
  236.1250   -12.6660     2.2650    83.5450    28.1080    24.8730    30.8920    24.2380 
  236.2500   -12.3240     2.2440    85.9270    26.3140    23.6650    32.4500    24.1500 
  236.3750   -12.0220     2.2240    89.3790    23.4440    21.4330    25.4580    24.1010 
  236.5000   -11.6680     2.2070    95.9840    20.3960    18.9220    17.7720    24.0710 
  236.6250   -11.3780     2.1990   101.4100    17.7820    16.6610    14.5450    24.0140 
  236.7500   -11.1580     2.2050    99.3490    15.8940    14.9190    13.4060    23.9720 
  236.8750   -10.8090     2.2270    92.8470    14.8180    13.8100    12.2710    23.9480 
