~V
VERS. 2.00: Ver 2.00
~W
STRT.M 49.0000:
STOP.M 279.0000:
STEP.M 0.1250:
NULL. -999.2500:
UWI. F10243:
~C
DEPT.M :
GR.API :
RML.OHMM :
RI. :
RXO.OHMM :
CALI.CM :
DEN.GM/CC :
SP.MV :
~A
# ...
  195.2500    59.1910   299.3800   304.6550   254.1280    25.5720     2.1780   -25.3260 
  195.3750    60.4370   240.5260   247.2370   217.8140    25.6370     2.1880   -25.3160 
  195.5000    63.5520   199.9470   205.0480   173.6930    25.6330     2.1990   -25.3680 
  195.6250    67.4100   173.6510   176.8240   143.1840    25.6120     2.2070   -25.4610 
  195.7500    68.2630   159.0690   161.0320   131.3560    25.5650     2.2120   -25.4730 
  195.8750    65.4310   154.0380   155.7760   111.6280    25.5000     2.2150   -25.3410 
  196.0000    62.9760   158.1540   160.5520   118.7730    25.4470     2.2170   -25.1340 
  196.1250    63.6300   168.7390   172.0210   138.3840    25.4270     2.2170   -25.0650 
  196.2500    64.3030   184.4260   188.2300   169.1610    25.4280     2.2160   -25.1090 
  196.3750    61.8760   203.5110   206.9770   189.6100    25.4420     2.2130   -25.1840 
  196.5000    58.4750   224.1840   226.1030   218.9900    25.4650     2.2070   -25.1430 
  196.6250    57.6370   244.6450   244.1650   237.1440    25.4440     2.1970   -24.9260 
  196.7500    58.3640   263.9790   260.6250   236.1900    25.3560     2.1840   -24.6580 
  196.8750    58.9200   281.1260   274.8400   249.6760    25.2330     2.1710   -24.5050 
  197.0000    59.5790   293.3970   284.4740   264.2880    25.1740     2.1630   -24.3210 
  197.1250    61.4000   299.2620   288.3020   288.1710    25.1460     2.1630   -23.8990 
  197.2500    62.6350   297.7470   285.8260   295.0410    25.1170     2.1690   -23.3670 
  197.3750    62.1420   289.3610   277.9560   286.4790    25.1280     2.1780   -22.8640 
  197.5000    61.5350   275.1530   266.0420   250.4950    25.2260     2.1840   -22.4640 
  197.6250    61.2940   257.7900   252.3080   213.1910    25.3800     2.1860   -22.1320 
  197.7500    60.6370   237.8560   237.1720   186.2220    25.4860     2.1860   -21.8100 
  197.8750    59.7920   215.0300   219.7300   166.9100    25.5480     2.1870   -21.4880 
  198.0000    60.2880   188.7470   197.9680   176.3030    25.5790     2.1930   -21.2610 
  198.1250    61.0890   161.1160   173.0030   166.3270    25.5860     2.2050   -21.1760 
  198.2500    61.4570   134.7640   147.3230   146.4100    25.5710     2.2210   -21.1530 
  198.3750    62.8670   112.0120   123.8540   108.0380    25.5210     2.2350   -21.0730 
  198.5000    67.2980    94.5800   105.2610    90.1270    25.4860     2.2410   -20.9880 
  198.6250    70.2330    81.1590    90.8850    81.6810    25.4200     2.2380   -20.9530 
  198.7500    69.8680    70.8190    79.7440    82.2360    25.2500     2.2280   -20.9140 
  198.8750    69.6840    62.8830    70.9560    70.7570    24.9650     2.2170   -20.7840 
  199.0000    72.4640    57.4830    64.7320    60.3460    24.7230     2.2170   -20.5840 
  199.1250    73.3870    54.3940    61.1150    51.4950    24.5590     2.2280   -20.3750 
  199.2500    71.1890    53.8660    60.5290    40.7620    24.4450     2.2480   -20.2180 
  199.3750    69.9480    56.2150    63.4400    32.0640    24.2930     2.2680   -20.1610 
  199.5000    71.4650    62.4290    71.0350    44.2080    24.1970     2.2740   -20.1250 
  199.6250    72.3670    72.2430    82.6010    70.0210    24.3010     2.2620   -20.0700 
  199.7500    71.2510    85.2440    96.9700    85.2340    24.6490     2.2320   -20.0010 
  199.8750    69.6990    99.8880   111.7030    78.9720    25.0620     2.1930   -19.9030 
  200.0000    66.9630   112.8860   122.7620    79.5600    25.3580     2.1620   -19.8300 
  200.1250    63.9440   121.6220   128.2600   102.9660    25.5620     2.1490   -19.7530 
  200.2500    62.1010   125.4300   128.4250   137.2450    25.6700     2.1580   -19.5340 
  200.3750    63.0820   125.7740   125.4850   146.9670    25.6910     2.1780   -19.1430 
  200.5000    65.6190   125.8880   123.2720   130.4400    25.6370     2.1970   -18.7390 
  200.6250    65.9110   129.0250   125.0330   110.0840    25.6000     2.2060   -18.4100 
  200.7500    64.1880   136.8140   132.0570   102.4490    25.5920     2.2090   -18.1290 
  200.8750    60.4570   148.7060   143.3210   117.0030    25.5840     2.2140   -17.8670 
  201.0000    54.2860   160.0270   154.0990   199.7360    25.4970     2.2270   -17.6670 
  201.1250    49.7090   164.0260   158.0090   350.4580    25.3170     2.2400   -17.5430 
  201.2500    50.8650   156.6340   152.0470   309.7370    25.1410     2.2500   -17.5130 
  201.3750    57.0960   138.5270   137.8120   162.0190    25.0650     2.2590   -17.5520 
  201.5000    61.5980   114.5360   118.7990    96.0260    25.0770     2.2750   -17.6040 
  201.6250    62.6180    91.5420    98.9100    94.7850    25.0880     2.2970   -17.6280 
  201.7500    62.7430    72.3500    80.1210    89.2820    25.0700     2.3150   -17.6280 
  201.8750    64.7550    57.6260    64.0150    81.1680    25.0130     2.3180   -17.6090 
  202.0000    68.9370    47.6630    52.1640    54.8260    24.9420     2.3050   -17.4690 
  202.1250    72.0990    41.0380    44.0040    34.6460    24.9790     2.2940   -17.2130 
  202.2500    73.7640    36.9290    38.9810    27.1700    25.0500     2.3020   -16.8910 
  202.3750    75.3190    34.5750    36.2520    31.4950    25.0770     2.3340   -16.5650 
  202.5000    75.9870    33.1930    34.9390    37.3210    25.0340     2.3770   -16.2670 
  202.6250    76.0780    31.6970    33.6980    42.3820    24.9580     2.4110   -15.9770 
  202.7500    77.5400    29.5650    31.6670    42.0730    24.8980     2.4280   -15.7210 
  202.8750    80.2450    26.8710    28.6710    38.0750    24.8490     2.4250   -15.4710 
  203.0000    80.5870    24.3230    25.4830    30.5490    24.8360     2.4040   -15.2260 
  203.1250    80.4050    22.6310    23.1170    20.7230    24.8490     2.3730   -15.0160 
  203.2500    81.9280    22.1390    22.0570    15.1120    24.8660     2.3490   -14.8240 
  203.3750    82.7560    22.9240    22.4120    16.8770    24.8270     2.3480   -14.5850 
  203.5000    79.9130    24.8830    24.0700    30.6430    24.7290     2.3820   -14.1970 
  203.6250    75.8630    27.0720    26.0640    44.2280    24.6500     2.4370   -13.7520 
  203.7500    72.1440    28.4910    27.3890    40.6930    24.6250     2.4920   -13.2690 
  203.8750    70.2150    28.3910    27.2300    29.4740    24.6210     2.5350   -12.7870 
  204.0000    69.3530    26.6340    25.3920    25.4220    24.6280     2.5690   -12.3140 
  204.1250    66.5510    24.2860    22.9540    20.9390    24.6010     2.6060   -11.8440 
  204.2500    61.5620    22.0640    20.5940    17.7690    24.5230     2.6480   -11.4260 
  204.3750    56.9290    20.2270    18.5790    15.7990    24.4430     2.6850   -11.0830 
  204.5000    55.0030    18.4760    16.9110    15.2580    24.4520     2.7030   -10.8440 
  204.6250    53.1800    16.6040    15.4340    12.8650    24.5320     2.7080   -10.6900 
  204.7500    51.4860    14.8680    14.1110    10.9180    24.6370     2.7070   -10.6590 
  204.8750    51.6160    13.5710    12.9410    10.2720    24.6840     2.7090   -10.7380 
  205.0000    53.6840    12.7220    11.9770    10.3190    24.6880     2.7070   -10.8950 
  205.1250    58.2860    12.0380    11.2400    10.3570    24.7290     2.6890   -11.0740 
  205.2500    66.8580    11.5540    10.7800     9.7150    24.8350     2.6480   -11.1960 
  205.3750    78.1430    11.3510    10.6330     9.2480    24.9450     2.5860   -11.2840 
  205.5000    85.5390    11.5510    10.8850    10.3590    25.0070     2.5230   -11.3820 
  205.6250    85.7680    12.1430    11.5100    12.5800    25.0240     2.4810   -11.4450 
  205.7500    82.1700    13.0800    12.4670    14.3270    25.0180     2.4760   -11.4510 
  205.8750    79.9600    14.1270    13.5740    14.4180    24.9680     2.5040   -11.4100 
  206.0000    81.0610    14.6880    14.3260    15.0720    24.8290     2.5460   -11.3190 
  206.1250    82.0580    14.3400    14.2470    17.7690    24.7120     2.5740   -11.1650 
  206.2500    82.2720    13.0630    13.1800    19.0910    24.6990     2.5770   -10.9830 
  206.3750    83.6460    11.2800    11.4500    14.4820    24.7440     2.5610   -10.7880 
