~V
VERS. 2.00: Ver 2.00
~W
STRT.M 50.0000:
STOP.M 270.0000:
STEP.M 0.1250:
NULL. -999.2500:
UWI. F10223:
~C
DEPT.M :
GR.API :
RML.OHMM :
RI. :
RXO.OHMM :
CALI.CM :
DEN.GM/CC :
SP.MV :
~A
# ...
  230.0000    66.4910    57.2610    51.5930    46.7780    22.8870     2.3400   -23.9010 
  230.1250    67.9830    54.6530    49.8990    50.3750    23.5790     2.3210   -23.8580 
  230.2500    68.8690    50.6980    46.8430    51.1520    24.1090     2.3040   -23.7620 
  230.3750    67.5220    46.4560    43.3010    47.5400    24.3000     2.2950   -23.6310 
  230.5000    65.4860    42.8180    40.0870    41.9780    24.3260     2.2940   -23.4710 
  230.6250    66.4510    40.5480    37.9320    38.5030    24.3100     2.3000   -23.2970 
  230.7500    68.3540    39.5740    36.8920    39.6280    24.3110     2.3120   -23.1100 
  230.8750    68.6570    39.7190    36.8880    41.8980    24.3310     2.3250   -22.9280 
  231.0000    67.3640    40.6900    37.7050    44.1380    24.3220     2.3380   -22.7480 
  231.1250    65.7950    42.2680    39.1550    45.1940    24.2440     2.3450   -22.6070 
  231.2500    64.8690    44.1560    40.9290    46.1480    24.1650     2.3460   -22.4970 
  231.3750    64.9970    46.2660    42.9330    47.6800    24.1530     2.3400   -22.3730 
  231.5000    66.8150    48.5540    45.1320    50.5750    24.1990     2.3290   -22.2270 
  231.6250    67.8520    50.8570    47.4170    57.8290    24.3090     2.3180   -22.0710 
  231.7500    67.7880    52.7490    49.4110    66.1900    24.3710     2.3090   -21.9110 
  231.8750    67.1280    53.6990    50.6070    70.7910    24.3940     2.3050   -21.7290 
  232.0000    65.8370    53.2730    50.5460    67.3090    24.4250     2.3020   -21.5160 
  232.1250    64.6170    51.1630    48.8520    59.4190    24.4380     2.2990   -21.2900 
  232.2500    63.2590    48.0580    46.1290    49.8860    24.3610     2.2990   -21.0600 
  232.3750    61.4920    44.6010    42.9770    42.8610    24.2830     2.3020   -20.8400 
  232.5000    62.2840    41.3380    39.9340    39.3100    24.3330     2.3090   -20.6290 
  232.6250    68.1640    38.6230    37.3660    37.8880    24.4110     2.3140   -20.4160 
  232.7500    72.2080    36.3500    35.2190    37.2230    24.3890     2.3160   -20.1850 
  232.8750    69.8480    34.4000    33.4080    37.6830    24.2820     2.3150   -19.9400 
  233.0000    65.0320    32.6890    31.8670    37.9600    24.2340     2.3150   -19.6920 
  233.1250    65.0570    31.2230    30.6050    36.5750    24.1630     2.3190   -19.4580 
  233.2500    67.8550    29.9730    29.5630    33.4850    24.1310     2.3280   -19.2610 
  233.3750    67.8220    28.9520    28.7240    30.9910    24.1210     2.3370   -19.0950 
  233.5000    65.5780    28.1480    28.0570    30.7700    24.1370     2.3450   -18.9630 
  233.6250    62.7790    27.4850    27.4810    30.7870    24.1140     2.3540   -18.8680 
  233.7500    61.9960    26.7770    26.8330    28.8320    24.1100     2.3640   -18.7700 
  233.8750    63.3300    25.8610    25.9690    26.6010    24.0960     2.3680   -18.6720 
  234.0000    65.2040    24.6080    24.7730    26.0580    24.0780     2.3610   -18.5760 
  234.1250    66.1170    22.9500    23.1870    26.4790    24.0770     2.3460   -18.4800 
  234.2500    65.9360    21.1020    21.4190    25.3200    24.0870     2.3370   -18.3770 
  234.3750    66.0100    19.2990    19.6880    22.6790    24.1030     2.3350   -18.2880 
  234.5000    67.5800    17.8200    18.2330    19.5890    24.1110     2.3390   -18.2140 
  234.6250    71.7930    17.0890    17.4110    17.6350    24.0960     2.3450   -18.1310 
  234.7500    75.7140    17.2480    17.3400    16.9720    24.0760     2.3500   -18.0780 
  234.8750    75.2140    18.3940    18.1390    17.3460    24.0750     2.3520   -18.0530 
  235.0000    70.3570    20.4470    19.8310    19.5480    24.1040     2.3510   -18.0340 
  235.1250    66.2460    23.0810    22.3140    24.6530    24.1540     2.3490   -17.9890 
  235.2500    64.5420    25.4520    24.8460    30.8110    24.1920     2.3470   -17.9290 
  235.3750    61.4860    26.7970    26.5890    33.4810    24.1840     2.3420   -17.8550 
  235.5000    56.5740    26.6550    26.8800    32.3610    24.1930     2.3300   -17.7690 
  235.6250    53.1130    25.0420    25.5540    28.8420    24.2230     2.3190   -17.6980 
  235.7500    52.9290    22.9370    23.5800    24.7980    24.1790     2.3160   -17.6400 
  235.8750    55.6290    20.9810    21.6220    22.0000    24.1380     2.3200   -17.6130 
  236.0000    57.8650    19.5230    20.0480    20.7480    24.1200     2.3240   -17.6320 
  236.1250    59.2580    18.7980    19.1050    20.6200    24.1180     2.3270   -17.6650 
  236.2500    60.9520    18.7560    18.7670    20.4930    24.1240     2.3330   -17.6890 
  236.3750    62.4610    19.4280    19.0640    20.3230    24.1270     2.3440   -17.7030 
  236.5000    63.2460    20.8200    20.0100    20.5770    24.1650     2.3590   -17.7150 
  236.6250    64.0080    22.9430    21.6730    23.9020    24.2250     2.3750   -17.7270 
  236.7500    66.2180    25.3840    23.7780    32.5550    24.2370     2.3940   -17.7350 
  236.8750    68.3220    27.6800    25.9780    40.1710    24.1800     2.4130   -17.7300 
  237.0000    68.0740    29.3570    27.8170    38.9590    24.1230     2.4230   -17.7250 
  237.1250    65.1990    30.0480    28.8230    33.9510    23.9620     2.4120   -17.7530 
  237.2500    62.0430    30.1010    29.1500    31.5490    23.8080     2.3880   -17.7840 
  237.3750    60.3460    29.9380    29.1200    30.2550    23.8030     2.3630   -17.8020 
  237.5000    60.9010    29.9300    29.0890    30.8470    23.8840     2.3430   -17.7890 
  237.6250    62.9930    30.2620    29.2910    33.0060    23.8070     2.3350   -17.7550 
  237.7500    65.5150    30.7520    29.6540    34.5680    23.6960     2.3380   -17.7180 
  237.8750    68.3300    31.1670    30.0200    34.4690    23.7830     2.3520   -17.6670 
  238.0000    70.6660    31.2170    30.1530    33.9850    24.0220     2.3700   -17.5910 
  238.1250    70.4320    30.4620    29.6300    32.5500    24.1410     2.3840   -17.4990 
  238.2500    66.7240    28.8680    28.3360    31.4080    24.1440     2.3820   -17.4250 
  238.3750    61.3110    26.5970    26.3740    30.1530    24.1390     2.3630   -17.3700 
  238.5000    58.6470    24.0100    24.0680    27.9530    24.0680     2.3380   -17.3320 
  238.6250    62.1740    21.5930    21.8490    23.3920    23.7310     2.3280   -17.2950 
  238.7500    67.2040    19.6390    20.0000    19.2320    23.3940     2.3280   -17.2360 
  238.8750    68.5600    18.2300    18.6090    18.2170    23.3600     2.3300   -17.1590 
  239.0000    65.4440    17.2930    17.6340    18.4550    23.6760     2.3300   -17.0790 
  239.1250    62.5560    16.7110    16.9970    18.0170    24.0610     2.3280   -17.0010 
  239.2500    64.7040    16.2840    16.5340    16.8600    24.2940     2.3250   -16.9350 
  239.3750    69.2320    15.9670    16.2040    16.0110    24.4060     2.3210   -16.8820 
  239.5000    70.9280    15.8030    16.0300    15.8300    24.5000     2.3160   -16.8450 
  239.6250    69.2330    15.9180    16.1120    16.0980    24.4360     2.3130   -16.8270 
  239.7500    68.7230    16.2920    16.4280    16.8610    24.4000     2.3160   -16.8160 
  239.8750    70.9230    16.8360    16.9030    17.9670    24.3580     2.3230   -16.8000 
  240.0000    72.6140    17.3980    17.4030    19.0190    24.3250     2.3290   -16.7810 
  240.1250    70.3590    17.7790    17.7330    19.2570    24.2690     2.3320   -16.7590 
  240.2500    66.2290    17.9370    17.8320    18.7430    24.2140     2.3350   -16.7220 
  240.3750    62.5960    17.9620    17.7660    17.8980    24.1750     2.3380   -16.6940 
  240.5000    61.2140    18.0470    17.7100    17.2440    24.0910     2.3420   -16.6870 
  240.6250    61.6560    18.4760    17.9220    16.8480    24.0420     2.3430   -16.6860 
  240.7500    63.3600    19.3460    18.5150    16.5860    24.0940     2.3450   -16.7070 
  240.8750    64.6000    20.6580    19.5230    17.8180    24.1710     2.3470   -16.7420 
  241.0000    64.0260    22.2730    20.8720    21.9740    24.2210     2.3490   -16.7760 
  241.1250    62.0050    23.9180    22.3850    25.2970    24.1800     2.3480   -16.8000 
