~V
VERS. 2.00: Ver 2.00
~W
STRT.M 56.0000:
STOP.M 270.0000:
STEP.M 0.1250:
NULL. -999.2500:
UWI. F10225:
~C
DEPT.M :
SP.MV :
DEN.GM/CC :
GR.API :
RML.OHMM :
RI. :
RXO.OHMM :
CALI.CM :
~A
# ...
  247.2500   -19.9700     2.3910    63.9970    26.9530    23.3890    30.4780    24.0030 
  247.3750   -20.0570     2.4620    70.3670    29.5120    25.4540    30.1180    23.8170 
  247.5000   -20.1400     2.5180    71.8990    32.4720    27.9580    30.2060    23.5980 
  247.6250   -20.1750     2.5430    71.4410    35.4520    30.5800    36.7690    23.4880 
  247.7500   -20.1850     2.5450    71.0410    37.9780    32.8900    46.5700    23.4540 
  247.8750   -20.1930     2.5360    68.7980    39.7040    34.5560    52.6040    23.4340 
  248.0000   -20.2010     2.5220    64.6500    40.4920    35.4550    51.1030    23.3880 
  248.1250   -20.1590     2.5080    61.7780    39.7620    35.2060    50.0010    23.2660 
  248.2500   -20.0930     2.4970    59.6150    36.8860    33.3040    52.3620    23.1310 
  248.3750   -20.0160     2.4890    55.9610    31.8690    29.5300    53.8450    23.1670 
  248.5000   -19.8850     2.4900    52.0290    25.8570    24.5720    51.3860    23.3620 
  248.6250   -19.6950     2.4950    49.5170    20.4890    19.7480    47.5000    23.5400 
  248.7500   -19.4800     2.4970    46.1810    16.4600    15.8580    35.2950    23.5960 
  248.8750   -19.2760     2.5020    39.6170    13.7410    13.0320    21.4840    23.4940 
  249.0000   -19.0690     2.5140    31.0040    11.9820    11.0420    17.9480    23.3180 
  249.1250   -18.8850     2.5060    25.5700    10.7560     9.5850    20.1620    23.1350 
  249.2500   -18.7440     2.4670    25.8130     9.6800     8.3830    16.9020    22.9120 
  249.3750   -18.6570     2.4120    29.9200     8.6490     7.3640    10.2890    22.6380 
  249.5000   -18.6120     2.3720    34.7970     7.7600     6.5640     6.5360    22.4020 
  249.6250   -18.6180     2.3520    39.4590     6.3090     6.0750     5.5110    22.2850 
  249.7500   -18.6270     2.3430    42.9300     5.8510     5.8900     5.4100    22.2590 
  249.8750   -18.6310     2.3330    44.8100     5.9150     5.9430     5.4690    22.2350 
  250.0000   -18.6470     2.3200    45.8760     6.0620     6.1090     5.4630    22.2360 
  250.1250   -18.6690     2.3000    45.7060     6.1630     6.2370     5.5850    22.3440 
  250.2500   -18.6530     2.2790    43.3020     6.2000     6.2710     5.8750    22.5620 
  250.3750   -18.6010     2.2630    40.4850     6.2200     6.2460     6.1960    22.8030 
  250.5000   -18.5160     2.2580    39.9580     6.2640     6.2230     6.3080    23.0040 
  250.6250   -18.4040     2.2690    41.0500     6.3260     6.2520     6.2090    23.1490 
  250.7500   -18.3010     2.2930    40.7810     6.3760     6.3210     6.0710    23.2490 
  250.8750   -18.2090     2.3300    38.6920     6.3880     6.3850     5.9180    23.3160 
  251.0000   -18.0770     2.3720    36.4500     6.3550     6.3910     5.8020    23.3200 
  251.1250   -17.8720     2.3930    35.5400     6.2930     6.3170     5.9660    23.2650 
  251.2500   -17.6200     2.3790    35.9150     6.2370     6.2100     6.4770    23.2200 
  251.3750   -17.3310     2.3460    36.8040     6.2170     6.1320     7.2120    23.2240 
  251.5000   -17.0700     2.3190    38.0380     6.2690     6.1260     7.7880    23.2260 
  251.6250   -16.8150     2.3160    39.6740     6.4560     6.2350     8.1750    23.1490 
  251.7500   -16.5660     2.3310    41.2030     6.8070     6.4610     8.2800    23.0510 
  251.8750   -16.3020     2.3550    42.5500     7.3120     6.7920     8.3290    23.0770 
  252.0000   -16.0690     2.3780    44.7180     7.9110     7.1950     8.6760    23.2100 
  252.1250   -15.9040     2.3940    47.6220     8.4800     7.6020     9.0420    23.3230 
  252.2500   -15.7780     2.4020    49.0520     8.8960     7.9240     9.1500    23.3780 
  252.3750   -15.6750     2.4060    47.8010     9.0920     8.1090     9.2530    23.4190 
  252.5000   -15.5520     2.4100    45.4420     9.0940     8.1580     9.4320    23.4520 
  252.6250   -15.4210     2.4190    44.3030     9.0240     8.1330     9.3200    23.4620 
  252.7500   -15.2710     2.4320    43.8840     9.0390     8.1420     9.2880    23.4490 
  252.8750   -15.0850     2.4490    43.6560     9.2310     8.2700     9.4040    23.4330 
  253.0000   -14.8620     2.4680    44.2310     9.6030     8.5530     9.3610    23.4340 
  253.1250   -14.6030     2.4870    44.9290    10.0820     8.9770     9.7750    23.4190 
  253.2500   -14.3390     2.4950    44.6610    10.5170     9.4270    11.0220    23.3600 
  253.3750   -14.0840     2.4840    44.6920    10.7820     9.7740    12.3880    23.3080 
  253.5000   -13.8350     2.4590    46.0800    10.8200     9.9250    12.9030    23.3030 
  253.6250   -13.6450     2.4370    46.6350    10.6490     9.8490    11.9270    23.3490 
  253.7500   -13.5320     2.4280    45.3900    10.3900     9.6460    10.3560    23.4020 
  253.8750   -13.5160     2.4270    44.0910    10.1380     9.4190     9.3250    23.4390 
  254.0000   -13.5650     2.4250    43.8960     9.9320     9.2270     8.8950    23.4540 
  254.1250   -13.6500     2.4170    43.7960     9.7530     9.0670     8.6420    23.4540 
  254.2500   -13.7370     2.4080    43.6630     9.5500     8.8980     8.2950    23.4460 
  254.3750   -13.8220     2.4010    44.5820     9.3080     8.6930     7.9930    23.4220 
  254.5000   -13.9360     2.3960    46.2770     9.0660     8.4710     8.0510    23.3980 
  254.6250   -14.0360     2.3940    47.0840     8.9100     8.3000     8.2980    23.3920 
  254.7500   -14.0850     2.3950    46.5350     8.8970     8.2440     8.5120    23.4090 
  254.8750   -14.0950     2.3960    45.4120     9.0370     8.3470     8.9720    23.4060 
  255.0000   -14.0840     2.4010    44.3460     9.2970     8.6170    10.0120    23.3830 
  255.1250   -14.1030     2.4160    44.7390     9.6220     9.0150    11.6120    23.3690 
  255.2500   -14.1500     2.4390    46.8500     9.9340     9.4350    12.6610    23.3940 
  255.3750   -14.2210     2.4600    48.8660    10.1790     9.7740    13.5400    23.4380 
  255.5000   -14.3130     2.4730    49.1270    10.3540     9.9640    14.7700    23.4720 
  255.6250   -14.3750     2.4760    48.2470    10.5010     9.9930    14.8260    23.4750 
  255.7500   -14.4370     2.4720    47.4400    10.6320     9.9450    13.9750    23.4900 
  255.8750   -14.5550     2.4630    46.3420    10.7100     9.8970    13.2720    23.5060 
  256.0000   -14.6900     2.4460    45.5100    10.7010     9.9030    12.8050    23.5050 
  256.1250   -14.7380     2.4310    46.2670    10.6410    10.0070    12.8990    23.5100 
  256.2500   -14.7060     2.4210    47.3190    10.6620    10.2110    13.5030    23.5280 
  256.3750   -14.6390     2.4180    47.1260    10.8790    10.4920    15.1280    23.5590 
  256.5000   -14.5260     2.4210    45.8400    11.2920    10.8030    17.0420    23.5990 
  256.6250   -14.4460     2.4240    44.8320    11.7170    11.0490    16.5740    23.6150 
  256.7500   -14.4030     2.4250    44.1170    11.8890    11.1360    14.7870    23.5950 
  256.8750   -14.2780     2.4290    43.4560    11.6410    10.9950    13.8180    23.5690 
  257.0000   -14.1100     2.4400    43.2680    10.9650    10.6030    14.0170    23.5580 
  257.1250   -13.9840     2.4510    43.7280    10.0160     9.9820    14.1510    23.5220 
  257.2500   -13.8980     2.4470    44.4540     9.0460     9.2420    13.1750    23.4570 
  257.3750   -13.7680     2.4230    44.9640     8.2100     8.4860    10.8310    23.4160 
  257.5000   -13.5850     2.3940    44.9260     7.5520     7.7970     8.7150    23.4300 
  257.6250   -13.3540     2.3790    44.6210     7.0710     7.2560     7.9940    23.4890 
  257.7500   -13.0600     2.3770    44.9260     6.7330     6.8750     8.1670    23.5360 
  257.8750   -12.7800     2.3780    45.7040     6.5270     6.6360     7.9290    23.5490 
  258.0000   -12.5140     2.3770    46.2630     6.4370     6.5000     7.2030    23.5480 
  258.1250   -12.2170     2.3820    45.8070     6.4320     6.4260     6.7660    23.5540 
  258.2500   -11.9110     2.3910    45.3730     6.4690     6.3710     6.7200    23.5610 
  258.3750   -11.6510     2.3990    46.0220     6.5320     6.3170     6.8230    23.5610 
