~V
VERS. 2.00: Ver 2.00
~W
STRT.M 56.0000:
STOP.M 275.0000:
STEP.M 0.1250:
NULL. -999.2500:
UWI. F10253:
~C
DEPT.M :
GR.API :
RML.OHMM :
RI. :
RXO.OHMM :
CALI.CM :
DEN.GM/CC :
SP.MV :
~A
   56.0000    39.5480     2.5850     0.4460     2.7450    25.1280     0.0000  -999.2500 
   56.1250    37.2420     2.6100     0.4420     2.8010    25.1620     0.0000  -999.2500 
   56.2500    36.4010     2.6120     0.4380     2.8410    25.2400     0.0000     0.0000 
   56.3750    36.9260     2.5780     0.4360     2.8600    25.3350     0.0000     0.0000 
   56.5000    36.9760     2.5180     0.4360     2.8700    25.3730     0.0000     0.0000 
   56.6250    37.1940     2.4460     0.4370     2.8780    25.3800     0.0000     0.0000 
   56.7500    39.5870     2.3770     0.4390     2.8860    25.3780     0.0000     0.0000 
   56.8750    44.2540     2.3270     0.4400     2.8830    25.3780     2.0650     0.0000 
   57.0000    46.7830     2.2950     0.4410     2.8790    25.3790     2.0550     0.0000 
   57.1250    45.0970     2.2740     0.4420     2.9050    25.3770     2.0450     1.8440 
   57.2500    41.3930     2.2590     0.4420     2.9590    25.3770     2.0380    -0.7000 
   57.3750    39.4140     2.2490     0.4430     3.0150    25.3770     2.0370    -4.2330 
   57.5000    38.4860     2.2480     0.4430     3.0580    25.3770     2.0410    -7.3270 
   57.6250    36.1860     2.2530     0.4420     3.0670    25.3700     2.0520    -9.9720 
   57.7500    33.3570     2.2590     0.4400     3.0520    25.3570     2.0690   -12.2510 
   57.8750    31.9490     2.2560     0.4380     3.0440    25.3390     2.0880   -14.1370 
   58.0000    31.6790     2.2420     0.4370     3.0340    25.3280     2.1020   -15.6370 
   58.1250    32.4640     2.2180     0.4370     3.0000    25.3210     2.1080   -16.7050 
   58.2500    33.4670     2.1860     0.4400     2.9220    25.3140     2.1040   -17.3560 
   58.3750    33.2340     2.1420     0.4450     2.7620    25.2980     2.0970   -17.5870 
   58.5000    32.4480     2.0830     0.4520     2.5140    25.2730     2.0920   -17.4460 
   58.6250    32.5360     2.0070     0.4580     2.1940    25.2350     2.0910   -16.9620 
   58.7500    33.2830     1.9180     0.4610     1.8930    25.1930     2.0950   -16.2240 
   58.8750    32.8670     1.8360     0.4570     1.6870    25.1670     2.1000   -15.3490 
   59.0000    32.7260     1.7840     0.4470     1.5020    25.1360     2.1030   -14.4280 
   59.1250    34.0550     1.7820     0.4310     1.3120    25.0780     2.1030   -13.4930 
   59.2500    35.0480     1.8340     0.4110     1.1150    24.9760     2.0990   -12.5950 
   59.3750    34.6240     1.9290     0.3920     0.9120    24.7780     2.0950   -11.8410 
   59.5000    34.8810     2.0260     0.3800     0.7760    24.4590     2.0940   -11.2540 
   59.6250    36.7490     2.0940     0.3780     0.7260    24.0530     2.1000   -10.8410 
   59.7500    39.0980     2.1120     0.3830     0.7000    23.7530     2.1110   -10.5350 
   59.8750    40.5560     2.0690     0.3920     0.6390    23.7190     2.1200   -10.2770 
   60.0000    40.6830     1.9890     0.3980     0.5870    23.8810     2.1240   -10.1520 
   60.1250    38.5070     1.8950     0.3990     0.6200    24.1440     2.1230   -10.3530 
   60.2500    35.3010     1.8090     0.4000     0.7820    24.4760     2.1190   -10.9040 
   60.3750    33.9020     1.7530     0.4030     1.1500    24.8230     2.1180   -11.6800 
   60.5000    33.7130     1.7280     0.4070     1.6570    25.0970     2.1230   -12.4870 
   60.6250    33.2550     1.7300     0.4080     2.2650    25.2600     2.1340   -13.2110 
   60.7500    32.4810     1.7430     0.4040     2.7860    25.3210     2.1520   -13.7390 
   60.8750    32.3710     1.7490     0.3930     2.8770    25.3300     2.1870   -13.8900 
   61.0000    32.7730     1.7390     0.3830     2.8080    25.3270     2.2370   -13.5610 
   61.1250    33.1470     1.7190     0.3770     2.6820    25.3090     2.2930   -12.6780 
   61.2500    33.9060     1.7000     0.3820     2.4800    25.2640     2.3440   -11.3070 
   61.3750    34.8240     1.6770     0.3960     2.1930    25.1500     2.3740    -9.5610 
   61.5000    35.3800     1.6220     0.4100     1.8620    24.9480     2.3910    -7.5670 
   61.6250    35.4620     1.4970     0.4100     1.5620    24.6600     2.4060    -5.3860 
   61.7500    35.9340     1.2820     0.3850     1.3470    24.4030     2.4340    -3.1800 
   61.8750    38.1890     0.9860     0.3280     1.1770    24.5450     2.4830    -1.0490 
   62.0000    41.2400     0.6970     0.2620     0.9490    24.7910     2.5360     0.9840 
   62.1250    44.9810     0.4860     0.2130     0.6700    24.8570     2.5680     2.9350 
   62.2500    49.7620     0.3920     0.2010     0.4280    24.6830     2.5510     4.7520 
   62.3750    54.8110     0.4560     0.2630     0.4950    24.3150     2.4810     5.9910 
   62.5000    57.8620     0.6700     0.4200     0.8590    23.9010     2.3890     6.2510 
   62.6250    57.5820     1.0580     0.7130     1.6480    23.6200     2.3000     5.3990 
   62.7500    55.1540     1.6430     1.1900     2.7510    23.5260     2.2280     3.5710 
   62.8750    52.7490     2.4470     1.9180     4.4090    23.6680     2.1730     1.0230 
   63.0000    51.3140     3.3500     2.8300     6.3730    24.0540     2.1180    -1.8600 
   63.1250    51.7120     4.2000     3.8150     7.8350    24.6890     2.0440    -4.9120 
   63.2500    53.4490     4.8240     4.7070     8.2550    25.6200     1.9440    -7.9130 
   63.3750    55.0310     5.0850     5.3060     7.9320    27.0350     1.8290   -10.3340 
   63.5000    55.3960     5.1130     5.6290     7.4200    29.1070     1.7250   -11.9090 
   63.6250    54.6700     5.0340     5.7510     6.8970    31.7730     1.6490   -12.5880 
   63.7500    54.6660     4.9390     5.7560     6.4560    34.3430     1.6140   -12.4450 
   63.8750    58.4280     4.8640     5.6970     6.0500    35.1360     1.6370   -11.8290 
   64.0000    66.9860     4.8030     5.6150     5.3660    33.7610     1.7110   -11.0580 
   64.1250    77.1400     4.7590     5.5410     4.6470    30.4600     1.8290   -10.2770 
   64.2500    83.7580     4.7530     5.5070     4.5700    26.9480     1.9710    -9.5910 
   64.3750    83.9620     4.8290     5.5610     4.9010    24.9770     2.1060    -9.0920 
   64.5000    80.5900     4.9840     5.6990     5.1940    24.1770     2.2010    -8.7380 
   64.6250    76.4660     5.1920     5.8940     5.4360    23.8150     2.2470    -8.4950 
   64.7500    73.5900     5.4000     6.0930     5.7470    23.5690     2.2560    -8.4040 
   64.8750    76.2230     5.5270     6.2130     6.1550    23.3390     2.2520    -8.3730 
   65.0000    82.2680     5.5370     6.2130     6.4170    23.2180     2.2510    -8.4390 
   65.1250    86.5390     5.4310     6.0930     6.2540    23.2350     2.2570    -8.5190 
   65.2500    87.6450     5.2560     5.8910     5.7650    23.3070     2.2670    -8.5960 
   65.3750    87.6410     5.0930     5.6830     5.2050    23.3660     2.2750    -8.6500 
   65.5000    89.1090     5.0110     5.5460     4.9990    23.3560     2.2770    -8.7050 
   65.6250    90.7520     5.0410     5.5140     5.0410    23.2690     2.2750    -8.7630 
   65.7500    90.2970     5.1740     5.5910     5.1750    23.1470     2.2720    -8.8250 
   65.8750    87.1980     5.3830     5.7580     5.3140    23.0670     2.2720    -8.9590 
   66.0000    84.1060     5.6040     5.9480     5.4870    23.0120     2.2720    -9.1380 
   66.1250    82.5530     5.7840     6.1100     5.7120    22.9630     2.2700    -9.3810 
   66.2500    81.4450     5.8780     6.1920     5.8970    22.9260     2.2650    -9.6950 
   66.3750    80.9110     5.8350     6.1430     5.9390    22.8900     2.2580   -10.0850 
   66.5000    81.8410     5.6970     5.9960     5.7670    22.8710     2.2530   -10.4930 
   66.6250    83.3110     5.5430     5.8210     5.6120    22.9160     2.2500   -10.9330 
   66.7500    84.2250     5.5060     5.7390     5.3870    23.0740     2.2560   -11.3820 
   66.8750    86.2000     5.7900     5.9380     5.6040    23.3450     2.2790   -11.8390 
   67.0000    86.8610     6.4170     6.4540     7.0320    23.6060     2.3180   -12.3150 
   67.1250    81.8440     7.3170     7.2390    10.0090    23.8150     2.3640   -12.8080 
