~V
VERS. 2.00: Ver 2.00
~W
STRT.M 48.0000:
STOP.M 276.0000:
STEP.M 0.1250:
NULL. -999.2500:
UWI. F10244:
~C
DEPT.M :
GR.API :
RML.OHMM :
RI. :
RXO.OHMM :
CALI.CM :
DEN.GM/CC :
SP.MV :
~A
# ...
  205.5000    63.6760     5.7830     5.0850     5.1720    29.3980     2.2740    -3.8600 
  205.6250    65.8920     6.1830     5.4250     5.1910    30.3930     2.2860    -3.2330 
  205.7500    68.4290     6.6140     5.8900     5.1180    29.7520     2.2840    -2.7320 
  205.8750    74.3080     6.9290     6.3190     5.3360    27.3650     2.2910    -2.3370 
  206.0000    81.2840     7.1070     6.6400     5.9890    25.9120     2.3180    -2.0350 
  206.1250    84.7370     7.1730     6.8400     6.6280    25.4290     2.3580    -1.7870 
  206.2500    83.8320     7.1670     6.9330     6.9770    25.3310     2.3940    -1.6280 
  206.3750    82.2170     7.1270     6.9330     7.1430    25.3270     2.4070    -1.5470 
  206.5000    81.0010     7.0840     6.8740     7.3500    25.1990     2.4040    -1.5190 
  206.6250    78.4550     7.0460     6.7670     7.5520    25.0600     2.3940    -1.4970 
  206.7500    75.4600     7.0070     6.6170     7.3900    24.9820     2.3870    -1.4430 
  206.8750    76.3130     6.9540     6.4280     7.0790    24.9480     2.3870    -1.3940 
  207.0000    79.3580     6.8920     6.2230     7.0730    24.9470     2.3870    -1.3300 
  207.1250    82.2950     6.8470     6.0390     7.3560    24.9440     2.3880    -1.2960 
  207.2500    84.4300     6.8630     5.9230     7.6080    24.9260     2.3880    -1.2490 
  207.3750    85.0880     6.9980     5.9320     7.7220    24.9040     2.3890    -1.2190 
  207.5000    83.5140     7.2580     6.0690     7.9250    24.8210     2.3920    -1.1970 
  207.6250    80.0080     7.6480     6.3480     9.1160    24.7440     2.3930    -1.1630 
  207.7500    77.5040     8.1650     6.7720    10.7470    24.7450     2.3910    -1.1530 
  207.8750    78.0490     8.8420     7.3650    11.1890    24.8450     2.3860    -1.1490 
  208.0000    79.9600     9.6800     8.1190    11.0500    24.9700     2.3820    -1.1730 
  208.1250    80.7510    10.7140     9.0570    12.5580    25.0300     2.3810    -1.2030 
  208.2500    79.7730    11.9860    10.2020    14.4370    25.0510     2.3840    -1.2820 
  208.3750    80.3120    13.5650    11.6080    15.0420    25.0350     2.3900    -1.3480 
  208.5000    81.8690    15.3220    13.1870    17.2040    25.0350     2.3940    -1.4350 
  208.6250    83.3990    17.0000    14.7420    20.1560    25.0600     2.3950    -1.5270 
  208.7500    82.6810    18.2130    15.9370    21.7900    25.1040     2.3930    -1.6360 
  208.8750    79.6190    18.5050    16.3090    22.8360    25.1160     2.3890    -1.7510 
  209.0000    77.1120    18.0720    15.9600    23.2400    25.1120     2.3820    -1.8740 
  209.1250    76.0260    17.3250    15.2300    20.7040    25.1280     2.3710    -1.9840 
  209.2500    75.0760    16.7960    14.6180    17.2140    25.1610     2.3560    -2.0470 
  209.3750    73.3240    17.1330    14.7520    16.7910    25.2030     2.3430    -2.0890 
  209.5000    72.5360    18.6250    15.9170    19.1710    25.2440     2.3340    -2.1030 
  209.6250    73.4420    21.5810    18.3830    25.1520    25.2700     2.3270    -2.1360 
  209.7500    73.2370    26.1450    22.2760    31.7730    25.2770     2.3190    -2.1680 
  209.8750    71.0270    31.9730    27.3990    39.2730    25.2820     2.3080    -2.2140 
  210.0000    69.2340    37.4590    32.4340    45.2830    25.2990     2.2930    -2.2520 
  210.1250    69.2970    41.1700    36.0910    48.8910    25.3270     2.2780    -2.3090 
  210.2500    70.9520    42.4430    37.6700    48.1380    25.3490     2.2640    -2.4090 
  210.3750    70.5960    41.5650    37.2700    42.4750    25.3680     2.2540    -2.5690 
  210.5000    66.8900    40.0680    36.1500    38.1740    25.3810     2.2470    -2.7600 
  210.6250    63.0490    38.7980    35.0490    37.3820    25.3930     2.2440    -2.9450 
  210.7500    63.1120    38.1960    34.4180    37.2660    25.3940     2.2450    -3.1260 
  210.8750    67.1490    38.5460    34.6160    37.0640    25.4050     2.2490    -3.2940 
  211.0000    67.9730    39.6720    35.5780    37.4970    25.4140     2.2520    -3.4370 
  211.1250    64.8310    41.4110    37.2100    39.4800    25.4280     2.2510    -3.5490 
  211.2500    61.9970    43.4940    39.3000    43.7440    25.4550     2.2460    -3.6260 
  211.3750    64.0720    45.5140    41.5150    47.9110    25.4690     2.2390    -3.6820 
  211.5000    69.0500    47.0970    43.4460    49.7030    25.4730     2.2320    -3.7230 
  211.6250    71.8870    48.0510    44.8130    48.9380    25.4730     2.2290    -3.7450 
  211.7500    69.5150    48.3830    45.5190    47.5720    25.4730     2.2290    -3.7550 
  211.8750    64.4730    48.2440    45.6470    49.9230    25.4650     2.2320    -3.7890 
  212.0000    63.5400    47.9690    45.5560    50.4710    25.4300     2.2370    -3.8440 
  212.1250    66.9650    47.7130    45.4290    50.7270    25.3540     2.2430    -3.9160 
  212.2500    69.0600    47.5500    45.3550    52.3210    25.2990     2.2490    -4.0050 
  212.3750    68.8900    47.5280    45.3990    52.1040    25.3620     2.2520    -4.0830 
  212.5000    69.4510    47.6520    45.5820    46.8400    25.4790     2.2520    -4.1460 
  212.6250    70.9870    47.9950    45.9660    41.7700    25.5320     2.2500    -4.2140 
  212.7500    69.9800    48.7110    46.6870    42.6340    25.5310     2.2440    -4.2870 
  212.8750    65.8920    50.1630    48.0820    46.4670    25.5060     2.2360    -4.3370 
  213.0000    64.5960    52.4910    50.2790    49.4660    25.4750     2.2270    -4.3910 
  213.1250    66.2120    55.8160    53.3800    52.5550    25.4530     2.2180    -4.4580 
  213.2500    67.2230    60.1510    57.3960    56.0780    25.4640     2.2120    -4.5280 
  213.3750    65.3910    65.5980    62.4220    65.9070    25.4860     2.2110    -4.5950 
  213.5000    63.4100    71.8800    68.3640    76.0850    25.5000     2.2140    -4.6490 
  213.6250    63.8020    80.3110    75.4680    75.9850    25.4730     2.2160    -4.6910 
  213.7500    65.4090    92.6960    84.1560    78.3170    25.4140     2.2160    -4.6890 
  213.8750    65.5810   109.6480    95.4830    89.1260    25.3860     2.2130    -4.6710 
  214.0000    64.1090   128.8310   109.7510   107.8980    25.4530     2.2090    -4.5890 
  214.1250    62.8060   149.5210   126.9130   125.6100    25.6100     2.2050    -4.4100 
  214.2500    63.9940   171.2740   145.6720   133.6590    25.7390     2.2010    -4.1340 
  214.3750    65.4130   190.5560   162.7170   132.4250    25.7880     2.1990    -3.7070 
  214.5000    64.1900   202.8280   174.7170   143.1010    25.7960     2.2000    -3.2190 
  214.6250    62.2910   205.7500   179.5570   164.8820    25.7920     2.2010    -2.7260 
  214.7500    61.9900   199.8740   177.1790   162.4960    25.7780     2.2020    -2.2320 
  214.8750    61.7000   187.7680   169.0690   152.6100    25.7400     2.2010    -1.7410 
  215.0000    59.5970   174.1380   158.9930   148.8670    25.7020     2.1990    -1.3300 
  215.1250    58.4840   161.0400   148.8380   150.2270    25.6590     2.1980    -1.0220 
  215.2500    61.1220   149.2460   139.6110   148.6020    25.6010     2.1990    -0.8140 
  215.3750    62.6660   139.1280   131.7410   140.1560    25.4900     2.2010    -0.7200 
  215.5000    59.6800   130.6780   125.0020   128.9250    25.3130     2.2040    -0.6890 
  215.6250    57.1030   124.4440   119.8540   114.9600    25.1470     2.2070    -0.6650 
  215.7500    59.6430   121.0860   117.1780   107.2840    25.1570     2.2110    -0.6530 
  215.8750    63.3600   121.5110   118.2560   111.9090    25.1650     2.2150    -0.6830 
  216.0000    64.3280   124.6970   122.3430   131.3400    25.1250     2.2180    -0.6690 
  216.1250    64.2690   129.2750   128.1400   153.8290    24.9460     2.2190    -0.6550 
  216.2500    65.0790   133.2700   133.5480   156.4790    24.6910     2.2180    -0.6130 
  216.3750    66.9140   134.2750   135.7670   146.1490    24.7410     2.2160    -0.6210 
  216.5000    68.2600   132.1190   134.3180   141.5310    25.1240     2.2140    -0.6250 
  216.6250    67.0780   127.6920   130.0260   136.4620    25.4070     2.2120    -0.6410 
