~V
VERS. 2.00: Ver 2.00
~W
STRT.M 49.0000:
STOP.M 279.0000:
STEP.M 0.1250:
NULL. -999.2500:
UWI. F10243:
~C
DEPT.M :
GR.API :
RML.OHMM :
RI. :
RXO.OHMM :
CALI.CM :
DEN.GM/CC :
SP.MV :
~A
# ...
  161.5000    74.8690    43.0800    46.5070    52.2780    24.7780     2.2360   -14.1920 
  161.6250    78.9430    37.8680    41.7550    33.5570    24.7350     2.2410   -13.8680 
  161.7500    85.6760    31.8620    35.1730    22.5910    24.6460     2.2570   -13.5490 
  161.8750    94.9840    26.7210    28.9460    18.0440    24.5770     2.2800   -13.2330 
  162.0000   102.7200    23.4410    24.6370    16.2480    24.5750     2.3030   -12.9710 
  162.1250   105.2180    21.7070    22.1340    15.5090    24.5730     2.3210   -12.7340 
  162.2500   102.5280    21.3820    21.2620    15.3870    24.5490     2.3300   -12.5430 
  162.3750    96.8730    22.4900    21.9860    16.2290    24.5280     2.3320   -12.4350 
  162.5000    92.0780    25.6560    24.9570    17.4550    24.5290     2.3240   -12.4520 
  162.6250    87.4180    31.3660    30.6340    19.9920    24.5840     2.3070   -12.4980 
  162.7500    81.7600    40.4450    40.0040    26.7530    24.7500     2.2820   -12.5430 
  162.8750    74.8140    53.8270    53.9160    37.6360    25.0240     2.2510   -12.6610 
  163.0000    67.9750    73.0510    72.6310    81.8670    25.3330     2.2210   -12.7820 
  163.1250    63.8190    95.7580    92.5770   107.9200    25.5850     2.1970   -12.8000 
  163.2500    62.8930   117.7610   109.6800   110.6270    25.7750     2.1820   -12.7790 
  163.3750    63.7900   134.3470   120.8440   109.0430    25.9130     2.1740   -12.7810 
  163.5000    64.4930   142.1240   124.9260   108.6350    26.0130     2.1720   -12.8620 
  163.6250    65.1780   143.7610   124.9910   109.4200    26.0630     2.1730   -12.9880 
  163.7500    66.2570   141.2530   122.7690   109.0500    26.0770     2.1750   -13.0810 
  163.8750    67.1310   136.0950   119.3210   102.3680    26.0630     2.1760   -13.1200 
  164.0000    67.8470   129.5800   115.5140    88.7080    26.0200     2.1770   -13.2100 
  164.1250    68.3140   123.3970   112.5250    73.2380    25.9470     2.1820   -13.3810 
  164.2500    66.5290   117.9250   111.0040    67.4490    25.8320     2.1950   -13.5290 
  164.3750    62.6020   111.6490   110.0600    63.5060    25.6410     2.2170   -13.6040 
  164.5000    62.4750   100.7730   105.8000    57.2930    25.3620     2.2430   -13.5840 
  164.6250    67.2680    84.7670    95.1550    52.3880    25.1480     2.2650   -13.4940 
  164.7500    71.5670    66.0620    78.4130    47.5310    25.0120     2.2790   -13.3570 
  164.8750    73.6170    48.5580    59.4760    35.4050    24.9130     2.2840   -13.2210 
  165.0000    79.3990    35.6490    43.5150    21.6970    24.8100     2.2850   -13.0980 
  165.1250    89.2400    26.7680    31.9630    12.5890    24.7490     2.2890   -12.9570 
  165.2500    97.0220    20.9400    24.3010     9.6450    24.7230     2.3030   -12.8480 
  165.3750    99.5060    17.2810    19.4810     9.1430    24.6540     2.3250   -12.8120 
  165.5000    99.9830    15.4470    16.9990     8.3410    24.5370     2.3510   -12.8360 
  165.6250   101.0510    14.9060    16.1870     6.8070    24.4170     2.3670   -12.9190 
  165.7500   101.6900    15.6730    17.1430     6.1820    24.4300     2.3640   -13.1010 
  165.8750    99.8770    18.0320    20.3100     8.1790    24.5520     2.3410   -13.3340 
  166.0000    93.3770    23.1190    26.9930    13.3400    24.8280     2.3060   -13.5790 
  166.1250    84.4040    31.3910    37.1480    17.6610    25.1250     2.2770   -13.8650 
  166.2500    76.0140    42.5970    49.7910    18.3810    25.3270     2.2620   -14.1320 
  166.3750    71.5600    54.7230    62.0270    23.7840    25.3670     2.2620   -14.3400 
  166.5000    72.5860    64.2400    69.7490    33.7380    25.3410     2.2740   -14.4540 
  166.6250    75.4290    70.4490    73.6000    39.2890    25.4330     2.2870   -14.5410 
  166.7500    75.4330    75.1780    76.3900    42.9650    25.6150     2.2950   -14.6840 
  166.8750    73.1630    81.2110    80.9570    51.0930    25.7570     2.2970   -14.8490 
  167.0000    73.5300    91.3770    89.6450    60.1360    25.8400     2.2870   -14.9540 
  167.1250    74.8430   105.8590   102.1310    67.2600    25.9170     2.2700   -15.0090 
  167.2500    72.9830   124.1270   117.5450    78.4910    25.9850     2.2490   -15.1020 
  167.3750    69.2030   144.5010   134.1310    96.2430    26.0330     2.2310   -15.2640 
  167.5000    67.0120   163.7790   149.0380   119.4850    26.0650     2.2220   -15.4480 
  167.6250    64.7620   179.1330   160.3090   120.3570    26.0770     2.2220   -15.5970 
  167.7500    62.5070   189.3250   167.2230   116.8010    26.0790     2.2260   -15.7040 
  167.8750    63.2970   195.0240   170.5520   120.3650    26.0790     2.2290   -15.7980 
  168.0000    66.3050   198.5670   172.5190   127.7400    26.0800     2.2280   -15.8910 
  168.1250    67.2810   203.3030   176.0120   133.4750    26.0860     2.2240   -15.9840 
  168.2500    67.0240   211.0360   182.5750   134.0100    26.1040     2.2190   -16.1140 
  168.3750    66.8480   222.4270   192.7020   147.7370    26.1290     2.2110   -16.3010 
  168.5000    64.9460   237.5520   206.3480   184.2930    26.1460     2.2020   -16.5040 
  168.6250    62.1400   254.5690   221.8570   225.0330    26.1730     2.1920   -16.7540 
  168.7500    61.1180   271.6740   237.8240   254.0380    26.2300     2.1850   -17.0600 
  168.8750    62.4010   286.4270   252.2530   291.6560    26.2890     2.1820   -17.4260 
  169.0000    64.1400   294.6410   261.3610   329.0330    26.3120     2.1820   -17.8630 
  169.1250    64.0950   294.5880   263.2980   358.0510    26.2870     2.1840   -18.3070 
  169.2500    61.9080   285.5170   257.3320   355.6870    26.2350     2.1860   -18.6650 
  169.3750    60.4450   268.4570   244.3840   312.9460    26.1840     2.1900   -18.9160 
  169.5000    61.6470   245.3460   226.0010   250.2680    26.1180     2.1950   -19.1550 
  169.6250    62.1360   220.2720   205.5670   197.0990    26.0590     2.2010   -19.3410 
  169.7500    60.4990   195.5310   184.8910   155.4140    26.0230     2.2060   -19.4080 
  169.8750    59.3830   172.6780   165.1830   142.1530    26.0110     2.2110   -19.3500 
  170.0000    62.6690   153.2740   147.7660   141.7770    26.0090     2.2160   -19.2540 
  170.1250    68.8520   137.5030   133.1500   124.5580    26.0150     2.2240   -19.2400 
  170.2500    73.8490   125.6960   121.8940   102.4560    26.0340     2.2320   -19.2540 
  170.3750    74.6270   117.9360   114.3560    83.6120    26.0750     2.2390   -19.2240 
  170.5000    70.9210   114.6110   111.2010    71.2860    26.1140     2.2400   -19.1360 
  170.6250    67.2400   114.4410   111.3170    69.5590    26.1350     2.2350   -19.0480 
  170.7500    64.3300   116.4340   113.7080    80.6260    26.1420     2.2260   -18.9600 
  170.8750    62.2970   119.2410   116.9580    99.2390    26.1430     2.2170   -18.8280 
  171.0000    62.5850   121.1290   119.2110   117.2820    26.1430     2.2150   -18.6010 
  171.1250    64.5110   121.2350   119.5080   126.7290    26.1280     2.2210   -18.2940 
  171.2500    65.8150   119.6470   117.8860   125.0270    26.0880     2.2310   -17.9590 
  171.3750    65.4450   117.1950   115.1870   116.1450    26.0450     2.2410   -17.6030 
  171.5000    65.0690   115.1590   112.7120   111.4560    26.0550     2.2480   -17.3070 
  171.6250    64.7290   114.3560   111.3330   112.3830    26.0890     2.2500   -17.1060 
  171.7500    62.4650   115.0560   111.3320   116.1010    26.0850     2.2510   -16.9420 
  171.8750    59.5670   117.1400   112.6230   118.9530    26.0320     2.2510   -16.8290 
  172.0000    59.6230   120.2920   114.9570   119.5080    25.9050     2.2500   -16.8450 
  172.1250    61.8040   123.6810   117.6050   120.7700    25.7060     2.2470   -16.9490 
  172.2500    63.4090   126.6420   119.9790   127.4230    25.4850     2.2420   -17.1660 
  172.3750    63.8650   128.6260   121.5530   135.7930    25.4950     2.2370   -17.5140 
  172.5000    63.9800   129.2780   121.9250   140.3870    25.7280     2.2350   -17.8320 
  172.6250    63.9520   129.1840   121.6120   138.1970    25.9690     2.2380   -18.0390 
