~V
VERS. 2.00: Ver 2.00
~W
STRT.M 58.0000:
STOP.M 273.0000:
STEP.M 0.1250:
NULL. -999.2500:
UWI. F10226:
~C
DEPT.M :
SP.MV :
DEN.GM/CC :
GR.API :
RML.OHMM :
RI. :
RXO.OHMM :
CALI.CM :
~A
# ...
   69.2500   -31.4910     2.1250    67.2720    10.6240     8.1510     8.8520    27.8160 
   69.3750   -31.7140     2.0750    66.1890    10.9600     8.3380     8.3870    27.5470 
   69.5000   -31.8920     2.0390    66.0250    11.5550     8.6640     8.9240    27.4230 
   69.6250   -32.0490     2.0270    66.6200    12.2480     9.0530     9.7760    27.3880 
   69.7500   -32.1840     2.0360    67.3330    12.8220     9.3860    10.8510    27.0750 
   69.8750   -32.2870     2.0580    67.0460    13.0530     9.5130    12.1130    26.3570 
   70.0000   -32.3700     2.0820    67.0700    12.9620     9.4200    12.8180    25.8380 
   70.1250   -32.4160     2.1020    67.7880    12.6650     9.1670    12.1970    25.6080 
   70.2500   -32.4380     2.1210    68.2630    12.3340     8.8660    11.4630    25.5720 
   70.3750   -32.4570     2.1400    67.4630    12.1390     8.6350    11.2130    25.6560 
   70.5000   -32.4750     2.1660    67.1770    12.0920     8.5080    11.0450    25.8040 
   70.6250   -32.4830     2.1940    66.3390    12.1150     8.4600    11.3400    25.9720 
   70.7500   -32.4820     2.2060    63.7980    12.0940     8.4390    11.8160    26.0850 
   70.8750   -32.4780     2.1740    62.7980    11.9080     8.3730    11.9640    26.1580 
   71.0000   -32.4680     2.0970    64.8730    11.5490     8.2390    11.8970    26.2120 
   71.1250   -32.4400     2.0120    66.6020    11.1240     8.0740    11.8010    26.3020 
   71.2500   -32.4000     1.9780    64.8790    10.9060     8.0100    11.8330    26.5460 
   71.3750   -32.3550     2.0510    61.9040    11.3740     8.3220    12.0750    27.4110 
   71.5000   -32.3060     2.1900    60.8810    12.6680     9.1500    12.3690    28.5380 
   71.6250   -32.2620     2.3220    61.7210    14.6770    10.5310    15.1360    28.7870 
   71.7500   -32.2400     2.3800    64.0920    16.8900    12.2620    25.8130    27.5530 
   71.8750   -32.2670     2.3370    65.2410    18.1070    13.5780    56.8610    26.4460 
   72.0000   -32.3420     2.2520    64.1510    17.6030    13.7050    61.1810    26.1460 
   72.1250   -32.4760     2.1760    62.7350    15.6260    12.5980    35.5390    26.5660 
   72.2500   -32.6570     2.1320    62.5820    13.1520    10.9090    18.2700    27.4500 
   72.3750   -32.8510     2.1140    62.2250    11.2110     9.4010    13.0920    28.3460 
   72.5000   -33.0670     2.1020    61.0830    10.1030     8.3790    12.2270    29.1470 
   72.6250   -33.2700     2.0890    61.6840     9.7410     7.8630    12.7280    29.8890 
   72.7500   -33.4790     2.0810    63.8550     9.8570     7.7440    12.6060    30.5040 
   72.8750   -33.6430     2.0830    65.1500    10.1440     7.8620    11.6500    31.2080 
   73.0000   -33.7660     2.0890    65.7670    10.3940     8.0350    11.2280    31.7930 
   73.1250   -33.8320     2.0850    65.8940    10.5580     8.1890    10.9690    31.9200 
   73.2500   -33.8540     2.0630    64.3950    10.6300     8.2920    11.2680    31.6570 
   73.3750   -33.8440     2.0190    60.6710    10.5970     8.3170    12.1310    31.6480 
   73.5000   -33.7900     1.9670    58.8660    10.4960     8.2780    12.4890    32.0880 
   73.6250   -33.7230     1.9230    59.8640    10.3630     8.1910    12.0420    32.8370 
   73.7500   -33.6140     1.8870    59.3720    10.2310     8.0800    11.5900    33.5610 
   73.8750   -33.4860     1.8460    55.5830    10.1320     7.9670    11.3570    33.9240 
   74.0000   -33.3400     1.7890    53.9810    10.0620     7.8690    11.2420    34.0160 
   74.1250   -33.1920     1.7270    56.6040    10.0180     7.7900    11.2400    33.9700 
   74.2500   -33.0320     1.6980    59.9590    10.0140     7.7480    11.3040    33.7700 
   74.3750   -32.8690     1.7510    60.5580    10.1080     7.7810    11.3580    33.6750 
   74.5000   -32.6950     1.8740    60.0560    10.3130     7.9000    11.4330    33.9330 
   74.6250   -32.5320     2.0230    59.4570    10.6040     8.0930    11.3000    33.8430 
   74.7500   -32.3900     2.1440    59.4130    10.9070     8.3160    11.4020    32.5320 
   74.8750   -32.2730     2.1920    59.9740    11.0770     8.4770    12.0090    30.3520 
   75.0000   -32.1810     2.1830    60.7330    11.0400     8.5020    12.9040    29.1690 
   75.1250   -32.1250     2.1490    62.8150    10.8170     8.3770    12.2770    29.1220 
   75.2500   -32.0830     2.1140    65.8080    10.5040     8.1490    11.5200    29.7300 
   75.3750   -32.0650     2.0880    65.4230    10.2180     7.8940    11.2760    30.4300 
   75.5000   -32.0750     2.0690    60.5840    10.0180     7.6820    11.1970    31.0970 
   75.6250   -32.0800     2.0530    55.3370     9.9050     7.5370    11.1600    31.7690 
   75.7500   -32.0510     2.0340    53.8900     9.8460     7.4570    11.2060    32.4790 
   75.8750   -32.0010     2.0000    57.4190     9.8070     7.4220    11.3290    33.2830 
   76.0000   -31.8900     1.9470    61.7820     9.7730     7.4020    11.4130    34.2050 
   76.1250   -31.7280     1.8760    62.1230     9.7360     7.3880    11.3960    35.1130 
   76.2500   -31.5060     1.7900    58.2050     9.6930     7.3710    11.2710    35.8830 
   76.3750   -31.2240     1.7050    56.4300     9.6510     7.3570    11.3060    36.5270 
   76.5000   -30.8440     1.6410    58.4750     9.6360     7.3580    11.0670    36.8530 
   76.6250   -30.3970     1.6220    58.8750     9.6600     7.3830    10.4380    36.9540 
   76.7500   -29.8870     1.6630    55.4610     9.7060     7.4260    10.0630    36.9670 
   76.8750   -29.2750     1.7580    54.3780     9.7270     7.4630    10.5580    36.9670 
   77.0000   -28.6250     1.8530    57.1180     9.6840     7.4720    11.0220    36.8490 
   77.1250   -27.9320     1.9010    60.6120     9.5850     7.4520    10.5350    36.2550 
   77.2500   -27.2570     1.8720    63.1890     9.4790     7.4280     9.2880    34.7640 
   77.3750   -26.5740     1.7710    65.5430     9.4500     7.4460     8.4640    33.5470 
   77.5000   -25.9290     1.6500    66.3360     9.5370     7.5350     8.5910    33.7460 
   77.6250   -25.2890     1.5430    63.8190     9.7370     7.6950     9.5930    35.2810 
   77.7500   -24.6480     1.4680    59.2780     9.9930     7.8900    10.9320    36.5220 
   77.8750   -23.9780     1.4280    56.0690    10.2010     8.0510    11.3920    36.5340 
   78.0000   -23.2740     1.4260    56.0280    10.2900     8.1270    11.2610    35.2660 
   78.1250   -22.5000     1.4780    59.1880    10.2320     8.0920    10.1460    33.0600 
   78.2500   -21.6620     1.5940    64.3350    10.0410     7.9520     8.0660    30.8200 
   78.3750   -20.7540     1.7690    67.9950     9.7640     7.7300     6.9590    28.7260 
   78.5000   -19.8310     1.9540    71.7650     9.4560     7.4680     7.0840    27.0080 
   78.6250   -18.9270     2.1090    79.9870     9.1100     7.1650     7.4770    25.4500 
   78.7500   -18.1130     2.2130    92.0350     8.6950     6.8040     7.2780    24.2640 
   78.8750   -17.4330     2.2690   101.1180     8.2050     6.3820     6.8020    23.6920 
   79.0000   -16.9190     2.3050   104.2180     7.7220     5.9530     7.0660    23.3780 
   79.1250   -16.6250     2.3340   104.6940     7.3520     5.5900     7.2950    23.1480 
   79.2500   -16.5000     2.3530   104.8560     7.2020     5.3670     6.7850    23.0270 
   79.3750   -16.6560     2.3440   104.6540     7.3910     5.3740     6.5570    23.0430 
   79.5000   -16.9970     2.3030   103.3300     7.8720     5.5930     6.9380    23.0660 
   79.6250   -17.5290     2.2310    98.1070     8.5670     5.9930     7.9710    23.0750 
   79.7500   -18.1840     2.1370    87.7380     9.3370     6.5030     9.0520    23.1080 
   79.8750   -18.9820     2.0470    77.4230     9.9790     7.0090     9.4910    23.3440 
   80.0000   -19.7980     1.9990    72.1790    10.3850     7.4110     9.1150    23.9910 
   80.1250   -20.6360     2.0080    70.0320    10.5600     7.6680     8.9660    25.0180 
   80.2500   -21.4490     2.0690    67.3120    10.5840     7.7980     9.1170    25.9290 
   80.3750   -22.2070     2.1400    65.0390    10.5610     7.8360     9.4290    26.0820 
