~V
VERS. 2.00: Ver 2.00
~W
STRT.M 50.0000:
STOP.M 271.0000:
STEP.M 0.1250:
NULL. -999.2500:
UWI. F10251:
~C
DEPT.M :
DEN.GM/CC :
GR.API :
RML.OHMM :
RI. :
RXO.OHMM :
CALI.CM :
SP.MV :
~A
# ...
  173.7500     2.1670    56.5320   124.4730   113.9880    29.6440    20.6000    -6.5940 
  173.8750     2.2090    60.0240   101.9150    96.5020    28.2080    20.7670    -6.4850 
  174.0000     2.2500    66.5720    82.0900    79.5050    27.4210    20.9950    -6.3770 
  174.1250     2.2690    72.0970    69.7990    67.9760    25.5010    21.1540    -6.2470 
  174.2500     2.2720    74.3680    63.7240    61.7850    25.7920    21.3770    -6.0800 
  174.3750     2.2720    72.1770    62.2020    59.8350    28.6110    21.7300    -5.9130 
  174.5000     2.2730    68.3330    63.1020    60.4100    38.2700    21.9790    -5.7890 
  174.6250     2.2730    66.7910    63.7170    61.1730    50.7380    22.0800    -5.6210 
  174.7500     2.2710    68.6970    61.9740    59.9880    54.8080    22.1720    -5.4620 
  174.8750     2.2700    70.2900    57.5070    56.2280    50.9830    22.3360    -5.3940 
  175.0000     2.2700    69.6260    51.5050    50.7810    44.7960    22.5400    -5.3420 
  175.1250     2.2720    70.9960    46.1740    45.5980    39.8170    22.7650    -5.2430 
  175.2500     2.2700    73.6310    42.9760    42.1170    38.6170    22.8780    -5.1370 
  175.3750     2.2660    75.0170    42.6320    41.0080    38.2250    22.8790    -5.1000 
  175.5000     2.2620    74.2730    45.6460    42.7360    41.8010    22.9150    -5.0720 
  175.6250     2.2560    71.0990    53.0700    48.3490    52.6280    23.1370    -5.0200 
  175.7500     2.2460    66.1990    64.2120    57.4590    66.1390    23.5280    -5.0290 
  175.8750     2.2330    62.0260    78.0210    69.3150    86.2430    24.0030    -5.0420 
  176.0000     2.2230    60.2970    92.0930    81.8950   115.7220    24.4660    -4.9730 
  176.1250     2.2190    61.2310   102.1410    91.4070   148.0320    24.6430    -4.8630 
  176.2500     2.2230    63.4760   106.7620    96.1710   140.6260    24.6890    -4.8380 
  176.3750     2.2360    65.9090   107.6990    97.1970   107.7150    24.6960    -4.8270 
  176.5000     2.2510    68.2200   108.5810    97.3890    86.8150    24.7240    -4.7150 
  176.6250     2.2560    69.7360   113.0510   100.1630    85.9420    24.7890    -4.6320 
  176.7500     2.2480    69.2300   121.4300   106.4500   110.1150    24.8390    -4.6140 
  176.8750     2.2320    65.5590   132.6650   115.7170   139.2630    24.8670    -4.5310 
  177.0000     2.2130    60.9440   144.4100   126.1160   171.6020    24.8780    -4.4150 
  177.1250     2.1970    59.6620   152.4760   134.0720   201.7820    24.8950    -4.3730 
  177.2500     2.1870    59.8480   154.4500   137.1050   185.9130    24.9510    -4.3530 
  177.3750     2.1850    59.7590   149.7490   134.3510   163.2920    24.9550    -4.3370 
  177.5000     2.1880    59.2920   139.6510   126.5640   160.0820    24.8180    -4.3400 
  177.6250     2.1950    59.7780   126.8990   115.7250   130.3080    24.4750    -4.3810 
  177.7500     2.2060    62.4770   115.4470   105.2770    84.5300    24.0160    -4.4280 
  177.8750     2.2160    64.5820   107.4100    97.2180    60.6300    23.6630    -4.4560 
  178.0000     2.2180    63.8260   103.5700    92.4850    58.0450    23.5700    -4.5400 
  178.1250     2.2100    61.6300   104.6230    91.9470    75.7050    23.6700    -4.7280 
  178.2500     2.1990    61.5360   109.6680    95.0690   102.2170    23.8660    -4.9140 
  178.3750     2.1900    62.7090   118.6150   101.8870   121.0950    24.1000    -5.0040 
  178.5000     2.1840    62.1810   131.7650   112.6580   119.6110    24.3560    -5.1610 
  178.6250     2.1800    60.5260   151.0280   129.1210   121.9760    24.5860    -5.4120 
  178.7500     2.1770    59.2740   176.4450   151.3280   168.7200    24.7640    -5.5570 
  178.8750     2.1730    58.7260   207.1860   178.5480   280.7870    24.8500    -5.7150 
  179.0000     2.1670    56.9330   239.2950   207.4110   401.0780    24.9150    -5.9530 
  179.1250     2.1640    54.3900   262.1490   229.4310   357.8820    25.0350    -6.1640 
  179.2500     2.1660    53.6930   267.2060   237.4130   321.1420    25.1230    -6.2970 
  179.3750     2.1720    54.1460   253.3950   229.3440   335.2490    25.0900    -6.3970 
  179.5000     2.1810    54.7020   227.9030   209.8430   343.0200    24.9220    -6.4820 
  179.6250     2.1880    55.8340   199.3560   185.8200   275.8350    24.7750    -6.5280 
  179.7500     2.1910    58.5790   173.0510   162.7570   194.9260    24.7200    -6.5360 
  179.8750     2.1930    61.6020   150.9440   142.7510   146.5970    24.7100    -6.5270 
  180.0000     2.1970    62.4350   133.6540   126.6490   129.8370    24.7050    -6.5170 
  180.1250     2.2020    62.1580   120.9440   114.4810   130.6200    24.6780    -6.4500 
  180.2500     2.2080    61.4070   110.8190   104.6470   107.9850    24.6150    -6.3400 
  180.3750     2.2150    60.4380   102.6660    96.7590    88.3090    24.5660    -6.3030 
  180.5000     2.2240    60.6400    96.5120    90.8940   103.3170    24.5500    -6.3330 
  180.6250     2.2350    62.5490    93.4330    87.8750   106.4190    24.5320    -6.2580 
  180.7500     2.2440    64.5420    93.9170    87.9870    92.2990    24.4910    -6.2100 
  180.8750     2.2460    64.7880    98.5360    91.8230    89.0180    24.4800    -6.2450 
  181.0000     2.2350    63.8780   107.3270    99.5760   100.2680    24.5430    -6.2210 
  181.1250     2.2160    62.1680   120.0560   111.1300   106.4000    24.6350    -6.1030 
  181.2500     2.2000    59.4730   133.9100   123.8830   112.1680    24.6780    -6.0010 
  181.3750     2.1910    58.2650   144.7730   134.2310   138.6600    24.6870    -5.9300 
  181.5000     2.1860    59.7270   147.4390   137.6830   179.6810    24.6650    -5.7740 
  181.6250     2.1840    60.5890   137.7830   130.3500   191.4660    24.6100    -5.5710 
  181.7500     2.1870    59.1250   121.2790   116.4120   186.4680    24.4640    -5.4100 
  181.8750     2.1980    58.0120   103.2460   100.2780   151.4660    24.1580    -5.2090 
  182.0000     2.2180    59.3330    87.5180    85.5240    93.9180    23.7420    -4.9730 
  182.1250     2.2390    61.9180    76.5550    74.7780    65.7610    23.5800    -4.7900 
  182.2500     2.2520    63.5640    69.5910    67.7450    61.1650    23.7700    -4.6980 
  182.3750     2.2580    63.3850    65.7600    63.7390    67.4220    24.1010    -4.6200 
  182.5000     2.2610    62.5010    64.0610    61.8520    65.6700    24.3280    -4.5260 
  182.6250     2.2610    63.7100    63.3880    61.1160    61.7830    24.4260    -4.5640 
  182.7500     2.2630    65.9600    62.1260    60.0050    64.9680    24.4110    -4.6110 
  182.8750     2.2710    67.0350    59.3040    57.5390    68.4040    24.3850    -4.5890 
  183.0000     2.2860    66.9650    54.8890    53.5770    64.9740    24.3960    -4.5860 
  183.1250     2.3060    67.6200    50.0040    49.0350    55.4420    24.3850    -4.6710 
  183.2500     2.3250    68.9600    46.4190    45.4620    45.0020    24.4190    -4.7440 
  183.3750     2.3370    68.4450    45.4240    43.9780    39.2700    24.4700    -4.7610 
  183.5000     2.3330    65.8190    47.8330    45.3570    41.2760    24.5090    -4.8160 
  183.6250     2.3090    63.6410    54.3640    50.4460    59.9700    24.5290    -4.9030 
  183.7500     2.2830    62.3180    63.5920    58.2310    79.4950    24.5270    -4.9370 
  183.8750     2.2630    61.0940    73.7730    67.2810    93.8510    24.5050    -5.0090 
  184.0000     2.2520    60.1980    82.3510    75.2560    98.9500    24.4560    -5.1810 
  184.1250     2.2470    61.6330    86.1010    79.0160    94.0720    24.3880    -5.3160 
  184.2500     2.2470    63.1570    85.5120    78.6520    90.2040    24.3470    -5.3390 
  184.3750     2.2560    62.7760    82.5320    75.7560    85.8750    24.2660    -5.3890 
  184.5000     2.2690    61.8880    79.5070    72.4320    79.4920    24.1330    -5.4970 
  184.6250     2.2710    61.7380    78.6510    70.6430    76.6770    24.0000    -5.4670 
  184.7500     2.2610    62.4870    80.9040    71.2570    73.4760    23.8810    -5.4680 
  184.8750     2.2450    63.7730    86.9940    74.9350    78.1790    23.8110    -5.5660 
