~V
VERS. 2.00: Ver 2.00
~W
STRT.M 50.0000:
STOP.M 258.0000:
STEP.M 0.1250:
NULL. -999.2500:
UWI. F10200:
~C
DEPT.M :
SP.MV :
GR.API :
RML.OHMM :
RI. :
RXO.OHMM :
CALI.CM :
DEN.GM/CC :
~A
# ...
   95.0000   -10.4640    62.1680    16.1550    13.7720    33.9200    23.9580     2.5180 
   95.1250   -10.7490    63.1530    14.1200    12.4410    26.6200    23.7650     2.4390 
   95.2500   -11.0780    64.4670    11.8710    10.7310    17.6890    23.5980     2.3520 
   95.3750   -11.4290    64.7510    10.0890     9.2120    11.7510    23.6390     2.2850 
   95.5000   -11.7790    63.9810     9.0150     8.1450     9.7640    23.8070     2.2500 
   95.6250   -12.1040    62.0680     8.6010     7.5820     9.4490    23.8530     2.2430 
   95.7500   -12.3820    60.5940     8.4840     7.3040     9.0970    23.7140     2.2420 
   95.8750   -12.6110    60.3080     8.4660     7.1780     8.6000    23.4820     2.2330 
   96.0000   -12.7880    60.7310     8.4310     7.1060     8.5230    23.3330     2.2140 
   96.1250   -12.9040    59.0550     8.3480     7.0410     8.6420    23.2430     2.1900 
   96.2500   -12.9610    55.7920     8.2600     6.9820     8.7260    23.1770     2.1670 
   96.3750   -12.9790    55.3550     8.1990     6.9420     8.7690    23.1820     2.1490 
   96.5000   -12.9570    59.0070     8.1680     6.9210     8.8500    23.2180     2.1370 
   96.6250   -12.8770    62.1230     8.1520     6.9040     8.9640    23.2560     2.1310 
   96.7500   -12.7630    60.9580     8.1300     6.8760     9.0470    23.2730     2.1330 
   96.8750   -12.6280    58.0490     8.1000     6.8330     8.9850    23.2800     2.1400 
   97.0000   -12.4770    58.7530     8.0710     6.7810     8.7920    23.2780     2.1490 
   97.1250   -12.3340    62.4890     8.0530     6.7310     8.6620    23.2550     2.1590 
   97.2500   -12.2230    64.5260     8.0470     6.6870     8.5510    23.2230     2.1650 
   97.3750   -12.1350    63.0360     8.0450     6.6470     8.4960    23.2020     2.1660 
   97.5000   -12.0770    60.5250     8.0380     6.6070     8.5190    23.2010     2.1600 
   97.6250   -12.0370    60.7730     8.0130     6.5590     8.5540    23.1920     2.1470 
   97.7500   -11.9940    63.1460     7.9700     6.5030     8.4420    23.1340     2.1330 
   97.8750   -11.9400    64.8880     7.9230     6.4470     8.1410    23.0310     2.1220 
   98.0000   -11.8600    62.3300     7.8890     6.4040     7.7620    22.9410     2.1170 
   98.1250   -11.7250    56.1220     7.8940     6.3910     7.4660    22.9110     2.1200 
   98.2500   -11.5200    53.2710     7.9380     6.4090     7.2910    22.8950     2.1290 
   98.3750   -11.2430    56.1550     8.0030     6.4450     7.1980    22.8670     2.1390 
   98.5000   -10.9130    59.7020     8.0430     6.4700     7.1970    22.8540     2.1490 
   98.6250   -10.5170    59.0190     7.9730     6.4240     7.3380    22.8790     2.1570 
   98.7500   -10.0750    56.8400     7.7610     6.2810     7.5500    22.9340     2.1650 
   98.8750    -9.6020    56.5890     7.4160     6.0380     7.5490    23.0020     2.1750 
   99.0000    -9.1410    59.9590     7.0100     5.7380     7.1910    23.0990     2.1860 
   99.1250    -8.7630    66.5420     6.6830     5.4730     6.6430    23.1850     2.1960 
   99.2500    -8.5090    72.9480     6.5360     5.3210     6.1740    23.1560     2.2030 
   99.3750    -8.4070    75.1540     6.6010     5.3170     5.9460    23.0800     2.2060 
   99.5000    -8.4310    72.6200     6.8480     5.4580     6.0360    23.0190     2.2080 
   99.6250    -8.5900    68.2790     7.1950     5.7090     6.6580    22.9660     2.2070 
   99.7500    -8.8330    65.1160     7.5200     5.9790     7.1750    23.0380     2.2030 
   99.8750    -9.1270    63.1480     7.7530     6.2120     7.6220    23.1690     2.1950 
  100.0000    -9.4030    60.4490     7.8750     6.3770     7.8400    23.3110     2.1820 
  100.1250    -9.5890    57.7900     7.9070     6.4710     8.0060    23.4170     2.1690 
  100.2500    -9.6500    57.7200     7.9160     6.5350     8.0770    23.4790     2.1590 
  100.3750    -9.5400    59.2790     7.9370     6.5900     8.0940    23.4810     2.1520 
  100.5000    -9.2640    60.5400     7.9660     6.6340     8.0880    23.4200     2.1470 
  100.6250    -8.8090    58.8530     7.9400     6.6180     8.1410    23.3950     2.1480 
  100.7500    -8.2090    56.2480     7.8040     6.4930     8.1170    23.3550     2.1560 
  100.8750    -7.4890    56.0490     7.4980     6.2240     7.8410    23.2790     2.1750 
  101.0000    -6.6980    60.2720     7.0190     5.8120     7.2990    23.1500     2.2030 
  101.1250    -5.9160    66.7940     6.4630     5.3100     6.5070    23.0880     2.2370 
  101.2500    -5.2090    72.2250     5.8720     4.8450     5.6390    23.0960     2.2690 
  101.3750    -4.6370    76.8680     5.4910     4.5220     4.9290    23.1630     2.2920 
  101.5000    -4.2220    80.0470     5.4210     4.4250     4.5970    23.2430     2.3040 
  101.6250    -3.9880    79.3900     5.7320     4.6290     4.5570    23.2030     2.3000 
  101.7500    -3.8920    75.6000     6.2760     5.0510     4.8660    23.0000     2.2820 
  101.8750    -3.8820    71.2880     6.8750     5.5750     5.5830    22.7540     2.2550 
  102.0000    -3.8990    67.5250     7.3040     6.0350     6.6750    22.6110     2.2250 
  102.1250    -3.8350    66.2810     7.2920     6.1920     7.3510    22.8090     2.2020 
  102.2500    -3.6440    69.9080     6.8530     5.9910     7.5800    23.2820     2.1940 
  102.3750    -3.3280    77.5020     6.1150     5.4850     7.1540    23.7620     2.2030 
  102.5000    -2.9160    83.9810     5.2930     4.8260     6.1410    24.0390     2.2280 
  102.6250    -2.4400    85.4020     4.6180     4.2030     4.8660    24.1150     2.2600 
  102.7500    -1.9620    86.5730     4.1570     3.7160     4.1800    24.1450     2.2890 
  102.8750    -1.5460    88.9850     3.8940     3.3840     3.9830    24.1340     2.3110 
  103.0000    -1.2320    87.3200     3.7830     3.1910     3.8820    24.1260     2.3260 
  103.1250    -1.0920    80.6270     3.7960     3.1240     3.7250    24.1740     2.3350 
  103.2500    -1.1130    76.4980     3.8760     3.1330     3.6710    24.2260     2.3420 
  103.3750    -1.2590    77.8890     4.0010     3.1950     3.7280    24.2460     2.3440 
  103.5000    -1.5030    82.5010     4.1490     3.2910     3.8360    24.2350     2.3420 
  103.6250    -1.8470    84.6430     4.3120     3.4170     4.0510    24.1630     2.3360 
  103.7500    -2.2770    84.7780     4.5070     3.5770     4.3090    24.1080     2.3310 
  103.8750    -2.7730    84.7040     4.7890     3.8070     4.4980    24.0770     2.3280 
  104.0000    -3.3570    87.3920     5.2300     4.1550     4.6850    24.0850     2.3290 
  104.1250    -4.0590    90.1980     5.9180     4.6860     5.3460    24.0270     2.3360 
  104.2500    -4.8590    87.8150     6.7790     5.3630     6.5240    24.0190     2.3450 
  104.3750    -5.7450    79.9960     7.6860     6.1110     8.4170    23.9790     2.3470 
  104.5000    -6.6760    69.7470     8.4560     6.8090    11.1320    23.8400     2.3300 
  104.6250    -7.5690    61.4310     8.8560     7.2780    11.6230    23.6050     2.2910 
  104.7500    -8.3830    56.9980     8.8990     7.4820     9.7440    23.4920     2.2470 
  104.8750    -9.0980    54.6840     8.7070     7.4740     8.5170    23.4400     2.2100 
  105.0000    -9.6650    53.0430     8.4690     7.3780     8.3130    23.3520     2.1860 
  105.1250   -10.0000    51.1610     8.3610     7.3280     8.5040    23.2030     2.1750 
  105.2500   -10.1080    50.5320     8.4040     7.3690     8.7330    23.1130     2.1670 
  105.3750    -9.9830    51.8000     8.5440     7.4780     8.8960    23.1500     2.1570 
  105.5000    -9.6480    53.7770     8.7000     7.5970     8.9770    23.1250     2.1460 
  105.6250    -9.1250    54.6150     8.7600     7.6340     8.9760    22.8610     2.1370 
  105.7500    -8.4770    53.7780     8.6470     7.5240     8.9190    22.5810     2.1320 
  105.8750    -7.7290    52.1290     8.3070     7.2230     8.8070    22.5720     2.1300 
  106.0000    -6.9170    53.0950     7.7460     6.7320     8.5780    22.9040     2.1350 
  106.1250    -6.1120    60.8420     7.0500     6.1120     8.1460    23.4430     2.1520 
