~V
VERS. 2.00: Ver 2.00
~W
STRT.M 57.0000:
STOP.M 274.0000:
STEP.M 0.1250:
NULL. -999.2500:
UWI. F10215:
~C
DEPT.M :
SP.MV :
DEN.GM/CC :
GR.API :
RML.OHMM :
RI. :
RXO.OHMM :
CALI.CM :
~A
# ...
  147.0000   -11.3830     2.4850    55.5690    24.1770    19.1900    17.6320    24.2610 
  147.1250   -11.4920     2.4840    54.0090    25.3130    20.1230    17.2520    24.2080 
  147.2500   -11.6070     2.4860    53.7670    26.3710    21.0650    17.5140    24.0820 
  147.3750   -11.7360     2.4920    55.5530    27.1400    21.8520    18.5300    24.0770 
  147.5000   -11.8370     2.4970    55.6430    27.4460    22.3280    19.2760    24.1650 
  147.6250   -11.9590     2.4990    51.5930    27.1080    22.3110    18.6200    24.2360 
  147.7500   -12.0660     2.5010    48.5800    26.2620    21.8600    18.1920    24.2760 
  147.8750   -12.1600     2.5100    48.6260    25.0430    21.0480    18.2400    24.3150 
  148.0000   -12.2470     2.5300    48.2950    23.6570    20.0140    18.1410    24.3210 
  148.1250   -12.2950     2.5540    46.5390    22.3570    18.9480    18.0410    24.2910 
  148.2500   -12.3360     2.5650    48.5520    21.3010    18.0200    17.8810    24.2800 
  148.3750   -12.3460     2.5560    53.3920    20.5390    17.3050    17.3440    24.2670 
  148.5000   -12.3640     2.5300    56.5150    20.0440    16.8210    16.3040    24.2540 
  148.6250   -12.3430     2.5010    55.9720    19.7850    16.5710    15.6380    24.2370 
  148.7500   -12.3040     2.4810    57.1880    19.6730    16.4830    15.3630    24.2130 
  148.8750   -12.2740     2.4750    61.4600    19.7020    16.5390    14.8180    24.2440 
  149.0000   -12.2250     2.4800    65.6360    19.9010    16.7420    14.2210    24.2900 
  149.1250   -12.2090     2.4840    67.0450    20.3580    17.1460    14.7840    24.2830 
  149.2500   -12.1800     2.4810    65.0030    21.0470    17.7360    15.6680    24.1700 
  149.3750   -12.1790     2.4710    60.4650    21.9100    18.4830    16.2960    24.0870 
  149.5000   -12.1780     2.4620    55.3080    22.8240    19.3090    16.7460    23.9510 
  149.6250   -12.1940     2.4600    52.8250    23.5850    20.0560    17.1280    23.7960 
  149.7500   -12.2280     2.4690    54.1220    24.0340    20.5690    17.7130    23.6400 
  149.8750   -12.2620     2.4850    57.5220    24.0620    20.7310    17.8300    23.5460 
  150.0000   -12.3140     2.5010    60.3130    23.6330    20.4920    17.3430    23.4440 
  150.1250   -12.3600     2.5110    59.9520    22.7460    19.8350    17.3350    23.3650 
  150.2500   -12.4000     2.5180    58.1330    21.6500    18.9670    17.3100    23.3230 
  150.3750   -12.4450     2.5250    56.7510    20.5740    18.0800    20.3200    23.3280 
  150.5000   -12.5040     2.5330    56.7140    19.7350    17.3590    29.0630    23.4280 
  150.6250   -12.5540     2.5330    59.6230    19.3530    16.9960    51.6620    23.6120 
  150.7500   -12.6090     2.5220    63.8610    19.4130    16.9930    57.2020    23.7920 
  150.8750   -12.6460     2.5000    66.5000    19.8820    17.3350    60.1480    23.8250 
  151.0000   -12.6890     2.4740    65.9520    20.6760    17.9640    67.8630    23.7130 
  151.1250   -12.7280     2.4550    64.6270    21.6610    18.7920    53.9100    23.5520 
  151.2500   -12.7720     2.4480    64.8740    22.5800    19.6180    30.7870    23.5640 
  151.3750   -12.8210     2.4500    65.0930    23.1800    20.2390    21.2440    23.7700 
  151.5000   -12.8370     2.4600    63.5910    23.2160    20.4300    19.0640    24.0260 
  151.6250   -12.8780     2.4820    61.5020    22.4550    19.9320    19.9550    24.1750 
  151.7500   -12.9200     2.5070    61.6900    21.1870    18.9260    24.1090    24.2030 
  151.8750   -12.9710     2.5090    63.5850    19.8240    17.7230    29.0490    24.2010 
  152.0000   -13.0210     2.4650    64.4380    18.8820    16.7300    27.1110    24.2030 
  152.1250   -13.0910     2.3750    62.7250    19.0150    16.4510    22.3040    24.2080 
  152.2500   -13.1780     2.2710    60.5530    20.3990    17.0680    17.2390    24.2190 
  152.3750   -13.2650     2.1760    59.3270    23.1530    18.7390    16.7770    24.2370 
  152.5000   -13.3890     2.1120    59.3240    27.1760    21.5160    19.7770    24.2660 
  152.6250   -13.5160     2.0940    61.2670    32.1220    25.3230    27.4460    24.1600 
  152.7500   -13.6400     2.1040    63.1550    37.1420    29.4700    32.8780    23.9450 
  152.8750   -13.7820     2.1230    63.4670    41.7390    33.4210    35.6350    23.7490 
  153.0000   -13.9150     2.1340    62.6470    45.8190    36.8960    36.7970    23.6050 
  153.1250   -14.0420     2.1280    61.6740    49.7020    39.9720    34.4660    23.4060 
  153.2500   -14.1510     2.1160    60.4330    53.8060    43.0330    31.7600    23.1300 
  153.3750   -14.2460     2.1080    61.0250    58.1530    46.1910    31.7550    22.8300 
  153.5000   -14.3080     2.1120    63.4210    62.4600    49.2970    32.4310    22.5730 
  153.6250   -14.3610     2.1260    64.5260    66.3350    52.0440    33.8730    22.5340 
  153.7500   -14.4000     2.1420    62.9860    69.8900    54.4660    35.8760    22.6340 
  153.8750   -14.4250     2.1560    61.4110    73.5290    56.8370    38.4140    22.8580 
  154.0000   -14.4370     2.1670    61.5030    77.8080    59.5820    43.1500    23.1380 
  154.1250   -14.4390     2.1790    60.7890    83.4650    63.3510    49.5480    23.3370 
  154.2500   -14.4380     2.1910    57.6340    90.2350    68.1380    55.8540    23.4190 
  154.3750   -14.4370     2.1990    53.6100    96.9250    73.2450    58.7100    23.3900 
  154.5000   -14.4450     2.1980    51.1360   101.1280    77.0030    59.3670    23.3610 
  154.6250   -14.4300     2.1850    52.8290    98.7850    76.3670    64.6700    23.3250 
  154.7500   -14.4150     2.1690    55.9390    89.8360    70.7600    74.5410    23.2730 
  154.8750   -14.4050     2.1610    58.4800    76.6400    61.4570    73.0130    23.2110 
  155.0000   -14.4030     2.1700    59.3800    63.0830    51.2320    54.3730    23.1730 
  155.1250   -14.3920     2.1930    57.8960    52.9500    43.1190    37.3390    23.2480 
  155.2500   -14.3830     2.2160    55.6960    46.8060    37.8870    30.6410    23.4140 
  155.3750   -14.3510     2.2280    54.3090    44.2240    35.3630    28.4120    23.6490 
  155.5000   -14.3190     2.2270    55.5270    44.2070    34.9550    28.3270    23.8680 
  155.6250   -14.2710     2.2200    58.9110    45.2800    35.8260    33.8560    24.0250 
  155.7500   -14.2260     2.2120    61.4620    45.4240    36.4310    40.1850    24.0600 
  155.8750   -14.1530     2.2060    61.7600    43.5110    35.6970    41.7460    23.9970 
  156.0000   -14.0830     2.2030    62.4370    39.5960    33.3440    37.9430    23.9730 
  156.1250   -14.0020     2.2050    66.0340    34.8930    30.0550    31.6780    24.0450 
  156.2500   -13.9310     2.2120    68.8080    30.9760    27.0890    26.6960    24.1170 
  156.3750   -13.8730     2.2180    68.3320    28.5370    25.0570    22.8340    24.1650 
  156.5000   -13.8340     2.2200    65.9880    27.7050    24.1550    22.4920    24.2290 
  156.6250   -13.7980     2.2170    65.4660    28.3210    24.4020    27.2480    24.2950 
  156.7500   -13.7650     2.2120    65.6920    29.3610    25.1420    28.9130    24.3260 
  156.8750   -13.7360     2.2070    65.2750    29.7350    25.5450    28.0000    24.3210 
  157.0000   -13.7070     2.2040    65.3660    28.3650    24.6180    27.6790    24.3100 
  157.1250   -13.6940     2.2090    67.3670    24.6880    21.7160    28.2040    24.3040 
  157.2500   -13.6810     2.2270    70.3180    20.1700    18.0260    25.7550    24.2500 
  157.3750   -13.6720     2.2580    74.2440    16.1780    14.6690    19.0350    24.1570 
  157.5000   -13.6600     2.2930    78.6730    13.5730    12.3120    11.6690    24.1440 
  157.6250   -13.6800     2.3120    80.9760    12.8630    11.3400    11.0450    24.1640 
  157.7500   -13.7090     2.3080    79.7840    13.5850    11.4890    14.5360    24.1930 
  157.8750   -13.7570     2.2880    78.3760    15.3970    12.6270    17.8780    24.2500 
  158.0000   -13.8080     2.2630    78.3410    17.7930    14.5060    18.8910    24.2630 
  158.1250   -13.8630     2.2440    77.1480    19.8870    16.5500    19.5850    24.2420 
