~V
VERS. 2.00: Ver 2.00
~W
STRT.M 50.0000:
STOP.M 274.0000:
STEP.M 0.1250:
NULL. -999.2500:
UWI. F10208:
~C
DEPT.M :
SP.MV :
DEN.GM/CC :
GR.API :
RML.OHMM :
RI. :
RXO.OHMM :
CALI.CM :
~A
# ...
  140.0000   -18.7300     2.4260    67.7530    21.4780    18.9650    28.4570    23.7320 
  140.1250   -18.7870     2.4390    65.8150    21.4100    19.1290    27.3170    23.8650 
  140.2500   -18.8590     2.4590    65.9160    21.3260    19.2730    26.0150    23.9350 
  140.3750   -18.9030     2.4790    65.2030    21.2650    19.4330    25.3490    23.9210 
  140.5000   -18.9200     2.4890    59.7920    21.1510    19.5670    25.4130    24.0480 
  140.6250   -18.9010     2.4840    55.4490    20.7200    19.4630    25.0790    24.0080 
  140.7500   -18.8890     2.4680    57.0210    19.7320    18.8700    24.5360    23.9210 
  140.8750   -18.8950     2.4470    61.8160    18.0230    17.5770    23.2600    23.6740 
  141.0000   -18.8710     2.4220    64.0270    15.6430    15.5680    22.0760    23.3600 
  141.1250   -18.8390     2.3970    64.4530    12.8710    13.0580    19.5250    23.3660 
  141.2500   -18.8070     2.3730    68.6770    10.2490    10.5710    14.0370    23.5600 
  141.3750   -18.8020     2.3450    74.8960     8.1210     8.4340     9.6220    23.6320 
  141.5000   -18.8770     2.3180    79.8830     6.6110     6.8040     7.2400    23.7150 
  141.6250   -19.0360     2.3000    80.9810     5.7600     5.7710     6.1110    23.8700 
  141.7500   -19.1790     2.2910    78.7980     5.3550     5.1740     5.5700    24.0990 
  141.8750   -19.3090     2.2910    76.7260     5.2830     4.9230     5.4050    24.1570 
  142.0000   -19.4450     2.2990    77.6430     5.4360     4.9210     5.4390    24.1470 
  142.1250   -19.5700     2.3100    79.9530     5.7260     5.0980     5.5800    24.0610 
  142.2500   -19.6730     2.3190    78.8780     6.0570     5.3590     5.9690    23.8630 
  142.3750   -19.7730     2.3190    75.7650     6.3950     5.6630     6.5350    23.4420 
  142.5000   -19.8660     2.3040    74.2860     6.7250     5.9810     7.0800    22.9840 
  142.6250   -19.9660     2.2780    74.6110     7.0250     6.2710     7.4290    22.7610 
  142.7500   -20.0730     2.2500    78.3850     7.2720     6.4920     7.9750    22.7620 
  142.8750   -20.1480     2.2300    84.7780     7.4470     6.6090     8.8240    22.8390 
  143.0000   -20.1400     2.2220    86.8960     7.5530     6.6160     9.1160    22.8540 
  143.1250   -20.0660     2.2240    81.5880     7.6330     6.5460     9.1120    22.8470 
  143.2500   -19.9600     2.2280    76.8110     7.7620     6.4880     8.8790    22.8040 
  143.3750   -19.8410     2.2300    74.4780     8.0080     6.5120     9.2640    22.6980 
  143.5000   -19.7190     2.2260    70.5170     8.4110     6.6660    10.2910    22.7710 
  143.6250   -19.5830     2.2180    64.8840     8.9540     6.9760    10.9570    22.8840 
  143.7500   -19.4660     2.2120    62.6530     9.5140     7.3610    11.4820    23.0820 
  143.8750   -19.3990     2.2070    63.2590     9.9810     7.7420    11.9320    23.1540 
  144.0000   -19.4140     2.2040    65.2390    10.2930     8.0650    12.3620    23.2020 
  144.1250   -19.5120     2.2030    66.7620    10.4400     8.3030    12.3150    23.1470 
  144.2500   -19.6520     2.2090    66.4580    10.4880     8.4660    11.6100    23.1630 
  144.3750   -19.8250     2.2230    64.1540    10.4400     8.5350    10.8400    23.2450 
  144.5000   -19.9630     2.2490    63.1650    10.2540     8.4730    11.0030    23.4260 
  144.6250   -20.0660     2.2800    66.9960     9.8080     8.2060    11.0190    23.4670 
  144.7500   -20.0950     2.3060    69.9080     9.0950     7.7410     9.9210    23.3660 
  144.8750   -20.0730     2.3250    69.1390     8.1760     7.1100     8.5910    23.3460 
  145.0000   -20.0370     2.3370    68.3240     7.2040     6.3870     8.5670    23.4680 
  145.1250   -20.0320     2.3420    69.8450     6.3760     5.6800     8.7820    23.7940 
  145.2500   -20.0370     2.3380    70.4400     5.7730     5.0860     7.2360    24.1800 
  145.3750   -20.0460     2.3240    68.6890     5.4020     4.6580     5.5380    24.3840 
  145.5000   -20.0790     2.3070    68.0430     5.2210     4.4070     4.9360    24.3820 
  145.6250   -20.1460     2.2950    70.8340     5.1830     4.3260     5.1520    24.1650 
  145.7500   -20.1890     2.2940    73.9690     5.2090     4.3370     5.2950    24.0820 
  145.8750   -20.1540     2.3000    75.6880     5.2550     4.3840     5.3080    24.1390 
  146.0000   -19.9760     2.3040    74.8960     5.2870     4.4210     5.2640    24.2400 
  146.1250   -19.7090     2.3020    72.0840     5.2770     4.4150     5.2260    24.2740 
  146.2500   -19.4510     2.2980    71.6530     5.2360     4.3780     5.1710    24.2940 
  146.3750   -19.2200     2.2930    74.2960     5.1830     4.3280     5.1310    24.2580 
  146.5000   -18.9500     2.2880    78.1790     5.1370     4.2790     5.1390    24.2270 
  146.6250   -18.6450     2.2780    79.6770     5.1180     4.2340     5.1880    24.2520 
  146.7500   -18.3860     2.2620    79.6030     5.1150     4.1850     5.1680    24.2470 
  146.8750   -18.2040     2.2420    79.8830     5.0970     4.1240     5.1360    24.2270 
  147.0000   -18.1320     2.2220    81.1030     5.0420     4.0510     5.0710    24.1240 
  147.1250   -18.1310     2.2140    81.9270     4.9680     3.9820     4.9810    24.0940 
  147.2500   -18.1410     2.2230    83.7080     4.9290     3.9420     4.8340    24.0870 
  147.3750   -18.1430     2.2470    86.4840     4.9670     3.9490     4.7990    24.0700 
  147.5000   -18.2120     2.2760    86.5330     5.0980     4.0080     4.9740    24.1670 
  147.6250   -18.3550     2.2940    82.2000     5.3020     4.1150     5.3570    24.0990 
  147.7500   -18.5140     2.2950    77.6160     5.5070     4.2400     5.6590    24.0930 
  147.8750   -18.6540     2.2860    77.3790     5.6520     4.3590     5.8320    24.1470 
  148.0000   -18.7920     2.2770    81.4930     5.7030     4.4430     5.8460    24.1830 
  148.1250   -18.9060     2.2750    85.3590     5.6620     4.4630     5.7740    24.1400 
  148.2500   -18.9620     2.2780    85.0220     5.5860     4.4290     5.6440    24.1030 
  148.3750   -18.9410     2.2810    81.3120     5.5140     4.3620     5.4470    24.1050 
  148.5000   -18.8530     2.2830    77.9170     5.4670     4.2890     5.3130    24.1150 
  148.6250   -18.6800     2.2830    76.1580     5.4530     4.2350     5.3350    24.0860 
  148.7500   -18.4920     2.2860    75.4090     5.4680     4.2030     5.3610    24.0650 
  148.8750   -18.3180     2.2900    75.3350     5.5040     4.1850     5.3510    24.0970 
  149.0000   -18.1630     2.2940    76.2830     5.5390     4.1700     5.3520    24.0150 
  149.1250   -17.9780     2.2960    75.4060     5.5420     4.1500     5.3600    24.0500 
  149.2500   -17.7940     2.2940    74.6440     5.5260     4.1280     5.3150    24.0900 
  149.3750   -17.6180     2.2910    77.7850     5.5130     4.1090     5.3140    24.0550 
  149.5000   -17.4300     2.2890    82.8370     5.5120     4.0990     5.4150    24.0150 
  149.6250   -17.2340     2.2880    83.3380     5.5060     4.0980     5.4270    24.1000 
  149.7500   -17.0520     2.2860    79.1170     5.4900     4.1030     5.4000    24.1380 
  149.8750   -16.9020     2.2810    76.1740     5.4890     4.1190     5.3640    24.1580 
  150.0000   -16.8080     2.2730    77.5190     5.5440     4.1560     5.3330    24.1510 
  150.1250   -16.8000     2.2650    78.0800     5.6880     4.2330     5.2670    24.1100 
  150.2500   -16.8780     2.2610    76.1010     5.8880     4.3460     5.4030    24.1260 
  150.3750   -17.0290     2.2630    73.3020     6.0990     4.4830     5.8430    24.1400 
  150.5000   -17.2780     2.2710    71.0850     6.2860     4.6200     6.2290    24.1280 
  150.6250   -17.5490     2.2830    69.8670     6.4470     4.7430     6.2040    24.1320 
  150.7500   -17.8000     2.2930    68.4670     6.6230     4.8630     5.9870    24.1770 
  150.8750   -18.0000     2.2960    66.9340     6.8450     5.0000     6.1160    24.2350 
  151.0000   -18.1570     2.2910    66.4370     7.1130     5.1600     6.5340    24.2180 
  151.1250   -18.2510     2.2800    67.5780     7.3880     5.3450     7.4350    24.2170 
