~V
VERS. 2.00: Ver 2.00
~W
STRT.M 53.0000:
STOP.M 286.0000:
STEP.M 0.1250:
NULL. -999.2500:
UWI. F10262:
~C
DEPT.M :
DEN.GM/CC :
GR.API :
RML.OHMM :
RI. :
RXO.OHMM :
CALI.CM :
SP.MV :
~A
# ...
   98.0000     2.1770    71.8070    12.2100     9.8300    11.5560    24.7100   -14.8590 
   98.1250     2.1780    69.0920    12.3730     9.9560    11.9080    24.6570   -15.1070 
   98.2500     2.1660    66.9780    12.5370    10.0690    12.5790    24.6730   -15.3320 
   98.3750     2.1310    68.5470    12.7170    10.1750    13.0730    24.7440   -15.4830 
   98.5000     2.0830    71.0240    12.8970    10.2760    13.1680    24.9310   -15.5360 
   98.6250     2.0480    71.0820    13.0250    10.3490    12.6230    25.0420   -15.4980 
   98.7500     2.0540    68.8390    13.0210    10.3450    12.1790    25.0280   -15.3500 
   98.8750     2.1120    68.4330    12.7950    10.2000    12.2900    24.8260   -15.0630 
   99.0000     2.1880    71.2470    12.4150     9.9490    12.5950    24.5930   -14.7760 
   99.1250     2.2470    76.4860    12.0170     9.6690    12.4800    24.5800   -14.5030 
   99.2500     2.2720    80.9530    11.7810     9.4730    11.8320    24.6760   -14.2390 
   99.3750     2.2680    81.6930    11.9110     9.5050    11.5860    24.7110   -14.0680 
   99.5000     2.2660    80.5560    12.3630     9.7720    11.7360    24.6790   -13.9520 
   99.6250     2.2720    77.1810    12.9990    10.2150    12.3190    24.6480   -13.9780 
   99.7500     2.2800    71.7320    13.5940    10.7020    12.8800    24.6370   -14.1170 
   99.8750     2.2710    68.1450    13.8820    11.0280    12.6970    24.7260   -14.3000 
  100.0000     2.2410    70.4340    13.8300    11.1020    12.3190    24.8620   -14.3980 
  100.1250     2.2010    74.2800    13.4670    10.8980    11.9570    24.9890   -14.3490 
  100.2500     2.1660    72.9350    12.8080    10.4100    11.9480    25.0710   -14.1290 
  100.3750     2.1550    69.5650    11.7890     9.5930    12.0580    25.1410   -13.6410 
  100.5000     2.1670    70.2420    10.5590     8.6010    11.9880    25.1780   -13.0120 
  100.6250     2.1910    73.9670     9.3570     7.6320    11.2290    25.2270   -12.2370 
  100.7500     2.2140    77.5320     8.4780     6.8930     9.8910    25.2770   -11.4380 
  100.8750     2.2250    78.9890     8.2560     6.5950     9.0120    25.2730   -10.7800 
  101.0000     2.2260    77.8220     8.6510     6.7230     9.8020    25.1430   -10.2440 
  101.1250     2.2230    73.9310     9.5690     7.2580    11.6910    25.0330    -9.8190 
  101.2500     2.2200    70.8630    10.8190     8.1330    13.3470    24.9810    -9.5390 
  101.3750     2.2160    71.4990    12.0670     9.2000    12.5580    24.9330    -9.4340 
  101.5000     2.2090    71.9880    12.9170    10.1190    11.6240    24.5380    -9.3620 
  101.6250     2.2060    71.5520    13.0940    10.5770    11.1510    24.2140    -9.2590 
  101.7500     2.2150    72.7970    12.5290    10.3970    11.0560    24.0420    -9.0020 
  101.8750     2.2410    77.9830    11.3010     9.5520    11.4580    23.9170    -8.4930 
  102.0000     2.2710    86.5360     9.8390     8.4110    11.1740    23.9040    -7.9460 
  102.1250     2.2920    95.6880     8.4830     7.2700     9.2230    23.9400    -7.4320 
  102.2500     2.2960   100.9430     7.5060     6.3620     7.9460    23.9120    -6.9450 
  102.3750     2.2870    98.0010     7.1150     5.8680     7.8250    23.8430    -6.5760 
  102.5000     2.2810    92.0780     7.1620     5.7220     8.0760    23.7820    -6.2800 
  102.6250     2.2840    90.3020     7.4700     5.8410     8.0890    23.7380    -6.0980 
  102.7500     2.2930    93.9850     7.8170     6.0870     7.9040    23.7400    -6.0600 
  102.8750     2.3000    99.1810     7.9830     6.2880     7.7950    23.7480    -6.0860 
  103.0000     2.3010   100.8560     7.9440     6.3580     7.8640    23.6570    -6.1210 
  103.1250     2.2990    97.1290     7.7500     6.2940     7.9890    23.5640    -6.1470 
  103.2500     2.2970    91.3590     7.4720     6.1350     8.1840    23.6510    -6.1760 
  103.3750     2.2960    92.2330     7.1920     5.9400     8.5110    24.2030    -6.1880 
  103.5000     2.2920    97.7850     6.9960     5.7850     8.6550    24.9490    -6.2500 
  103.6250     2.2800   100.2310     6.9490     5.7180     8.6200    25.6330    -6.3610 
  103.7500     2.2550    95.6100     7.0700     5.7560     8.4480    26.2740    -6.4750 
  103.8750     2.2130    87.8440     7.3210     5.8840     8.0360    26.8070    -6.6310 
  104.0000     2.1540    82.0430     7.5550     6.0150     7.6030    27.1340    -6.7320 
  104.1250     2.0760    79.8320     7.6460     6.0650     7.3490    27.0650    -6.7500 
  104.2500     1.9880    80.7630     7.5250     5.9790     7.3650    26.5630    -6.7440 
  104.3750     1.9180    82.6760     7.2250     5.7660     7.4050    26.0350    -6.7500 
  104.5000     1.8950    84.3540     6.9290     5.5420     7.5280    25.6960    -6.8020 
  104.6250     1.9310    85.5550     6.7730     5.3990     7.6180    25.4190    -6.9360 
  104.7500     2.0120    84.7960     6.8430     5.3980     7.8330    25.1220    -7.1890 
  104.8750     2.1010    82.2170     7.1950     5.5880     8.1990    24.6790    -7.5920 
  105.0000     2.1660    79.3910     7.7320     5.9210     8.8350    24.3070    -8.1230 
  105.1250     2.1960    75.4990     8.3500     6.3430     9.4130    24.1540    -8.7460 
  105.2500     2.1990    70.9860     8.9240     6.7720     9.9320    24.1370    -9.3930 
  105.3750     2.1870    69.8720     9.2980     7.0900    10.1990    24.1540   -10.0200 
  105.5000     2.1740    73.6340     9.4460     7.2470    10.3170    24.2220   -10.5490 
  105.6250     2.1640    77.8880     9.4060     7.2430    10.2020    24.2430   -10.9690 
  105.7500     2.1620    78.3500     9.2730     7.1320     9.8940    24.2270   -11.3030 
  105.8750     2.1650    75.2410     9.1690     6.9920     9.4980    24.2140   -11.5150 
  106.0000     2.1710    74.1240     9.1650     6.8930     9.3710    24.2320   -11.7030 
  106.1250     2.1750    74.6400     9.2780     6.8630     9.4990    24.2600   -11.9230 
  106.2500     2.1750    73.0460     9.4720     6.9020     9.6420    24.2500   -12.1520 
  106.3750     2.1720    69.5640     9.6560     6.9740     9.6010    24.1390   -12.3940 
  106.5000     2.1700    68.2080     9.7500     7.0280     9.7290    23.9540   -12.6730 
  106.6250     2.1740    70.1960     9.7700     7.0650    10.0080    23.7950   -12.9530 
  106.7500     2.1850    72.9150     9.8580     7.1530    10.0280    23.7480   -13.1710 
  106.8750     2.2140    75.0020    10.3050     7.4540    10.3410    23.7340   -13.3570 
  107.0000     2.2680    76.5430    11.2410     8.0550    11.1950    23.7550   -13.5040 
  107.1250     2.3510    76.2600    12.6420     8.9850    12.6960    24.0000   -13.6040 
  107.2500     2.4490    72.6740    14.2440    10.1380    15.4410    24.6870   -13.6710 
  107.3750     2.5200    66.6600    15.3910    11.1290    19.6020    26.0410   -13.6990 
  107.5000     2.5350    63.8810    15.5660    11.5160    20.9910    27.0490   -13.7080 
  107.6250     2.4880    66.4250    14.7000    11.1370    18.2890    26.4780   -13.7310 
  107.7500     2.4020    70.5920    13.2290    10.2200    14.5630    25.1090   -13.8000 
  107.8750     2.3200    70.7910    11.8390     9.1960    12.8930    24.3550   -13.8510 
  108.0000     2.2660    69.1080    10.9210     8.3900    12.2650    24.1170   -13.9090 
  108.1250     2.2370    68.8150    10.5080     7.8840    12.0250    24.0230   -14.0130 
  108.2500     2.2170    70.8470    10.4570     7.6460    11.8460    23.9800   -14.1840 
  108.3750     2.1940    72.8430    10.5780     7.6100    11.4220    24.0290   -14.4110 
  108.5000     2.1700    73.0040    10.7050     7.6540    11.1630    24.1650   -14.6140 
  108.6250     2.1530    71.3330    10.8040     7.7360    11.0870    24.3780   -14.7850 
  108.7500     2.1500    68.8090    10.8870     7.8360    11.0310    24.4650   -15.0020 
  108.8750     2.1660    68.6120    10.9680     7.9520    11.0070    24.4170   -15.2430 
  109.0000     2.1880    70.4270    11.0520     8.0750    11.3350    24.2990   -15.4440 
  109.1250     2.2050    72.2740    11.1280     8.1980    11.7750    24.2230   -15.6410 
