~V
VERS. 2.00: Ver 2.00
~W
STRT.M 53.0000:
STOP.M 269.0000:
STEP.M 0.1250:
NULL. -999.2500:
UWI. F10224:
~C
DEPT.M :
DEN.GM/CC :
GR.API :
RML.OHMM :
RI. :
RXO.OHMM :
CALI.CM :
SP.MV :
~A
# ...
  165.3750     2.2160    56.8200   168.3330   154.3790   145.4820    23.7690   -36.5340 
  165.5000     2.2140    55.1140   163.9440   154.3500   158.1970    23.9070   -36.7380 
  165.6250     2.2110    54.7920   150.9920   144.1840   168.7680    24.0260   -36.9070 
  165.7500     2.2140    57.3480   137.1310   127.3970   161.5510    24.1160   -37.0670 
  165.8750     2.2240    62.8810   124.4060   108.5220   124.1660    24.1220   -37.2540 
  166.0000     2.2420    67.9160   112.4190    92.0110    85.8210    24.0830   -37.4960 
  166.1250     2.2600    67.5680   101.3770    81.5440    69.4470    24.0380   -37.7750 
  166.2500     2.2690    63.5440    93.2640    76.9770    65.5170    24.0270   -38.0730 
  166.3750     2.2660    59.5410    90.6600    78.3610    66.5900    24.0230   -38.3490 
  166.5000     2.2560    57.7450    95.4380    85.9330    70.5590    24.0090   -38.5850 
  166.6250     2.2450    58.2910   111.3040   101.2030    82.8360    23.9780   -38.8220 
  166.7500     2.2360    61.2090   138.1180   123.2080   103.9850    23.9580   -39.0330 
  166.8750     2.2270    64.0370   169.5490   151.1880   130.6700    23.9540   -39.1950 
  167.0000     2.2180    62.2960   205.2420   182.8930   157.2440    23.9560   -39.3430 
  167.1250     2.2150    55.6520   239.9600   213.6480   174.9500    23.9580   -39.5010 
  167.2500     2.2140    50.2350   267.8890   238.6460   182.6800    23.9520   -39.6590 
  167.3750     2.2140    49.7390   285.6230   255.0600   195.7250    23.9560   -39.8510 
  167.5000     2.2110    53.0980   292.3530   262.0540   209.7190    23.9870   -40.0750 
  167.6250     2.2090    55.2370   288.2250   259.3020   207.3310    24.0150   -40.2730 
  167.7500     2.2110    54.8920   277.7580   250.3690   201.6600    24.0230   -40.4310 
  167.8750     2.2150    54.8500   263.8720   237.6080   199.5840    24.0090   -40.5340 
  168.0000     2.2170    57.8540   249.8460   223.9420   194.9870    23.9820   -40.5770 
  168.1250     2.2150    62.0450   239.3610   213.0020   189.1020    23.9590   -40.5770 
  168.2500     2.2130    61.4330   233.4200   206.2190   178.3350    23.9460   -40.5810 
  168.3750     2.2120    57.3780   231.8880   203.7540   165.2290    23.9420   -40.5920 
  168.5000     2.2110    53.8560   233.5540   204.7180   161.2310    23.9480   -40.6310 
  168.6250     2.2100    54.2040   236.1150   207.3120   175.3890    23.9560   -40.7470 
  168.7500     2.2120    56.6210   236.8910   208.9590   191.2050    23.9960   -40.9460 
  168.8750     2.2130    58.2060   234.6750   208.2300   192.9900    24.1030   -41.2000 
  169.0000     2.2140    57.6510   229.7890   204.9250   187.6860    24.2580   -41.4630 
  169.1250     2.2150    56.2520   223.8910   200.1460   188.0140    24.3520   -41.7230 
  169.2500     2.2160    56.4310   218.8940   195.8920   185.1870    24.3950   -41.9610 
  169.3750     2.2140    58.0890   215.2420   192.9710   176.6160    24.3670   -42.1510 
  169.5000     2.2100    58.1840   212.2470   191.0490   171.4130    24.3140   -42.2670 
  169.6250     2.2050    55.4050   208.3890   188.8190   178.9630    24.3180   -42.3520 
  169.7500     2.2020    53.6660   202.8300   185.2200   192.1600    24.3580   -42.4540 
  169.8750     2.2030    55.7290   195.5320   179.9980   195.2910    24.3890   -42.5840 
  170.0000     2.2080    58.3180   186.9720   173.4870   182.3530    24.4120   -42.7600 
  170.1250     2.2170    56.0900   177.4070   166.0330   161.9990    24.4130   -42.9320 
  170.2500     2.2270    53.1570   166.5430   157.5740   143.6600    24.3950   -43.0980 
  170.3750     2.2320    53.6520   153.6010   147.3550   130.7470    24.3870   -43.2310 
  170.5000     2.2330    56.3010   138.6040   135.0270   119.4920    24.3740   -43.3080 
  170.6250     2.2340    57.7380   123.2490   121.4740   106.0910    24.3270   -43.3330 
  170.7500     2.2400    59.3410   110.1640   109.0680    89.2000    24.2950   -43.3080 
  170.8750     2.2520    62.3020   101.1540    99.7690    72.0270    24.2870   -43.2270 
  171.0000     2.2660    65.2510    97.0540    94.8550    61.4100    24.2920   -43.0970 
  171.1250     2.2750    64.1550    98.3320    95.2950    57.0340    24.2820   -42.9590 
  171.2500     2.2740    60.6880   102.9660    99.3880    52.1810    24.2430   -42.8310 
  171.3750     2.2670    59.2680   109.1260   105.4940    46.3490    24.1820   -42.7500 
  171.5000     2.2590    61.9500   114.2740   111.2070    41.5630    24.0630   -42.7290 
  171.6250     2.2520    64.5350   114.6820   112.7850    39.0410    23.9350   -42.6740 
  171.7500     2.2450    63.0770   109.7900   109.0920    38.9900    23.7600   -42.5780 
  171.8750     2.2400    59.8970   101.3820   101.3260    43.2980    23.6080   -42.4610 
  172.0000     2.2380    57.5550    92.8430    92.5060    50.6460    23.5090   -42.2980 
  172.1250     2.2400    56.5110    88.3110    86.5490    51.6020    23.5300   -42.1140 
  172.2500     2.2410    56.4160    89.5720    85.6010    48.2010    23.6540   -41.9260 
  172.3750     2.2410    58.6740    97.5630    90.9790    50.2440    23.8990   -41.7380 
  172.5000     2.2330    60.8660   112.0290   102.9140    63.9040    24.1840   -41.5730 
  172.6250     2.2150    57.6940   130.5990   119.8200    95.8290    24.4190   -41.4380 
  172.7500     2.1970    53.1470   145.7820   134.9470   129.1850    24.5020   -41.3030 
  172.8750     2.1930    54.2570   150.2440   141.3920   136.5470    24.4750   -41.1600 
  173.0000     2.2060    61.3430   141.6780   135.9160   123.7110    24.3170   -41.0230 
  173.1250     2.2270    66.2120   125.4850   121.7110    98.1390    23.9220   -40.8350 
  173.2500     2.2420    65.5730   110.7700   107.3490    71.2440    23.5040   -40.6150 
  173.3750     2.2470    62.5550   100.6410    96.5380    59.5420    23.3800   -40.3540 
  173.5000     2.2410    59.3420    95.4270    90.2020    67.4130    23.9200   -40.0600 
  173.6250     2.2220    58.2780    94.9540    88.5040    85.8410    24.9690   -39.7670 
  173.7500     2.1870    59.7260    97.3480    89.8180    87.1450    25.9830   -39.5060 
  173.8750     2.1450    62.0730   101.2140    92.9820    75.6090    26.6680   -39.2790 
  174.0000     2.1170    63.2320   104.6860    96.3980    70.2860    26.8110   -39.0890 
  174.1250     2.1210    61.9530   104.8960    97.4990    72.1120    26.1270   -38.9260 
  174.2500     2.1460    61.7630   100.7630    94.8780    74.0850    25.1070   -38.7490 
  174.3750     2.1740    64.2800    92.7870    88.5220    72.2700    24.2540   -38.5590 
  174.5000     2.1940    68.2800    83.0440    79.9660    64.0910    23.7300   -38.3460 
  174.6250     2.2050    70.1390    74.3400    71.6760    52.5160    23.5010   -38.1010 
  174.7500     2.2150    68.9800    67.9630    65.2110    44.6220    23.3700   -37.8230 
  174.8750     2.2240    66.5360    63.9600    60.8480    41.0980    23.3220   -37.5190 
  175.0000     2.2300    63.2820    61.9250    58.3080    41.5700    23.3590   -37.2190 
  175.1250     2.2360    61.3880    61.7160    57.4660    47.5470    23.5010   -36.9730 
  175.2500     2.2410    63.2910    62.9520    57.9290    54.5670    23.6010   -36.7690 
  175.3750     2.2480    65.9860    65.7970    59.8050    54.5680    23.6220   -36.6070 
  175.5000     2.2590    66.3790    70.4540    63.3360    51.5310    23.5620   -36.4670 
  175.6250     2.2690    65.7050    76.7960    68.6460    57.9040    23.4890   -36.3240 
  175.7500     2.2660    66.9520    83.2540    74.4160    73.3210    23.3900   -36.1590 
  175.8750     2.2550    68.7350    88.2080    79.1090    82.8400    23.2660   -35.9810 
  176.0000     2.2490    68.9900    90.5190    81.4680    81.0710    23.1650   -35.7880 
  176.1250     2.2500    68.4780    90.0860    81.0280    79.0740    23.1140   -35.5930 
  176.2500     2.2520    66.6710    89.1950    79.6740    73.8500    23.0800   -35.3980 
  176.3750     2.2530    64.3590    89.9730    79.3290    67.0550    23.0710   -35.2100 
  176.5000     2.2560    64.3100    93.9110    81.4510    66.8580    23.0700   -35.0540 
