~V
VERS. 2.00: Ver 2.00
~W
STRT.M 63.0000:
STOP.M 280.0000:
STEP.M 0.1250:
NULL. -999.2500:
UWI. F10220:
~C
DEPT.M :
SP.MV :
DEN.GM/CC :
GR.API :
RML.OHMM :
RI. :
RXO.OHMM :
CALI.CM :
~A
# ...
  119.2500   -23.1120     2.1810    65.5160     9.3820     7.6790     9.0290    23.4050 
  119.3750   -22.5050     2.1920    66.7650     8.9960     7.4080     8.7970    23.3620 
  119.5000   -21.7920     2.2160    67.9870     8.4220     6.9850     8.1260    23.2930 
  119.6250   -20.9960     2.2430    71.8880     7.7860     6.4900     7.2060    23.1810 
  119.7500   -20.1900     2.2670    79.7610     7.3020     6.0600     6.5650    22.9970 
  119.8750   -19.5370     2.2850    86.3420     7.1120     5.8070     6.1320    22.9010 
  120.0000   -19.1490     2.2930    89.2290     7.2720     5.7930     6.1490    23.0310 
  120.1250   -19.0910     2.2980    87.5800     7.7600     6.0330     6.5150    23.1420 
  120.2500   -19.4430     2.3150    81.7270     8.4910     6.5130     7.3790    23.0460 
  120.3750   -20.0550     2.3300    74.6100     9.2150     7.0760     8.6880    22.8820 
  120.5000   -20.8490     2.3120    68.8810     9.7160     7.5640     9.5960    22.7800 
  120.6250   -21.7390     2.2530    67.2280     9.8640     7.8440     9.3100    22.8250 
  120.7500   -22.6020     2.1890    66.9000     9.6600     7.8480     8.5330    23.0070 
  120.8750   -23.3680     2.1570    64.6240     9.3260     7.7020     7.8730    23.0410 
  121.0000   -24.0050     2.1510    60.7970     9.0140     7.5170     7.5360    22.9940 
  121.1250   -24.4960     2.1540    59.4010     8.8040     7.3750     7.5080    22.9700 
  121.2500   -24.8150     2.1550    63.8220     8.7180     7.3190     7.7650    23.0350 
  121.3750   -25.0480     2.1570    68.1590     8.7040     7.3220     7.9580    23.1990 
  121.5000   -25.2310     2.1570    67.6890     8.7330     7.3620     8.2270    23.5480 
  121.6250   -25.3860     2.1470    63.2330     8.7750     7.4240     8.7110    24.2200 
  121.7500   -25.4970     2.1210    59.0030     8.7880     7.4820     9.2300    24.8960 
  121.8750   -25.5290     2.1000    57.3450     8.7420     7.5100     9.0180    24.9220 
  122.0000   -25.4460     2.1010    56.7020     8.6360     7.4940     8.5790    24.2820 
  122.1250   -25.2930     2.1270    58.7210     8.4930     7.4400     8.3920    23.5570 
  122.2500   -25.0730     2.1610    64.0200     8.3650     7.3710     8.7120    23.2880 
  122.3750   -24.7710     2.1840    67.9090     8.2960     7.3220     9.2490    23.3210 
  122.5000   -24.4040     2.1940    66.1530     8.3000     7.3120     9.4840    23.4390 
  122.6250   -24.0220     2.1960    61.2490     8.3670     7.3420     9.5900    23.4890 
  122.7500   -23.6860     2.1940    61.2260     8.4700     7.3970     9.9090    23.4600 
  122.8750   -23.3990     2.1910    65.2010     8.5680     7.4450    10.0260    23.4150 
  123.0000   -23.1580     2.1880    68.1910     8.6340     7.4680     9.9360    23.3470 
  123.1250   -22.8980     2.1870    68.2520     8.6450     7.4540     9.7920    23.2310 
  123.2500   -22.5590     2.1890    67.7400     8.5820     7.3900     9.7930    23.0910 
  123.3750   -22.1470     2.1970    67.3060     8.5000     7.3060     9.9880    22.9410 
  123.5000   -21.6290     2.2140    67.9550     8.5200     7.2730    10.2920    22.8440 
  123.6250   -20.9740     2.2390    69.6020     8.8140     7.4070    10.6390    22.8610 
  123.7500   -20.1250     2.2780    67.3830     9.6620     7.9120    10.9920    23.0300 
  123.8750   -19.1360     2.3320    61.9790    11.4740     8.8680    11.6920    23.2350 
  124.0000   -18.0330     2.4040    58.2540    13.9740    10.3430    13.4380    23.3220 
  124.1250   -16.8350     2.4810    60.1440    16.6120    12.3050    16.5170    23.2500 
  124.2500   -15.6000     2.5350    62.3400    19.1750    14.5140    19.1740    23.1010 
  124.3750   -14.4350     2.5530    59.3890    21.0190    16.4150    19.6070    22.9930 
  124.5000   -13.3810     2.5490    54.1850    21.8290    17.6020    18.5230    22.9120 
  124.6250   -12.4510     2.5420    49.2140    21.7720    18.0180    17.7250    22.8690 
  124.7500   -11.6730     2.5430    45.5480    21.3780    17.9410    17.4900    22.8770 
  124.8750   -11.0440     2.5500    42.9780    21.2190    17.8730    17.1510    22.9230 
  125.0000   -10.5840     2.5590    43.2680    21.5150    18.0560    16.6010    22.9780 
  125.1250   -10.2950     2.5720    45.7370    22.2810    18.5820    16.8970    23.0160 
  125.2500   -10.1500     2.5840    45.9010    23.4050    19.4390    18.4210    23.0580 
  125.3750   -10.0470     2.5860    44.0290    24.5650    20.4120    19.5770    23.1060 
  125.5000    -9.9820     2.5790    44.0590    25.5030    21.3150    20.4450    23.1180 
  125.6250    -9.9520     2.5670    47.4940    26.0130    21.9710    20.8430    23.0750 
  125.7500    -9.9820     2.5450    50.9350    25.9440    22.2070    19.9100    23.0310 
  125.8750   -10.0370     2.5140    51.8770    25.5060    22.1160    18.4620    23.0200 
  126.0000   -10.0690     2.4800    49.7860    24.8980    21.8150    17.7240    23.0320 
  126.1250   -10.1040     2.4520    46.1260    24.3160    21.4440    18.3710    23.0230 
  126.2500   -10.1720     2.4300    45.1000    23.9670    21.1740    18.7260    22.9730 
  126.3750   -10.2340     2.4160    46.9750    23.9030    21.1030    17.8230    22.7670 
  126.5000   -10.2780     2.4200    49.4300    24.0940    21.2500    16.3710    22.3390 
  126.6250   -10.2980     2.4490    49.7500    24.4330    21.5590    16.0690    21.9270 
  126.7500   -10.3290     2.4850    48.4710    24.7420    21.9060    18.2230    22.2130 
  126.8750   -10.3760     2.5030    46.1500    24.8710    22.1460    20.1260    22.8560 
  127.0000   -10.4550     2.4990    44.6780    24.7590    22.1960    20.1980    23.3630 
  127.1250   -10.5280     2.4920    45.7970    24.4450    22.0470    19.4980    23.5590 
  127.2500   -10.5430     2.4980    47.3640    24.0500    21.7620    18.6180    23.5050 
  127.3750   -10.5220     2.5150    47.8630    23.7130    21.4760    18.6390    23.3570 
  127.5000   -10.4820     2.5270    49.0250    23.4790    21.2590    18.2850    23.2050 
  127.6250   -10.4290     2.5200    50.7580    23.3260    21.1260    17.7080    23.1070 
  127.7500   -10.3340     2.4990    50.0070    23.1850    21.0360    17.2540    23.0050 
  127.8750   -10.2270     2.4800    47.6080    22.9840    20.9070    17.0590    22.8260 
  128.0000   -10.1160     2.4680    47.4320    22.6840    20.6860    16.5160    22.6800 
  128.1250   -10.0130     2.4640    50.1190    22.2820    20.3580    16.3040    22.6530 
  128.2500    -9.9430     2.4630    52.7270    21.8160    19.9480    16.1640    22.7150 
  128.3750    -9.8930     2.4690    52.9060    21.3870    19.5550    15.7420    22.8310 
  128.5000    -9.8490     2.4820    51.8720    21.0930    19.2750    14.8550    22.9510 
  128.6250    -9.8410     2.4980    51.6470    21.0190    19.1900    13.9340    23.0240 
  128.7500    -9.8570     2.5100    51.8900    21.2410    19.3760    14.0460    23.1060 
  128.8750    -9.8830     2.5200    51.0930    21.6890    19.7790    14.5390    23.1710 
  129.0000    -9.9130     2.5330    50.5470    22.2970    20.3460    14.8880    23.1640 
  129.1250    -9.9310     2.5490    50.8610    22.9760    20.9980    15.5510    23.1160 
  129.2500    -9.9280     2.5620    49.5260    23.5980    21.6250    17.3880    23.0920 
  129.3750    -9.9180     2.5710    46.4510    24.0390    22.1140    19.3850    23.1100 
  129.5000    -9.9270     2.5780    45.8000    24.2050    22.3730    20.5310    23.1980 
  129.6250    -9.9300     2.5810    49.9810    24.0580    22.3530    20.1220    23.3760 
  129.7500    -9.9310     2.5730    54.0120    23.6350    22.0540    20.0370    23.6300 
  129.8750    -9.9380     2.5570    54.8440    23.1670    21.6610    19.6640    23.7330 
  130.0000    -9.9460     2.5390    54.5680    22.8790    21.3620    18.7420    23.5720 
  130.1250    -9.9590     2.5240    54.1440    22.9490    21.3300    18.0970    23.2760 
  130.2500    -9.9800     2.5200    51.9050    23.4700    21.7040    18.4100    23.0450 
  130.3750   -10.0350     2.5290    48.2180    24.2190    22.3550    18.6210    22.9320 
