~V
VERS. 2.00: Ver 2.00
~W
STRT.M 53.0000:
STOP.M 282.0000:
STEP.M 0.1250:
NULL. -999.2500:
UWI. F10240:
~C
DEPT.M :
GR.API :
RML.OHMM :
RI. :
RXO.OHMM :
CALI.CM :
DEN.GM/CC :
SP.MV :
~A
# ...
  120.5000    60.1950    20.5990    14.4690    29.4110    25.4530     2.4710   -13.8260 
  120.6250    52.5320    26.0090    19.6200    33.0460    25.4030     2.5290   -13.9830 
  120.7500    50.6320    27.8640    22.8350    28.6220    25.3730     2.5590   -14.1540 
  120.8750    53.3920    24.8420    21.9080    28.6850    25.3650     2.5480   -14.3290 
  121.0000    58.3340    18.7970    17.4690    23.8460    25.3710     2.4940   -14.4710 
  121.1250    63.4800    13.3050    12.8510    14.8150    25.3870     2.4250   -14.6130 
  121.2500    69.0610     9.4550     9.3050     9.3950    25.4230     2.3660   -14.7500 
  121.3750    74.5570     7.1560     6.9700     6.6160    25.4910     2.3360   -14.8540 
  121.5000    77.9750     6.2140     5.7650     5.9000    25.5690     2.3330   -14.9490 
  121.6250    78.5080     6.2520     5.3600     6.2890    25.5720     2.3320   -15.0710 
  121.7500    77.5430     7.3320     5.7410     7.4380    25.5130     2.3200   -15.2070 
  121.8750    75.6040     9.6240     7.0050     8.9220    25.4900     2.3110   -15.3560 
  122.0000    71.5880    13.4040     9.4980    12.6610    25.4970     2.3410   -15.5590 
  122.1250    65.8360    17.9650    12.9900    20.7300    25.4570     2.4120   -15.7800 
  122.2500    58.3650    22.1010    16.7930    34.9480    25.4200     2.4930   -15.9970 
  122.3750    51.2620    24.3850    19.6250    46.3280    25.4050     2.5320   -16.2600 
  122.5000    48.4850    24.2420    20.4060    38.0530    25.4370     2.5050   -16.5530 
  122.6250    50.5270    23.5540    20.2160    23.2510    25.4730     2.4630   -16.8250 
  122.7500    54.3640    23.8710    20.2250    17.1570    25.5010     2.4420   -17.0740 
  122.8750    55.7390    25.9850    21.2040    25.6980    25.4320     2.4560   -17.3290 
  123.0000    53.2480    30.0920    23.6120    37.2170    25.3220     2.4900   -17.6140 
  123.1250    50.3100    35.0000    26.9120    44.1090    25.1300     2.5140   -17.9240 
  123.2500    49.5070    39.3830    30.2780    40.3630    24.9060     2.5210   -18.2430 
  123.3750    50.6160    42.0460    32.7150    34.0050    24.6850     2.5210   -18.5690 
  123.5000    51.1360    42.5640    33.5840    32.2820    24.5140     2.5170   -18.9260 
  123.6250    51.9750    42.2970    33.6590    34.2170    24.5000     2.5000   -19.2710 
  123.7500    54.0420    42.2040    33.6620    36.1850    24.6610     2.4620   -19.5930 
  123.8750    55.2790    42.7100    34.0260    35.6600    24.8350     2.4130   -19.8880 
  124.0000    55.3100    43.9280    34.9600    32.4430    24.8720     2.3890   -20.0990 
  124.1250    56.9960    45.5390    36.2800    32.4050    24.8830     2.4180   -20.2670 
  124.2500    59.8950    47.0680    37.6630    39.4260    24.9200     2.4950   -20.4030 
  124.3750    59.8220    47.7270    38.5290    52.7830    24.9870     2.5760   -20.4560 
  124.5000    56.2170    46.3850    37.9660    49.2810    24.9450     2.5980   -20.4310 
  124.6250    55.5160    43.2640    35.9830    38.5250    24.7200     2.5630   -20.3960 
  124.7500    57.8720    39.1470    33.0480    31.5490    24.5250     2.5040   -20.3470 
  124.8750    58.2670    35.1070    29.9110    27.5630    24.3940     2.4560   -20.2680 
  125.0000    54.9110    32.2780    27.4380    24.9520    24.3170     2.4400   -20.1230 
  125.1250    52.9090    30.8610    25.9580    23.5840    24.2520     2.4450   -19.9020 
  125.2500    52.6110    30.6970    25.4800    22.7100    24.2240     2.4630   -19.6310 
  125.3750    51.0420    31.3850    25.7820    22.3590    24.2270     2.4850   -19.3050 
  125.5000    49.7240    32.3930    26.5200    23.9030    24.2360     2.5000   -18.8780 
  125.6250    51.4310    33.1030    27.1710    29.0450    24.3010     2.5020   -18.3800 
  125.7500    53.3380    33.2340    27.4450    32.9350    24.4430     2.4850   -17.8370 
  125.8750    52.2330    32.9470    27.3700    28.1770    24.6010     2.4540   -17.2490 
  126.0000    49.7230    32.8670    27.3520    22.8830    24.6090     2.4210   -16.6630 
  126.1250    49.1050    33.4500    27.7880    21.4400    24.5050     2.4080   -16.1410 
  126.2500    49.5470    34.7220    28.7920    23.2710    24.3980     2.4190   -15.6700 
  126.3750    49.9720    36.3200    30.1960    26.1710    24.4320     2.4470   -15.2600 
  126.5000    48.1370    37.4650    31.4840    28.4870    24.6390     2.4740   -14.9150 
  126.6250    44.3210    37.7010    32.1410    27.5790    24.7950     2.4940   -14.5740 
  126.7500    42.6840    37.1820    32.0980    26.0970    24.8260     2.5120   -14.2590 
  126.8750    45.2010    36.5380    31.7370    25.3650    24.7760     2.5300   -14.0220 
  127.0000    47.6500    36.5380    31.6700    27.8770    24.7670     2.5460   -13.8770 
  127.1250    46.7410    37.2770    32.1460    30.1320    24.8450     2.5550   -13.7260 
  127.2500    44.8370    38.4250    33.0390    32.0960    24.9500     2.5560   -13.5570 
  127.3750    44.8660    39.3140    33.9000    33.8900    25.1390     2.5490   -13.4180 
  127.5000    46.3830    39.0000    33.9280    36.1380    25.2870     2.5350   -13.3510 
  127.6250    48.3570    37.4420    32.9060    35.1830    25.3310     2.5180   -13.3330 
  127.7500    50.0600    35.1370    31.1240    32.3540    25.2800     2.5010   -13.3200 
  127.8750    50.1320    32.9150    29.2160    28.4470    25.2320     2.4840   -13.3090 
  128.0000    48.7220    31.7110    27.9510    26.2930    25.2830     2.4710   -13.2880 
  128.1250    49.2350    31.7150    27.6010    26.7040    25.3680     2.4590   -13.2610 
  128.2500    51.0820    32.8080    28.1830    30.0400    25.4400     2.4370   -13.2790 
  128.3750    51.7880    34.6000    29.4900    33.7650    25.4760     2.4050   -13.3040 
  128.5000    50.3560    36.5550    31.1590    37.1130    25.5310     2.3760   -13.2920 
  128.6250    49.1800    38.2490    32.7350    36.6560    25.5920     2.3650   -13.2740 
  128.7500    49.1880    39.6510    34.0760    35.5680    25.5990     2.3800   -13.2920 
  128.8750    49.0190    40.9610    35.2690    34.1830    25.5180     2.4190   -13.3170 
  129.0000    47.6230    42.3890    36.4940    35.2500    25.5540     2.4630   -13.2850 
  129.1250    47.1550    43.7870    37.7270    38.3930    25.6180     2.4920   -13.2530 
  129.2500    49.0940    44.7490    38.6910    44.1360    25.6610     2.5080   -13.2080 
  129.3750    52.5800    44.8550    39.0320    49.6440    25.6580     2.5200   -13.1470 
  129.5000    53.5590    43.9120    38.4850    47.5350    25.6360     2.5330   -13.0820 
  129.6250    52.2050    42.5790    37.4940    40.0380    25.5820     2.5460   -13.0010 
  129.7500    49.6950    41.4890    36.5590    35.3350    25.5410     2.5570   -12.9160 
  129.8750    47.3490    41.0710    36.0860    34.9220    25.5110     2.5630   -12.8180 
  130.0000    45.5230    41.4570    36.3150    39.5420    25.4520     2.5640   -12.7320 
  130.1250    45.0530    42.1040    36.9250    44.8670    25.4440     2.5670   -12.6750 
  130.2500    46.3530    42.3770    37.4370    45.6570    25.4470     2.5780   -12.6280 
  130.3750    48.4770    41.6530    37.2590    41.9530    25.4300     2.5990   -12.5870 
  130.5000    49.6040    39.4360    35.7860    38.3260    25.3980     2.6240   -12.5520 
  130.6250    47.8450    36.2240    33.3000    39.7440    25.3920     2.6400   -12.5480 
  130.7500    45.3510    32.5280    30.2050    36.8000    25.3930     2.6380   -12.5480 
  130.8750    45.2600    28.8210    26.9400    29.7770    25.3890     2.6170   -12.5330 
  131.0000    47.5330    25.5170    23.9100    23.6500    25.3890     2.5850   -12.5690 
  131.1250    49.7780    22.7480    21.2980    21.6270    25.3860     2.5590   -12.6190 
  131.2500    50.2270    20.5800    19.1850    20.3860    25.3850     2.5470   -12.6420 
  131.3750    50.0520    19.0050    17.5900    17.7710    25.3550     2.5470   -12.6500 
  131.5000    51.0630    18.0350    16.5530    16.2040    25.3250     2.5440   -12.6670 
  131.6250    54.6950    17.4870    15.9280    15.9590    25.2970     2.5280   -12.6900 
