~V
VERS. 2.00: Ver 2.00
~W
STRT.M 55.0000:
STOP.M 274.0000:
STEP.M 0.1250:
NULL. -999.2500:
UWI. F10255:
~C
DEPT.M :
GR.API :
RML.OHMM :
RI. :
RXO.OHMM :
CALI.CM :
DEN.GM/CC :
SP.MV :
~A
# ...
  190.0000    65.2890    71.9690    63.4560    56.6710    23.6380     2.2750   -24.7060 
  190.1250    64.5520    74.5960    65.2840    61.8150    24.0560     2.2680   -24.9340 
  190.2500    60.0810    78.8410    68.6960    76.4790    24.6730     2.2570   -25.1580 
  190.3750    55.9960    84.5520    73.5670    89.9910    25.2380     2.2480   -25.2910 
  190.5000    56.2860    90.5990    78.8510    91.9730    25.4970     2.2430   -25.3720 
  190.6250    59.2250    94.8630    82.6200    89.3310    25.4940     2.2440   -25.4880 
  190.7500    59.3810    96.3580    83.9570    83.8540    25.4100     2.2440   -25.6430 
  190.8750    56.6900    95.1900    82.9880    73.6050    25.3100     2.2410   -25.7670 
  191.0000    55.2030    92.2210    80.5480    64.3150    25.1490     2.2340   -25.8170 
  191.1250    57.1670    88.2510    77.3920    59.9880    24.9040     2.2290   -25.8660 
  191.2500    58.1760    83.8470    73.8650    62.5930    24.7160     2.2330   -25.9300 
  191.3750    56.0520    79.1730    69.9590    61.3010    24.6700     2.2480   -25.9900 
  191.5000    53.0560    74.5300    65.8970    54.4300    24.7770     2.2680   -26.0190 
  191.6250    55.0850    70.5500    62.3080    43.8930    24.7100     2.2860   -26.0080 
  191.7500    59.1610    67.6090    59.6720    36.2710    24.5510     2.2950   -25.9880 
  191.8750    60.9400    65.8800    58.2460    35.4170    24.5670     2.2960   -25.9640 
  192.0000    59.8080    65.2730    58.0380    43.6500    24.8130     2.2930   -25.9090 
  192.1250    58.7960    65.5540    58.9270    55.9290    25.0140     2.2880   -25.8420 
  192.2500    59.8140    66.1310    60.2990    60.1600    25.0850     2.2830   -25.7780 
  192.3750    61.5280    66.6820    61.7870    56.1850    25.0830     2.2770   -25.7140 
  192.5000    61.9010    67.0430    63.1650    51.2810    25.0440     2.2720   -25.6830 
  192.6250    60.7400    67.0920    64.2470    49.9680    25.0260     2.2690   -25.7000 
  192.7500    59.1240    66.7070    64.8860    50.1890    25.0300     2.2710   -25.7230 
  192.8750    58.3120    65.5720    64.7720    50.7360    25.0270     2.2790   -25.7590 
  193.0000    58.6550    63.3360    63.4950    50.4550    24.9980     2.2910   -25.8230 
  193.1250    60.2800    59.6600    60.5120    50.1710    24.9480     2.3030   -25.8570 
  193.2500    62.4160    55.0690    56.2580    47.1300    24.8440     2.3090   -25.8940 
  193.3750    64.3600    50.1530    51.3000    40.7350    24.6660     2.3110   -25.9990 
  193.5000    65.6680    45.5560    46.3300    33.5860    24.4700     2.3130   -26.1220 
  193.6250    66.9980    42.0650    42.2120    31.0760    24.3140     2.3190   -26.1760 
  193.7500    68.0970    40.0120    39.4690    30.1590    24.2350     2.3250   -26.1990 
  193.8750    67.9450    39.7900    38.6360    29.0180    24.2340     2.3250   -26.2720 
  194.0000    66.2630    41.9000    40.4040    26.4870    24.2580     2.3150   -26.4520 
  194.1250    64.6870    47.8860    46.7120    29.4650    24.2700     2.2940   -26.6890 
  194.2500    62.9100    58.9780    58.8730    42.4600    24.2580     2.2700   -26.9100 
  194.3750    60.4530    77.6710    78.8770    63.6690    24.2140     2.2460   -27.1170 
  194.5000    58.5510   106.6020   107.9320    83.6900    24.1810     2.2260   -27.3800 
  194.6250    57.2550   146.9960   145.1610   109.2520    24.2060     2.2150   -27.6900 
  194.7500    53.5530   190.0500   182.3130   119.9940    24.3190     2.2110   -27.9810 
  194.8750    48.6950   225.8320   211.1950   124.1540    24.4120     2.2150   -28.2500 
  195.0000    46.3670   247.4630   227.2080   131.2420    24.4340     2.2200   -28.4970 
  195.1250    48.7590   253.3030   230.3290   113.1060    24.3670     2.2210   -28.7330 
  195.2500    51.7430   251.4930   227.4130    97.7590    24.2290     2.2150   -28.9360 
  195.3750    52.1540   246.9770   222.2900    94.6920    24.0440     2.2060   -29.1440 
  195.5000    50.6890   242.8610   217.6840   102.6770    23.9920     2.1990   -29.3330 
  195.6250    50.6300   241.2700   216.0430   109.4520    24.1410     2.1950   -29.4820 
  195.7500    51.3460   242.1730   217.6730   136.7420    24.3720     2.1930   -29.6590 
  195.8750    49.4680   244.4480   221.7960   163.5170    24.6540     2.1930   -29.8460 
  196.0000    44.8520   245.5890   226.3300   170.7430    24.9970     2.1940   -30.0470 
  196.1250    42.9140   240.9260   226.9990   178.2830    25.2580     2.1980   -30.3170 
  196.2500    43.5520   228.7560   220.6160   180.4820    25.3000     2.2050   -30.6210 
  196.3750    44.1760   210.1010   206.4750   172.4590    25.0950     2.2150   -30.8650 
  196.5000    43.3320   188.8660   187.5100   141.3890    24.6740     2.2250   -31.0600 
  196.6250    43.3930   170.8340   169.6280    94.7400    24.3170     2.2300   -31.3010 
  196.7500    45.9750   159.0750   157.3980    72.8340    24.1170     2.2290   -31.6000 
  196.8750    50.1700   154.5640   152.7540    54.6230    23.9510     2.2230   -31.8810 
  197.0000    54.2760   156.9130   155.7420    46.5930    23.8330     2.2170   -32.0490 
  197.1250    55.7210   165.0440   165.0780    59.3280    23.8850     2.2140   -32.0980 
  197.2500    55.5990   174.6740   175.7720    84.0570    24.0970     2.2170   -32.1920 
  197.3750    53.8160   182.0740   183.6020   120.6180    24.4340     2.2250   -32.3560 
  197.5000    51.0630   184.5530   185.5980   156.8060    24.9390     2.2330   -32.4950 
  197.6250    50.0220   181.4990   181.2320   171.6890    25.4900     2.2370   -32.5070 
  197.7500    51.2110   176.7670   175.0220   158.2790    25.8000     2.2340   -32.4400 
  197.8750    52.1510   173.5840   170.5320   134.0110    25.8830     2.2220   -32.3910 
  198.0000    50.2280   174.1480   170.0060   115.2420    25.8980     2.2050   -32.3660 
  198.1250    47.9520   180.2110   175.1320   113.0060    25.9400     2.1900   -32.2500 
  198.2500    47.1450   190.8410   184.8660   114.4980    26.0230     2.1830   -32.0150 
  198.3750    46.8170   204.9230   198.0750   123.8070    26.1810     2.1850   -31.7480 
  198.5000    46.1490   219.9800   212.5390   148.4510    26.4400     2.1950   -31.4510 
  198.6250    45.7710   230.7080   223.5840   171.2150    26.6050     2.2070   -31.1260 
  198.7500    46.7830   232.9020   226.8890   177.4680    26.4190     2.2180   -30.8250 
  198.8750    48.7400   225.0000   220.1300   189.5060    26.0010     2.2280   -30.5340 
  199.0000    50.3460   209.3270   204.7170   196.8560    25.6090     2.2380   -30.2240 
  199.1250    51.5620   191.5590   185.7960   150.9780    25.2590     2.2440   -29.9160 
  199.2500    53.1970   177.8980   170.2430   107.2530    24.9500     2.2470   -29.6320 
  199.3750    54.6640   171.6140   161.9920    93.9620    24.7710     2.2430   -29.3660 
  199.5000    53.9600   174.3910   163.0650   106.5130    24.7570     2.2340   -29.1620 
  199.6250    51.9980   188.3880   175.2860   148.1670    24.9290     2.2250   -29.0410 
  199.7500    51.1820   210.5600   194.8700   190.2980    25.2250     2.2190   -28.8420 
  199.8750    49.3540   236.5450   217.1900   210.7070    25.5400     2.2160   -28.4950 
  200.0000    45.1960   259.4920   235.7990   216.2910    25.7130     2.2160   -28.1310 
  200.1250    42.3450   271.3720   243.5290   220.0010    25.7420     2.2160   -27.9250 
  200.2500    43.1900   273.6850   242.4890   208.5910    25.7180     2.2130   -27.7520 
  200.3750    45.7250   272.0430   238.2240   176.8540    25.6540     2.2040   -27.4650 
  200.5000    48.7420   273.3090   236.8940   141.2090    25.4740     2.1900   -27.0620 
  200.6250    51.4550   283.0820   243.4150   139.3090    25.1170     2.1760   -26.6280 
  200.7500    52.0260   298.5570   255.6760   140.7060    24.8890     2.1690   -26.2900 
  200.8750    50.7080   313.0840   268.5570   183.9730    25.0740     2.1720   -26.0080 
  201.0000    50.1610   318.1660   274.6940   259.5390    25.4520     2.1840   -25.6400 
  201.1250    51.2040   306.2400   266.4280   284.5160    25.7270     2.1990   -25.1470 
