~V
VERS. 2.00: Ver 2.00
~W
STRT.M 58.0000:
STOP.M 277.0000:
STEP.M 0.1250:
NULL. -999.2500:
UWI. F10219:
~C
DEPT.M :
SP.MV :
DEN.GM/CC :
GR.API :
RML.OHMM :
RI. :
RXO.OHMM :
CALI.CM :
~A
# ...
  103.0000   -25.0380     2.1330    64.7580     8.3370     6.7520    10.2550    25.5570 
  103.1250   -25.8720     2.1290    61.7810     8.5930     6.9670    10.4810    25.7930 
  103.2500   -26.8080     2.1340    58.8260     8.7910     7.1620    10.5500    26.1240 
  103.3750   -27.7730     2.1450    58.7870     8.9250     7.3100    10.6230    26.4580 
  103.5000   -28.6580     2.1560    61.3250     9.0200     7.4170    10.7200    26.7220 
  103.6250   -29.3760     2.1670    62.7550     9.0900     7.4930    10.8470    26.7860 
  103.7500   -29.8290     2.1750    61.6640     9.1360     7.5400    10.9940    26.4910 
  103.8750   -30.0020     2.1760    59.6490     9.1520     7.5570    11.1080    25.9360 
  104.0000   -30.0250     2.1660    57.6010     9.1360     7.5430    11.1470    25.4700 
  104.1250   -29.9480     2.1510    56.1740     9.0860     7.4970    11.1340    25.2330 
  104.2500   -29.7230     2.1400    57.5770     9.0060     7.4170    11.1150    25.1590 
  104.3750   -29.3560     2.1380    61.8730     8.9100     7.3120    11.0440    25.1530 
  104.5000   -28.9230     2.1460    65.9440     8.8290     7.2100    10.8360    25.1930 
  104.6250   -28.4350     2.1650    68.4620     8.7950     7.1410    10.4640    25.2810 
  104.7500   -27.9310     2.1840    69.4140     8.8390     7.1380    10.0350    25.3760 
  104.8750   -27.5020     2.1930    68.5940     8.9620     7.2120     9.8760    25.4180 
  105.0000   -27.1890     2.1920    66.1500     9.1250     7.3370    10.3080    25.3990 
  105.1250   -26.9510     2.1850    62.8320     9.2780     7.4800    11.0860    25.3380 
  105.2500   -26.7700     2.1760    59.7340     9.3710     7.5960    11.6110    25.2640 
  105.3750   -26.6780     2.1650    58.3710     9.3810     7.6540    11.7450    25.2010 
  105.5000   -26.6690     2.1470    59.3310     9.3280     7.6560    11.6890    25.1650 
  105.6250   -26.6620     2.1250    61.0840     9.2490     7.6190    11.5950    25.1370 
  105.7500   -26.5820     2.1040    61.4820     9.1740     7.5680    11.5150    25.0950 
  105.8750   -26.4290     2.0920    60.4180     9.1130     7.5180    11.5050    25.0700 
  106.0000   -26.2190     2.0940    59.5350     9.0460     7.4670    11.5210    25.1290 
  106.1250   -25.9330     2.1080    59.6380     8.9440     7.4020    11.3980    25.2560 
  106.2500   -25.5250     2.1270    60.3210     8.7690     7.3020    10.9260    25.3710 
  106.3750   -24.9530     2.1470    61.1560     8.5010     7.1450    10.2360    25.4640 
  106.5000   -24.1690     2.1700    62.0290     8.1560     6.9290     9.7060    25.5970 
  106.6250   -23.1400     2.1980    63.4480     7.7610     6.6630     9.2660    25.7250 
  106.7500   -21.9540     2.2280    67.0810     7.3690     6.3720     8.6630    25.6580 
  106.8750   -20.7560     2.2520    72.5120     7.0370     6.0950     7.7480    25.3250 
  107.0000   -19.5840     2.2630    76.2620     6.8030     5.8700     6.8960    24.9280 
  107.1250   -18.4180     2.2610    76.5830     6.6860     5.7240     6.4730    24.6720 
  107.2500   -17.3360     2.2480    75.2000     6.6840     5.6740     6.4440    24.5730 
  107.3750   -16.4010     2.2300    74.5280     6.7660     5.7130     6.5420    24.5480 
  107.5000   -15.5980     2.2170    74.2070     6.8700     5.8000     6.6470    24.5050 
  107.6250   -14.9540     2.2120    74.2650     6.9360     5.8850     6.7740    24.4150 
  107.7500   -14.4740     2.2120    76.0220     6.8960     5.9060     6.9250    24.3430 
  107.8750   -14.0080     2.2160    79.3160     6.7130     5.8130     7.0180    24.3780 
  108.0000   -13.3860     2.2280    82.3940     6.4110     5.6000     6.9040    24.5210 
  108.1250   -12.6690     2.2550    84.4650     6.0380     5.2960     6.3760    24.7340 
  108.2500   -11.9680     2.2900    86.8650     5.6740     4.9580     5.5750    24.9470 
  108.3750   -11.3250     2.3210    90.3110     5.3940     4.6550     4.9480    25.0960 
  108.5000   -10.7870     2.3360    93.2820     5.2440     4.4420     4.6480    25.1740 
  108.6250   -10.4480     2.3330    94.8540     5.2510     4.3510     4.6590    25.2070 
  108.7500   -10.3750     2.3160    95.5180     5.4500     4.4140     4.8280    25.1900 
  108.8750   -10.5600     2.2880    95.3670     5.8510     4.6440     5.0630    25.1030 
  109.0000   -10.9800     2.2540    93.3200     6.3990     5.0130     5.4460    24.9630 
  109.1250   -11.5890     2.2250    89.6460     7.0090     5.4760     6.1210    24.8260 
  109.2500   -12.2200     2.2100    86.3720     7.5340     5.9370     7.2010    24.7340 
  109.3750   -12.6810     2.2160    85.2440     7.8170     6.2730     8.5160    24.7010 
  109.5000   -12.9320     2.2380    86.1630     7.7930     6.3940     9.6020    24.7200 
  109.6250   -12.9860     2.2700    89.0610     7.4810     6.2740     9.9840    24.7840 
  109.7500   -12.7740     2.3000    93.3420     6.9900     5.9590     9.0040    24.8580 
  109.8750   -12.3110     2.3160    97.0700     6.4680     5.5560     7.1440    24.8740 
  110.0000   -11.7460     2.3180    98.5930     6.0330     5.1790     5.8950    24.8040 
  110.1250   -11.1100     2.3130    98.5170     5.7280     4.8810     5.4960    24.7060 
  110.2500   -10.4380     2.3100    99.0690     5.5770     4.6930     5.3460    24.6430 
  110.3750    -9.8760     2.3130   100.2400     5.5920     4.6290     5.1660    24.6580 
  110.5000    -9.4940     2.3170   100.1350     5.7650     4.6870     4.9790    24.7080 
  110.6250    -9.1850     2.3190    99.2980     6.0850     4.8680     4.9080    24.7460 
  110.7500    -8.9210     2.3230    98.6160     6.4950     5.1470     5.0960    24.7880 
  110.8750    -8.7320     2.3400    96.8530     6.8750     5.4500     5.5300    24.8450 
  111.0000    -8.5160     2.3650    93.1170     7.0910     5.6740     5.9930    24.8750 
  111.1250    -8.2440     2.3780    89.7110     7.0650     5.7390     6.2410    24.8480 
  111.2500    -8.0260     2.3710    89.0770     6.7920     5.6070     6.0550    24.8200 
  111.3750    -7.8540     2.3520    90.3280     6.3770     5.3280     5.4610    24.8150 
  111.5000    -7.6320     2.3300    91.3060     5.9780     5.0190     4.8930    24.7550 
  111.6250    -7.4140     2.3080    91.8250     5.6840     4.7590     4.6820    24.6360 
  111.7500    -7.2590     2.2950    92.4190     5.5220     4.5920     4.7630    24.5780 
  111.8750    -7.1180     2.3020    93.0860     5.4650     4.5120     4.9060    24.7010 
  112.0000    -6.9960     2.3270    94.5630     5.4650     4.4880     4.9330    24.9600 
  112.1250    -6.9610     2.3600    97.1950     5.5100     4.5070     4.8610    25.1860 
  112.2500    -6.9720     2.3890    99.3700     5.6220     4.5770     4.8900    25.3070 
  112.3750    -6.9900     2.4130    99.2710     5.8150     4.7130     5.2080    25.3490 
  112.5000    -7.0640     2.4280    97.7620     6.0590     4.8990     5.8280    25.3590 
  112.6250    -7.2340     2.4340    96.5530     6.2890     5.1000     6.6730    25.3290 
  112.7500    -7.4430     2.4250    95.0200     6.4240     5.2570     7.3780    25.2270 
  112.8750    -7.6550     2.4000    93.0080     6.4110     5.3230     7.4040    25.0600 
  113.0000    -7.9130     2.3680    93.0840     6.2770     5.2950     6.5440    24.9150 
  113.1250    -8.1580     2.3420    96.2260     6.0850     5.2010     5.3880    24.8430 
  113.2500    -8.3030     2.3300    99.6940     5.9050     5.0850     4.7970    24.8280 
  113.3750    -8.4090     2.3290   100.9630     5.7710     4.9740     4.7130    24.8420 
  113.5000    -8.5230     2.3310   101.3330     5.6630     4.8670     4.7410    24.8620 
  113.6250    -8.5330     2.3340   102.9090     5.5460     4.7500     4.6720    24.8860 
  113.7500    -8.4280     2.3380   105.4890     5.3970     4.6080     4.5040    24.9150 
  113.8750    -8.2850     2.3450   107.4040     5.2260     4.4490     4.3350    24.9460 
  114.0000    -8.0560     2.3530   108.9880     5.0720     4.2980     4.2110    24.9580 
  114.1250    -7.7610     2.3600   111.5450     4.9680     4.1780     4.1740    24.9480 
