~V
VERS. 2.00: Ver 2.00
~W
STRT.M 53.0000:
STOP.M 286.0000:
STEP.M 0.1250:
NULL. -999.2500:
UWI. F10262:
~C
DEPT.M :
DEN.GM/CC :
GR.API :
RML.OHMM :
RI. :
RXO.OHMM :
CALI.CM :
SP.MV :
~A
# ...
  278.0000     2.3310    89.0600    16.5210    15.9510    12.3690    24.3620   -22.7690 
  278.1250     2.3350    89.0600    16.0620    15.4830    12.1540    24.3590   -22.7200 
  278.2500     2.3380    89.0600    15.7840    15.1980    12.0460    24.3680   -22.6920 
  278.3750     2.3330    89.0600    15.7070    15.1150    11.8860    24.3800   -22.6940 
  278.5000     2.3180    89.0600    15.7290    15.1450    11.8000    24.3710   -22.7470 
  278.6250     2.2980    89.0600    15.7750    15.2200    12.1380    24.3970   -22.8560 
  278.7500     2.2810    89.0600    15.7940    15.2900    12.3300    24.4430   -23.0160 
  278.8750     2.2810    89.0600    15.7750    15.3330    12.1350    24.4820   -23.1440 
  279.0000     2.2980    89.0600    15.7750    15.3810    12.6560    24.4940   -23.1870 
  279.1250     2.3230    89.0600    15.8450    15.4680    13.2050    24.4820   -23.2020 
  279.2500     2.3430    89.0600    15.9830    15.5970    13.2810    24.4460   -23.1870 
  279.3750     2.3440    89.0600    16.0990    15.6970    13.0480    24.4420   -23.1240 
  279.5000     2.3290    89.0600    16.1000    15.6960    13.2360    24.4640   -22.9850 
  279.6250     2.3110    89.0600    15.9690    15.5730    12.9520    24.4180   -22.7550 
  279.7500     2.3020    89.0600    15.7590    15.3680    12.1760    24.3640   -22.5030 
  279.8750     2.3110    89.0600    15.5730    15.1600    12.0050    24.4250   -22.2420 
  280.0000     2.3280    89.0600    15.4640    15.0120    12.2490    24.4480   -22.0120 
  280.1250     2.3390    89.0600    15.4190    14.9400    12.3680    24.3630   -21.8130 
  280.2500     2.3360    89.0600    15.4020    14.9320    12.1510    24.2790   -21.6610 
  280.3750     2.3170    89.0600    15.3940    14.9680    11.8510    24.2770   -21.4660 
  280.5000     2.2960    89.0600    15.3990    15.0140    11.9950    24.3100   -21.2670 
  280.6250     2.2830    89.0600    15.4170    15.0480    12.3640    24.3460   -21.1190 
  280.7500     2.2830    89.0600    15.4410    15.0560    12.6060    24.4100   -20.9830 
  280.8750     2.2940    89.0600    15.4600    15.0470    11.6690    24.4350   -20.8520 
  281.0000     2.3080    89.0600    15.6230    15.0550    11.2660    24.4390   -20.7640 
  281.1250     2.3190    89.0600    16.6030    15.6920    11.2700    24.4460   -20.6800 
  281.2500     2.3240    89.0600    19.8210    19.8330    11.5080    24.4840   -20.5680 
  281.3750     2.3220    89.0600    27.4580    30.1980    11.3190    24.4540   -20.5230 
  281.5000     2.3150    89.0600    27.4580    30.1980    11.0560    24.4380   -20.4620 
  281.6250     2.3070    89.0600    27.4580    30.1980    10.8490    24.5040   -20.3820 
  281.7500     2.2990    89.0600    27.4580    30.1980    10.8010    24.5670   -20.3610 
  281.8750     2.2920    89.0600    27.4580    30.1980    11.1950    24.5800   -20.3820 
  282.0000     2.2860    89.0600    27.4580    30.1980    10.3810    24.5270   -20.3850 
  282.1250     2.2810    89.0600    27.4580    30.1980     9.1670    24.5420   -20.3840 
  282.2500     2.2790    89.0600    27.4580    30.1980     8.2860    24.5760   -20.4220 
  282.3750     2.2810    89.0600    27.4580    30.1980     8.5160    24.6030   -20.4490 
  282.5000     2.2860    89.0600    27.4580    30.1980     8.8680    24.5750   -20.5530 
  282.6250     2.2950    89.0600    27.4580    30.1980     8.8680    24.5640   -20.6930 
  282.7500     2.3060    89.0600    27.4580    30.1980     8.5190    24.5890   -20.7940 
  282.8750     2.3150    89.0600    27.4580    30.1980     8.2890    24.6110   -20.8170 
  283.0000     2.3190    89.0600    27.4580    30.1980     8.4030    24.5930   -20.8520 
  283.1250     2.3140    89.0600    27.4580    30.1980     8.5980    24.6220   -20.9150 
  283.2500     2.3000    89.0600    27.4580    30.1980     8.7830    24.7050   -20.9960 
  283.3750     2.2850    89.0600    27.4580    30.1980     8.8950    24.7980   -21.0810 
  283.5000     2.2760    89.0600    27.4580    30.1980     9.3340    24.8300   -21.2030 
  283.6250     2.2760    89.0600    27.4580    30.1980    10.0700    24.8170   -21.3280 
  283.7500     2.2890    89.0600    27.4580    30.1980    11.0180    24.7220   -21.4630 
  283.8750     2.3200    89.0600    27.4580    30.1980    11.7660    24.6350   -21.5830 
  284.0000     2.3620    89.0600    27.4580    30.1980    11.7170    24.5230   -21.6610 
  284.1250     2.3950    89.0600    27.4580    30.1980    11.6840    24.4480   -21.7080 
  284.2500     2.3870    89.0600    27.4580    30.1980    12.9650    24.4530   -21.7620 
  284.3750     2.2940    89.0600    27.4580    30.1980    12.4600    24.1950   -21.8290 
  284.5000     2.1270    89.0600    27.4580    30.1980     9.8440    22.7240   -21.9360 
  284.6250     1.9340    89.0600    27.4580    30.1980     7.0600    19.7050   -21.9360 
  284.7500     1.7420    89.0600    27.4580    30.1980     5.8190    17.3020   -21.9360 
  284.8750     1.2710    89.0600    27.4580    30.1980     5.6650    16.4940   -21.9360 
  285.0000     0.1470    89.0600    27.4580    30.1980     5.6620    16.4300   -21.9360 
  285.1250    -1.8050    89.0600    27.4580    30.1980     5.6610    16.4300  -999.2500 
  285.2500    -4.3100    89.0600    27.4580    30.1980     5.6610    16.4300  -999.2500 
  285.3750    -7.0320    89.0600    27.4580    30.1980     5.6610    16.4300  -999.2500 
  285.5000   -10.0120    89.0600    27.4580    30.1980     5.6610    16.4300  -999.2500 
  285.6250    -9.9120    89.0600    27.4580    30.1980     5.6590    16.4300  -999.2500 
  285.7500    -1.5190    89.0600    27.4580    30.1980     5.6600    16.4300  -999.2500 
  285.8750  -999.2500    89.0600    27.4580    30.1980     5.6610    16.4290  -999.2500 
  286.0000  -999.2500    89.0600    27.4580    30.1980     5.6630    16.4260  -999.2500 
