~V
VERS. 2.00: Ver 2.00
~W
STRT.M 54.0000:
STOP.M 277.0000:
STEP.M 0.1250:
NULL. -999.2500:
UWI. F10247:
~C
DEPT.M :
GR.API :
RML.OHMM :
RI. :
RXO.OHMM :
CALI.CM :
DEN.GM/CC :
SP.MV :
~A
# ...
  267.7500    61.9540     9.7570     6.5690     6.5510    24.7090     2.3390   -12.9170 
  267.8750    61.9540    10.0360     6.7880     6.7600    24.5970     2.3570   -12.8760 
  268.0000    61.9540    10.3560     7.0390     6.9480    24.4100     2.3580   -12.8260 
  268.1250    61.9540    10.6580     7.2820     7.0820    24.1750     2.3390   -12.7770 
  268.2500    61.9540    10.8450     7.4570     7.2270    23.9100     2.3100   -12.7360 
  268.3750    61.9540    10.8720     7.5320     7.2010    23.7570     2.2920   -12.7080 
  268.5000    61.9540    10.7390     7.5000     7.0470    23.6960     2.2930   -12.6930 
  268.6250    61.9540    10.4930     7.3820     6.9740    23.6580     2.3080   -12.6870 
  268.7500    61.9540    10.2210     7.2200     6.9230    23.6310     2.3220   -12.7050 
  268.8750    61.9540    10.0050     7.0690     6.6880    23.6070     2.3250   -12.7460 
  269.0000    61.9540     9.8810     6.9600     6.3710    23.6200     2.3190   -12.7740 
  269.1250    61.9540     9.8590     6.9090     6.1190    23.7000     2.3100   -12.8110 
  269.2500    61.9540     9.9450     6.9290     5.8920    23.9090     2.3080   -12.8360 
  269.3750    61.9540    10.0990     6.9980     5.8190    24.2030     2.3170   -12.8610 
  269.5000    61.9540    10.2840     7.0990     5.9220    24.4640     2.3350   -12.8910 
  269.6250    61.9540    10.4560     7.2110     6.0940    24.5700     2.3540   -12.9110 
  269.7500    61.9540    10.5600     7.3060     6.2080    24.5500     2.3600   -12.9070 
  269.8750    61.9540    10.5850     7.3690     6.2190    24.5110     2.3500   -12.9180 
  270.0000    61.9540    10.5480     7.3980     6.2730    24.5030     2.3300   -12.9620 
  270.1250    61.9540    10.4850     7.3990     6.4410    24.4560     2.3140   -12.9990 
  270.2500    61.9540    10.4430     7.3800     6.6620    24.3260     2.3240   -13.0220 
  270.3750    61.9540    10.4360     7.3560     6.6310    24.1190     2.3590   -13.0270 
  270.5000    61.9540    10.4460     7.3380     6.5240    23.9120     2.3970   -13.0280 
  270.6250    61.9540    10.4440     7.3330     6.3750    23.8590     2.4110   -13.0380 
  270.7500    61.9540    10.4050     7.3410     6.3500    24.0030     2.3780   -13.0660 
  270.8750    61.9540    10.3470     7.3560     6.5270    24.3320     2.3200   -13.0480 
  271.0000    61.9540    10.2980     7.3720     6.6870    24.7630     2.2590   -13.0120 
  271.1250    61.9540    10.2800     7.3840     6.5740    25.3420     2.2180   -12.9970 
  271.2500    61.9540    10.2970     7.3890     6.3790    25.9710     2.2150   -12.9910 
  271.3750    61.9540    10.3280     7.3890     6.2410    26.3600     2.2360   -12.9710 
  271.5000    61.9540    10.3590     7.3840     6.1920    26.1930     2.2690   -12.9540 
  271.6250    61.9540    10.3770     7.3770     6.1430    25.3610     2.3060   -12.9560 
  271.7500    61.9540    10.3680     7.3720     6.3320    24.5940     2.3380   -12.9370 
  271.8750    61.9540    10.3460     7.3710     6.5380    24.3520     2.3590   -12.9570 
  272.0000    61.9540    10.3320     7.3730     6.6530    24.3620     2.3650   -12.9780 
  272.1250    61.9540    10.3350     7.3730     6.5470    24.2940     2.3590   -13.0010 
  272.2500    61.9540    10.3460     7.3720     6.4930    24.1230     2.3520   -13.0490 
  272.3750    61.9540    10.3520     7.3710     6.5720    24.0710     2.3540   -13.1270 
  272.5000    61.9540    10.3420     7.3690     6.7880    24.1690     2.3610   -13.1880 
  272.6250    61.9540    10.3190     7.3670     6.8450    24.3580     2.3600   -13.2230 
  272.7500    61.9540    10.3020     7.3660     6.7700    24.3830     2.3450   -13.2940 
  272.8750    61.9540    10.2980     7.3650     6.6570    24.2720     2.3240   -13.3580 
  273.0000    61.9540    10.2980     7.3650     6.5490    24.1760     2.3080   -13.4320 
  273.1250    61.9540    10.2980     7.3650     6.4710    24.1670     2.3030   -13.5000 
  273.2500    61.9540    10.2980     7.3650     6.5430    24.2330     2.3080   -13.5460 
  273.3750    61.9540    10.2980     7.3650     6.8700    24.3110     2.3110   -13.5860 
  273.5000    61.9540    10.2980     7.3650     7.3710    24.3090     2.3030   -13.6630 
  273.6250    61.9540    10.2980     7.3650     8.2610    24.3410     2.2880   -13.7650 
  273.7500    61.9540    10.2980     7.3650    11.9270    24.4020     2.2790   -13.8370 
  273.8750    61.9540    10.2980     7.3650    21.0610    24.4240     2.2900   -13.9180 
  274.0000    61.9540    10.2980     7.3650    32.2970    24.4500     2.3210   -14.0090 
  274.1250    61.9540    10.2980     7.3650    31.2100    24.4530     2.3440   -14.0960 
  274.2500    61.9540    10.2980     7.3650    20.4410    24.3650     2.3050   -14.1900 
  274.3750    61.9540    10.2980     7.3650    12.2730    24.1410     2.2130   -14.2800 
  274.5000    61.9540    10.2980     7.3650    14.6840    24.0720     2.1050   -14.3660 
  274.6250    61.9540    10.2980     7.3650    18.0990    23.9390     2.0110   -14.4520 
  274.7500    61.9540    10.2980     7.3650    17.0070    23.5900     1.9520   -14.5200 
  274.8750    61.9540    10.2980     7.3650    14.1590    22.8450     1.9190   -14.5690 
  275.0000    61.9540    10.2980     7.3650    11.3610    21.4460     1.9010   -14.6100 
  275.1250    61.9540    10.2980     7.3650     9.2040    19.6720     1.8880   -14.6380 
  275.2500    61.9540    10.2980     7.3650     8.1850    18.1070     1.8810   -14.6440 
  275.3750    61.9540    10.2980     7.3650     7.9280    17.3640     1.8830   -14.6600 
  275.5000    61.9540    10.2980     7.3650     7.9290    17.2430     1.8880   -14.6580 
  275.6250    61.9540    10.2980     7.3650     7.9270    17.2430     1.8920   -14.6460 
  275.7500    61.9540    10.2980     7.3650     7.9250    17.2430     1.8920   -14.6570 
  275.8750    61.9540    10.2980     7.3650     7.9210    17.2430     1.8890   -14.6680 
  276.0000    61.9540    10.2980     7.3650     7.9210    17.2430     1.8870   -14.6730 
  276.1250    61.9540    10.2980     7.3650     7.9200    17.2430     1.8840  -999.2500 
  276.2500    61.9540    10.2980     7.3650     7.9200    17.2430     1.8810  -999.2500 
  276.3750    61.9540    10.2980     7.3650     7.9210    17.2430     1.8790  -999.2500 
  276.5000    61.9540    10.2980     7.3650     7.9220    17.2430     1.8770  -999.2500 
  276.6250    61.9540    10.2980     7.3650     7.9200    17.2430     1.8750  -999.2500 
  276.7500    61.9540    10.2980     7.3650     7.9170    17.2430     1.8740  -999.2500 
  276.8750    61.9540    10.2980     7.3650     7.9170    17.2430     1.8750  -999.2500 
  277.0000    61.9540    10.2980     7.3650     7.9140    17.2370     1.8750  -999.2500 
