~V
VERS. 2.00: Ver 2.00
~W
STRT.M 57.0000:
STOP.M 259.0000:
STEP.M 0.1250:
NULL. -999.2500:
UWI. F10209:
~C
DEPT.M :
SP.MV :
DEN.GM/CC :
GR.API :
RML.OHMM :
RI. :
RXO.OHMM :
CALI.CM :
~A
# ...
  192.0000   -23.3710     2.2440    70.1340    75.1320    68.4820    60.9690    25.1500 
  192.1250   -23.5800     2.2500    71.6230    81.7920    73.6240    70.0230    25.1930 
  192.2500   -23.9080     2.2490    71.4720    91.5760    81.4020    82.4700    25.1890 
  192.3750   -24.3520     2.2340    68.7850   104.5890    92.1260   100.7930    25.1110 
  192.5000   -24.7930     2.2060    65.6670   118.7890   104.0880   114.6220    24.9750 
  192.6250   -25.1700     2.1730    62.0600   132.2780   115.5960   122.1960    24.7680 
  192.7500   -25.4340     2.1490    59.5220   143.4140   125.1510   126.4440    24.5820 
  192.8750   -25.6780     2.1440    60.4350   150.2950   131.1100   134.9140    24.5080 
  193.0000   -25.9590     2.1550    62.8260   152.5060   133.2090   142.7490    24.5000 
  193.1250   -26.2440     2.1740    64.7570   149.5720   131.1260   148.6850    24.5060 
  193.2500   -26.4900     2.1940    65.4010   141.9540   125.1850   142.4300    24.5630 
  193.3750   -26.6290     2.2110    66.2040   130.8890   116.1660   125.9720    24.6330 
  193.5000   -26.7010     2.2260    66.9680   119.0370   106.1570   105.2140    24.6790 
  193.6250   -26.7720     2.2380    67.1480   107.9180    96.4620    93.0790    24.6870 
  193.7500   -26.9170     2.2450    67.6060    98.4330    87.9860    84.6890    24.6570 
  193.8750   -27.1550     2.2400    69.8490    91.3240    81.5270    79.2870    24.6490 
  194.0000   -27.4330     2.2270    73.0950    86.2950    76.9320    75.1890    24.6740 
  194.1250   -27.6920     2.2120    74.5100    83.2640    74.1300    70.8400    24.7330 
  194.2500   -27.8750     2.2010    73.5250    82.1500    73.0070    64.9110    24.8080 
  194.3750   -28.0050     2.2020    72.8040    83.1860    73.7090    59.1740    24.8250 
  194.5000   -28.1960     2.2100    73.3850    86.0080    75.9200    64.1940    24.7910 
  194.6250   -28.4690     2.2210    73.6180    90.5560    79.6030    76.8930    24.7220 
  194.7500   -28.7540     2.2290    72.9730    96.5740    84.5510    87.9150    24.6980 
  194.8750   -28.8870     2.2340    72.0370   100.8480    90.0790    95.2810    24.7180 
  195.0000   -28.8370     2.2380    71.6910    99.0950    94.7650   109.2730    24.7530 
  195.1250   -28.7180     2.2420    71.9900   101.9180    97.2800   128.3230    24.7270 
  195.2500   -28.6200     2.2450    71.3760   101.4450    96.7870   134.3760    24.6360 
  195.3750   -28.6000     2.2460    68.0580    97.7250    93.1840   111.3910    24.5570 
  195.5000   -28.5770     2.2440    64.8530    93.0550    88.4090    88.0260    24.5820 
  195.6250   -28.4900     2.2440    65.6470    89.2270    84.0740    79.5510    24.5510 
  195.7500   -28.3580     2.2460    68.3450    87.4910    81.4340    78.9950    24.5040 
  195.8750   -28.2660     2.2490    65.2840    88.8130    81.5290    80.5830    24.3730 
  196.0000   -28.2810     2.2510    59.4380    92.6570    83.9660    88.0700    24.1890 
  196.1250   -28.3970     2.2500    57.5890    98.8690    88.6110    90.6820    24.0650 
  196.2500   -28.5530     2.2400    60.7440   107.6350    95.6060    97.5960    24.1350 
  196.3750   -28.6260     2.2150    61.5000   120.4040   106.1830    92.1990    24.4380 
  196.5000   -28.6140     2.1840    58.2530   137.9680   120.9740    92.6280    24.7600 
  196.6250   -28.5790     2.1640    55.7250   160.9810   140.4460   107.5730    24.9100 
  196.7500   -28.5470     2.1810    54.4200   187.3370   162.7080   175.0130    24.7640 
  196.8750   -28.5220     2.2500    52.1780   206.1730   179.6570   291.0730    24.4940 
  197.0000   -28.4580     2.3410    50.5560   205.2930   182.3160   374.0210    24.2020 
  197.1250   -28.2710     2.4150    52.0930   184.1600   168.4670   325.3760    23.9820 
  197.2500   -27.9430     2.4370    56.4030   155.3260   145.2470   201.6270    23.8500 
  197.3750   -27.5290     2.4030    61.5970   133.0770   124.1230   111.1420    23.8450 
  197.5000   -27.0970     2.3620    66.1640   120.1430   110.3250    72.9260    23.9270 
  197.6250   -26.6380     2.3550    67.1860   113.5760   102.7070    74.2300    23.9480 
  197.7500   -26.1420     2.4010    63.4480   107.3050    96.4740   107.1700    23.9200 
  197.8750   -25.5200     2.4890    58.6350    93.0110    84.2800   147.9530    23.9390 
  198.0000   -24.7990     2.5750    56.8140    71.5300    65.5320   129.7990    23.9170 
  198.1250   -24.0700     2.6280    60.1010    49.3510    45.3650    74.0590    23.8600 
  198.2500   -23.4140     2.6370    69.7280    31.9980    29.2370    32.7060    23.8120 
  198.3750   -22.8340     2.6060    82.0790    21.6380    19.6390    16.0310    23.7660 
  198.5000   -22.2270     2.5600    90.2060    15.8120    14.2170    11.5120    23.5600 
  198.6250   -21.5100     2.5160    92.9580    13.1000    11.4850    10.4110    23.3100 
  198.7500   -20.6610     2.4850    93.1300    12.5410    10.5060    10.5740    23.2740 
  198.8750   -19.7390     2.4850    92.2660    13.6360    10.9530    11.4250    23.5550 
  199.0000   -18.8390     2.5150    89.4360    15.4270    12.2000    12.7910    23.8420 
  199.1250   -17.9850     2.5680    85.4860    17.1190    13.6750    15.5560    23.8910 
  199.2500   -17.1520     2.6250    81.0040    17.9020    14.6280    20.9130    23.9390 
  199.3750   -16.3320     2.6520    74.8850    17.1010    14.2890    23.8650    24.0250 
  199.5000   -15.5680     2.6430    68.7950    15.2740    12.9870    18.6970    24.1810 
  199.6250   -14.9590     2.6100    63.3870    13.1010    11.2680    11.9520    24.2680 
  199.7500   -14.5640     2.5720    58.9950    11.1010     9.5690     8.8900    24.2550 
  199.8750   -14.4400     2.5420    55.4620     8.2900     8.1250     8.2050    24.1360 
  200.0000   -14.4450     2.5170    54.6130     7.2220     6.9350     7.1740    24.0730 
  200.1250   -14.4450     2.4980    55.8530     6.3890     5.9940     6.0000    24.0480 
  200.2500   -14.4110     2.4940    56.1120     5.7690     5.2980     5.1420    24.0830 
  200.3750   -14.3970     2.5120    53.7150     5.4330     4.9000     5.0750    24.0340 
  200.5000   -14.4450     2.5340    52.9840     5.3660     4.7660     5.5470    24.0570 
  200.6250   -14.5420     2.5380    55.6930     5.5360     4.8760     6.2560    24.2450 
  200.7500   -14.6490     2.5110    59.1630     5.8740     5.1830     6.1580    24.4460 
  200.8750   -14.7150     2.4580    59.1280     6.3340     5.6440     6.1800    24.5120 
  201.0000   -14.7410     2.4070    55.7620     6.9210     6.2060     6.8190    24.4520 
  201.1250   -14.8220     2.3700    51.4770     7.7120     6.8950     7.5230    24.3570 
  201.2500   -15.0090     2.3500    48.6900     8.7120     7.7140     7.7440    24.2950 
  201.3750   -15.2200     2.3410    49.0390     9.6070     8.4470     8.3300    24.2330 
  201.5000   -15.2930     2.3450    51.8700     9.8610     8.6360     9.6980    24.1130 
  201.6250   -15.1510     2.3630    54.5450     9.1400     7.9680    12.6020    24.0600 
  201.7500   -14.7710     2.3990    55.3700     7.6230     6.6410    16.1750    24.1340 
  201.8750   -14.2230     2.4480    54.5540     6.0130     5.2640    12.6740    24.1960 
  202.0000   -13.6570     2.4960    52.6270     4.9640     4.2760     8.0660    24.2850 
  202.1250   -13.1000     2.5300    49.1930     4.6860     3.7800     6.1690    24.4150 
  202.2500   -12.5310     2.5410    46.3610     5.1360     3.7650     5.9570    24.4620 
  202.3750   -11.9730     2.5220    46.6220     6.1670     4.2550     6.9570    24.3430 
  202.5000   -11.5240     2.4810    48.1730     7.3060     5.0450     7.5320    24.1680 
  202.6250   -11.2860     2.4280    48.1270     8.1230     5.8730     7.3060    23.9890 
  202.7500   -11.3470     2.3760    47.4640     8.3580     6.4400     6.4470    23.8750 
  202.8750   -11.6870     2.3380    48.0160     8.1050     6.6090     6.2090    23.9760 
  203.0000   -12.1070     2.3180    49.1620     7.8160     6.6140     6.3890    24.1020 
  203.1250   -12.4990     2.3140    49.8800     7.6930     6.6120     6.6090    24.2670 
