~V
VERS. 2.00: Ver 2.00
~W
STRT.M 20.0000:
STOP.M 256.0000:
STEP.M 0.1250:
NULL. -999.2500:
UWI. F10201:
~C
DEPT.M :
DEN.GM/CC :
GR.API :
RML.OHMM :
RI. :
RXO.OHMM :
CALI.CM :
SP.MV :
~A
# ...
  132.5000     2.3940    55.7920     4.4980     3.7870     8.3200    24.5350   -18.0700 
  132.6250     2.3370    57.1600     4.1860     3.4810     7.0400    25.2910   -17.8600 
  132.7500     2.3120    57.4130     4.1470     3.3480     5.8950    25.9920   -17.6610 
  132.8750     2.3250    53.8800     4.3920     3.4270     6.1490    26.2390   -17.5630 
  133.0000     2.3670    47.3320     4.8710     3.7130     8.1050    26.1310   -17.5380 
  133.1250     2.4130    44.2770     5.4780     4.1680     9.5700    25.8640   -17.5730 
  133.2500     2.4440    46.2800     6.0350     4.6620    10.6730    25.6300   -17.7240 
  133.3750     2.4640    50.6040     6.4260     5.0990    11.0220    25.5090   -17.9250 
  133.5000     2.4890    53.7130     6.6250     5.4160    11.3330    25.4180   -18.1230 
  133.6250     2.5260    54.2670     6.6830     5.5970    11.6860    24.9880   -18.3550 
  133.7500     2.5540    52.6710     6.6990     5.6940    11.4350    24.3750   -18.5800 
  133.8750     2.5510    50.5410     6.7100     5.7360    11.0030    23.9390   -18.7280 
  134.0000     2.5110    50.6780     6.7320     5.7470    10.6940    23.7880   -18.8300 
  134.1250     2.4520    53.5260     6.7870     5.7600     9.8350    23.8450   -18.8620 
  134.2500     2.4070    54.5620     6.8720     5.8010     8.7770    23.9440   -18.8300 
  134.3750     2.3920    54.0760     6.9650     5.8760     9.0340    24.0090   -18.7610 
  134.5000     2.4090    53.2690     7.0350     5.9730    10.5180    24.1120   -18.6890 
  134.6250     2.4420    53.5450     7.0560     6.0710    11.7400    24.3520   -18.5920 
  134.7500     2.4660    54.7940     7.0540     6.1650    12.0670    24.5460   -18.4590 
  134.8750     2.4730    55.9180     7.0750     6.2690    12.1100    24.6390   -18.3720 
  135.0000     2.4690    57.4200     7.1580     6.4080    12.1400    24.5890   -18.3340 
  135.1250     2.4690    57.1270     7.3160     6.6080    11.0480    24.3180   -18.3140 
  135.2500     2.4760    54.6740     7.4840     6.8420     9.8400    23.9090   -18.2810 
  135.3750     2.4870    51.7200     7.5790     7.0530     9.0730    23.6300   -18.2440 
  135.5000     2.4930    51.0550     7.5380     7.1780     9.2120    23.5580   -18.1620 
  135.6250     2.4910    54.4520     7.3600     7.1790    10.0290    23.6300   -18.0450 
  135.7500     2.4870    56.1860     7.1900     7.1390    10.4550    23.7180   -17.9660 
  135.8750     2.4920    56.2080     7.1700     7.1680    10.3950    23.8010   -17.8540 
  136.0000     2.5110    57.4140     7.6570     7.3630    10.9180    23.8590   -17.6850 
  136.1250     2.5400    59.9500     8.1260     7.7530    12.4320    23.9010   -17.5380 
  136.2500     2.5610    61.2120     8.3970     8.1020    14.2150    23.9450   -17.3700 
  136.3750     2.5600    59.0020     8.1930     8.0750    16.4060    24.0850   -17.1830 
  136.5000     2.5330    56.3910     7.2060     7.4220    18.2960    24.3870   -17.0610 
  136.6250     2.4860    57.9250     6.3840     6.2080    16.9870    24.8150   -16.9660 
  136.7500     2.4370    65.2730     4.9370     4.9630    12.2320    25.2320   -16.8710 
  136.8750     2.3910    76.1310     3.9740     3.9940     7.0200    25.3220   -16.8220 
  137.0000     2.3480    85.6390     3.5170     3.3990     4.5540    24.9600   -16.8040 
  137.1250     2.3070    87.4240     3.4890     3.1880     4.6530    24.5140   -16.7700 
  137.2500     2.2710    81.3970     3.6730     3.2120     5.7660    24.3790   -16.7760 
  137.3750     2.2500    73.6320     3.9500     3.3930     6.3060    24.5130   -16.7860 
  137.5000     2.2560    71.4250     4.2400     3.6570     5.6450    24.6830   -16.7480 
  137.6250     2.2900    73.4000     4.5330     3.9530     5.2870    24.7790   -16.7240 
  137.7500     2.3290    72.9950     4.8620     4.2630     6.2350    24.6920   -16.6950 
  137.8750     2.3490    70.3630     5.2120     4.5760     8.5780    24.5960   -16.6430 
  138.0000     2.3380    70.6700     5.5040     4.8520    10.3750    24.7110   -16.6000 
  138.1250     2.2990    74.2920     5.6130     5.0070     8.7720    25.0240   -16.5810 
  138.2500     2.2570    75.4960     5.5620     5.0330     8.2410    25.2830   -16.5960 
  138.3750     2.2250    72.3700     5.4540     4.9790     8.2250    25.4250   -16.6390 
  138.5000     2.2060    68.7960     5.4390     4.9460     8.1680    25.4680   -16.7330 
  138.6250     2.1960    70.0420     5.6790     5.0720     8.3360    25.4660   -16.8810 
  138.7500     2.1980    73.7460     6.0320     5.4030     8.8940    25.4350   -17.0530 
  138.8750     2.2210    74.7790     6.6140     5.9570     9.6470    25.3090   -17.2390 
  139.0000     2.2740    72.2700     7.5310     6.7180    10.8010    25.0190   -17.4710 
  139.1250     2.3580    67.8400     8.5330     7.6320    11.7390    24.5200   -17.7530 
  139.2500     2.4470    62.3330     9.4320     8.5350    12.1060    23.9930   -17.9950 
  139.3750     2.5210    57.5800    10.0900     9.2860    11.0270    23.5800   -18.2280 
  139.5000     2.5690    56.1120    10.4670     9.7970     9.7070    23.3640   -18.4890 
  139.6250     2.5870    56.5420    10.6020    10.0470     9.2580    23.3180   -18.6820 
  139.7500     2.5860    53.4840    10.6450    10.1640     9.8470    23.4110   -18.8420 
  139.8750     2.5570    48.8630    10.6650    10.2210    11.4690    23.7230   -19.0160 
  140.0000     2.4940    47.9960    10.6770    10.2570    13.3920    24.2520   -19.1470 
  140.1250     2.4020    49.8830    10.6650    10.2740    14.6050    24.8060   -19.2250 
  140.2500     2.3210    49.2170    10.6300    10.2750    15.7200    25.2130   -19.3140 
  140.3750     2.2750    47.5110    10.6080    10.2870    16.1110    25.2990   -19.3810 
  140.5000     2.2750    48.6960    10.6530    10.3540    16.0020    25.0500   -19.4210 
  140.6250     2.3100    51.9440    10.8100    10.5280    15.2290    24.6780   -19.4630 
  140.7500     2.3450    54.0470    11.0170    10.7720    15.8910    24.4830   -19.4840 
  140.8750     2.3600    55.1200    12.0140    11.0020    17.0470    24.4220   -19.4780 
  141.0000     2.3610    55.7860    12.3000    11.1200    17.6160    24.4290   -19.4560 
  141.1250     2.3740    55.6960    12.1020    11.0630    17.4120    24.4320   -19.4040 
  141.2500     2.4110    56.9570    11.8560    10.9340    16.9830    24.3780   -19.3370 
  141.3750     2.4550    60.4970    11.7470    10.8730    15.5570    24.3050   -19.2690 
  141.5000     2.4780    62.8460    11.9240    11.0130    14.0910    24.2960   -19.1680 
  141.6250     2.4550    61.7910    12.4570    11.4420    14.8120    24.4100   -19.0690 
  141.7500     2.4020    59.9760    13.1120    12.0090    16.4090    24.6140   -18.9660 
  141.8750     2.3430    59.6390    13.5790    12.4770    17.4720    24.9320   -18.8360 
  142.0000     2.2940    60.5910    13.5480    12.5730    17.3710    25.3260   -18.7030 
  142.1250     2.2670    59.4690    12.8170    12.0720    16.8240    25.7220   -18.5810 
  142.2500     2.2590    56.8510    11.7410    11.2140    15.6220    26.0800   -18.4770 
  142.3750     2.2690    54.0900    10.6840    10.2830    14.1820    26.4530   -18.4140 
  142.5000     2.2970    52.7130     9.9190     9.5190    12.6240    26.9080   -18.3730 
  142.6250     2.3420    52.7440     9.6060     9.0910    11.8440    27.1360   -18.3620 
  142.7500     2.3840    51.7970     9.6080     8.9380    11.7660    27.1180   -18.4300 
  142.8750     2.3960    50.8190     9.7850     8.9760    12.2710    27.0450   -18.5260 
  143.0000     2.3630    51.3220     9.9900     9.0970    12.8400    27.0620   -18.6100 
  143.1250     2.3020    53.8440    10.0970     9.1960    13.3280    27.2100   -18.7510 
  143.2500     2.2600    55.1750    10.1220     9.2400    12.8450    27.2860   -18.9080 
  143.3750     2.2610    52.5630    10.1560     9.2730    11.7070    27.0030   -19.0380 
  143.5000     2.3050    48.7600    10.3060     9.3740    11.2020    26.2910   -19.1700 
  143.6250     2.3710    48.2130    10.6760     9.6360    11.8490    25.7810   -19.3030 
