~V
VERS. 2.00: Ver 2.00
~W
STRT.M 63.0000:
STOP.M 280.0000:
STEP.M 0.1250:
NULL. -999.2500:
UWI. F10220:
~C
DEPT.M :
SP.MV :
DEN.GM/CC :
GR.API :
RML.OHMM :
RI. :
RXO.OHMM :
CALI.CM :
~A
# ...
   85.5000   -14.0180     2.2320    90.1410     8.6170     6.1930     6.3360    24.5520 
   85.6250   -14.0330     2.2320    83.7100     8.7180     6.2540     6.3920    24.5330 
   85.7500   -14.0420     2.2310    77.7270     8.7840     6.2890     7.2970    24.5210 
   85.8750   -13.9650     2.2330    77.4020     8.7020     6.2380     8.1760    24.5750 
   86.0000   -13.8020     2.2450    80.1890     8.4330     6.0690     8.4640    24.7080 
   86.1250   -13.5920     2.2730    81.7390     8.0650     5.8150     7.4650    24.7710 
   86.2500   -13.4160     2.3080    81.2830     7.8130     5.5810     6.2730    24.7940 
   86.3750   -13.3380     2.3330    81.1010     7.8040     5.4640     6.0670    24.8050 
   86.5000   -13.3380     2.3380    82.9110     8.0360     5.4930     6.6700    24.8000 
   86.6250   -13.3770     2.3190    85.3910     8.3900     5.6370     7.6730    24.7810 
   86.7500   -13.5250     2.2800    85.5450     8.6690     5.8050     7.3740    24.8050 
   86.8750   -13.7830     2.2430    85.7950     8.7560     5.9050     7.1930    24.9260 
   87.0000   -14.1680     2.2210    87.4600     8.6710     5.9150     7.0380    25.0600 
   87.1250   -14.6940     2.2120    88.1000     8.5180     5.8710     6.7090    25.1260 
   87.2500   -15.3330     2.2110    84.9160     8.4070     5.8310     6.5940    25.1220 
   87.3750   -15.9360     2.2100    80.9300     8.3630     5.8230     6.8440    25.1110 
   87.5000   -16.4650     2.2090    79.2030     8.3720     5.8470     7.2530    25.1050 
   87.6250   -16.9390     2.2070    78.9790     8.4180     5.8980     7.5410    25.1410 
   87.7500   -17.3490     2.2090    78.4810     8.5160     5.9860     7.4420    25.1780 
   87.8750   -17.7470     2.2120    78.1930     8.6720     6.1120     7.2770    25.1990 
   88.0000   -18.0990     2.2110    78.2180     8.8760     6.2690     7.8940    25.2200 
   88.1250   -18.3360     2.2040    77.6690     9.0920     6.4320     8.7420    25.2660 
   88.2500   -18.3830     2.1960    76.0210     9.2620     6.5620     8.7660    25.3140 
   88.3750   -18.3110     2.1930    76.6040     9.3490     6.6340     8.2930    25.3240 
   88.5000   -18.1420     2.1930    78.4060     9.3320     6.6330     7.8500    25.2930 
   88.6250   -17.8950     2.1980    78.9890     9.2020     6.5500     7.7000    25.2410 
   88.7500   -17.5410     2.2030    76.0570     8.9170     6.3620     8.0050    25.2230 
   88.8750   -17.0280     2.2100    72.7670     8.4750     6.0660     8.1850    25.2160 
   89.0000   -16.3820     2.2260    73.4440     7.9380     5.6850     7.6180    25.2140 
   89.1250   -15.6960     2.2520    77.8290     7.4940     5.3210     6.4950    25.2780 
   89.2500   -15.0570     2.2810    81.2710     7.4350     5.1590     5.9790    25.4390 
   89.3750   -14.5450     2.3110    82.7250     7.7970     5.2620     5.8590    25.5290 
   89.5000   -14.2080     2.3510    85.1670     8.4960     5.6200     6.5330    25.4460 
   89.6250   -14.0170     2.4020    88.2510     9.3270     6.1460     8.7850    25.3250 
   89.7500   -13.9630     2.4300    86.0810     9.9440     6.6660    12.7280    25.2610 
   89.8750   -14.0430     2.4020    80.9740    10.1600     7.0060    13.0030    25.2130 
   90.0000   -14.2250     2.3340    77.9980    10.0150     7.1130     9.5520    25.1330 
   90.1250   -14.4430     2.2760    78.3680     9.6950     7.0440     7.4490    25.0290 
   90.2500   -14.6060     2.2660    78.4070     9.3720     6.8940     8.0310    24.9050 
   90.3750   -14.6220     2.2850    76.9190     9.0720     6.7340     9.1340    24.7290 
   90.5000   -14.4370     2.3050    74.7310     8.7340     6.5530     8.8210    24.5470 
   90.6250   -14.0870     2.3080    73.1770     8.3170     6.3200     7.1450    24.4500 
   90.7500   -13.6890     2.2910    74.6220     7.8790     6.0340     6.6330    24.4320 
   90.8750   -13.2780     2.2740    79.1730     7.5590     5.7760     6.4420    24.4320 
   91.0000   -12.8630     2.2680    85.2160     7.4280     5.6160     6.0870    24.4320 
   91.1250   -12.4630     2.2670    88.2350     7.4600     5.5740     5.7610    24.4360 
   91.2500   -12.1340     2.2650    86.9510     7.5490     5.6050     5.7750    24.5050 
   91.3750   -11.9070     2.2590    85.1640     7.5830     5.6200     6.0780    24.7130 
   91.5000   -11.7890     2.2560    83.8410     7.5230     5.5760     6.2830    25.0370 
   91.6250   -11.7530     2.2590    82.9740     7.3750     5.4670     6.2800    25.3190 
   91.7500   -11.8200     2.2690    82.4430     7.1810     5.3100     5.8880    25.4350 
   91.8750   -12.0180     2.2760    83.0540     7.0330     5.1600     5.7170    25.4700 
   92.0000   -12.3400     2.2710    84.2070     7.0330     5.0860     5.8200    25.5060 
   92.1250   -12.7770     2.2550    83.2160     7.2740     5.1600     6.0420    25.5880 
   92.2500   -13.4100     2.2270    79.1750     7.8600     5.4690     6.2190    25.5720 
   92.3750   -14.2170     2.2050    75.5450     8.7070     5.9820     6.7270    25.3790 
   92.5000   -15.1890     2.2040    73.4390     9.6830     6.6380     7.5910    25.0640 
   92.6250   -16.3160     2.2170    69.9250    10.5640     7.2980     8.8140    24.8330 
   92.7500   -17.4400     2.2110    66.9140    11.0300     7.7340     9.6860    24.8150 
   92.8750   -18.4550     2.1860    69.2560    11.0650     7.8780    10.2300    24.7400 
   93.0000   -19.3960     2.1730    76.1290    10.8170     7.7880    10.5380    24.4990 
   93.1250   -20.2820     2.1860    81.0320    10.5110     7.6020    10.5220    24.2860 
   93.2500   -21.0590     2.2040    78.9400    10.3540     7.4710    10.4860    24.2120 
   93.3750   -21.7340     2.2110    73.1320    10.3660     7.4460    10.7950    24.1920 
   93.5000   -22.3000     2.2130    67.3340    10.4890     7.5030    11.4040    24.1680 
   93.6250   -22.7470     2.2140    64.1020    10.6400     7.5960    11.8690    24.1460 
   93.7500   -23.1100     2.2110    63.1740    10.7540     7.6830    11.9550    24.1390 
   93.8750   -23.4540     2.2060    62.4320    10.8110     7.7440    11.8380    24.1360 
   94.0000   -23.7710     2.2000    63.8640    10.8040     7.7710    11.6940    24.1350 
   94.1250   -24.0460     2.1960    67.6120    10.7390     7.7650    11.5860    24.1350 
   94.2500   -24.2540     2.1930    69.7690    10.6200     7.7200    11.5880    24.1350 
   94.3750   -24.3870     2.1890    68.4400    10.4640     7.6470    11.6500    24.1350 
   94.5000   -24.4320     2.1850    67.4170    10.2830     7.5460    11.6170    24.1350 
   94.6250   -24.4170     2.1830    70.7750    10.0980     7.4260    11.4830    24.1350 
   94.7500   -24.3920     2.1830    75.4730     9.9290     7.2940    11.3610    24.1360 
   94.8750   -24.3520     2.1860    75.3530     9.7920     7.1670    11.3810    24.1460 
   95.0000   -24.2980     2.1930    71.5860     9.7170     7.0690    11.2860    24.1770 
   95.1250   -24.2570     2.2040    68.9820     9.7580     7.0350    11.2040    24.2350 
   95.2500   -24.2380     2.2180    69.3740    10.0030     7.1280    11.1290    24.3350 
   95.3750   -24.2590     2.2340    71.7400    10.4280     7.3520    11.1180    24.4420 
   95.5000   -24.3620     2.2530    75.9940    10.9670     7.6890    11.6230    24.5280 
   95.6250   -24.5420     2.2690    79.5660    11.4830     8.0790    13.6410    24.5950 
   95.7500   -24.7970     2.2670    77.0540    11.7530     8.3950    17.5220    24.6710 
   95.8750   -25.1090     2.2440    72.1650    11.6960     8.5330    19.3200    24.8380 
   96.0000   -25.4490     2.2100    69.3400    11.3550     8.4560    15.8270    25.1600 
   96.1250   -25.7740     2.1790    68.1780    10.8830     8.2190    12.3850    25.4960 
   96.2500   -26.0600     2.1630    67.8040    10.4940     7.9430    11.0800    25.6150 
   96.3750   -26.2740     2.1580    67.7260    10.3090     7.7510    10.6870    25.5580 
   96.5000   -26.4050     2.1620    67.5260    10.3490     7.6930    10.5280    25.3940 
   96.6250   -26.4810     2.1730    66.2610    10.5640     7.7650    10.6360    25.2340 
