~V
VERS. 2.00: Ver 2.00
~W
STRT.M 57.0000:
STOP.M 274.0000:
STEP.M 0.1250:
NULL. -999.2500:
UWI. F10215:
~C
DEPT.M :
SP.MV :
DEN.GM/CC :
GR.API :
RML.OHMM :
RI. :
RXO.OHMM :
CALI.CM :
~A
   57.0000    -8.2790     2.5680    39.9460     0.1300     0.0420     0.1160    25.2390 
   57.1250    -9.8450     2.6180    40.5660     0.1360     0.0360     0.4870    25.1360 
   57.2500   -11.6670     2.5650    44.1800     0.2450     0.0640     1.3430    24.8600 
   57.3750   -13.7820     2.4510    48.6430     0.5240     0.1600     2.6670    24.3210 
   57.5000   -16.0990     2.3220    53.5700     1.0740     0.3830     5.3820    23.6390 
   57.6250   -18.5280     2.2230    58.5550     2.0920     0.8790     7.1970    23.2440 
   57.7500   -20.9920     2.1640    61.6540     3.4540     1.6850     7.9270    23.1090 
   57.8750   -23.4130     2.1410    61.0370     4.6810     2.7140     7.8660    23.0740 
   58.0000   -25.6950     2.1370    57.0520     5.2300     3.7080     7.9230    23.0640 
   58.1250   -27.6640     2.1380    53.7050     5.1840     4.4020     8.0960    23.0420 
   58.2500   -29.3270     2.1400    53.9730     5.1240     4.8570     8.1160    23.0060 
   58.3750   -30.6520     2.1430    57.3710     5.2040     5.1710     8.0750    22.9910 
   58.5000   -31.6780     2.1460    60.5630     5.3830     5.4060     8.0760    22.9690 
   58.6250   -32.3940     2.1480    60.3490     5.5860     5.5930     8.0600    22.9490 
   58.7500   -32.8840     2.1510    58.4470     5.7770     5.7600     8.0560    22.9420 
   58.8750   -33.2050     2.1570    57.6660     5.9660     5.9160     8.0480    22.9370 
   59.0000   -33.3940     2.1660    58.6460     6.1690     6.0560     8.0720    22.9420 
   59.1250   -33.5320     2.1760    60.3150     6.4060     6.1700     8.1340    22.9480 
   59.2500   -33.6030     2.1820    61.0460     6.6710     6.2610     8.2260    22.9360 
   59.3750   -33.5860     2.1820    59.7150     6.9440     6.3340     8.3130    22.9380 
   59.5000   -33.5240     2.1770    58.2870     7.1990     6.3990     8.2400    22.9200 
   59.6250   -33.4240     2.1670    58.5500     7.4240     6.4770     8.1260    22.8860 
   59.7500   -33.2990     2.1600    60.0070     7.6420     6.5870     8.0400    22.8230 
   59.8750   -33.1240     2.1630    60.7390     7.8710     6.7260     8.0160    22.7430 
   60.0000   -32.8910     2.1890    60.6560     8.0940     6.8510     8.1020    22.6440 
   60.1250   -32.5570     2.2430    62.2960     8.2200     6.8650     8.3090    22.4920 
   60.2500   -32.1440     2.3050    66.2530     8.1520     6.7120     8.4770    22.4060 
   60.3750   -31.6940     2.3480    72.7310     7.8390     6.3870     8.0250    22.4520 
   60.5000   -31.1950     2.3600    80.8160     7.3450     5.9600     6.2420    22.6880 
   60.6250   -30.6820     2.3440    87.8270     6.8540     5.5670     5.3690    23.1910 
   60.7500   -30.2320     2.3240    91.5510     6.5320     5.3060     5.1570    23.7020 
   60.8750   -29.8690     2.3150    91.7060     6.4240     5.2020     5.2690    23.8180 
   61.0000   -29.6340     2.3200    92.3730     6.4930     5.2280     5.5630    23.3640 
   61.1250   -29.5370     2.3300    94.5500     6.6450     5.3330     6.2310    22.9050 
   61.2500   -29.5370     2.3290    97.4780     6.7960     5.4480     6.3170    22.8960 
   61.3750   -29.6520     2.3080   100.8530     6.9740     5.5730     5.8570    23.2520 
   61.5000   -29.8860     2.2690   102.0100     7.2570     5.7450     5.5440    23.6390 
   61.6250   -30.2470     2.2230   100.2850     7.7020     6.0020     5.8780    23.7190 
   61.7500   -30.6470     2.1930    96.0780     8.1970     6.2890     6.5450    23.4200 
   61.8750   -31.0470     2.1920    90.1850     8.5750     6.5160     7.0880    22.9560 
   62.0000   -31.3830     2.2180    85.9400     8.6690     6.5760     7.1480    22.6250 
   62.1250   -31.6580     2.2480    89.0780     8.3700     6.3800     6.7040    22.6190 
   62.2500   -31.9270     2.2580    97.6390     7.9110     6.0490     6.1420    22.8730 
   62.3750   -32.1870     2.2420   104.7020     7.5850     5.7620     5.7920    23.2120 
   62.5000   -32.4220     2.2130   105.5530     7.6470     5.6950     6.0150    23.4650 
   62.6250   -32.6040     2.2030   100.8770     8.3020     6.0220     6.4630    23.7180 
   62.7500   -32.7190     2.2260    93.1510     9.3840     6.6850     6.8040    23.9550 
   62.8750   -32.7920     2.2700    84.5550    10.6090     7.5370     8.6620    23.8710 
   63.0000   -32.8570     2.3080    77.3280    11.4860     8.2610    13.1090    23.4610 
   63.1250   -32.8800     2.3150    70.9080    11.3340     8.3790    11.8050    23.0640 
   63.2500   -32.8390     2.2990    70.3690    10.3210     7.9000     8.8300    22.9450 
   63.3750   -32.7110     2.2740    78.5300     8.9890     7.0960     7.0010    23.1070 
   63.5000   -32.5160     2.2480    90.2470     7.8990     6.3100     5.8240    23.5610 
   63.6250   -32.3110     2.2260    95.6730     7.4290     5.8260     5.5750    24.0470 
   63.7500   -32.1450     2.2070    94.6340     7.4410     5.6400     5.7510    24.2440 
   63.8750   -32.0200     2.1950    92.7140     7.7190     5.6610     5.9050    24.2020 
   64.0000   -31.9440     2.1880    91.1020     8.0010     5.7430     6.0810    24.0250 
   64.1250   -31.8910     2.1850    88.2880     8.0020     5.7170     6.1820    24.0680 
   64.2500   -31.8720     2.1890    88.4330     7.6620     5.5110     5.7700    24.5290 
   64.3750   -31.8800     2.2040    92.5780     7.0950     5.1510     5.3480    25.0240 
   64.5000   -31.9460     2.2280   100.0360     6.5760     4.7620     4.9740    25.1430 
   64.6250   -32.0420     2.2620   106.8160     6.5300     4.5770     4.8090    24.8890 
   64.7500   -32.1750     2.3120   109.3090     7.1530     4.7480     4.8350    24.6500 
   64.8750   -32.3630     2.3840   105.8200     8.5720     5.3810     5.2070    24.5240 
   65.0000   -32.6060     2.4540    96.4000    10.7650     6.5110     7.3430    24.4710 
   65.1250   -33.0030     2.4640    84.3240    13.3400     8.0320    14.1230    24.3400 
   65.2500   -33.5190     2.4050    73.9080    15.2580     9.3900    21.3840    24.0400 
   65.3750   -34.1130     2.3070    66.6040    15.6700    10.0230    16.5220    23.5800 
   65.5000   -34.7320     2.2150    62.6340    14.5530     9.7410     9.9430    23.2080 
   65.6250   -35.3320     2.1680    63.2360    12.7900     8.8780     8.0220    23.0990 
   65.7500   -35.8280     2.1670    68.6630    11.4400     8.0620     7.8140    23.1090 
   65.8750   -36.1690     2.1950    75.9570    10.8390     7.5580     8.0820    23.1640 
   66.0000   -36.3930     2.2290    82.2650    10.9290     7.4290     8.2790    23.2180 
   66.1250   -36.4870     2.2470    85.2780    11.5050     7.6330     8.0030    23.2940 
   66.2500   -36.5070     2.2460    84.0910    12.2320     7.9880     7.5170    23.2680 
   66.3750   -36.5000     2.2280    78.8160    12.9210     8.3810     7.3750    23.0530 
   66.5000   -36.4680     2.1990    72.4990    13.3950     8.6980     7.5950    22.8090 
   66.6250   -36.4390     2.1710    70.2280    13.4430     8.8030     7.7250    22.7050 
   66.7500   -36.4720     2.1520    69.0590    13.1280     8.6940     7.6840    22.6810 
   66.8750   -36.5910     2.1450    68.1810    12.6040     8.4370     7.7620    22.6830 
   67.0000   -36.7500     2.1450    70.9810    12.0920     8.1400     7.9120    22.6620 
   67.1250   -36.9120     2.1510    77.2900    11.8270     7.9420     7.8420    22.6330 
   67.2500   -37.0220     2.1580    80.2470    11.8330     7.8870     7.6960    22.5990 
   67.3750   -37.0910     2.1600    77.5330    12.0350     7.9540     7.7170    22.5790 
   67.5000   -37.1420     2.1570    72.6530    12.2980     8.0730     7.8540    22.5800 
   67.6250   -37.1680     2.1480    69.7320    12.4520     8.1480     7.9010    22.5780 
   67.7500   -37.1430     2.1430    69.1200    12.4000     8.1120     7.7290    22.5890 
   67.8750   -37.0530     2.1470    69.3400    12.1320     7.9480     7.6210    22.6160 
   68.0000   -36.9540     2.1640    68.6690    11.7490     7.7030     7.4880    22.6450 
   68.1250   -36.8570     2.1880    67.8030    11.4450     7.4730     7.3120    22.6790 
