~V
VERS. 2.00: Ver 2.00
~W
STRT.M 58.0000:
STOP.M 273.0000:
STEP.M 0.1250:
NULL. -999.2500:
UWI. F10226:
~C
DEPT.M :
SP.MV :
DEN.GM/CC :
GR.API :
RML.OHMM :
RI. :
RXO.OHMM :
CALI.CM :
~A
# ...
   80.5000   -22.8920     2.1790    66.4540    10.5480     7.8310     9.9130    25.4960 
   80.6250   -23.5370     2.1700    71.2290    10.5410     7.8010     9.7670    24.7370 
   80.7500   -24.1400     2.1250    75.3790    10.5460     7.7580     9.4240    24.4750 
   80.8750   -24.6980     2.0760    74.7620    10.5870     7.7250     9.3790    24.9240 
   81.0000   -25.2710     2.0480    71.6000    10.6730     7.7200    10.3450    25.7100 
   81.1250   -25.7530     2.0520    68.7400    10.7960     7.7470    11.2630    26.3280 
   81.2500   -26.2090     2.0820    66.0460    10.9430     7.8060    11.3920    26.7040 
   81.3750   -26.6320     2.1210    63.3900    11.0950     7.8880    11.0460    26.9660 
   81.5000   -27.0420     2.1410    62.5330    11.2170     7.9610    10.9140    27.1130 
   81.6250   -27.4380     2.1310    63.8900    11.2900     7.9990    10.9490    27.1410 
   81.7500   -27.7800     2.0980    66.2270    11.2900     7.9870    10.9360    27.2890 
   81.8750   -28.1020     2.0660    68.5560    11.1760     7.9070    10.9420    28.0210 
   82.0000   -28.4330     2.0560    70.6720    10.9870     7.7800    10.8680    29.1320 
   82.1250   -28.7960     2.0710    71.1330    10.7920     7.6460    10.9050    30.0300 
   82.2500   -29.1640     2.0990    68.0620    10.6660     7.5460    11.0360    30.2710 
   82.3750   -29.5410     2.1200    61.9810    10.6670     7.5210    11.3910    29.8860 
   82.5000   -29.8680     2.1280    57.5940    10.7680     7.5660    11.7930    29.6030 
   82.6250   -30.1330     2.1220    57.5030    10.9250     7.6610    12.1210    29.7160 
   82.7500   -30.4150     2.1030    60.2060    11.0850     7.7780    12.3280    30.2200 
   82.8750   -30.5770     2.0720    59.5670    11.2070     7.8850    12.5940    30.9450 
   83.0000   -30.5820     2.0280    55.5850    11.2760     7.9700    12.8070    31.6220 
   83.1250   -30.5150     1.9720    52.9000    11.2820     8.0230    12.6600    32.1530 
   83.2500   -30.3140     1.9100    54.2610    11.2100     8.0320    12.0080    32.5440 
   83.3750   -29.9250     1.8550    55.5240    11.0470     7.9800    11.5040    32.7260 
   83.5000   -29.4500     1.8260    54.0760    10.8270     7.8780    11.7790    32.9460 
   83.6250   -28.7930     1.8380    52.5720    10.5960     7.7490    11.5530    33.6190 
   83.7500   -27.9610     1.8900    53.1430    10.4150     7.6260    10.1410    34.9000 
   83.8750   -27.0530     1.9620    53.5300    10.3840     7.5720     8.1460    35.5070 
   84.0000   -26.0400     2.0190    53.0920    10.5260     7.6160     7.5780    34.0230 
   84.1250   -24.8490     2.0390    53.8650    10.8080     7.7510     8.8240    30.9080 
   84.2500   -23.5640     2.0230    56.4880    11.1050     7.9160    10.5650    28.2520 
   84.3750   -22.2160     1.9960    60.3760    11.1740     7.9690    11.5320    27.1410 
   84.5000   -20.7810     1.9920    63.0540    10.8590     7.7950    11.6390    27.2000 
   84.6250   -19.2930     2.0250    64.3380    10.1640     7.3710    11.0790    27.5480 
   84.7500   -17.7440     2.0970    66.6490     9.3200     6.8200    10.0810    27.4360 
   84.8750   -16.2140     2.1940    73.1210     8.7830     6.4110     8.6240    26.4590 
   85.0000   -14.8220     2.2880    81.5850     8.8310     6.3230     7.5900    25.3000 
   85.1250   -13.6410     2.3560    88.2800     9.5250     6.6230     7.2350    24.3750 
   85.2500   -12.6400     2.3870    90.5470    10.6860     7.2620     8.6650    23.9030 
   85.3750   -11.7850     2.3800    88.2640    11.7650     7.9770    13.1750    23.8640 
   85.5000   -11.1060     2.3600    86.2810    12.1040     8.3260    16.4340    23.9420 
   85.6250   -10.6740     2.3410    87.6900    11.4440     8.0510    12.2710    23.9510 
   85.7500   -10.4750     2.3290    91.6380    10.0860     7.2760     8.3490    23.7100 
   85.8750   -10.4050     2.3240    94.2150     8.6800     6.3820     6.5610    23.5600 
   86.0000   -10.3830     2.3270    98.0610     7.6880     5.6880     5.7700    23.5060 
   86.1250   -10.3990     2.3440   104.1610     7.2700     5.3240     5.6120    23.5050 
   86.2500   -10.4450     2.3810   108.3580     7.4530     5.3430     6.0590    23.5450 
   86.3750   -10.5190     2.4240   106.9820     8.2820     5.8200     6.5840    23.6720 
   86.5000   -10.5890     2.4520   102.4150     9.5480     6.6650     7.0540    23.7810 
   86.6250   -10.6470     2.4500    97.0260    10.9650     7.7470     7.9390    23.7990 
   86.7500   -10.7010     2.4210    91.7950    12.0490     8.7720    10.5600    23.7990 
   86.8750   -10.7960     2.3830    87.7600    12.1100     9.1810    12.5120    23.7910 
   87.0000   -10.9240     2.3540    85.5540    11.2100     8.8440    10.1730    23.7530 
   87.1250   -11.0570     2.3410    87.0350     9.8240     8.0130     7.1690    23.7590 
   87.2500   -11.2340     2.3410    94.2560     8.5070     7.0800     5.5000    23.8020 
   87.3750   -11.5010     2.3470   100.9760     7.6690     6.3640     5.1470    23.8590 
   87.5000   -11.8570     2.3500   102.7830     7.2950     5.9300     5.1400    23.8470 
   87.6250   -12.2790     2.3460   102.8990     7.2590     5.7430     5.1440    23.8060 
   87.7500   -12.7480     2.3370   105.0120     7.4030     5.7240     5.0980    23.7850 
   87.8750   -13.2720     2.3230   106.0070     7.5950     5.7850     5.0520    23.7960 
   88.0000   -13.8610     2.3160   105.1450     7.7170     5.8330     5.1150    23.8120 
   88.1250   -14.5410     2.3260   106.1350     7.7000     5.8220     5.4550    23.8230 
   88.2500   -15.2950     2.3620   109.2090     7.5850     5.7700     5.6810    23.9050 
   88.3750   -16.1330     2.4150   109.3730     7.5830     5.7990     5.6600    24.1530 
   88.5000   -17.0550     2.4540   105.3460     7.9140     6.0230     5.4810    24.4570 
   88.6250   -18.0660     2.4540    99.2550     8.6870     6.5080     6.1830    24.6770 
   88.7500   -19.1730     2.4090    91.9210     9.8340     7.2370     9.0220    24.7680 
   88.8750   -20.3220     2.3360    82.3600    10.9750     8.0440    16.5120    24.7870 
   89.0000   -21.4070     2.2720    73.5040    11.5940     8.6060    18.1150    24.8480 
   89.1250   -22.3500     2.2320    68.5050    11.4550     8.7180    14.9010    24.9420 
   89.2500   -23.1090     2.2070    66.6940    10.7490     8.4380    12.6610    24.9960 
   89.3750   -23.5790     2.1740    66.2270    10.0160     8.0580    12.0760    24.9370 
   89.5000   -23.7430     2.1270    66.0300     9.7160     7.8870    11.5420    24.8050 
   89.6250   -23.5530     2.0830    65.4500     9.9620     8.0430    11.3090    24.7890 
   89.7500   -22.9850     2.0640    64.7280    10.5650     8.4630    11.1340    24.9800 
   89.8750   -22.0160     2.0920    67.2770    11.1180     8.9150    11.8310    25.5250 
   90.0000   -20.7790     2.1470    72.5440    11.3080     9.1470    14.3360    25.7400 
   90.1250   -19.3780     2.2040    79.0910    11.0680     9.0680    17.4450    25.5600 
   90.2500   -17.9320     2.2400    87.5200    10.5540     8.7570    12.3900    24.9750 
   90.3750   -16.5860     2.2470    96.0460    10.0700     8.4050     9.2530    24.5350 
   90.5000   -15.4240     2.2400    99.0320     9.8320     8.1770     7.9440    24.3050 
   90.6250   -14.4740     2.2310    93.9990     9.8730     8.1240     8.1830    24.1800 
   90.7500   -13.7360     2.2300    85.4290    10.0920     8.2080     8.6890    24.0940 
   90.8750   -13.2580     2.2390    81.2440    10.2870     8.3140     8.4380    24.0620 
   91.0000   -13.0180     2.2540    83.5910    10.2760     8.3010     8.2980    24.0760 
   91.1250   -12.9900     2.2710    88.9370    10.0060     8.1060     8.3280    24.1500 
   91.2500   -13.1110     2.2890    93.0890     9.5630     7.7690     8.1420    24.3190 
   91.3750   -13.3120     2.3040    96.7950     9.2100     7.4530     7.2770    24.5780 
   91.5000   -13.5630     2.3100   101.4230     9.2120     7.3480     6.7280    24.8290 
   91.6250   -13.8760     2.3010   103.8750     9.7270     7.5750     6.6750    24.9980 
