~V
VERS. 2.00: Ver 2.00
~W
STRT.M 54.0000:
STOP.M 277.0000:
STEP.M 0.1250:
NULL. -999.2500:
UWI. F10247:
~C
DEPT.M :
GR.API :
RML.OHMM :
RI. :
RXO.OHMM :
CALI.CM :
DEN.GM/CC :
SP.MV :
~A
# ...
   65.2500    57.9480    24.2020    17.4080    49.8010    24.6570     2.4540   -35.5400 
   65.3750    58.7710    24.7320    18.6770    58.6230    24.5650     2.4230   -35.8350 
   65.5000    63.6410    21.8020    17.2670    51.2050    24.5140     2.3430   -36.1480 
   65.6250    66.6460    17.1330    14.2070    33.3720    24.5440     2.2490   -36.4650 
   65.7500    66.3370    13.0830    11.1770    18.3740    24.6140     2.1810   -36.7980 
   65.8750    67.7810    10.4540     8.9310    11.1880    24.5870     2.1450   -37.1220 
   66.0000    72.2650     9.1170     7.5150     8.8870    24.4630     2.1330   -37.3910 
   66.1250    77.2900     8.6940     6.7810     8.6200    24.3450     2.1420   -37.6080 
   66.2500    79.4670     8.8010     6.5820     8.3750    24.3270     2.1680   -37.7710 
   66.3750    80.0400     9.0080     6.6340     8.2350    24.3820     2.1970   -37.8810 
   66.5000    80.8790     9.1680     6.8080     8.3000    24.4870     2.2120   -37.9590 
   66.6250    81.8630     9.2770     7.0310     8.6190    24.5400     2.2050   -38.0320 
   66.7500    78.7510     9.4110     7.2670     8.8350    24.4780     2.1770   -38.1050 
   66.8750    73.9400     9.6000     7.4900     9.3100    24.3290     2.1430   -38.1940 
   67.0000    71.2760     9.8090     7.6770     9.4470    24.2140     2.1140   -38.3160 
   67.1250    69.6110     9.9790     7.8050     9.4780    24.2110     2.0950   -38.4490 
   67.2500    65.8540    10.0450     7.8490     9.5740    24.1740     2.0890   -38.5490 
   67.3750    61.9090    10.0390     7.8270     9.5940    24.1890     2.0930   -38.6390 
   67.5000    60.7720    10.0130     7.7680     9.5280    24.2900     2.1060   -38.7300 
   67.6250    62.8880    10.0180     7.7100     9.5410    24.4850     2.1210   -38.7680 
   67.7500    66.0730    10.0980     7.6980     9.5740    24.5230     2.1330   -38.7610 
   67.8750    68.8380    10.2410     7.7410     9.6820    24.4970     2.1410   -38.7690 
   68.0000    69.5000    10.4210     7.8310     9.9520    24.4770     2.1460   -38.7640 
   68.1250    68.1660    10.6010     7.9440    10.1410    24.4620     2.1510   -38.7400 
   68.2500    66.3260    10.7200     8.0370    10.1280    24.3890     2.1510   -38.7070 
   68.3750    63.2940    10.7400     8.0830    10.0260    24.2700     2.1490   -38.6680 
   68.5000    59.8780    10.6520     8.0670     9.9860    24.2090     2.1450   -38.5970 
   68.6250    58.8730    10.4950     7.9980    10.0510    24.1920     2.1410   -38.5160 
   68.7500    62.6500    10.3450     7.9050    10.1340    24.2510     2.1300   -38.4280 
   68.8750    66.9470    10.2540     7.8250    10.1090    24.2830     2.1150   -38.3070 
   69.0000    69.0510    10.2180     7.7700     9.9440    24.3340     2.0990   -38.1810 
   69.1250    69.8630    10.2090     7.7290    10.0770    24.3490     2.0920   -38.0300 
   69.2500    70.5020    10.1930     7.6740    10.2000    24.2240     2.1030   -37.8800 
   69.3750    70.2060    10.1650     7.5860    10.2020    24.0450     2.1270   -37.7320 
   69.5000    68.8440    10.1280     7.4570    10.0920    23.8690     2.1540   -37.6080 
   69.6250    67.2810    10.0630     7.2900     9.8860    23.7520     2.1740   -37.5010 
   69.7500    66.0600     9.9070     7.0760     9.5780    23.7790     2.1840   -37.4030 
   69.8750    64.6400     9.6860     6.8430     9.5050    23.7080     2.1880   -37.3380 
   70.0000    62.5380     9.5930     6.6850     9.4380    23.4390     2.1890   -37.3050 
   70.1250    60.8730     9.9720     6.7770     9.3330    23.1400     2.1980   -37.3140 
   70.2500    59.9990    11.3440     7.4160     9.4340    23.1330     2.2340   -37.3740 
   70.3750    58.8310    13.7100     8.6830    10.4360    23.4020     2.2910   -37.4890 
   70.5000    58.0840    16.7860    10.5560    14.6440    23.8330     2.3430   -37.6500 
   70.6250    59.0220    19.6830    12.6550    28.0780    24.2100     2.3580   -37.8600 
   70.7500    58.9510    20.5300    13.8220    50.2070    24.4280     2.3130   -38.1420 
   70.8750    56.9560    18.8830    13.3890    42.1050    24.3950     2.2380   -38.4440 
   71.0000    55.0560    15.7750    11.7630    21.1770    24.2330     2.1640   -38.7540 
   71.1250    54.0290    12.7460     9.8840    12.3750    24.1590     2.1190   -39.0520 
   71.2500    53.2490    10.8730     8.4870    10.4070    24.1690     2.1060   -39.3290 
   71.3750    54.2370    10.0140     7.6630    10.2440    24.1790     2.1080   -39.5500 
   71.5000    57.2220     9.8420     7.3220    10.2590    24.2230     2.1130   -39.7080 
   71.6250    59.5590    10.0080     7.3050    10.3510    24.3630     2.1170   -39.7930 
   71.7500    59.1910    10.2490     7.4520    10.3620    24.4350     2.1110   -39.7730 
   71.8750    57.7300    10.4410     7.6150    10.2770    24.4610     2.0920   -39.6750 
   72.0000    55.7030    10.5630     7.7420    10.1660    24.4810     2.0660   -39.5070 
   72.1250    54.8770    10.6200     7.8180    10.1970    24.4970     2.0450   -39.2880 
   72.2500    55.9130    10.6120     7.8480    10.1320    24.4360     2.0440   -39.0050 
   72.3750    55.6590    10.5660     7.8660    10.1490    24.3060     2.0590   -38.7030 
   72.5000    53.4720    10.5140     7.8980    10.4280    24.1450     2.0810   -38.3880 
   72.6250    53.0910    10.5000     7.9630    10.8910    24.0630     2.1010   -38.0510 
   72.7500    55.5600    10.5800     8.0740    10.9960    24.0700     2.1150   -37.6760 
   72.8750    56.8320    10.7170     8.2010    10.9380    24.0900     2.1250   -37.2650 
   73.0000    55.4140    10.8160     8.2930    10.7430    24.0660     2.1270   -36.8120 
   73.1250    55.0340    10.7640     8.2770    10.4450    24.0310     2.1200   -36.3020 
   73.2500    59.7310    10.4290     8.0530    10.2540    24.0660     2.1150   -35.7130 
   73.3750    66.3620     9.8490     7.6470     9.7940    24.1870     2.1280   -35.0480 
   73.5000    72.7150     9.1280     7.1200     8.9130    24.3530     2.1690   -34.3380 
   73.6250    79.3160     8.4260     6.5710     7.5100    24.4460     2.2300   -33.6240 
   73.7500    86.8570     7.9210     6.1150     6.7450    24.4300     2.2840   -32.9630 
   73.8750    92.8730     7.6350     5.7920     6.3570    24.3500     2.3130   -32.3890 
   74.0000    94.5320     7.5200     5.5900     6.3750    24.2640     2.3190   -31.9080 
   74.1250    92.7830     7.4670     5.4540     6.4170    24.2070     2.3170   -31.5390 
   74.2500    91.6430     7.3420     5.3020     6.3860    24.1750     2.3130   -31.3370 
   74.3750    93.6540     7.1680     5.1150     6.2730    24.1560     2.3120   -31.2840 
   74.5000    97.7250     7.1320     4.9860     6.2370    24.1750     2.3200   -31.3730 
   74.6250    99.2820     7.4750     5.0750     6.3840    24.1890     2.3510   -31.5840 
   74.7500    93.9660     8.5330     5.6090     6.7780    24.1840     2.4070   -31.9160 
   74.8750    85.3660    10.3140     6.6260     8.4140    24.1610     2.4500   -32.3420 
   75.0000    76.7970    12.6760     8.1010    13.2530    24.1090     2.4420   -32.8550 
   75.1250    70.5500    15.0790     9.7850    22.0680    23.9900     2.3760   -33.4540 
   75.2500    66.3240    16.3400    10.9630    19.1280    23.8050     2.2760   -34.1030 
   75.3750    63.9150    16.0250    11.1630    13.1650    23.6760     2.1860   -34.7550 
   75.5000    63.7090    14.5660    10.5020    10.5110    23.6270     2.1320   -35.3610 
   75.6250    63.7770    12.8530     9.4890    10.0250    23.6020     2.1150   -35.9090 
   75.7500    62.6220    11.6950     8.6470     9.9340    23.5910     2.1240   -36.3600 
   75.8750    61.7000    11.1780     8.1420     9.9610    23.5870     2.1370   -36.7310 
   76.0000    60.9160    11.1240     7.9410    10.0400    23.5870     2.1480   -37.0020 
   76.1250    60.2140    11.2960     7.9360    10.0500    23.5900     2.1540   -37.1870 
   76.2500    59.9570    11.5140     8.0310    10.1500    23.5910     2.1550   -37.2700 
   76.3750    61.5450    11.6720     8.1350    10.1330    23.5810     2.1540   -37.2950 
