~V
VERS. 2.00: Ver 2.00
~W
STRT.M 53.0000:
STOP.M 282.0000:
STEP.M 0.1250:
NULL. -999.2500:
UWI. F10240:
~C
DEPT.M :
GR.API :
RML.OHMM :
RI. :
RXO.OHMM :
CALI.CM :
DEN.GM/CC :
SP.MV :
~A
# ...
  221.7500    52.1590   137.9260   125.1070   138.9280    24.6270     2.2030   -19.1650 
  221.8750    53.4900   117.5570   108.3720   128.2930    24.5620     2.2280   -18.9850 
  222.0000    56.1570    97.4230    90.3020   102.9810    24.5790     2.2550   -18.7580 
  222.1250    57.3260    81.9650    75.5370    77.1710    24.6840     2.2720   -18.5580 
  222.2500    56.6040    72.3620    65.7290    64.1860    24.7820     2.2730   -18.4090 
  222.3750    56.1030    68.3640    60.9340    64.2140    24.8380     2.2540   -18.2780 
  222.5000    59.0630    70.0600    61.2980    71.2600    24.8380     2.2160   -18.0930 
  222.6250    63.1520    75.9900    65.5910    82.5210    24.8410     2.1740   -17.8660 
  222.7500    64.9470    85.3590    73.3510    94.1000    24.8310     2.1500   -17.6210 
  222.8750    62.5680    96.1140    83.1360   101.2450    24.8350     2.1650   -17.4000 
  223.0000    57.1960   102.1410    90.1860    95.9550    24.8090     2.2390   -17.1970 
  223.1250    52.5690    97.8420    89.1380    93.9880    24.7260     2.3440   -16.9670 
  223.2500    50.4910    83.4200    78.7770   103.8560    24.5530     2.4400   -16.6910 
  223.3750    50.7670    65.3790    63.5630   101.3080    24.4340     2.5020   -16.3930 
  223.5000    53.4590    51.4460    50.3340    56.9450    24.3930     2.5380   -16.1040 
  223.6250    57.8750    43.4930    41.8940    31.5130    24.3880     2.5820   -15.8320 
  223.7500    61.7390    40.6420    37.9980    27.5420    24.3820     2.6360   -15.5880 
  223.8750    62.0780    40.7280    37.0370    32.9010    24.3750     2.6680   -15.3570 
  224.0000    58.9050    40.1310    36.0970    39.7430    24.3710     2.6410   -15.1450 
  224.1250    55.7240    35.6890    32.2070    45.6210    24.3430     2.5790   -14.9540 
  224.2500    51.9860    27.4540    25.2080    40.9840    24.2890     2.5030   -14.7960 
  224.3750    47.9820    18.4750    17.5830    24.2430    24.2220     2.4320   -14.6920 
  224.5000    46.6670    12.1680    12.0140    10.1320    24.1940     2.3860   -14.6620 
  224.6250    47.5180     8.5550     8.5360     6.5370    24.1980     2.3650   -14.6770 
  224.7500    47.4200     6.8380     6.6070     6.0140    24.2460     2.3640   -14.7070 
  224.8750    44.0360     6.2810     5.7160     6.2370    24.3530     2.3780   -14.7420 
  225.0000    40.2950     6.4560     5.5960     6.3170    24.4650     2.4020   -14.8290 
  225.1250    39.4290     6.9220     5.8760     6.2830    24.5550     2.4230   -14.9960 
  225.2500    39.7810     7.4850     6.3680     6.4790    24.6300     2.4260   -15.2540 
  225.3750    39.7590     8.0170     6.9160     7.0750    24.7300     2.4040   -15.5730 
  225.5000    39.6560     8.3990     7.3710     7.6280    24.8090     2.3640   -15.9040 
  225.6250    40.6820     8.5730     7.6440     7.9890    24.8320     2.3270   -16.2170 
  225.7500    40.8370     8.5180     7.6960     7.8550    24.8230     2.3070   -16.5350 
  225.8750    39.9040     8.2900     7.5530     7.4490    24.8070     2.3060   -16.8860 
  226.0000    39.6990     8.0080     7.2890     7.3260    24.8160     2.3090   -17.2370 
  226.1250    40.2510     7.7740     7.0040     7.5850    24.9110     2.3070   -17.5390 
  226.2500    41.4770     7.6060     6.7360     7.8050    25.0370     2.3020   -17.7640 
  226.3750    44.4620     7.4800     6.4950     7.5900    25.0740     2.3040   -17.9180 
  226.5000    48.6280     7.3860     6.3000     7.1880    25.0310     2.3170   -18.0440 
  226.6250    50.5930     7.3480     6.1750     6.9460    24.9550     2.3370   -18.2090 
  226.7500    50.4220     7.4230     6.1570     7.0490    24.8810     2.3550   -18.4380 
  226.8750    50.5880     7.6640     6.2720     7.3180    24.8640     2.3640   -18.7250 
  227.0000    51.5970     8.1100     6.5470     8.0590    24.8930     2.3630   -19.0350 
  227.1250    50.4160     8.6790     6.9300     9.2380    24.9410     2.3590   -19.3360 
  227.2500    46.1190     9.2860     7.3670     9.8750    24.9570     2.3550   -19.6230 
  227.3750    42.0840     9.8400     7.7950     9.8380    24.9670     2.3540   -19.8980 
  227.5000    41.3180    10.2230     8.1210    10.0870    24.9680     2.3580   -20.1400 
  227.6250    42.2320    10.3720     8.2790    10.6130    24.9650     2.3630   -20.2580 
  227.7500    43.6350    10.2630     8.2290    11.0310    24.9600     2.3630   -20.1700 
  227.8750    46.2930     9.9510     7.9980    10.4980    24.9600     2.3560   -19.8800 
  228.0000    51.1560     9.5710     7.6780     9.6660    24.9560     2.3540   -19.4590 
  228.1250    56.2250     9.2810     7.3930     8.8880    24.9480     2.3690   -19.0020 
  228.2500    60.0170     9.1550     7.2110     8.8090    24.9320     2.4040   -18.5350 
  228.3750    62.0040     9.1860     7.1520     9.5960    24.8970     2.4410   -18.0560 
  228.5000    63.7660     9.2880     7.1970    10.9440    24.9320     2.4490   -17.5620 
  228.6250    68.2710     9.3460     7.2650     9.9210    24.9440     2.4230   -17.1140 
  228.7500    75.5040     9.3190     7.3110     9.0010    24.9520     2.3790   -16.7800 
  228.8750    82.0830     9.2230     7.3270     8.5050    24.9240     2.3410   -16.5550 
  229.0000    85.7040     9.1150     7.3460     8.4840    24.8700     2.3280   -16.3990 
  229.1250    88.6720     9.0600     7.4120     8.5390    24.8400     2.3360   -16.2690 
  229.2500    91.2810     9.0760     7.5370     8.5130    24.8330     2.3570   -16.1670 
  229.3750    94.3140     9.1440     7.6960     8.6050    24.8250     2.3780   -16.0920 
  229.5000    96.1200     9.2350     7.8410     8.8260    24.8160     2.3930   -16.0350 
  229.6250    95.7850     9.3210     7.9430     8.8760    24.7990     2.4010   -16.0070 
  229.7500    94.7450     9.3850     7.9920     8.7600    24.8000     2.4030   -16.0120 
  229.8750    96.6690     9.4060     7.9770     8.6960    24.8630     2.4000   -16.0450 
  230.0000   101.6730     9.3600     7.8790     8.7250    24.9370     2.3920   -16.0910 
  230.1250   103.5050     9.2500     7.7080     8.7130    25.0000     2.3850   -16.1430 
  230.2500   101.5700     9.0800     7.4750     8.6550    25.0350     2.3820   -16.2040 
  230.3750   100.3940     8.8720     7.2040     8.5070    25.0540     2.3840   -16.3200 
  230.5000   101.9890     8.6850     6.9390     8.4440    25.0450     2.3960   -16.5320 
  230.6250   104.4660     8.6460     6.7650     8.4740    25.0420     2.4140   -16.7780 
  230.7500   106.0540     8.9260     6.7940     8.7220    25.0370     2.4290   -17.0330 
  230.8750   105.1970     9.7130     7.1480     9.1750    25.0460     2.4280   -17.2970 
  231.0000   100.7860    11.3110     8.0310    10.2380    25.0250     2.4110   -17.6010 
  231.1250    96.5790    13.7560     9.5010    13.2260    24.9840     2.3930   -17.9540 
  231.2500    92.8770    17.1180    11.6690    21.2360    24.9430     2.3830   -18.3520 
  231.3750    86.2390    21.3590    14.5940    30.0690    24.9460     2.3780   -18.7450 
  231.5000    76.9280    26.4360    18.3550    32.9350    24.9600     2.3680   -19.0900 
  231.6250    72.1630    32.0800    22.7160    34.9950    24.9600     2.3470   -19.4110 
  231.7500    72.5930    38.2320    27.5890    42.4690    24.9490     2.3180   -19.7080 
  231.8750    71.8980    44.7880    32.8760    61.5110    24.9130     2.2910   -19.9790 
  232.0000    66.5670    51.3480    38.3100    72.0920    24.8590     2.2730   -20.2210 
  232.1250    61.7490    57.1970    43.3300    66.3010    24.8210     2.2620   -20.4090 
  232.2500    60.7640    61.7110    47.3910    63.6200    24.8030     2.2590   -20.5240 
  232.3750    61.8940    64.7680    50.2590    63.3890    24.7590     2.2610   -20.5650 
  232.5000    60.0950    66.9500    52.2260    65.9760    24.7420     2.2630   -20.5370 
  232.6250    58.1640    69.2810    54.1270    67.0890    24.7260     2.2620   -20.4870 
  232.7500    60.8860    72.0630    56.3170    69.3800    24.6880     2.2600   -20.4230 
  232.8750    66.4790    74.9890    58.7060    71.7820    24.6560     2.2580   -20.3160 
