~V
VERS. 2.00: Ver 2.00
~W
STRT.M 56.0000:
STOP.M 284.0000:
STEP.M 0.1250:
NULL. -999.2500:
UWI. F10233:
~C
DEPT.M :
GR.API :
RML.OHMM :
RI. :
RXO.OHMM :
CALI.CM :
DEN.GM/CC :
SP.MV :
~A
# ...
   67.2500    92.0860     8.8430     7.5600    11.5720    24.1500     2.3220   -16.1680 
   67.3750    86.0090     9.2780     7.8480    11.8150    24.0620     2.2600   -16.6700 
   67.5000    80.3910     9.4120     7.8810     9.3060    24.0100     2.2130   -17.1480 
   67.6250    75.5840     9.2010     7.6500     8.0020    23.9960     2.2010   -17.5870 
   67.7500    72.5510     8.7540     7.2740     7.7250    24.0560     2.2010   -18.0240 
   67.8750    73.0560     8.1970     6.8530     7.7500    24.1660     2.2070   -18.4330 
   68.0000    77.7400     7.7620     6.5200     7.8650    24.2760     2.2250   -18.7840 
   68.1250    81.8460     7.8410     6.5100     7.7930    24.3070     2.2660   -19.0350 
   68.2500    83.2640     8.6070     6.9560     7.6050    24.3250     2.3280   -19.1900 
   68.3750    82.6580    10.1370     7.9510     7.9250    24.2520     2.4050   -19.3300 
   68.5000    79.3220    12.2630     9.4530    10.5770    24.0830     2.4810   -19.5350 
   68.6250    74.3720    14.2400    11.0560    20.8700    23.8150     2.4980   -19.8440 
   68.7500    70.8840    14.9840    11.9560    29.8430    23.6010     2.4300   -20.2520 
   68.8750    70.4020    14.0470    11.6500    22.7250    23.6080     2.3160   -20.7600 
   69.0000    70.2830    12.0330    10.3480    11.9420    23.8090     2.2200   -21.3480 
   69.1250    67.5420    10.1020     8.7880     8.9700    23.9870     2.1690   -21.9500 
   69.2500    64.1500     8.8760     7.5820     8.0300    24.1030     2.1370   -22.5320 
   69.3750    62.7700     8.4160     6.8970     8.0000    24.1160     2.1010   -23.1090 
   69.5000    65.3060     8.5530     6.7060     8.0590    23.9980     2.0500   -23.6430 
   69.6250    68.9370     9.0330     6.9000     8.4880    23.6830     1.9870   -24.0030 
   69.7500    69.4850     9.5120     7.2170    10.0810    23.2540     1.9470   -24.1890 
   69.8750    68.0290     9.8080     7.4920    12.2520    22.9590     1.9550   -24.3020 
   70.0000    67.6660     9.8590     7.6250    10.6490    23.0010     2.0090   -24.3760 
   70.1250    67.3220     9.6830     7.5740     9.0320    23.2110     2.0790   -24.4400 
   70.2500    65.1160     9.4260     7.4200     8.2980    23.6450     2.1260   -24.5190 
   70.3750    64.5860     9.1810     7.2350     8.2580    24.1770     2.1470   -24.5390 
   70.5000    67.5410     9.0060     7.0730     8.2760    24.6060     2.1520   -24.5100 
   70.6250    69.5260     8.9300     6.9690     8.1710    24.8040     2.1460   -24.5210 
   70.7500    67.0220     8.9220     6.9170     8.1660    24.8830     2.1420   -24.5440 
   70.8750    62.6870     8.9700     6.9150     8.3390    24.8900     2.1460   -24.5070 
   71.0000    60.0340     9.0680     6.9580     8.5180    24.8450     2.1580   -24.4000 
   71.1250    60.2480     9.2040     7.0390     8.5800    24.7600     2.1710   -24.2510 
   71.2500    62.6540     9.3320     7.1260     8.6520    24.7230     2.1830   -24.0470 
   71.3750    65.8150     9.4150     7.1890     8.6970    24.7210     2.1900   -23.8280 
   71.5000    67.2570     9.4260     7.2060     8.7450    24.7500     2.1920   -23.6320 
   71.6250    64.4080     9.3550     7.1630     8.5430    24.7820     2.1850   -23.3630 
   71.7500    61.4500     9.2450     7.0850     8.1180    24.7270     2.1770   -23.0520 
   71.8750    62.2240     9.1310     6.9920     7.9940    24.5610     2.1740   -22.8140 
   72.0000    66.1880     9.0430     6.9050     8.0500    24.4320     2.1760   -22.6250 
   72.1250    70.6390     9.0170     6.8430     8.0630    24.3760     2.1820   -22.3780 
   72.2500    72.9610     9.0530     6.8080     7.9150    24.3370     2.1860   -22.1460 
   72.3750    73.6960     9.1340     6.7990     7.8760    24.2960     2.1860   -21.9370 
   72.5000    72.0830     9.2240     6.8000     7.8810    24.2680     2.1820   -21.7160 
   72.6250    68.4320     9.2780     6.7850     7.8120    24.2410     2.1790   -21.5560 
   72.7500    67.5760     9.2840     6.7480     7.7870    24.1930     2.1780   -21.4230 
   72.8750    70.7810     9.2460     6.6880     7.8100    24.0910     2.1780   -21.2490 
   73.0000    74.7420     9.1790     6.6160     7.6380    23.9730     2.1800   -21.0870 
   73.1250    76.3960     9.1170     6.5580     7.3400    23.9420     2.1850   -20.9650 
   73.2500    77.8070     9.0960     6.5510     7.3470    23.9530     2.1920   -20.8680 
   73.3750    79.6120     9.1480     6.6160     7.4780    23.9420     2.2000   -20.7980 
   73.5000    78.9540     9.2830     6.7520     7.5210    23.9190     2.2080   -20.7460 
   73.6250    78.0190     9.4920     6.9450     7.4420    23.9390     2.2150   -20.7490 
   73.7500    78.9440     9.7180     7.1410     7.4690    24.0440     2.2160   -20.8250 
   73.8750    79.1740     9.9080     7.3010     7.6310    24.2550     2.2100   -20.9340 
   74.0000    77.9160    10.0220     7.4020     7.8910    24.5850     2.2010   -21.0630 
   74.1250    75.6790    10.0330     7.4320     8.1810    24.9330     2.1900   -21.2100 
   74.2500    72.7600     9.9800     7.4130     8.3470    25.0960     2.1780   -21.3410 
   74.3750    70.4090     9.9070     7.3670     8.2930    25.1220     2.1640   -21.4820 
   74.5000    69.4850     9.8400     7.3150     8.2440    25.1620     2.1490   -21.6370 
   74.6250    68.1270     9.7730     7.2600     8.2020    25.1420     2.1380   -21.6960 
   74.7500    64.6960     9.6720     7.1870     8.2540    25.2460     2.1310   -21.6410 
   74.8750    61.3080     9.5290     7.0860     8.4010    25.4910     2.1250   -21.5400 
   75.0000    60.7380     9.3710     6.9640     8.4300    25.5710     2.1250   -21.3810 
   75.1250    62.9790     9.2520     6.8490     8.0180    25.2090     2.1410   -21.1100 
   75.2500    65.7730     9.2020     6.7700     7.5410    24.6510     2.1630   -20.8020 
   75.3750    67.6650     9.2140     6.7360     7.4240    24.2460     2.1780   -20.4940 
   75.5000    67.2180     9.2420     6.7280     7.6450    24.0980     2.1790   -20.1370 
   75.6250    65.7640     9.2150     6.7000     7.7240    24.0990     2.1770   -19.6650 
   75.7500    65.0460     9.1090     6.6240     7.6980    24.1160     2.1810   -19.2000 
   75.8750    65.9290     8.9420     6.5050     7.5090    24.2110     2.1880   -18.7710 
   76.0000    69.7670     8.7710     6.3760     7.0660    24.3390     2.1940   -18.3550 
   76.1250    74.2250     8.6810     6.2980     7.0050    24.3900     2.1910   -18.0070 
   76.2500    77.8250     8.7030     6.2970     7.3300    24.3560     2.1770   -17.6650 
   76.3750    78.8390     8.8330     6.3670     7.5950    24.2470     2.1560   -17.2680 
   76.5000    76.5680     9.0370     6.4820     7.5950    24.1530     2.1310   -16.8720 
   76.6250    74.3100     9.2670     6.6170     7.5830    24.1800     2.1120   -16.5440 
   76.7500    74.2500     9.4450     6.7310     7.5290    24.2750     2.1030   -16.1670 
   76.8750    76.6790     9.5080     6.7810     7.9090    24.2840     2.1050   -15.7260 
   77.0000    80.3260     9.4070     6.7320     9.4750    24.0960     2.1210   -15.2420 
   77.1250    84.2890     9.0940     6.5400    11.2190    23.7230     2.1610   -14.6700 
   77.2500    87.5800     8.6300     6.2350     9.5150    23.2490     2.2190   -14.0460 
   77.3750    88.2240     8.0840     5.8570     7.0930    22.7590     2.2810   -13.4450 
   77.5000    87.1710     7.5660     5.4780     6.1980    22.4400     2.3280   -12.8930 
   77.6250    87.8040     7.2670     5.2160     6.1490    22.2840     2.3500   -12.3530 
   77.7500    90.5290     7.2740     5.1410     6.1350    22.0890     2.3490   -11.9260 
   77.8750    94.2500     7.5840     5.2680     6.3290    21.8960     2.3290   -11.6490 
   78.0000    97.5660     8.0910     5.5500     6.6890    22.0800     2.3040   -11.4280 
   78.1250    98.8340     8.5940     5.8810     8.3560    22.5060     2.2830   -11.3170 
   78.2500    97.2370     8.8700     6.1160    10.8740    22.8920     2.2570   -11.3730 
   78.3750    93.6850     8.8130     6.1670     9.8180    23.1990     2.2250   -11.5440 
