~V
VERS. 2.00: Ver 2.00
~W
STRT.M 50.0000:
STOP.M 284.0000:
STEP.M 0.1250:
NULL. -999.2500:
UWI. F10254:
~C
DEPT.M :
GR.API :
RML.OHMM :
RI. :
RXO.OHMM :
CALI.CM :
DEN.GM/CC :
SP.MV :
~A
# ...
  140.0000    71.3450    11.4960    10.1470    23.0360    25.1890     2.5250     0.5910 
  140.1250    70.6610    11.5410    10.5110    17.2010    25.1320     2.4660    -0.0830 
  140.2500    73.7230    10.9950    10.3140    11.5690    25.0920     2.4070    -0.8780 
  140.3750    75.2030    10.3650     9.9530    10.6530    25.0690     2.3650    -1.7550 
  140.5000    72.1320    10.0270     9.7470    12.4840    25.0260     2.3360    -2.6980 
  140.6250    65.2850    10.1410     9.8710    14.4750    24.9430     2.3040    -3.6550 
  140.7500    60.0940    10.5040    10.2250    13.1080    24.9040     2.2630    -4.5310 
  140.8750    58.2600    10.9480    10.6990    12.0430    24.9330     2.2200    -5.3190 
  141.0000    58.7970    11.3860    11.2010    11.9600    24.9500     2.1850    -6.0390 
  141.1250    60.4430    11.8810    11.7370    12.2370    24.9650     2.1640    -6.5830 
  141.2500    60.0680    12.5500    12.3810    12.6120    24.9810     2.1520    -6.9310 
  141.3750    59.0660    13.3860    13.1470    12.9890    25.0110     2.1440    -7.1380 
  141.5000    60.5660    14.1690    13.8740    13.5820    25.0400     2.1380    -7.2180 
  141.6250    62.9590    14.3260    14.0390    14.0640    25.0080     2.1370    -7.0470 
  141.7500    63.8240    13.5260    13.2740    14.0920    24.8960     2.1480    -6.6770 
  141.8750    64.0420    11.7970    11.5950    12.9610    24.7640     2.1760    -6.0680 
  142.0000    68.1300     9.6090     9.4880    10.6030    24.7240     2.2190    -5.2640 
  142.1250    78.2840     7.7090     7.6530     7.5940    24.7540     2.2680    -4.4840 
  142.2500    88.4110     6.5150     6.4100     5.8650    24.7150     2.3040    -3.8800 
  142.3750    92.9130     6.1490     5.8280     5.3910    24.5920     2.3160    -3.4860 
  142.5000    90.1640     6.5920     5.8960     6.0360    24.4200     2.3050    -3.2780 
  142.6250    83.2320     7.8190     6.6870     7.9140    24.1790     2.2810    -3.3330 
  142.7500    76.2130     9.4280     7.9920    10.4550    23.9550     2.2610    -3.6850 
  142.8750    70.8820    11.0620     9.5760    11.9270    23.8090     2.2490    -4.3100 
  143.0000    68.0490    12.4160    11.1140    12.2010    23.7560     2.2430    -5.0300 
  143.1250    67.0960    13.3820    12.3290    11.9770    23.7610     2.2390    -5.7260 
  143.2500    65.1150    14.2080    13.3010    12.0560    23.7710     2.2350    -6.3290 
  143.3750    61.7990    15.0530    14.1590    12.1570    23.7420     2.2340    -6.7600 
  143.5000    59.4310    15.8970    14.9400    12.1900    23.6500     2.2400    -7.0220 
  143.6250    61.0810    16.4630    15.4610    11.7110    23.5050     2.2520    -7.1560 
  143.7500    64.6490    16.5770    15.5730    11.0590    23.3810     2.2590    -7.2180 
  143.8750    67.1100    16.2650    15.2720    10.7590    23.2770     2.2550    -7.2600 
  144.0000    67.0150    15.7190    14.7090    11.0540    23.1090     2.2400    -7.3870 
  144.1250    65.6950    15.1750    14.0950    11.8730    22.9280     2.2180    -7.5340 
  144.2500    64.0320    14.7440    13.5720    12.8080    22.9000     2.1960    -7.5920 
  144.3750    62.6550    14.4120    13.1710    13.6490    23.0420     2.1770    -7.6310 
  144.5000    62.9220    14.1590    12.8980    13.9500    23.2750     2.1590    -7.7190 
  144.6250    64.2850    14.0910    12.8400    13.6890    23.4510     2.1480    -7.8010 
  144.7500    63.5220    14.3510    13.0770    13.9500    23.5880     2.1490    -7.7910 
  144.8750    60.4830    15.0700    13.7040    14.9200    23.7320     2.1670    -7.7520 
  145.0000    58.8960    16.2700    14.7600    16.6800    23.9960     2.1970    -7.6930 
  145.1250    62.1250    17.8160    16.2000    19.4150    24.3230     2.2340    -7.5660 
  145.2500    66.3350    19.2810    17.6740    21.4870    24.5410     2.2710    -7.4590 
  145.3750    69.6800    20.2820    18.8200    21.8800    24.6100     2.3020    -7.3120 
  145.5000    71.4090    20.5370    19.3130    21.2880    24.6040     2.3250    -7.0550 
  145.6250    69.9550    19.8440    18.8680    21.0930    24.5730     2.3330    -6.7440 
  145.7500    68.4080    18.5220    17.7400    20.3240    24.4880     2.3300    -6.3940 
  145.8750    68.8650    16.8300    16.1790    19.5700    24.3800     2.3200    -5.9070 
  146.0000    70.4260    15.0150    14.4500    17.8790    24.3640     2.3120    -5.2770 
  146.1250    72.8430    13.3420    12.8290    14.9370    24.4930     2.3130    -4.6340 
  146.2500    76.6450    12.0150    11.5110    12.5090    24.6560     2.3200    -4.1020 
  146.3750    80.3500    11.1710    10.6170    11.5860    24.6560     2.3250    -3.7060 
  146.5000    79.9770    10.8530    10.1970    11.0380    24.5750     2.3180    -3.4470 
  146.6250    74.8120    11.0770    10.3070    11.2820    24.5560     2.2940    -3.3750 
  146.7500    69.5460    11.6050    10.7810    12.4960    24.5870     2.2630    -3.5060 
  146.8750    65.6630    12.2700    11.4940    13.8530    24.5720     2.2370    -3.7680 
  147.0000    64.0750    12.9670    12.3300    14.6880    24.5260     2.2280    -4.0460 
  147.1250    65.9190    13.6880    13.2350    14.8810    24.5260     2.2470    -4.2810 
  147.2500    70.5950    14.4510    14.1820    15.6810    24.6380     2.2780    -4.3910 
  147.3750    76.9410    15.2130    15.1310    18.5830    24.8710     2.3020    -4.3850 
  147.5000    81.6930    15.8100    15.9500    23.1700    25.0800     2.3040    -4.3590 
  147.6250    79.8500    15.8480    16.2630    26.2110    25.0810     2.2740    -4.2660 
  147.7500    73.0230    15.1870    15.8650    24.2090    24.9280     2.2300    -4.0040 
  147.8750    66.2960    13.9140    14.7860    17.8750    24.7290     2.1910    -3.6290 
  148.0000    63.9580    12.3370    13.3160    13.9150    24.5920     2.1710    -3.2710 
  148.1250    64.1670    10.8420    11.8270    11.4310    24.5280     2.1740    -2.9340 
  148.2500    65.4900     9.6350    10.5600     9.6710    24.4700     2.1930    -2.5940 
  148.3750    69.0620     8.7420     9.5720     9.3030    24.4030     2.2200    -2.2630 
  148.5000    74.0050     8.0930     8.8330     9.4360    24.3480     2.2480    -1.8520 
  148.6250    77.0210     7.6490     8.3200     8.4200    24.3000     2.2690    -1.3530 
  148.7500    78.3230     7.3770     7.9830     7.8440    24.2910     2.2790    -0.9500 
  148.8750    79.7890     7.3130     7.8420     7.6800    24.3400     2.2790    -0.7560 
  149.0000    82.0540     7.4880     7.9210     7.8300    24.4510     2.2740    -0.6790 
  149.1250    83.0000     7.9030     8.2450     8.6010    24.5660     2.2760    -0.6650 
  149.2500    80.8550     8.3890     8.6870     9.3430    24.6180     2.2850    -0.7610 
  149.3750    77.3860     8.7720     9.0990    10.4460    24.6470     2.2980    -0.9640 
  149.5000    74.9790     8.9430     9.3550    11.9230    24.7010     2.3070    -1.1940 
  149.6250    73.7330     9.0100     9.4940    11.5980    24.7680     2.3080    -1.3180 
  149.7500    72.4960     9.3790     9.8190    11.1620    24.8450     2.3100    -1.4120 
  149.8750    70.1690    10.5380    10.7030    12.3520    24.9500     2.3290    -1.4620 
  150.0000    67.0400    12.9740    12.5800    15.2750    25.0480     2.3750    -1.4800 
  150.1250    63.9710    19.0900    16.1960    23.8300    25.1110     2.4460    -1.5800 
  150.2500    63.0950    25.3180    21.4880    35.2970    25.1200     2.5170    -1.7180 
  150.3750    64.2500    31.8860    27.7050    52.1100    25.0980     2.5660    -1.8470 
  150.5000    65.2590    36.6860    32.9070    66.1190    25.0590     2.5780    -2.0340 
  150.6250    65.8380    37.2610    34.4180    51.6130    24.9850     2.5490    -2.4460 
  150.7500    65.6530    34.8030    32.9170    35.0530    24.8940     2.4990    -2.8640 
  150.8750    64.0350    31.2990    30.1000    26.5800    24.8420     2.4450    -3.1850 
  151.0000    61.4810    28.3490    27.4430    23.2290    24.8280     2.3990    -3.5120 
  151.1250    60.9340    26.8120    25.8140    22.1560    24.8270     2.3740    -3.7970 
