~V
VERS. 2.00: Ver 2.00
~W
STRT.M 49.0000:
STOP.M 279.0000:
STEP.M 0.1250:
NULL. -999.2500:
UWI. F10243:
~C
DEPT.M :
GR.API :
RML.OHMM :
RI. :
RXO.OHMM :
CALI.CM :
DEN.GM/CC :
SP.MV :
~A
# ...
  262.7500    65.7460    17.9660    16.9420    19.2570    24.2310     2.5570    -2.8780 
  262.8750    61.6410    18.0730    17.0570    19.5630    24.2290     2.5560    -2.9300 
  263.0000    59.6250    18.1280    17.1180    20.0790    24.2290     2.5570    -2.9410 
  263.1250    60.6410    18.1160    17.1050    20.0700    24.2280     2.5580    -2.9300 
  263.2500    62.8120    18.0390    17.0230    19.7310    24.2270     2.5560    -2.9280 
  263.3750    64.0760    17.9100    16.8930    19.5790    24.2310     2.5500    -2.9670 
  263.5000    64.2990    17.7450    16.7310    19.4000    24.2540     2.5380    -3.0690 
  263.6250    64.6610    17.5540    16.5490    19.4890    24.2950     2.5270    -3.2000 
  263.7500    66.0410    17.3300    16.3380    19.6850    24.3250     2.5190    -3.2970 
  263.8750    68.5080    17.0560    16.0800    19.7390    24.3340     2.5180    -3.3380 
  264.0000    69.8140    16.7060    15.7430    19.4820    24.3410     2.5200    -3.2990 
  264.1250    69.0920    16.2860    15.3330    18.5670    24.3210     2.5220    -3.1810 
  264.2500    67.6310    15.8120    14.8640    17.9700    24.2750     2.5200    -3.0300 
  264.3750    65.8430    15.3140    14.3680    17.4340    24.2430     2.5150    -2.8670 
  264.5000    63.1300    14.8480    13.9020    17.1300    24.2440     2.5100    -2.7060 
  264.6250    60.4860    14.4620    13.5180    16.8210    24.2540     2.5080    -2.5270 
  264.7500    59.6460    14.1880    13.2500    16.1630    24.2490     2.5070    -2.3620 
  264.8750    61.1790    14.0370    13.1080    15.2230    24.2430     2.5060    -2.2690 
  265.0000    63.0570    14.0100    13.0940    15.1040    24.2420     2.5010    -2.2850 
  265.1250    65.8320    14.0480    13.1460    15.8780    24.2340     2.4930    -2.3860 
  265.2500    68.6390    14.1110    13.2180    16.6870    24.2290     2.4850    -2.5430 
  265.3750    68.8490    14.1630    13.2730    17.0360    24.2250     2.4810    -2.7220 
  265.5000    65.6430    14.1780    13.2870    16.5780    24.2220     2.4840    -2.8710 
  265.6250    62.5610    14.1570    13.2650    16.4600    24.2070     2.4940    -2.9770 
  265.7500    62.1120    14.0990    13.2100    16.1150    24.1630     2.5080    -3.0400 
  265.8750    63.4010    14.0000    13.1180    15.0990    24.0960     2.5210    -3.0490 
  266.0000    64.4750    13.8360    12.9650    12.8810    24.0510     2.5300    -3.0210 
  266.1250    64.4460    13.6000    12.7410    11.6650    24.0820     2.5350    -2.9670 
  266.2500    63.8090    13.2900    12.4370    10.9350    24.1950     2.5390    -2.9090 
  266.3750    65.5750    12.9180    12.0670    10.6170    24.3170     2.5390    -2.8670 
  266.5000    69.0360    12.5160    11.6640    10.6460    24.3910     2.5370    -2.8400 
  266.6250    69.8850    12.1360    11.2830    10.5050    24.4150     2.5310    -2.8480 
  266.7500    67.7700    11.8220    10.9690    10.2820    24.4120     2.5260    -2.8890 
  266.8750    66.1280    11.6080    10.7560    10.2680    24.3810     2.5240    -2.8980 
  267.0000    66.2320    11.5300    10.6840    10.1790    24.3180     2.5260    -2.8100 
  267.1250    66.4690    11.5600    10.7220    10.6220    24.2790     2.5240    -2.6590 
  267.2500    66.5450    11.6660    10.8400    11.3050    24.2710     2.5140    -2.4140 
  267.3750    66.5390    11.8010    10.9880    11.5570    24.2680     2.4940    -2.0750 
  267.5000    65.4790    11.9030    11.0980    11.7880    24.2890     2.4750    -1.7150 
  267.6250    64.1500    11.9410    11.1340    12.1170    24.2940     2.4650    -1.3610 
  267.7500    64.5030    11.9110    11.0970    12.4060    24.2670     2.4670    -1.0360 
  267.8750    67.3240    11.8360    11.0120    12.7340    24.2510     2.4770    -0.8050 
  268.0000    69.8170    11.7460    10.9190    12.6530    24.2460     2.4840    -0.6990 
  268.1250    69.1170    11.6650    10.8420    12.2370    24.2360     2.4870    -0.6700 
  268.2500    66.1500    11.5890    10.7760    12.0360    24.2350     2.4880    -0.7150 
  268.3750    63.9170    11.5000    10.7000    12.0740    24.2490     2.4900    -0.8550 
  268.5000    63.9170    11.3630    10.5730    12.3010    24.2490     2.4900    -1.0750 
  268.6250    63.9170    11.1690    10.3830    12.2890    24.2400     2.4850    -1.2950 
  268.7500    63.9170    10.9260    10.1380    11.9500    24.2010     2.4740    -1.4960 
  268.8750    63.9170    10.6660     9.8700    11.2120    24.1990     2.4570    -1.6160 
  269.0000    63.9170    10.4440     9.6420    10.4990    24.2250     2.4430    -1.6350 
  269.1250    63.9170    10.3010     9.4970     9.8740    24.2890     2.4340    -1.6350 
  269.2500    63.9170    10.2570     9.4560     9.3700    24.3260     2.4320    -1.6440 
  269.3750    63.9170    10.3100     9.5160     8.9750    24.3270     2.4360    -1.6600 
  269.5000    63.9170    10.4420     9.6570     8.7130    24.3320     2.4450    -1.7010 
  269.6250    63.9170    10.5950     9.8180     8.5700    24.3230     2.4550    -1.7820 
  269.7500    63.9170    10.7280     9.9570     8.5160    24.3130     2.4650    -1.8730 
  269.8750    63.9170    10.8090    10.0390     8.5860    24.3000     2.4740    -2.0180 
  270.0000    63.9170    10.8110    10.0400     8.9200    24.2750     2.4810    -2.1810 
  270.1250    63.9170    10.7470     9.9740     9.5100    24.2780     2.4870    -2.2980 
  270.2500    63.9170    10.6280     9.8530     9.9310    24.2900     2.4930    -2.3950 
  270.3750    63.9170    10.4730     9.6970    10.3190    24.3140     2.4960    -2.4520 
  270.5000    63.9170    10.3040     9.5260     9.9580    24.3850     2.4920    -2.3780 
  270.6250    63.9170    10.1520     9.3720     9.0260    24.4950     2.4810    -2.2100 
  270.7500    63.9170    10.0430     9.2580     8.1360    24.5930     2.4670    -2.0130 
  270.8750    63.9170     9.9960     9.2100     8.0240    24.6060     2.4560    -1.8480 
  271.0000    63.9170    10.0270     9.2470     8.7630    24.4770     2.4540    -1.7900 
  271.1250    63.9170    10.1050     9.3340     9.7970    24.3000     2.4580    -1.7820 
  271.2500    63.9170    10.1930     9.4320    10.0960    24.1890     2.4660    -1.7650 
  271.3750    63.9170    10.2580     9.5010     9.3020    24.1550     2.4750    -1.7480 
  271.5000    63.9170    10.2820     9.5160     8.6730    24.1550     2.4830    -1.7890 
  271.6250    63.9170    10.2870     9.5090     8.5180    24.1550     2.4900    -1.9330 
  271.7500    63.9170    10.3060     9.5180     8.6070    24.1550     2.4970    -2.1440 
  271.8750    63.9170    10.3620     9.5720     8.5270    24.1550     2.5030    -2.3320 
  272.0000    63.9170    10.4600     9.6770     8.5620    24.1570     2.5000    -2.4250 
  272.1250    63.9170    10.5630     9.7900     8.8270    24.1690     2.4890    -2.4860 
  272.2500    63.9170    10.6340     9.8690     9.0500    24.1960     2.4730    -2.5520 
  272.3750    63.9170    10.6430     9.8810     9.1510    24.2170     2.4620    -2.6030 
  272.5000    63.9170    10.5680     9.8030     9.3340    24.2210     2.4670    -2.6750 
  272.6250    63.9170    10.4270     9.6620     9.6990    24.2070     2.4850    -2.7570 
  272.7500    63.9170    10.2410     9.4760     9.9980    24.1810     2.5080    -2.8380 
  272.8750    63.9170    10.0340     9.2650    10.1640    24.1610     2.5260    -2.8920 
  273.0000    63.9170     9.8580     9.0760    10.5560    24.1550     2.5300    -2.9420 
  273.1250    63.9170     9.7800     8.9760    11.2830    24.1540     2.5250    -2.9890 
  273.2500    63.9170     9.8610     9.0410    12.3570    24.1520     2.5170    -2.9940 
  273.3750    63.9170    10.1330     9.3120    14.3040    24.1450     2.5120    -3.0050 
  273.5000    63.9170    10.5840     9.7820    17.9590    24.1250     2.5140    -2.9740 
  273.6250    63.9170    11.0820    10.3050    20.8010    24.1000     2.5200    -2.8570 
  273.7500    63.9170    11.5190    10.7540    21.1230    24.0890     2.5270    -2.6940 
  273.8750    63.9170    11.8200    11.0430    20.4110    24.0870     2.5320    -2.5650 
