~V
VERS. 2.00: Ver 2.00
~W
STRT.M 53.0000:
STOP.M 296.0000:
STEP.M 0.1250:
NULL. -999.2500:
UWI. F10258:
~C
DEPT.M :
GR.API :
RML.OHMM :
RI. :
RXO.OHMM :
CALI.CM :
DEN.GM/CC :
SP.MV :
~A
# ...
  143.0000    67.3080    11.8430    10.9530    10.3460    26.8330     2.1250   -20.5580 
  143.1250    69.7830    11.8060    10.8800    10.4930    26.8480     2.1270   -20.5870 
  143.2500    72.3810    11.8050    10.8540    10.8670    26.8690     2.1320   -20.5710 
  143.3750    71.8800    11.8030    10.8420    11.1350    26.8900     2.1380   -20.5410 
  143.5000    68.4390    11.7730    10.8120    11.0530    26.9020     2.1420   -20.5030 
  143.6250    66.4810    11.7050    10.7390    10.6750    26.9370     2.1440   -20.4290 
  143.7500    67.8170    11.6230    10.6430    10.3110    27.0250     2.1470   -20.3260 
  143.8750    69.0540    11.5530    10.5480    10.1040    27.1150     2.1530   -20.2240 
  144.0000    67.2530    11.5140    10.4780    10.1560    27.0800     2.1600   -20.1350 
  144.1250    64.9230    11.5180    10.4520    10.6380    26.8670     2.1660   -20.0550 
  144.2500    65.1250    11.5440    10.4530    11.4860    26.6240     2.1670   -19.9630 
  144.3750    67.4320    11.5750    10.4650    12.1280    26.4580     2.1660   -19.8300 
  144.5000    70.6230    11.5920    10.4690    12.3800    26.4020     2.1690   -19.6590 
  144.6250    73.7340    11.5790    10.4470    11.8230    26.3870     2.1770   -19.4800 
  144.7500    75.7770    11.5380    10.3960    11.3460    26.2350     2.1890   -19.3010 
  144.8750    75.5520    11.4720    10.3170    11.4680    25.8280     2.1980   -19.1120 
  145.0000    74.9560    11.3920    10.2170    11.8430    25.4050     2.2030   -18.9040 
  145.1250    75.0020    11.3130    10.1090    11.9200    25.1330     2.2060   -18.6760 
  145.2500    73.5830    11.2510    10.0100    11.5850    24.8820     2.2090   -18.4460 
  145.3750    70.4940    11.2120     9.9300    11.2330    24.5920     2.2150   -18.2440 
  145.5000    67.8700    11.1990     9.8780    11.0570    24.3830     2.2220   -18.0860 
  145.6250    67.2750    11.2090     9.8680    11.3370    24.3330     2.2270   -17.9530 
  145.7500    66.6770    11.2390     9.8950    11.6590    24.3530     2.2300   -17.8150 
  145.8750    66.3840    11.2920     9.9590    11.5400    24.3870     2.2290   -17.6840 
  146.0000    68.0490    11.3820    10.0650    11.3680    24.4340     2.2240   -17.5820 
  146.1250    71.1230    11.5430    10.2320    11.4650    24.4750     2.2150   -17.5180 
  146.2500    72.6440    11.7770    10.4660    11.4150    24.4710     2.2040   -17.4700 
  146.3750    71.0280    12.0630    10.7680    11.6070    24.4170     2.1930   -17.4150 
  146.5000    68.2890    12.3270    11.1020    12.0150    24.3490     2.1820   -17.3430 
  146.6250    67.3060    12.3990    11.3220    12.4210    24.3950     2.1690   -17.2790 
  146.7500    67.5710    12.1610    11.2650    12.4150    24.6620     2.1540   -17.2300 
  146.8750    68.3810    11.5570    10.8310    11.9000    25.1520     2.1460   -17.1580 
  147.0000    71.4790    10.6330    10.0350    10.9290    25.5910     2.1500   -17.0250 
  147.1250    77.8880     9.5320     8.9930     9.5120    25.8060     2.1720   -16.8290 
  147.2500    83.6240     8.4980     7.9600     8.1920    25.9080     2.2040   -16.6170 
  147.3750    87.3800     7.7060     7.1100     7.6280    25.9130     2.2420   -16.4260 
  147.5000    90.3360     7.2740     6.5580     7.4520    25.8240     2.2780   -16.2610 
  147.6250    91.0820     7.3210     6.4260     7.1010    25.7760     2.3010   -16.1150 
  147.7500    88.2410     7.7440     6.6680     7.0340    25.7440     2.3050   -16.0070 
  147.8750    84.7020     8.4460     7.2430     8.1030    25.6490     2.2890   -15.9800 
  148.0000    82.2970     9.2860     8.0570    10.0250    25.5220     2.2610   -16.0610 
  148.1250    81.5820    10.1010     8.9610    10.9950    25.4130     2.2330   -16.2420 
  148.2500    83.0870    10.7780     9.7920    11.2010    25.3840     2.2130   -16.4580 
  148.3750    84.4030    11.2520    10.4670    10.9470    25.3810     2.2010   -16.6610 
  148.5000    81.4160    11.4580    10.9200    10.7310    25.3250     2.1940   -16.8200 
  148.6250    75.7270    11.2300    10.9710    10.6600    25.1620     2.1910   -16.9230 
  148.7500    74.7590    10.5480    10.5260    10.8920    24.9860     2.1970   -16.9650 
  148.8750    78.0340     9.4820     9.5700    10.9280    24.8830     2.2150   -16.9090 
  149.0000    82.6190     8.2530     8.2920     9.9450    24.8170     2.2500   -16.7360 
  149.1250    90.0620     7.1940     7.0670     7.8020    24.7480     2.2950   -16.4630 
  149.2500    97.7910     6.5080     6.1810     6.0050    24.6530     2.3360   -16.1660 
  149.3750    99.6950     6.2770     5.7410     5.4440    24.4930     2.3590   -15.8970 
  149.5000    94.7000     6.4640     5.7390     5.7090    24.3640     2.3600   -15.6800 
  149.6250    90.0170     6.9100     6.1090     6.7320    24.3630     2.3430   -15.5170 
  149.7500    87.8850     7.3030     6.5820     8.0780    24.4750     2.3250   -15.3990 
  149.8750    85.6320     7.4560     6.9110     9.1910    24.6450     2.3200   -15.3490 
  150.0000    85.4920     7.3110     6.9310     8.7440    24.7960     2.3320   -15.3780 
  150.1250    90.3560     6.9460     6.6510     6.8990    24.8520     2.3580   -15.4720 
  150.2500    94.0480     6.5690     6.3050     6.0190    24.8010     2.3800   -15.5700 
  150.3750    93.9670     6.2870     6.0160     5.9560    24.6480     2.3920   -15.6380 
  150.5000    93.1690     6.1260     5.8290     6.1570    24.4440     2.3940   -15.6670 
  150.6250    93.8620     6.0460     5.7290     6.2310    24.3700     2.3910   -15.6760 
  150.7500    93.1220     5.9650     5.6300     6.3290    24.3240     2.3890   -15.6870 
  150.8750    92.4980     5.8460     5.4780     6.0800    24.2900     2.3880   -15.7050 
  151.0000    95.9350     5.6990     5.2760     5.6290    24.3650     2.3870   -15.7260 
  151.1250   102.1930     5.5890     5.0850     5.6070    24.5520     2.3850   -15.7500 
  151.2500   104.7780     5.5850     4.9740     5.4550    24.6200     2.3820   -15.7840 
  151.3750   104.0910     5.7420     4.9970     5.5020    24.5100     2.3780   -15.8440 
  151.5000   103.3470     6.0950     5.1950     5.9600    24.4600     2.3660   -15.9560 
  151.6250   101.2680     6.6940     5.6210     6.7540    24.5660     2.3370   -16.1460 
  151.7500    95.2270     7.4990     6.2460     7.1710    24.7280     2.2930   -16.3930 
  151.8750    88.0870     8.4920     7.0710     7.7660    24.8970     2.2460   -16.6830 
  152.0000    83.8930     9.6250     8.0770     8.7610    25.0820     2.2190   -17.0000 
  152.1250    82.2740    10.7920     9.2090     9.8120    25.2350     2.2380   -17.3400 
  152.2500    82.2070    11.8130    10.2980    11.1970    25.3090     2.2980   -17.7070 
  152.3750    84.0700    12.5160    11.1510    12.4560    25.3330     2.3710   -18.1060 
  152.5000    86.2430    12.7760    11.5840    12.6480    25.4010     2.4200   -18.5270 
  152.6250    84.8840    12.5240    11.4560    12.1030    25.7040     2.4080   -18.9380 
  152.7500    80.1390    11.9950    10.9880    11.6370    26.2900     2.3500   -19.3220 
  152.8750    74.5500    11.3990    10.3910    11.2480    27.1600     2.2750   -19.6820 
  153.0000    69.6050    10.9200     9.8550    11.0650    28.1880     2.2160   -20.0380 
  153.1250    67.8070    10.7080     9.5360    11.0890    28.8960     2.1950   -20.3990 
  153.2500    68.3130    10.7320     9.4410    11.1900    29.0910     2.1990   -20.7420 
  153.3750    69.1800    10.9370     9.5430    11.5860    29.0830     2.2140   -21.0240 
  153.5000    67.4620    11.2400     9.7820    11.8460    29.0100     2.2260   -21.2060 
  153.6250    64.2920    11.5490    10.0770    12.9180    28.8860     2.2290   -21.2710 
  153.7500    64.9880    11.7880    10.3410    15.5900    28.8570     2.2250   -21.2670 
  153.8750    68.5480    11.9230    10.5330    18.1840    28.9650     2.2150   -21.2230 
  154.0000    70.4680    11.9580    10.6430    14.9870    29.1860     2.2040   -21.1610 
  154.1250    69.6580    11.9140    10.6840    13.0790    29.3750     2.1940   -21.1020 
