~V
VERS. 2.00: Ver 2.00
~W
STRT.M 52.0000:
STOP.M 271.0000:
STEP.M 0.1250:
NULL. -999.2500:
UWI. F10212:
~C
DEPT.M :
GR.API :
RML.OHMM :
RI. :
RXO.OHMM :
CALI.CM :
SP.MV :
DEN.GM/CC :
~A
# ...
  198.2500    63.7840   126.6960   125.0830    84.8370    22.8950   -36.5050     2.2950 
  198.3750    67.1390   123.4130   121.7320    77.7200    22.8060   -36.4000     2.3050 
  198.5000    70.3440   119.8260   117.9340    70.7290    22.6680   -36.1820     2.3080 
  198.6250    70.8930   116.0130   113.7230    65.1140    22.5950   -35.8530     2.3060 
  198.7500    69.5420   112.4810   109.5750    59.5710    22.5480   -35.4460     2.3030 
  198.8750    68.4980   110.0380   106.2190    54.8300    22.5490   -34.9790     2.2940 
  199.0000    69.3400   109.7340   104.6450    54.1220    22.7070   -34.4360     2.2750 
  199.1250    69.7540   113.4660   106.6670    62.0360    23.1620   -33.8000     2.2530 
  199.2500    68.7280   121.9490   113.1000    74.8570    23.6840   -33.1180     2.2350 
  199.3750    66.9910   136.1280   124.9290    90.9120    24.0730   -32.4360     2.2240 
  199.5000    64.7600   156.4720   142.5720   112.0100    24.2340   -31.7750     2.2180 
  199.6250    61.9310   179.1990   165.7310   141.4710    24.2540   -31.1510     2.2140 
  199.7500    59.5240   195.4800   190.3850   170.4800    24.2570   -30.5910     2.2110 
  199.8750    57.7700   218.5480   212.3030   190.7160    24.2560   -30.1130     2.2070 
  200.0000    56.0300   233.9820   227.6030   198.0200    24.2490   -29.7120     2.2030 
  200.1250    56.4680   237.9360   232.8070   200.9860    24.2350   -29.3850     2.2020 
  200.2500    59.1920   232.7330   229.6250   202.0210    24.2400   -29.0980     2.2000 
  200.3750    60.5170   219.7820   219.1080   195.3850    24.2820   -28.8120     2.1990 
  200.5000    59.5690   200.4320   202.2810   176.5540    24.3300   -28.5220     2.2010 
  200.6250    58.3910   176.2520   179.9550   150.9890    24.3810   -28.2270     2.2090 
  200.7500    58.3240   151.4990   155.7810   127.0320    24.4280   -27.8960     2.2210 
  200.8750    58.0320   129.5650   133.0580   104.1110    24.4310   -27.5010     2.2380 
  201.0000    57.0430   112.9230   114.6960    91.0380    24.3320   -27.0450     2.2590 
  201.1250    57.1990   104.0380   103.7470    83.2950    24.0570   -26.5330     2.2870 
  201.2500    57.4510   102.2410    99.9940    75.8450    23.7260   -25.9860     2.3230 
  201.3750    56.9080   107.5850   103.6160    74.4930    23.5420   -25.4240     2.3740 
  201.5000    55.4400   120.0260   114.5650    85.4900    23.6830   -24.8470     2.4450 
  201.6250    54.3540   140.1950   133.3560   113.5130    23.9060   -24.2420     2.5270 
  201.7500    54.3000   165.3780   157.0470   180.7510    24.0600   -23.6180     2.5940 
  201.8750    52.9600   192.7960   182.8710   236.0130    24.1010   -22.9930     2.6270 
  202.0000    49.5420   218.4470   207.3290   219.5320    24.1670   -22.4000     2.6300 
  202.1250    46.9330   232.5230   222.8340   214.8730    24.2840   -21.8470     2.6310 
  202.2500    47.1250   222.8980   219.6450   291.2330    24.3450   -21.3230     2.6420 
  202.3750    49.4260   182.1100   187.5820   343.4550    24.3470   -20.8300     2.6570 
  202.5000    51.8900   123.5890   131.6130   339.4570    24.3280   -20.3610     2.6650 
  202.6250    53.8780    74.6280    78.5250   245.7060    24.3160   -19.9370     2.6630 
  202.7500    55.4760    42.9600    43.7530   113.9650    24.3090   -19.5890     2.6560 
  202.8750    59.9260    24.8180    24.7010    38.1140    24.3160   -19.3560     2.6480 
  203.0000    69.4550    15.2110    15.1650    13.0560    24.3580   -19.2690     2.6360 
  203.1250    78.4890    11.0360    10.9940     8.8660    24.3730   -19.3660     2.6090 
  203.2500    81.4610     9.2690     8.9680     8.2930    24.3630   -19.5830     2.5630 
  203.3750    81.2250     8.7790     8.1360     8.6550    24.3550   -19.8910     2.5080 
  203.5000    81.4440     8.8410     7.9600     8.5910    24.3640   -20.2820     2.4650 
  203.6250    82.1430     8.9640     8.0590     8.1650    24.3020   -20.7340     2.4500 
  203.7500    83.5330     8.9270     8.1240     7.8060    24.1320   -21.1820     2.4470 
  203.8750    86.4970     8.7660     8.0930     7.4680    23.9340   -21.5850     2.4410 
  204.0000    87.5480     8.6100     8.0170     6.9020    23.8350   -21.8990     2.4280 
  204.1250    84.3590     8.5790     7.9730     6.6100    23.8140   -22.0930     2.4190 
  204.2500    84.2140     8.6470     7.9700     6.9010    23.7950   -22.2260     2.4200 
  204.3750    89.8050     8.7580     7.9770     7.8710    23.7360   -22.3270     2.4210 
  204.5000    95.2830     8.8690     7.9620     8.4400    23.5880   -22.4000     2.4130 
  204.6250    95.3830     8.9970     7.9330     8.1540    23.4100   -22.4580     2.3890 
  204.7500    93.7700     9.2180     7.9470     7.9320    23.2600   -22.4940     2.3570 
  204.8750    92.4440     9.6120     8.0730     7.9680    23.2490   -22.5080     2.3100 
  205.0000    88.7910    10.2170     8.3630     8.5250    23.3520   -22.4910     2.2570 
  205.1250    84.1010    11.0020     8.8340    10.2410    23.5190   -22.4300     2.2340 
  205.2500    84.1570    11.8310     9.3940    12.6490    23.7560   -22.2990     2.2630 
  205.3750    87.4860    12.6600     9.9980    14.5650    23.9710   -22.0440     2.3310 
  205.5000    86.5480    13.5230    10.6480    15.9560    24.0860   -21.6860     2.3990 
  205.6250    79.5390    14.5060    11.3890    14.8430    24.1190   -21.2250     2.4360 
  205.7500    74.8650    15.6100    12.2160    14.5480    24.0820   -20.7000     2.4600 
  205.8750    74.0810    16.7630    13.0880    16.2510    24.0230   -20.1020     2.4870 
  206.0000    73.2140    17.7860    13.8940    20.4140    23.9580   -19.4210     2.5190 
  206.1250    71.9960    18.2950    14.3760    21.5400    23.9740   -18.6370     2.5490 
  206.2500    74.5790    18.0540    14.3300    18.7450    24.0170   -17.7760     2.5640 
  206.3750    80.1230    16.9300    13.6060    16.9600    24.0640   -16.8520     2.5540 
  206.5000    82.1060    15.0260    12.2340    15.8740    24.1010   -15.8510     2.5190 
  206.6250    79.3130    12.6910    10.4650    14.9070    24.1380   -14.7690     2.4800 
  206.7500    75.4810    10.4790     8.7430    12.0250    24.1460   -13.6720     2.4510 
  206.8750    69.7290     8.7020     7.3130     8.4170    24.1270   -12.6390     2.4310 
  207.0000    63.3520     7.5040     6.2890     6.2410    24.0900   -11.7430     2.4150 
  207.1250    60.6200     6.9670     5.7500     5.6770    24.0390   -11.0570     2.3990 
  207.2500    62.9670     6.8640     5.5600     5.6390    23.9920   -10.5680     2.3860 
  207.3750    65.6840     7.0160     5.6190     5.6640    23.9910   -10.3090     2.3840 
  207.5000    67.3860     7.2440     5.8080     5.7230    23.9990   -10.2660     2.3910 
  207.6250    73.7880     7.4110     6.0050     5.7820    23.9780   -10.4420     2.4010 
  207.7500    82.6200     7.5010     6.1490     5.7700    23.9300   -10.7390     2.4060 
  207.8750    90.4030     7.5480     6.2370     5.7530    23.8900   -11.0960     2.4040 
  208.0000    94.2340     7.5750     6.2800     5.8380    23.9030   -11.4500     2.3980 
  208.1250    93.7310     7.5660     6.2660     6.1360    23.8800   -11.7570     2.3900 
  208.2500    91.7200     7.5220     6.2070     6.4950    23.8170   -12.0240     2.3830 
  208.3750    89.3190     7.4730     6.1220     6.5560    23.7660   -12.2450     2.3790 
  208.5000    88.3750     7.4750     6.0470     6.1180    23.7690   -12.4150     2.3830 
  208.6250    86.3650     7.5950     6.0240     5.9330    23.7870   -12.5150     2.3880 
  208.7500    82.4010     7.8220     6.0610     6.2050    23.8020   -12.5730     2.3900 
  208.8750    80.0530     8.1230     6.1490     6.7660    23.8330   -12.5720     2.3870 
  209.0000    81.9210     8.4620     6.2790     7.1030    23.9100   -12.5300     2.3810 
  209.1250    85.7220     8.8320     6.4590     7.2090    23.9900   -12.4730     2.3700 
  209.2500    86.5710     9.2430     6.6870     7.4240    23.9850   -12.3840     2.3550 
  209.3750    84.8640     9.7120     6.9710     7.9890    23.8890   -12.2680     2.3380 
