~V
VERS. 2.00: Ver 2.00
~W
STRT.M 49.0000:
STOP.M 279.0000:
STEP.M 0.1250:
NULL. -999.2500:
UWI. F10243:
~C
DEPT.M :
GR.API :
RML.OHMM :
RI. :
RXO.OHMM :
CALI.CM :
DEN.GM/CC :
SP.MV :
~A
# ...
   82.7500   114.8780     5.4800     5.2830     5.2840    25.1860     2.3640   -16.9310 
   82.8750   114.6160     5.7730     5.3750     5.2550    25.1340     2.3570   -17.0930 
   83.0000   110.2570     6.1510     5.6340     5.3130    24.9680     2.3420   -17.3070 
   83.1250   104.8580     6.4390     5.9220     5.7300    24.7560     2.3250   -17.5210 
   83.2500   101.2130     6.5610     6.1590     6.2760    24.6290     2.3110   -17.7020 
   83.3750    99.4250     6.5410     6.3120     6.1480    24.5840     2.3000   -17.8480 
   83.5000    97.9710     6.4900     6.3990     5.8820    24.5530     2.2900   -17.9910 
   83.6250    95.5380     6.5380     6.5060     5.9590    24.5270     2.2770   -18.1560 
   83.7500    91.4020     6.7540     6.6960     6.2640    24.4900     2.2610   -18.3870 
   83.8750    87.3080     7.1630     7.0010     6.6600    24.4480     2.2430   -18.6710 
   84.0000    84.3910     7.7630     7.4260     7.0490    24.4360     2.2250   -18.9490 
   84.1250    80.5290     8.4280     7.8750     7.8460    24.4240     2.2120   -19.2620 
   84.2500    74.9690     9.0220     8.2490     8.4120    24.4270     2.2060   -19.6310 
   84.3750    69.3110     9.4120     8.4760     8.6380    24.4380     2.2080   -20.0350 
   84.5000    68.4600     9.5080     8.5050     8.7920    24.4100     2.2140   -20.5020 
   84.6250    71.8040     9.4470     8.4130     8.5600    24.3790     2.2170   -20.9530 
   84.7500    75.1920     9.4030     8.2990     8.2860    24.4180     2.2140   -21.3010 
   84.8750    74.5210     9.5400     8.2750     8.4420    24.5440     2.2080   -21.5570 
   85.0000    69.1660     9.9700     8.4410     8.5490    24.7600     2.2070   -21.7610 
   85.1250    63.5310    10.5620     8.7470     9.2070    25.0310     2.2140   -21.8620 
   85.2500    60.8350    11.1200     9.0970    11.7240    25.2550     2.2240   -21.8820 
   85.3750    62.1400    11.4310     9.3540    16.5040    25.3490     2.2300   -21.9030 
   85.5000    64.9530    11.3210     9.3610    14.6560    25.3240     2.2250   -21.9090 
   85.6250    65.6090    10.9420     9.1580    10.7890    25.1900     2.2110   -21.9590 
   85.7500    64.5350    10.4920     8.8520     9.0550    25.0980     2.1940   -22.0090 
   85.8750    64.7410    10.1540     8.5670     8.6780    25.1210     2.1800   -22.0160 
   86.0000    67.2900    10.0730     8.4290     8.5110    25.1190     2.1710   -22.0570 
   86.1250    68.7860    10.2060     8.4570     8.4410    24.9880     2.1650   -22.1320 
   86.2500    68.0950    10.4670     8.6190     8.6130    24.7500     2.1610   -22.1560 
   86.3750    66.2950    10.7350     8.8420     9.2320    24.4930     2.1530   -22.0720 
   86.5000    64.4820    10.8660     9.0260    10.6390    24.2460     2.1430   -21.9170 
   86.6250    62.2510    10.8320     9.1080    11.3070    24.0890     2.1330   -21.7170 
   86.7500    59.6980    10.6700     9.0780    10.0240    24.0290     2.1280   -21.4840 
   86.8750    59.5390    10.4670     8.9760     9.3500    24.0190     2.1310   -21.2800 
   87.0000    62.3250    10.3250     8.8650     9.0830    24.0220     2.1400   -21.0980 
   87.1250    63.7640    10.2740     8.7970     8.9500    24.0470     2.1500   -20.9190 
   87.2500    61.5850    10.2900     8.7810     8.9700    24.1200     2.1580   -20.7770 
   87.3750    57.4490    10.3120     8.7960     9.1680    24.2180     2.1620   -20.6960 
   87.5000    56.0400    10.2570     8.7960     9.2070    24.2930     2.1640   -20.6610 
   87.6250    58.3190    10.0930     8.7550     9.0310    24.3070     2.1660   -20.6200 
   87.7500    61.6930     9.8310     8.6760     8.9180    24.2930     2.1700   -20.6260 
   87.8750    63.9610     9.5340     8.5800     8.9870    24.2820     2.1750   -20.6640 
   88.0000    64.3040     9.3350     8.5010     8.8950    24.2980     2.1780   -20.6640 
   88.1250    63.5960     9.3140     8.4620     9.0030    24.3430     2.1800   -20.6670 
   88.2500    61.7600     9.4660     8.4640     9.0980    24.3890     2.1800   -20.6610 
   88.3750    60.4120     9.6950     8.4890     9.1450    24.4100     2.1790   -20.5890 
   88.5000    61.3040     9.8510     8.5150     9.2570    24.4200     2.1780   -20.4330 
   88.6250    63.4400     9.8760     8.5290     9.2560    24.4300     2.1750   -20.3060 
   88.7500    65.3370     9.8110     8.5260     9.0950    24.4010     2.1710   -20.2300 
   88.8750    65.4300     9.7360     8.5120     8.8570    24.2820     2.1650   -20.1550 
   89.0000    64.1120     9.7160     8.4890     8.8950    24.1490     2.1600   -20.0120 
   89.1250    64.1430     9.7370     8.4590     9.0270    24.0850     2.1570   -19.8410 
   89.2500    65.1840     9.7740     8.4220     8.9940    24.1240     2.1570   -19.7160 
   89.3750    64.5470     9.8110     8.3760     8.6540    24.1770     2.1600   -19.6270 
   89.5000    62.3950     9.8420     8.3270     8.2790    24.1530     2.1670   -19.4980 
   89.6250    61.5730     9.8660     8.2840     8.1680    24.0700     2.1750   -19.3470 
   89.7500    60.9340     9.8780     8.2560     8.3300    23.9860     2.1810   -19.1400 
   89.8750    58.7780     9.8810     8.2500     8.4660    23.9370     2.1840   -18.8660 
   90.0000    56.9770     9.8930     8.2650     8.4440    23.9060     2.1810   -18.5890 
   90.1250    57.7730     9.9340     8.2880     8.3990    23.8940     2.1740   -18.3510 
   90.2500    60.3450    10.0150     8.3110     8.3750    23.8850     2.1630   -18.1310 
   90.3750    62.5110    10.1330     8.3310     8.5210    23.8680     2.1510   -17.9040 
   90.5000    63.6140    10.2510     8.3540     8.4520    23.8360     2.1410   -17.7280 
   90.6250    64.7640    10.3180     8.3830     8.4560    23.8120     2.1360   -17.5740 
   90.7500    66.3430    10.3040     8.4140     8.4060    23.7970     2.1370   -17.4390 
   90.8750    66.0890    10.2200     8.4380     8.3850    23.8170     2.1440   -17.3320 
   91.0000    64.9980    10.1130     8.4420     8.3560    23.8680     2.1550   -17.3090 
   91.1250    66.2030    10.0410     8.4210     8.2840    23.9050     2.1650   -17.3040 
   91.2500    68.2860    10.0210     8.3760     8.1840    23.9170     2.1740   -17.2760 
   91.3750    68.0220    10.0340     8.3180     8.0470    23.9160     2.1790   -17.2380 
   91.5000    65.4300    10.0360     8.2610     8.0160    23.8790     2.1800   -17.1310 
   91.6250    64.2110     9.9920     8.2240     8.0930    23.8460     2.1760   -16.9550 
   91.7500    65.3240     9.8870     8.2120     8.1750    23.8250     2.1660   -16.7700 
   91.8750    67.7670     9.7080     8.2060     8.1270    23.8150     2.1510   -16.6600 
   92.0000    70.6250     9.4430     8.1530     7.9230    23.8130     2.1330   -16.5750 
   92.1250    70.7330     9.1390     8.0200     7.7180    23.8190     2.1210   -16.4390 
   92.2500    68.5180     8.8520     7.8140     7.6450    23.8200     2.1190   -16.2380 
   92.3750    68.9870     8.6430     7.5890     7.6010    23.7940     2.1300   -16.0620 
   92.5000    73.6640     8.5870     7.4440     7.2720    23.7140     2.1470   -15.9880 
   92.6250    77.7270     8.6980     7.4350     6.7630    23.5910     2.1610   -15.9270 
   92.7500    78.6150     8.9950     7.5810     6.6760    23.4610     2.1690   -15.8420 
   92.8750    77.0120     9.4720     7.8640     7.4620    23.3530     2.1760   -15.7230 
   93.0000    75.0750    10.0480     8.2300     8.1920    23.3010     2.1890   -15.5480 
   93.1250    73.6530    10.5360     8.5750     8.5590    23.2670     2.2060   -15.3420 
   93.2500    73.1250    10.8010     8.8210     8.6810    23.2450     2.2200   -15.1840 
   93.3750    72.2550    10.8100     8.9280     8.6930    23.2360     2.2230   -15.0560 
   93.5000    69.7430    10.6430     8.8960     8.6660    23.2360     2.2150   -14.8850 
   93.6250    68.0020    10.4600     8.8090     8.5840    23.2360     2.2050   -14.6950 
   93.7500    68.1100    10.3270     8.7190     8.4780    23.2360     2.1980   -14.5330 
   93.8750    68.4970    10.2540     8.6620     8.3670    23.2360     2.1960   -14.3770 
