~V
VERS. 2.00: Ver 2.00
~W
STRT.M 50.0000:
STOP.M 281.0000:
STEP.M 0.1250:
NULL. -999.2500:
UWI. F10222:
~C
DEPT.M :
GR.API :
RML.OHMM :
RI. :
RXO.OHMM :
CALI.CM :
DEN.GM/CC :
SP.MV :
~A
# ...
  275.0000    66.7690    10.7690     9.6920     7.6200    23.9140     2.4700   -16.1030 
  275.1250    66.7690    10.8290     9.7460     7.4510    23.7780     2.4620   -16.1050 
  275.2500    66.7690    10.8520     9.7670     7.5420    23.6930     2.4550   -16.0950 
  275.3750    66.7690    10.8470     9.7620     7.8780    23.6890     2.4480   -16.0940 
  275.5000    66.7690    10.8320     9.7490     8.3140    23.7580     2.4410   -16.0570 
  275.6250    66.7690    10.8220     9.7400     8.5020    23.8550     2.4400   -16.0050 
  275.7500    66.7690    10.8130     9.7320     8.8780    23.9350     2.4460   -15.9780 
  275.8750    66.7690    10.8030     9.7230     9.2480    23.9820     2.4590   -15.9700 
  276.0000    66.7690    10.7980     9.7180     9.2710    24.0050     2.4740   -15.9430 
  276.1250    66.7690    10.8000     9.7200     9.1340    24.0130     2.4870   -15.9190 
  276.2500    66.7690    10.8040     9.7240     9.0970    24.0160     2.4960   -15.8920 
  276.3750    66.7690    10.8040     9.7240     9.3530    24.0150     2.5030   -15.8740 
  276.5000    66.7690    10.8040     9.7240     9.7270    24.0160     2.5090   -15.8840 
  276.6250    66.7690    10.8040     9.7240     9.8770    24.0170     2.5130   -15.9030 
  276.7500    66.7690    10.8040     9.7240     9.9960    24.0240     2.5130   -15.9040 
  276.8750    66.7690    10.8040     9.7240    10.1720    24.0270     2.5100   -15.8910 
  277.0000    66.7690    10.8040     9.7240    10.4480    24.0150     2.5040   -15.8680 
  277.1250    66.7690    10.8040     9.7240    10.8160    23.9590     2.5000   -15.7990 
  277.2500    66.7690    10.8040     9.7240    10.9920    23.8710     2.5030   -15.6950 
  277.3750    66.7690    10.8040     9.7240    10.9610    23.7680     2.5110   -15.5920 
  277.5000    66.7690    10.8040     9.7240    10.8930    23.6610     2.5180   -15.4980 
  277.6250    66.7690    10.8040     9.7240    10.6060    23.5600     2.5210   -15.3650 
  277.7500    66.7690    10.8040     9.7240     9.7360    23.4470     2.5240   -15.2090 
  277.8750    66.7690    10.8040     9.7240     8.8840    23.3360     2.5280   -15.0410 
  278.0000    66.7690    10.8040     9.7240     8.5570    23.2500     2.5290   -14.8960 
  278.1250    66.7690    10.8040     9.7240     8.7120    23.1770     2.5270   -14.6730 
  278.2500    66.7690    10.8040     9.7240     8.9440    23.0720     2.5240   -14.3940 
  278.3750    66.7690    10.8040     9.7240     9.0770    22.9380     2.5250   -14.1380 
  278.5000    66.7690    10.8040     9.7240     9.1040    22.7860     2.5270   -13.8730 
  278.6250    66.7690    10.8040     9.7240     9.2530    22.6180     2.5300   -13.6830 
  278.7500    66.7690    10.8040     9.7240     9.3770    22.4170     2.5340   -13.5390 
  278.8750    66.7690    10.8040     9.7240     9.2900    22.2200     2.5340   -13.4080 
  279.0000    66.7690    10.8040     9.7240     9.0200    21.9870     2.5260   -13.2710 
  279.1250    66.7690    10.8040     9.7240     8.6530    21.6110     2.5030   -13.3010 
  279.2500    66.7690    10.8040     9.7240     8.3280    21.0700     2.4600   -13.3300 
  279.3750    66.7690    10.8040     9.7240     8.0560    20.2160     2.3930  -999.2500 
  279.5000    66.7690    10.8040     9.7240     7.7510    18.5730     2.2920  -999.2500 
  279.6250    66.7690    10.8040     9.7240     7.4830    16.3700     2.1380  -999.2500 
  279.7500    66.7690    10.8040     9.7240     7.3380    14.8990     1.9770  -999.2500 
  279.8750    66.7690    10.8040     9.7240     7.2950    14.3820     1.8640  -999.2500 
  280.0000    66.7690    10.8040     9.7240     7.2890    14.3080     1.8110  -999.2500 
  280.1250    66.7690    10.8040     9.7240     7.2880    14.3000     1.8020  -999.2500 
  280.2500    66.7690    10.8040     9.7240     7.2840    14.3000     1.8050  -999.2500 
  280.3750    66.7690    10.8040     9.7240     7.2820    14.3000     1.8070  -999.2500 
  280.5000    66.7690    10.8040     9.7240     7.2810    14.3000     1.8080  -999.2500 
  280.6250    66.7690    10.8040     9.7240     7.2810    14.2990     1.8090  -999.2500 
  280.7500    66.7690    10.8040     9.7240     7.2790    14.2980     1.8090  -999.2500 
  280.8750    66.7690    10.8040     9.7240     7.2790    14.2970     1.8090  -999.2500 
  281.0000    66.7690    10.8040     9.7240     7.2820    14.2980     1.8070  -999.2500 
