~V
VERS. 2.00: Ver 2.00
~W
STRT.M 60.0000:
STOP.M 271.0000:
STEP.M 0.1250:
NULL. -999.2500:
UWI. F10237:
~C
DEPT.M :
GR.API :
RML.OHMM :
RI. :
RXO.OHMM :
CALI.CM :
DEN.GM/CC :
SP.MV :
~A
# ...
  150.0000    95.2810     4.1130     3.3700     3.5530    24.6630     2.3630    -8.9600 
  150.1250    94.9150     4.0680     3.3270     3.4750    24.6440     2.3680    -9.0890 
  150.2500    94.2000     4.0070     3.2990     3.3850    24.6070     2.3730    -9.2100 
  150.3750    94.2760     3.9680     3.2910     3.3520    24.5700     2.3760    -9.3370 
  150.5000    95.0780     3.9740     3.3010     3.3820    24.5740     2.3750    -9.4780 
  150.6250    94.0370     4.0170     3.3220     3.4570    24.5830     2.3680    -9.6120 
  150.7500    92.5150     4.0400     3.3350     3.5340    24.5840     2.3610    -9.7100 
  150.8750    93.8500     4.0010     3.3210     3.5750    24.5580     2.3600    -9.8280 
  151.0000    94.8680     3.9110     3.2830     3.5770    24.5060     2.3640    -9.9510 
  151.1250    92.0470     3.8830     3.2760     3.5740    24.4570     2.3710   -10.0350 
  151.2500    90.0970     4.0430     3.3770     3.6030    24.4390     2.3790   -10.1230 
  151.3750    91.4270     4.4510     3.6310     3.7980    24.4400     2.3890   -10.2390 
  151.5000    92.6410     5.0760     4.0380     4.6370    24.4690     2.4010   -10.3510 
  151.6250    91.9570     5.7470     4.5270     6.4330    24.5490     2.4010   -10.4640 
  151.7500    90.5880     6.1820     4.9220     7.5860    24.6480     2.3800   -10.5920 
  151.8750    89.4250     6.2010     5.0890     6.5570    24.7100     2.3470   -10.6980 
  152.0000    88.6730     5.8390     5.0010     5.1880    24.7690     2.3220   -10.8140 
  152.1250    86.6700     5.3480     4.7500     4.4170    24.8630     2.3180   -10.9690 
  152.2500    84.4240     5.0000     4.5100     4.2150    24.9770     2.3230   -11.1050 
  152.3750    83.8130     4.8680     4.3590     4.2760    25.0490     2.3300   -11.2010 
  152.5000    86.1140     4.9080     4.3040     4.5020    25.0190     2.3380   -11.2780 
  152.6250    88.9280     5.0050     4.3050     4.6110    24.9260     2.3470   -11.3360 
  152.7500    91.3590     5.0570     4.3070     4.3780    24.8140     2.3530   -11.3770 
  152.8750    94.8780     5.0450     4.2980     4.0400    24.7320     2.3540   -11.4240 
  153.0000    98.2020     4.9800     4.2850     3.9060    24.7060     2.3510   -11.4760 
  153.1250    99.6020     4.8850     4.2760     4.0330    24.6930     2.3440   -11.5000 
  153.2500    99.0470     4.8410     4.2620     4.2280    24.6990     2.3400   -11.5200 
  153.3750    98.3070     4.9270     4.2240     4.2570    24.7000     2.3410   -11.5740 
  153.5000    98.2290     5.1310     4.1500     4.0940    24.6910     2.3490   -11.6370 
  153.6250    97.8820     5.2820     4.0500     3.8580    24.6580     2.3570   -11.6940 
  153.7500    99.6200     5.1970     3.9600     3.6820    24.6210     2.3630   -11.7780 
  153.8750   102.1590     4.8980     3.9060     3.8110    24.6040     2.3620   -11.8680 
  154.0000    99.8090     4.5820     3.9050     4.1690    24.5700     2.3560   -11.9640 
  154.1250    93.1640     4.4710     3.9820     4.3920    24.5630     2.3450   -12.0910 
  154.2500    90.7460     4.6020     4.1460     4.2090    24.5430     2.3320   -12.2410 
  154.3750    91.4560     4.9680     4.4410     4.1630    24.5230     2.3210   -12.3710 
  154.5000    88.1690     5.5790     4.9260     4.6010    24.5040     2.3130   -12.5100 
  154.6250    83.8770     6.5100     5.6710     5.6150    24.4770     2.3080   -12.6870 
  154.7500    84.9620     7.6200     6.5720     6.9580    24.4580     2.3070   -12.8510 
  154.8750    88.9800     8.6610     7.4520     8.2130    24.4960     2.3090   -12.9880 
  155.0000    90.3720     9.3040     8.0640     9.4320    24.6060     2.3070   -13.1110 
  155.1250    88.0110     9.2520     8.1560     9.3180    24.6810     2.2950   -13.1970 
  155.2500    84.0230     8.8180     7.9110     8.0810    24.7300     2.2820   -13.2280 
  155.3750    80.4560     8.4260     7.6130     7.0330    24.7570     2.2750   -13.2730 
  155.5000    80.6870     8.4510     7.5390     6.9320    24.7920     2.2730   -13.3450 
  155.6250    80.7290     9.2210     7.9660     7.6960    24.8240     2.2710   -13.3650 
  155.7500    75.3210    10.4880     8.9450     8.9350    24.8640     2.2630   -13.3530 
  155.8750    69.1380    11.7380    10.5120    10.8760    24.9090     2.2480   -13.3680 
  156.0000    67.8700    13.4620    12.5940    13.3760    24.9590     2.2300   -13.3970 
  156.1250    68.8440    15.8500    14.9440    14.1520    24.9990     2.2190   -13.4190 
  156.2500    64.7280    17.6060    17.0940    14.1870    25.0240     2.2210   -13.4730 
  156.3750    59.2650    19.3060    18.7430    15.8230    25.0060     2.2340   -13.5550 
  156.5000    59.2910    20.4420    19.8470    18.9400    24.9670     2.2510   -13.6320 
  156.6250    64.2510    21.1990    20.5810    21.4020    24.9170     2.2620   -13.6790 
  156.7500    66.0860    21.9460    21.3070    21.1740    24.8730     2.2620   -13.7030 
  156.8750    63.6230    22.8860    22.2200    20.4940    24.8850     2.2520   -13.7140 
  157.0000    63.0430    24.1060    23.4040    21.4300    24.9550     2.2400   -13.7020 
  157.1250    65.5780    25.5970    24.8510    24.4590    24.9960     2.2300   -13.6730 
  157.2500    65.8880    27.1400    26.3500    26.8430    24.9570     2.2250   -13.6360 
  157.3750    64.4470    28.5160    27.6850    28.4970    24.8680     2.2260   -13.5640 
  157.5000    62.3060    29.5350    28.6750    28.8430    24.7740     2.2300   -13.4600 
  157.6250    58.6780    30.1130    29.2360    28.0960    24.7140     2.2360   -13.3700 
  157.7500    54.4620    30.5230    29.6340    27.4810    24.7470     2.2420   -13.2980 
  157.8750    56.8930    31.0110    30.1080    27.3720    24.8480     2.2500   -13.1850 
  158.0000    65.1210    31.7070    30.7840    28.4230    25.0040     2.2550   -13.0630 
  158.1250    65.9280    32.5890    31.6400    29.1340    25.1370     2.2510   -12.9940 
  158.2500    60.2110    33.4850    32.5100    29.9910    25.2080     2.2450   -12.9430 
  158.3750    56.2000    34.2720    33.2740    32.0310    25.2130     2.2400   -12.8850 
  158.5000    57.4390    34.8410    33.8270    34.4020    25.2040     2.2370   -12.8310 
  158.6250    58.5390    35.0520    34.0310    34.0980    25.2060     2.2320   -12.8300 
  158.7500    57.8220    34.9560    33.9380    32.7110    25.2180     2.2270   -12.8660 
  158.8750    59.2070    34.6900    33.6800    34.0370    25.2390     2.2250   -12.9640 
  159.0000    60.5060    34.5120    33.5070    34.5470    25.2400     2.2280   -13.1020 
  159.1250    57.7870    34.8810    33.8650    32.4680    25.2330     2.2300   -13.2160 
  159.2500    53.2130    36.0660    35.0150    30.8650    25.2660     2.2280   -13.3070 
  159.3750    51.2460    38.2580    37.1440    33.2480    25.3350     2.2230   -13.4180 
  159.5000    53.3940    41.5090    40.3000    38.8090    25.3900     2.2190   -13.5570 
  159.6250    54.2180    45.7840    44.4500    47.2630    25.3640     2.2170   -13.6860 
  159.7500    50.6520    50.4710    49.0010    54.2740    25.2720     2.2180   -13.7980 
  159.8750    45.4580    55.0160    53.4140    56.0840    25.1770     2.2200   -13.8680 
  160.0000    43.7480    58.9000    57.1850    54.4500    25.1260     2.2220   -13.9010 
  160.1250    47.4080    61.1100    59.3310    55.2640    25.0790     2.2230   -13.9440 
  160.2500    52.1640    60.2920    58.5350    58.1490    25.0110     2.2260   -13.9820 
  160.3750    56.0530    54.6760    53.0840    60.3170    24.9280     2.2380   -13.9790 
  160.5000    57.8350    44.1550    42.8690    56.5640    24.8280     2.2640   -13.9350 
  160.6250    59.4080    31.8180    30.8910    40.4440    24.7660     2.3110   -13.8650 
  160.7500    61.0680    21.6420    21.0120    23.0350    24.7730     2.3670   -13.8230 
  160.8750    64.0780    14.7060    14.2780    12.0750    24.8200     2.4150   -13.8090 
  161.0000    70.8950     9.7450    10.2710     7.1450    24.8300     2.4420   -13.8120 
  161.1250    80.8230     8.2170     8.3580     6.0350    24.7810     2.4430   -13.7980 
