~V
VERS. 2.00: Ver 2.00
~W
STRT.M 56.0000:
STOP.M 270.0000:
STEP.M 0.1250:
NULL. -999.2500:
UWI. F10225:
~C
DEPT.M :
SP.MV :
DEN.GM/CC :
GR.API :
RML.OHMM :
RI. :
RXO.OHMM :
CALI.CM :
~A
# ...
  179.7500   -26.5940     2.2240    52.9370   133.1800   113.5390   120.6470    23.9450 
  179.8750   -26.6460     2.2270    53.2580   140.0000   120.8210   130.0700    23.9700 
  180.0000   -26.6790     2.2270    54.3510   146.9810   128.4230   132.1880    23.9440 
  180.1250   -26.6370     2.2240    55.3310   153.3310   135.4280   128.7910    23.8870 
  180.2500   -26.5470     2.2210    54.9150   156.4150   139.6650   133.7580    23.8320 
  180.3750   -26.4680     2.2210    53.4110   151.4450   137.0150   144.5790    23.8200 
  180.5000   -26.4240     2.2280    52.4430   134.1750   122.9760   147.6660    23.8600 
  180.6250   -26.3850     2.2440    53.2880   105.9200    97.6710   137.4950    23.8740 
  180.7500   -26.3340     2.2660    55.1140    76.3460    70.5870   113.2680    23.7870 
  180.8750   -26.2850     2.2940    56.8660    52.8030    49.3130    76.6110    23.6650 
  181.0000   -26.2470     2.3230    58.4010    37.5830    35.8620    42.8260    23.5350 
  181.1250   -26.2450     2.3360    60.5210    30.7480    29.6190    24.6440    23.3970 
  181.2500   -26.2850     2.3270    61.5600    30.0200    28.2580    19.4600    23.3050 
  181.3750   -26.3460     2.3010    59.3430    33.8480    30.6600    23.7380    23.2790 
  181.5000   -26.4030     2.2740    55.0650    41.1120    36.5330    38.8340    23.2900 
  181.6250   -26.4560     2.2580    53.4670    49.9730    45.2370    56.2880    23.2930 
  181.7500   -26.5080     2.2530    54.6390    57.2090    53.6680    62.9980    23.2620 
  181.8750   -26.5410     2.2560    55.4700    59.9940    58.0470    60.3190    23.2000 
  182.0000   -26.5540     2.2620    55.4240    57.5680    56.7050    55.4250    23.1090 
  182.1250   -26.5780     2.2720    56.7700    51.5120    51.0560    49.5210    23.0300 
  182.2500   -26.6400     2.2890    58.6650    44.8630    44.4650    41.5540    22.9660 
  182.3750   -26.7500     2.3060    58.4990    39.5620    39.0060    32.8690    22.9110 
  182.5000   -26.8880     2.3150    57.1470    36.5080    35.5010    27.5730    22.8670 
  182.6250   -27.0200     2.3100    57.8990    36.4640    34.4840    26.9660    22.8760 
  182.7500   -27.1530     2.2980    59.2660    39.3750    35.8610    28.6500    22.9750 
  182.8750   -27.3320     2.2820    58.7420    45.1100    39.6500    33.8760    23.1200 
  183.0000   -27.5890     2.2670    55.9710    53.2710    45.8110    43.3230    23.2270 
  183.1250   -27.9240     2.2540    52.5320    62.6260    53.7370    56.6290    23.2710 
  183.2500   -28.2830     2.2450    50.6110    70.8200    61.4280    68.7860    23.2710 
  183.3750   -28.6250     2.2390    51.6520    75.7920    66.7720    74.7550    23.2540 
  183.5000   -28.9370     2.2370    54.9560    76.9360    68.7780    73.9880    23.2660 
  183.6250   -29.2440     2.2370    57.3610    75.5560    68.1220    67.9430    23.3410 
  183.7500   -29.5600     2.2360    57.5090    74.3450    67.0500    59.4920    23.4450 
  183.8750   -29.8700     2.2350    55.5890    75.0910    67.2530    56.5980    23.5350 
  184.0000   -30.1670     2.2350    53.3440    78.2080    69.3820    65.9990    23.5890 
  184.1250   -30.4310     2.2370    53.1850    82.7090    72.9590    80.5010    23.5850 
  184.2500   -30.6620     2.2420    53.8300    86.2480    76.1040    86.0490    23.5270 
  184.3750   -30.8620     2.2490    51.8220    86.6400    76.8110    78.8250    23.4230 
  184.5000   -31.0470     2.2590    46.8810    83.0310    74.0480    67.1470    23.2450 
  184.6250   -31.2260     2.2710    43.5890    76.5040    68.4490    57.4510    22.9810 
  184.7500   -31.4190     2.2840    44.2370    69.8700    62.4000    50.4040    22.7680 
  184.8750   -31.6490     2.2970    47.3730    65.2430    57.7630    44.5980    22.7620 
  185.0000   -31.8930     2.3020    50.3890    63.7320    55.5270    41.4490    22.9620 
  185.1250   -32.1050     2.2890    51.9890    66.3830    56.6320    44.6470    23.1490 
  185.2500   -32.2880     2.2630    53.5270    73.1280    61.1960    51.7420    23.1810 
  185.3750   -32.4470     2.2380    56.6320    83.8610    69.3360    58.1140    23.0850 
  185.5000   -32.5990     2.2230    60.5060    98.4680    81.1210    61.0890    22.9520 
  185.6250   -32.7800     2.2150    60.7340   117.0630    96.7670    62.7970    22.8380 
  185.7500   -32.9520     2.2100    56.5270   138.7780   115.4330    65.4940    22.8140 
  185.8750   -33.0530     2.2040    51.6990   162.3860   135.9250    74.6970    22.9360 
  186.0000   -33.0970     2.1970    49.8220   185.3310   156.0130    97.9810    23.1860 
  186.1250   -33.1760     2.1900    50.5570   201.1750   170.5550   132.5000    23.4670 
  186.2500   -33.3160     2.1830    51.3050   204.6480   175.3670   160.7620    23.7220 
  186.3750   -33.5260     2.1830    51.1260   194.9850   169.3660   164.2550    23.9630 
  186.5000   -33.7670     2.1900    49.8960   176.7830   155.4410   143.2200    24.1590 
  186.6250   -33.9440     2.2030    48.6000   157.3190   139.0690   119.4150    24.2340 
  186.7500   -34.0550     2.2150    49.6180   141.6460   125.0240   108.5320    24.2470 
  186.8750   -34.1430     2.2240    53.1660   131.5420   115.4250   107.0070    24.2440 
  187.0000   -34.2180     2.2280    55.8480   127.1490   110.7160   106.5280    24.2540 
  187.1250   -34.2310     2.2310    54.9580   128.7570   111.2770   100.8980    24.2250 
  187.2500   -34.1750     2.2330    52.9420   135.4130   116.3210    95.5600    24.0690 
  187.3750   -34.0650     2.2330    51.9510   146.1480   125.0560    99.8850    23.8490 
  187.5000   -33.9320     2.2310    51.9060   159.3260   136.1220   120.6320    23.8020 
  187.6250   -33.8170     2.2250    51.9050   171.2870   146.5170   150.7610    24.0420 
  187.7500   -33.6940     2.2190    50.8960   178.1270   152.9900   173.9270    24.3770 
  187.8750   -33.5430     2.2130    48.3780   178.0390   153.9110   182.7750    24.6310 
  188.0000   -33.3550     2.2100    46.1770   172.1930   149.9400   170.3670    24.7150 
  188.1250   -33.1460     2.2080    46.8610   163.7320   143.3610   143.6710    24.6320 
  188.2500   -32.9320     2.2090    49.1420   155.5960   136.7150   123.9280    24.5050 
  188.3750   -32.6950     2.2090    50.7140   148.6020   130.9660   125.8730    24.4480 
  188.5000   -32.4080     2.2110    51.1840   142.0790   125.8050   141.8890    24.4600 
  188.6250   -32.0220     2.2170    50.7660   134.8960   120.3770   140.2080    24.4490 
  188.7500   -31.5740     2.2250    49.5190   126.7750   114.2750   122.1800    24.4070 
  188.8750   -31.1050     2.2320    48.0650   118.3230   107.7680   108.0270    24.3710 
  189.0000   -30.6500     2.2350    48.3270   110.6220   101.6210   102.0660    24.3500 
  189.1250   -30.2150     2.2370    50.8340   105.0240    96.9920   100.5650    24.3290 
  189.2500   -29.7710     2.2400    52.9530   101.8130    94.3130    99.3390    24.3270 
  189.3750   -29.3080     2.2440    53.0920   100.4010    93.2760    97.4760    24.3460 
  189.5000   -28.8600     2.2470    51.7120    99.2150    92.6410    95.7210    24.3690 
  189.6250   -28.4920     2.2470    49.9740    95.5200    89.9780    96.1360    24.3770 
  189.7500   -28.2110     2.2450    48.4020    88.3330    84.2100    98.6730    24.3690 
  189.8750   -28.0050     2.2420    48.7690    79.0250    76.3450   101.0970    24.3580 
  190.0000   -27.8250     2.2440    52.6740    70.3910    68.7210    94.6710    24.3350 
  190.1250   -27.6570     2.2470    56.9540    65.9720    64.3890    78.7410    24.2830 
  190.2500   -27.5370     2.2460    57.4710    67.1260    64.8940    67.7270    24.2360 
  190.3750   -27.4700     2.2390    55.1860    73.4690    70.4850    75.5190    24.2380 
  190.5000   -27.4130     2.2290    53.9510    82.8630    79.7710   104.1710    24.2490 
  190.6250   -27.3660     2.2240    54.6440    90.4610    88.4970   130.8670    24.2420 
  190.7500   -27.3300     2.2280    55.2460    91.6180    91.5190   139.4490    24.2340 
  190.8750   -27.3040     2.2370    55.7280    85.0120    86.4610   126.2020    24.2290 
