~V
VERS. 2.00: Ver 2.00
~W
STRT.M 53.0000:
STOP.M 296.0000:
STEP.M 0.1250:
NULL. -999.2500:
UWI. F10258:
~C
DEPT.M :
GR.API :
RML.OHMM :
RI. :
RXO.OHMM :
CALI.CM :
DEN.GM/CC :
SP.MV :
~A
# ...
  120.5000    82.2370     7.4970     6.6600     7.4930    24.2870     2.2130   -13.0760 
  120.6250    78.9920     7.4030     6.5540     6.8630    24.6270     2.2080   -13.2730 
  120.7500    75.9320     7.3010     6.4240     6.3680    24.8470     2.2050   -13.4520 
  120.8750    77.1010     7.2250     6.3000     6.3290    24.8640     2.2070   -13.6210 
  121.0000    80.8290     7.2060     6.2070     6.6950    24.7720     2.2150   -13.7710 
  121.1250    82.0830     7.2860     6.1810     6.6750    24.7160     2.2270   -13.8810 
  121.2500    81.0040     7.4790     6.2410     6.6000    24.7650     2.2370   -13.9730 
  121.3750    79.1000     7.8040     6.4090     6.8440    24.8870     2.2410   -14.0790 
  121.5000    78.2690     8.2750     6.7070     7.6690    25.0430     2.2380   -14.2410 
  121.6250    80.1030     8.9170     7.1720     8.6590    25.1200     2.2320   -14.4770 
  121.7500    83.4740     9.6700     7.7700     9.2890    25.0880     2.2270   -14.7400 
  121.8750    85.0370    10.4640     8.4600     9.1790    24.9800     2.2220   -15.0090 
  122.0000    82.7460    11.1930     9.1620     8.7850    24.8880     2.2160   -15.2640 
  122.1250    78.1930    11.6760     9.7250     9.1480    24.8660     2.2080   -15.4870 
  122.2500    75.0450    11.8330    10.0300    10.0050    24.8670     2.2010   -15.6920 
  122.3750    74.0860    11.6430    10.0120    10.2850    24.8530     2.1970   -15.8660 
  122.5000    73.3770    11.1760     9.7080    10.0510    24.8560     2.1970   -16.0010 
  122.6250    74.7240    10.5760     9.2410     9.6520    24.8990     2.1980   -16.1000 
  122.7500    79.9880    10.0240     8.7910     9.2560    24.9400     2.1940   -16.1660 
  122.8750    85.2770     9.5960     8.4380     8.6360    24.9570     2.1810   -16.2130 
  123.0000    83.9980     9.2970     8.2010     8.7310    24.9540     2.1610   -16.2540 
  123.1250    76.7200     9.0930     8.0550     9.1050    24.9310     2.1420   -16.2620 
  123.2500    73.4520     8.9290     7.9440     8.9880    24.9420     2.1340   -16.2220 
  123.3750    75.2790     8.8040     7.8570     8.5670    24.9660     2.1380   -16.1130 
  123.5000    78.3180     8.7390     7.8130     8.1980    24.9480     2.1480   -15.9480 
  123.6250    78.2490     8.7460     7.8440     8.3840    24.8970     2.1540   -15.7580 
  123.7500    76.4780     8.7490     7.9100     9.0980    24.8480     2.1500   -15.5660 
  123.8750    75.5820     8.6410     7.9110     9.6190    24.8340     2.1380   -15.3580 
  124.0000    75.6560     8.3190     7.7180     9.6750    24.9070     2.1270   -15.1090 
  124.1250    77.5760     7.7280     7.2250     9.2170    24.8670     2.1310   -14.8060 
  124.2500    82.4200     7.0140     6.5600     8.0330    24.7620     2.1550   -14.4470 
  124.3750    88.6410     6.3320     5.8760     6.2060    24.9280     2.1960   -14.0240 
  124.5000    92.7660     5.8140     5.3080     5.1920    25.5030     2.2430   -13.5370 
  124.6250    94.7710     5.5530     4.9550     5.3490    25.8820     2.2820   -13.0020 
  124.7500    97.7820     5.4800     4.7800     5.9270    26.0030     2.3090   -12.4670 
  124.8750   100.9760     5.5310     4.7440     6.1050    26.0330     2.3240   -11.9670 
  125.0000   101.3140     5.6550     4.8060     5.7250    26.0290     2.3310   -11.5340 
  125.1250   100.0270     5.8740     4.9630     5.5190    26.0330     2.3320   -11.1860 
  125.2500   100.2630     6.2500     5.2440     5.7790    26.0390     2.3330   -10.9280 
  125.3750   104.2620     6.8690     5.7250     6.1890    26.0290     2.3430   -10.7640 
  125.5000   112.2870     7.7570     6.4740     6.8450    25.9630     2.3720   -10.6730 
  125.6250   118.8340     8.8090     7.5110     8.5490    25.8600     2.4240   -10.6630 
  125.7500   117.3260     9.7180     8.5840    11.3380    25.8080     2.4780   -10.7220 
  125.8750   108.1840    10.1980     9.3550    14.1710    25.7750     2.5120   -10.8260 
  126.0000    99.8100    10.0940     9.5260    15.0070    25.7110     2.5090   -10.9760 
  126.1250    98.5600     9.4110     8.9910    12.4590    25.5800     2.4610   -11.1980 
  126.2500    98.7120     8.4960     8.1380     8.9210    25.4630     2.3880   -11.4690 
  126.3750    96.7790     7.5670     7.2230     6.9660    25.5150     2.3150   -11.8000 
  126.5000    95.1350     6.7330     6.3720     6.5380    25.6460     2.2640   -12.1710 
  126.6250    97.7090     6.0530     5.6410     6.5500    25.5940     2.2540   -12.5310 
  126.7500   102.4750     5.5350     5.0380     6.0200    25.5150     2.2680   -12.8750 
  126.8750   105.8670     5.2440     4.6110     4.9610    25.4760     2.2810   -13.2320 
  127.0000   106.9990     5.2590     4.4230     4.2810    25.4760     2.2670   -13.6190 
  127.1250   104.9090     5.6910     4.5800     4.9140    25.4540     2.2170   -14.0600 
  127.2500    99.3210     6.4440     5.0530     6.5970    25.3410     2.1520   -14.5730 
  127.3750    90.6600     7.3850     5.8020     8.3980    25.1420     2.0970   -15.1320 
  127.5000    81.1940     8.3100     6.7030     9.3350    25.0110     2.0690   -15.7000 
  127.6250    75.0860     8.9580     7.5090     9.5080    25.0170     2.0720   -16.2590 
  127.7500    72.0840     9.2670     8.0270     9.6300    25.0150     2.0880   -16.7830 
  127.8750    70.4640     9.2990     8.2300     9.5910    24.9160     2.1080   -17.2470 
  128.0000    70.1770     9.1920     8.2230     9.2800    24.7170     2.1240   -17.6460 
  128.1250    70.5920     9.0880     8.1370     8.7040    24.4610     2.1330   -17.9550 
  128.2500    71.0500     9.0440     8.0630     8.5280    24.2430     2.1390   -18.1500 
  128.3750    72.3330     9.0430     8.0130     8.7600    24.0830     2.1450   -18.2560 
  128.5000    74.3890     9.0490     7.9720     9.1420    24.0350     2.1510   -18.3210 
  128.6250    75.4540     9.0190     7.9120     9.5450    24.1090     2.1590   -18.3370 
  128.7500    75.4540     8.9410     7.8160     9.7150    24.2200     2.1650   -18.3470 
  128.8750    76.2750     8.8200     7.6840     9.5150    24.2850     2.1690   -18.3840 
  129.0000    77.5780     8.6830     7.5320     9.3960    24.3100     2.1680   -18.4350 
  129.1250    76.6600     8.5780     7.3970     9.6630    24.3440     2.1660   -18.4930 
  129.2500    75.9270     8.5310     7.3090     9.7710    24.4110     2.1640   -18.5300 
  129.3750    78.2380     8.5330     7.2760     9.5850    24.4960     2.1640   -18.5240 
  129.5000    82.7170     8.5360     7.2650     9.5810    24.5980     2.1660   -18.4860 
  129.6250    86.1690     8.4600     7.2090     9.8030    24.7320     2.1670   -18.4300 
  129.7500    87.0930     8.2950     7.0830     9.7960    24.9380     2.1680   -18.3350 
  129.8750    86.9270     8.0910     6.9140     9.1680    25.3200     2.1670   -18.1890 
  130.0000    87.4170     7.9420     6.7690     8.0370    25.8300     2.1640   -18.0240 
  130.1250    88.4260     7.9720     6.7530     7.0510    26.0490     2.1590   -17.9020 
  130.2500    87.9870     8.1910     6.8950     7.2980    25.8790     2.1550   -17.8530 
  130.3750    85.2180     8.5580     7.1890     8.3780    25.5460     2.1530   -17.8840 
  130.5000    82.2820     8.9810     7.5780     9.4250    25.2220     2.1530   -17.9630 
  130.6250    80.0950     9.3340     7.9600    10.2050    25.0140     2.1550   -18.0670 
  130.7500    77.8730     9.5480     8.2380    10.6700    24.9410     2.1570   -18.1750 
  130.8750    76.6910     9.6020     8.3730    11.1500    24.9170     2.1580   -18.2550 
  131.0000    76.0240     9.5150     8.3750    11.2560    24.8510     2.1610   -18.2660 
  131.1250    74.3980     9.3070     8.2650    10.8670    24.7240     2.1730   -18.1750 
  131.2500    73.0930     9.0360     8.0870    10.4670    24.6150     2.1950   -17.9890 
  131.3750    74.7900     8.7570     7.8670    10.3210    24.5640     2.2230   -17.7520 
  131.5000    79.0480     8.5610     7.6490    10.1860    24.5610     2.2510   -17.4820 
  131.6250    83.6430     8.6030     7.5650     9.7900    24.5410     2.2670   -17.2620 
