~V
VERS. 2.00: Ver 2.00
~W
STRT.M 47.0000:
STOP.M 270.0000:
STEP.M 0.1250:
NULL. -999.2500:
UWI. F10221:
~C
DEPT.M :
SP.MV :
GR.API :
RML.OHMM :
RI. :
RXO.OHMM :
CALI.CM :
DEN.GM/CC :
~A
   47.0000  -999.2500    53.7030     1.8980     0.4050     1.6250    25.3510  -999.2500 
   47.1250  -999.2500    52.7310     1.5360     0.4080     1.8130    25.3500  -999.2500 
   47.2500  -999.2500    49.3070     1.1910     0.4110     2.1230    25.3430  -999.2500 
   47.3750  -999.2500    47.8200     0.9970     0.4130     2.2290    25.3330  -999.2500 
   47.5000  -999.2500    48.8740     1.0500     0.4150     1.7530    25.3090  -999.2500 
   47.6250  -999.2500    50.1860     1.2700     0.4140     1.4670    25.3020  -999.2500 
   47.7500  -999.2500    51.3270     1.5670     0.4070     1.4820    25.3060  -999.2500 
   47.8750  -999.2500    52.1520     1.8170     0.3940     1.5370    25.2950  -999.2500 
   48.0000  -999.2500    52.1800     1.8960     0.3790     1.4150    25.2920  -999.2500 
   48.1250  -999.2500    51.7320     1.8600     0.3720     1.0440    25.2930  -999.2500 
   48.2500  -999.2500    49.4120     1.7780     0.3750     0.9040    25.2930  -999.2500 
   48.3750  -999.2500    44.7500     1.6820     0.3870     0.9630    25.2870  -999.2500 
   48.5000  -999.2500    40.8600     1.6100     0.4030     1.0880    25.2770  -999.2500 
   48.6250   107.3970    41.1020     1.6230     0.4170     1.0910    25.2750  -999.2500 
   48.7500   107.3970    43.2910     1.7720     0.4230     1.1020    25.2790  -999.2500 
   48.8750   107.1040    44.5490     2.0480     0.4240     1.0600    25.2830  -999.2500 
   49.0000   106.6800    44.1320     2.3280     0.4220     1.0310    25.2860  -999.2500 
   49.1250   106.2280    43.1490     2.3960     0.4190     1.0500    25.2840  -999.2500 
   49.2500   105.7490    42.0840     2.1890     0.4180     1.0760    25.2820  -999.2500 
   49.3750   105.2120    41.8280     1.8680     0.4190     1.0760    25.2820  -999.2500 
   49.5000   104.5930    42.7100     1.6530     0.4240     1.0630    25.2820  -999.2500 
   49.6250   103.8570    42.6110     1.5990     0.4270     1.1250    25.2820  -999.2500 
   49.7500   102.9980    42.0710     1.6830     0.4250     1.1950    25.2810  -999.2500 
   49.8750   102.0440    42.4220     1.8360     0.4220     1.1930    25.2800  -999.2500 
   50.0000   100.9750    43.8540     1.9660     0.4200     1.2470    25.2790  -999.2500 
   50.1250    99.8470    43.4670     2.0260     0.4180     1.2610    25.2820  -999.2500 
   50.2500    98.7150    41.1550     2.0070     0.4140     1.3060    25.2860  -999.2500 
   50.3750    97.6620    39.4020     1.9250     0.4090     1.7210    25.2920  -999.2500 
   50.5000    96.7400    40.0480     1.8130     0.4040     2.9380    25.2820  -999.2500 
   50.6250    95.9960    40.3210     1.7060     0.3980     3.3360    25.2780  -999.2500 
   50.7500    95.4020    39.8960     1.5860     0.3930     2.1630    25.2770  -999.2500 
   50.8750    94.9700    39.8940     1.4480     0.3900     1.6530    25.2830  -999.2500 
   51.0000    94.6900    40.8600     1.3410     0.3900     1.7650    25.2840  -999.2500 
   51.1250    94.5250    42.2780     1.2910     0.3930     1.4960    25.2530  -999.2500 
   51.2500    94.4430    42.9610     1.2990     0.3970     1.2690    25.1690  -999.2500 
   51.3750    94.3540    42.3160     1.3640     0.3990     1.2120    25.0450  -999.2500 
   51.5000    94.2010    42.0370     1.4940     0.4030     1.3490    24.9520  -999.2500 
   51.6250    93.9790    43.7320     1.6710     0.4120     1.3040    24.9120  -999.2500 
   51.7500    93.7280    45.6010     1.8730     0.4310     1.1410    24.9160  -999.2500 
   51.8750    93.4630    43.4990     2.0560     0.4560     1.0200    24.9680  -999.2500 
   52.0000    93.1780    39.1400     2.1450     0.4810     0.8340    25.0340  -999.2500 
   52.1250    92.8650    38.6190     2.1240     0.4950     0.7440    25.0620  -999.2500 
   52.2500    92.5520    40.9170     2.0100     0.4960     0.8260    25.0610  -999.2500 
   52.3750    92.2480    43.3140     1.8390     0.4820     0.9970    25.0560  -999.2500 
   52.5000    91.9490    42.7070     1.6600     0.4580     0.9420    25.0560  -999.2500 
   52.6250    91.6590    40.5060     1.5280     0.4340     0.8610    25.0600  -999.2500 
   52.7500    91.3280    38.1410     1.4740     0.4230     0.8020    25.0640  -999.2500 
   52.8750    90.9850    36.7450     1.5080     0.4300     0.7450    25.0720  -999.2500 
   53.0000    90.6860    36.2680     1.6260     0.4520     0.6540    25.0600  -999.2500 
   53.1250    90.4020    37.8670     1.7800     0.4790     0.7070    25.0520  -999.2500 
   53.2500    90.0770    44.1950     1.9340     0.5020     0.8090    25.0470  -999.2500 
   53.3750    89.7210    52.7060     2.0640     0.5170     0.8280    25.0450  -999.2500 
   53.5000    89.3700    55.4290     2.1430     0.5190     0.8020    25.0460  -999.2500 
   53.6250    89.0230    53.0950     2.1690     0.5130     0.7870    25.0480  -999.2500 
   53.7500    88.6700    51.3430     2.1540     0.5040     0.8520    25.0480     1.9500 
   53.8750    88.2750    51.4090     2.1320     0.4960     0.9350    25.0490     1.9500 
   54.0000    87.7820    50.8870     2.1420     0.4910     0.9010    25.0510     1.9580 
   54.1250    87.2010    49.1130     2.1820     0.4900     0.7960    25.0490     1.9640 
   54.2500    86.5830    46.9100     2.2230     0.4890     0.8150    25.0450     1.9650 
   54.3750    85.8820    45.4590     2.2270     0.4880     0.9400    25.0410     1.9650 
   54.5000    85.0350    46.1210     2.1690     0.4880     1.0800    25.0430     1.9670 
   54.6250    84.0790    46.4700     2.0680     0.4900     1.1970    25.0450     1.9720 
   54.7500    83.0720    45.9530     1.9490     0.4920     1.2140    25.0460     1.9790 
   54.8750    81.9820    46.1780     1.8390     0.4920     1.1910    25.0470     1.9890 
   55.0000    80.8290    46.5670     1.7560     0.4870     1.2240    25.0460     2.0010 
   55.1250    79.6630    45.2930     1.6990     0.4800     1.3350    25.0520     2.0080 
   55.2500    78.4830    44.9390     1.6540     0.4730     1.3880    25.0530     2.0070 
   55.3750    77.2950    46.7890     1.6120     0.4700     1.4370    25.0500     1.9980 
   55.5000    76.1200    46.7130     1.5810     0.4740     1.3270    25.0530     1.9850 
   55.6250    74.9420    44.1800     1.5740     0.4820     0.9720    25.0610     1.9740 
   55.7500    73.7590    43.8210     1.5940     0.4920     0.7590    25.0580     1.9710 
   55.8750    72.6190    46.6830     1.6040     0.4990     0.8710    25.0330     1.9800 
   56.0000    71.5500    49.2830     1.5280     0.4990     0.9810    25.0020     1.9990 
   56.1250    70.5020    49.8090     1.3560     0.4950     1.0180    24.9790     2.0200 
   56.2500    69.4210    50.2870     1.1340     0.4880     0.9870    24.9540     2.0370 
   56.3750    68.3470    52.6000     0.9230     0.4780     0.9540    24.9530     2.0500 
   56.5000    67.2320    53.9360     0.7680     0.4690     0.9440    24.9440     2.0650 
   56.6250    66.0800    51.9710     0.6660     0.4610     0.9320    24.9320     2.0850 
   56.7500    64.8680    49.7450     0.6090     0.4600     0.9320    24.8910     2.1100 
   56.8750    63.5070    50.1910     0.5900     0.4700     0.9550    24.7960     2.1460 
   57.0000    61.9580    51.5350     0.6120     0.4930     1.0280    24.6010     2.2010 
   57.1250    60.2570    54.5320     0.6650     0.5160     1.1460    24.2480     2.2620 
   57.2500    58.4820    59.8270     0.7320     0.5240     1.3160    23.7040     2.3070 
   57.3750    56.5790    64.0940     0.7840     0.5060     1.5240    22.9460     2.3280 
   57.5000    54.5200    61.5520     0.7690     0.4490     1.6920    22.1730     2.3420 
   57.6250    52.2250    56.4800     0.6580     0.3690     1.7970    21.6380     2.3660 
   57.7500    49.6280    53.1220     0.4780     0.2850     1.8450    21.4450     2.3900 
   57.8750    46.7220    51.3300     0.3040     0.2110     1.8230    21.4970     2.4060 
   58.0000    43.2780    51.1730     0.2070     0.1670     1.7420    21.5890     2.4180 
   58.1250    39.2460    52.0590     0.1900     0.1570     1.6190    21.8900     2.4240 
