~V
VERS. 2.00: Ver 2.00
~W
STRT.M 50.0000:
STOP.M 275.0000:
STEP.M 0.1250:
NULL. -999.2500:
UWI. F10202:
~C
DEPT.M :
GR.API :
RML.OHMM :
RI. :
RXO.OHMM :
CALI.CM :
SP.MV :
DEN.GM/CC :
~A
# ...
  252.5000    63.5120    23.2160    21.5400    29.1900    24.8820    -1.7580     2.4980 
  252.6250    62.9530    23.4960    21.7010    31.5180    24.8380    -1.9520     2.5060 
  252.7500    64.1660    24.1560    22.2380    30.1420    24.8080    -1.8770     2.5240 
  252.8750    66.6740    25.3060    23.3870    26.0850    24.7890    -1.7650     2.5450 
  253.0000    68.7730    26.7150    24.9560    21.6290    24.7180    -1.6850     2.5650 
  253.1250    69.6030    27.6590    26.0770    19.2370    24.6180    -1.6910     2.5800 
  253.2500    70.5430    27.6180    26.0510    20.8710    24.5750    -1.7880     2.5920 
  253.3750    69.9910    26.5830    24.8600    22.3150    24.5720    -1.9730     2.5940 
  253.5000    68.1130    25.0430    23.1340    23.1210    24.5100    -2.1790     2.5780 
  253.6250    64.6150    23.7670    21.8270    23.1680    24.4820    -2.3540     2.5420 
  253.7500    63.8170    23.1080    21.2700    25.4460    24.5090    -2.5420     2.5060 
  253.8750    72.6260    22.9930    21.2740    25.2550    24.5860    -2.7210     2.4900 
  254.0000    87.0990    23.1650    21.5020    25.3990    24.6690    -2.7650     2.5060 
  254.1250    92.1180    23.3850    21.7190    27.5840    24.6680    -2.6760     2.5490 
  254.2500    87.9610    23.5370    21.8640    27.1530    24.5160    -2.4780     2.5890 
  254.3750    84.9400    23.6000    21.9240    25.0570    24.3900    -2.2020     2.6050 
  254.5000    83.6760    23.5840    21.9000    23.3150    24.4160    -1.8920     2.5900 
  254.6250    75.4870    23.5100    21.8150    21.8460    24.5400    -1.6270     2.5480 
  254.7500    67.5110    23.4300    21.7290    22.0460    24.6930    -1.3790     2.5030 
  254.8750    65.7880    23.3700    21.6730    25.7850    24.7690    -0.9400     2.4710 
  255.0000    67.7530    23.3250    21.6450    31.0650    24.7500    -0.4150     2.4600 
  255.1250    67.5020    23.2460    21.5900    35.8470    24.7120    -0.0340     2.4710 
  255.2500    67.6820    23.0770    21.4440    30.3770    24.7000     0.1920     2.4900 
  255.3750    71.9090    22.7820    21.1640    25.7260    24.7000     0.4500     2.5060 
  255.5000    78.9140    22.3680    20.7540    24.5600    24.6920     0.7870     2.5130 
  255.6250    80.1190    21.9000    20.2750    23.1990    24.6370     1.1570     2.5120 
  255.7500    74.8980    21.5030    19.8640    23.8980    24.3970     1.6390     2.5130 
  255.8750    69.1160    21.2790    19.6310    25.1000    23.9780     2.0570     2.5210 
  256.0000    66.2330    21.2890    19.6440    23.4360    23.7000     2.1970     2.5390 
  256.1250    65.3830    21.5570    19.9260    21.0560    23.9250     2.2690     2.5580 
  256.2500    66.2890    21.9530    20.3400    19.6970    24.2940     2.4570     2.5680 
  256.3750    69.2850    22.3560    20.7590    20.2040    24.6580     2.6260     2.5660 
  256.5000    74.2100    22.6560    21.0630    20.2430    24.8500     2.7280     2.5540 
  256.6250    74.3080    22.7630    21.1540    21.1850    24.8990     2.7690     2.5420 
  256.7500    78.5350    22.7320    21.0940    21.2980    24.9050     2.6610     2.5390 
  256.8750    90.7410    22.6430    20.9790    21.4120    24.9180     2.4660     2.5430 
  257.0000    97.0680    22.5800    20.9050    20.6100    24.9290     2.3740     2.5500 
  257.1250    88.4050    22.5980    20.9340    21.8020    24.8760     2.4000     2.5550 
  257.2500    79.5720    22.6600    21.0150    24.8650    24.7820     2.5270     2.5580 
  257.3750    77.7600    22.7130    21.0820    29.7580    24.7470     2.7220     2.5570 
  257.5000    75.2130    22.7180    21.0850    36.0650    24.8070     2.9600     2.5520 
  257.6250    72.7600    22.7040    21.0340    36.3970    24.7730     3.2970     2.5400 
  257.7500    75.6570    22.8090    21.0700    30.7110    24.3330     3.6320     2.5260 
  257.8750    73.1490    23.1940    21.3870    22.1910    24.2670     3.8060     2.5150 
  258.0000    63.1750    23.9380    22.1240    16.7330    24.1330     3.7960     2.5090 
  258.1250    59.6430    24.9090    23.1800    12.5620    24.1000     3.6380     2.5030 
  258.2500    64.2630    25.6940    24.0530    15.0400    24.0000     3.4000     2.4950 
  258.3750    68.0900    25.9960    24.3550    19.3720    24.0000     3.2810     2.4850 
  258.5000    68.3730    25.7610    24.0230    22.4930    24.0000     3.3450     2.4780 
  258.6250    66.7530    25.2130    23.3770    24.0840    24.4960     3.4650     2.4770 
  258.7500    65.2140    24.7400    22.8920    24.6670    24.3590     3.6320     2.4780 
  258.8750    65.3760    24.4770    22.6840    24.7360    24.2560     3.8670     2.4780 
  259.0000    70.0510    24.3760    22.6440    27.0250    24.2270     4.2050     2.4790 
  259.1250    75.3010    24.2950    22.5880    28.1720    24.2710     4.5840     2.4900 
  259.2500    77.4350    24.1250    22.4300    27.5780    24.3430     4.7940     2.5130 
  259.3750    76.8560    23.8320    22.1550    24.5010    24.3740     4.6840     2.5450 
  259.5000    76.2480    23.4080    21.7540    22.8230    24.3690     4.3520     2.5740 
  259.6250    79.5000    22.8540    21.2140    21.6680    24.3550     4.0120     2.5870 
  259.7500    80.5210    22.2490    20.6130    19.8700    24.2830     3.7260     2.5790 
  259.8750    76.0800    21.6850    20.0440    18.0150    24.1930     3.6100     2.5540 
  260.0000    67.3000    21.2630    19.6200    17.1820    24.1150     3.6930     2.5230 
  260.1250    70.1500    21.1010    19.4650    17.0160    24.0770     3.9500     2.4970 
  260.2500    87.9600    21.1730    19.5510    17.2440    24.0120     4.2690     2.4810 
  260.3750   102.0020    21.4320    19.8220    17.8320    23.9670     4.5380     2.4730 
  260.5000    98.1560    21.8040    20.1960    19.2970    24.0000     4.6260     2.4660 
  260.6250    81.7470    22.2110    20.5960    22.1290    24.2240     4.6360     2.4550 
  260.7500    69.8280    22.5850    20.9590    24.5840    24.5120     4.7450     2.4420 
  260.8750    65.6390    22.8940    21.2540    24.6520    24.7240     4.9290     2.4330 
  261.0000    65.2820    23.1270    21.4710    21.3720    24.7860     5.1030     2.4330 
  261.1250    73.0730    23.2780    21.6090    17.6490    24.7950     5.2230     2.4430 
  261.2500    80.6400    23.3650    21.6930    12.5230    24.7490     5.3130     2.4530 
  261.3750    81.2310    23.3790    21.7170    11.4290    24.7410     5.3020     2.4570 
  261.5000    74.4080    23.2880    21.6460    13.3310    24.9130     5.2550     2.4560 
  261.6250    67.5260    23.0350    21.4090    16.9980    25.0230     5.4260     2.4560 
  261.7500    65.4140    22.6440    21.0240    19.7910    25.0260     5.7310     2.4630 
  261.8750    69.4410    22.1660    20.5430    19.7110    25.0010     5.9770     2.4780 
  262.0000    79.7040    21.6810    20.0550    17.2490    24.9720     6.1100     2.4950 
  262.1250    83.2580    21.3050    19.6800    16.3970    24.9370     6.1050     2.5080 
  262.2500    75.3220    21.0880    19.4720    16.4450    24.8540     6.0180     2.5160 
  262.3750    66.3840    21.0400    19.4390    18.7000    24.3010     5.9720     2.5230 
  262.5000    65.9490    21.1370    19.5460    22.8960    24.1330     5.9330     2.5330 
  262.6250    73.7670    21.3490    19.7550    26.1960    24.1330     5.6610     2.5440 
  262.7500    81.3210    21.6240    20.0190    27.5490    24.1330     5.2610     2.5500 
  262.8750    92.1850    21.9400    20.3230    28.2940    24.1330     4.8160     2.5470 
  263.0000   103.5870    22.2690    20.6470    28.7260    24.1330     4.3640     2.5360 
  263.1250   100.7990    22.5540    20.9370    28.1390    24.1330     4.0650     2.5240 
  263.2500    85.6280    22.7380    21.1270    27.2350    24.2000     4.0500     2.5170 
  263.3750    71.9880    22.7770    21.1690    28.0340    24.2670     4.2720     2.5140 
  263.5000    70.3360    22.6490    21.0430    28.5390    24.2670     4.5960     2.5110 
  263.6250    78.0420    22.3350    20.7380    26.2720    24.3000     4.9410     2.5030 
