~V
VERS. 2.00: Ver 2.00
~W
STRT.M 53.0000:
STOP.M 269.0000:
STEP.M 0.1250:
NULL. -999.2500:
UWI. F10224:
~C
DEPT.M :
DEN.GM/CC :
GR.API :
RML.OHMM :
RI. :
RXO.OHMM :
CALI.CM :
SP.MV :
~A
# ...
  232.8750     2.3530    60.4500    31.6630    28.9990    29.5230    23.8240   -17.2480 
  233.0000     2.3720    58.1310    30.5840    27.8840    31.3360    23.8170   -17.2310 
  233.1250     2.3910    59.8750    29.9180    27.2730    32.8110    23.8030   -17.1420 
  233.2500     2.4050    62.1030    29.0560    26.6630    31.8340    23.7900   -17.0070 
  233.3750     2.4080    63.7370    27.7790    25.7990    29.3420    23.7830   -16.8920 
  233.5000     2.3990    66.2330    26.1750    24.6490    26.9560    23.7820   -16.8550 
  233.6250     2.3810    68.2670    24.5330    23.3630    25.7100    23.7860   -16.8780 
  233.7500     2.3620    68.7640    23.0990    22.1500    24.9170    23.7860   -16.8730 
  233.8750     2.3450    69.3380    21.9490    21.1030    23.7270    23.7740   -16.7990 
  234.0000     2.3290    70.6880    21.0610    20.2450    22.2450    23.7150   -16.7260 
  234.1250     2.3130    68.9300    20.3860    19.5840    21.2090    23.6620   -16.7120 
  234.2500     2.3000    67.5800    19.8410    19.0580    20.7670    23.6420   -16.7620 
  234.3750     2.2910    70.2620    19.4200    18.6530    20.8780    23.6260   -16.8600 
  234.5000     2.2890    72.9040    19.1370    18.3570    21.0220    23.5590   -16.9260 
  234.6250     2.2950    70.2900    19.0120    18.1630    20.3600    23.5500   -16.8930 
  234.7500     2.3040    67.6580    18.9750    18.0350    19.5490    23.5190   -16.8380 
  234.8750     2.3110    69.3280    18.9580    17.9410    19.6820    23.4240   -16.8380 
  235.0000     2.3120    72.2190    18.9020    17.8440    20.7200    23.2520   -16.8880 
  235.1250     2.3130    71.1700    18.8610    17.7650    21.1030    22.9870   -16.9560 
  235.2500     2.3170    69.3820    19.0710    17.8520    20.5520    22.8330   -17.0060 
  235.3750     2.3220    69.2360    19.8360    18.3310    20.1830    22.8830   -17.0020 
  235.5000     2.3250    69.3890    21.4540    19.4620    20.6380    22.9920   -16.9600 
  235.6250     2.3260    66.7910    24.3190    21.6570    22.7930    23.0560   -16.9600 
  235.7500     2.3270    62.8920    28.2060    24.8690    28.5500    23.1450   -17.0100 
  235.8750     2.3290    61.7310    32.7410    28.9000    39.3120    23.3670   -17.0670 
  236.0000     2.3250    61.8920    37.2650    33.2270    51.4470    23.6170   -17.1240 
  236.1250     2.3080    59.1250    40.7260    36.9010    54.1010    23.8190   -17.1160 
  236.2500     2.2870    55.6450    42.5070    39.1860    50.7110    23.8240   -17.0270 
  236.3750     2.2740    54.8080    42.1880    39.5720    48.4560    23.6830   -16.9650 
  236.5000     2.2720    56.1210    39.7030    37.8850    48.5170    23.5220   -16.9760 
  236.6250     2.2790    55.6780    35.2520    34.1940    49.8270    23.4650   -16.9870 
  236.7500     2.2870    55.5550    30.6440    29.6250    46.5550    23.5270   -16.9300 
  236.8750     2.2950    58.0510    26.3660    25.1110    36.2310    23.6060   -16.8100 
  237.0000     2.3050    61.4720    22.5040    21.4320    25.7450    23.5000   -16.6450 
  237.1250     2.3160    64.1020    20.1600    19.2000    20.7390    23.2100   -16.5210 
  237.2500     2.3260    64.8770    19.1140    18.2040    19.2520    22.9470   -16.4660 
  237.3750     2.3360    64.9260    19.1910    18.2770    19.3440    22.8950   -16.4110 
  237.5000     2.3480    66.9270    20.1330    19.1740    20.6780    22.9330   -16.3240 
  237.6250     2.3620    70.8930    21.5450    20.5190    23.7410    23.0020   -16.2160 
  237.7500     2.3740    73.3040    22.7180    21.6370    25.6170    23.1950   -16.0940 
  237.8750     2.3790    72.5480    23.1360    22.0350    24.8840    23.4610   -16.0070 
  238.0000     2.3770    70.0900    22.5730    21.4980    24.0660    23.6740   -15.9740 
  238.1250     2.3770    66.9590    21.1250    20.1190    24.0420    23.7510   -15.9580 
  238.2500     2.3790    63.7470    19.4440    18.5180    21.9240    23.7820   -15.9140 
  238.3750     2.3700    61.9530    17.9680    17.1120    18.3830    23.7770   -15.8360 
  238.5000     2.3420    61.5480    16.9510    16.1440    16.0420    23.7730   -15.7170 
  238.6250     2.3030    60.0330    16.5450    15.7570    15.7170    23.8070   -15.6300 
  238.7500     2.2730    57.1630    16.5790    15.7890    16.6110    23.8420   -15.6290 
  238.8750     2.2560    54.4380    16.9010    16.0960    17.9920    23.8700   -15.6500 
  239.0000     2.2500    54.7530    17.3250    16.5000    19.0710    23.9060   -15.6150 
  239.1250     2.2520    57.4040    17.7120    16.8690    19.2540    23.9180   -15.5210 
  239.2500     2.2590    58.4770    18.1050    17.2430    19.1940    23.9180   -15.4220 
  239.3750     2.2700    57.6720    18.6640    17.7760    19.3890    23.9220   -15.3580 
  239.5000     2.2810    57.0600    19.5620    18.6300    20.0120    23.9490   -15.3760 
  239.6250     2.2890    58.0740    20.9320    19.9350    21.8170    23.9930   -15.4350 
  239.7500     2.2940    57.8960    22.5800    21.5050    25.1240    24.0310   -15.4440 
  239.8750     2.2950    55.0650    24.2390    23.0850    29.3580    24.0580   -15.4180 
  240.0000     2.2900    51.4760    25.6050    24.3850    32.5460    24.0650   -15.3750 
  240.1250     2.2800    53.1430    26.3930    25.1360    32.1000    24.0560   -15.3560 
  240.2500     2.2710    58.0420    26.7130    25.4410    29.8580    24.0480   -15.3600 
  240.3750     2.2660    59.6230    26.6840    25.4130    28.6470    24.0380   -15.3850 
  240.5000     2.2640    56.3090    26.3530    25.0980    29.3060    23.9870   -15.4010 
  240.6250     2.2680    54.1610    25.6210    24.4010    30.1570    23.9280   -15.3390 
  240.7500     2.2760    56.0000    24.5320    23.3640    29.4270    23.8770   -15.2490 
  240.8750     2.2860    58.8330    23.1650    22.0620    27.0460    23.8310   -15.1600 
  241.0000     2.2970    61.8550    21.6620    20.6300    23.6580    23.7690   -15.1250 
  241.1250     2.3070    65.9960    20.1990    19.2370    21.2080    23.7970   -15.1270 
  241.2500     2.3130    68.6340    18.8680    17.9690    20.5070    23.8650   -15.1290 
  241.3750     2.3130    68.3100    17.6850    16.8430    20.4810    23.9220   -15.0900 
  241.5000     2.3090    65.8670    16.6840    15.8890    19.2540    23.9350   -14.9860 
  241.6250     2.3070    64.5670    16.0360    15.2720    16.8430    23.9220   -14.8850 
  241.7500     2.3090    65.9830    15.8650    15.1090    15.2730    23.9040   -14.8670 
  241.8750     2.3120    67.3790    16.2970    15.5210    15.3150    23.8880   -14.9100 
  242.0000     2.3140    65.5250    17.3800    16.5530    17.3990    23.8880   -14.9490 
  242.1250     2.3130    60.7290    19.0250    18.1190    21.8350    23.9140   -14.9250 
  242.2500     2.3090    58.0260    20.6940    19.7080    26.3280    23.9330   -14.8470 
  242.3750     2.3040    58.2990    21.8910    20.8480    27.5960    23.9160   -14.7830 
  242.5000     2.2990    60.6690    22.3300    21.2670    25.1110    23.8400   -14.7920 
  242.6250     2.2980    63.1870    21.9730    20.9270    22.4950    23.6630   -14.8300 
  242.7500     2.2990    63.2330    21.1920    20.1830    21.5960    23.4400   -14.8280 
  242.8750     2.2990    61.7470    20.1870    19.2250    22.1700    23.3330   -14.7630 
  243.0000     2.3010    61.5240    19.0870    18.1780    22.8470    23.4630   -14.6440 
  243.1250     2.3040    63.8940    18.0320    17.1730    20.6590    23.7240   -14.5680 
  243.2500     2.3090    66.5890    17.2010    16.3820    17.2740    23.8620   -14.5890 
  243.3750     2.3140    68.3120    16.7780    15.9790    15.4090    23.8840   -14.6430 
  243.5000     2.3170    68.5020    16.8980    16.0930    15.8930    23.8740   -14.6520 
  243.6250     2.3140    66.5280    17.6890    16.8460    17.8670    23.8890   -14.6360 
  243.7500     2.3060    63.4420    18.9030    18.0030    20.0280    23.9180   -14.5920 
  243.8750     2.2990    61.3460    20.1730    19.2120    22.5810    23.9420   -14.5690 
  244.0000     2.2970    63.9980    21.0010    20.0010    24.7230    23.9990   -14.6230 
