~V
VERS. 2.00: Ver 2.00
~W
STRT.M 57.0000:
STOP.M 259.0000:
STEP.M 0.1250:
NULL. -999.2500:
UWI. F10209:
~C
DEPT.M :
SP.MV :
DEN.GM/CC :
GR.API :
RML.OHMM :
RI. :
RXO.OHMM :
CALI.CM :
~A
# ...
  180.7500   -25.7450     2.2040    66.2000   176.3560   154.1750   131.2740    24.9990 
  180.8750   -25.7580     2.2140    68.2590   166.7140   145.7990   125.4310    25.0110 
  181.0000   -25.7910     2.2180    70.4940   159.6990   139.9210   129.2180    24.9890 
  181.1250   -25.8200     2.2180    71.6190   154.2540   135.6070   131.9980    24.8890 
  181.2500   -25.7880     2.2160    69.5580   149.5310   132.0520   129.6850    24.6790 
  181.3750   -25.6550     2.2130    65.1670   145.3750   128.9550   122.4110    24.4150 
  181.5000   -25.4890     2.2100    63.3600   142.3420   126.6240   112.6740    24.3190 
  181.6250   -25.3780     2.2070    65.7350   141.3490   125.8140   110.6340    24.3700 
  181.7500   -25.3430     2.2040    68.2680   142.7560   126.9560   117.4520    24.3950 
  181.8750   -25.3820     2.2020    66.1110   145.6460   129.4560   132.6080    24.3420 
  182.0000   -25.3970     2.1990    61.7980   147.6110   131.3070   147.0380    24.3060 
  182.1250   -25.3030     2.1970    60.4320   147.1250   131.1260   161.3930    24.2670 
  182.2500   -25.1590     2.1960    63.3020   144.0830   128.6620   172.1270    24.2590 
  182.3750   -25.1640     2.1990    64.6100   139.9530   124.9630   137.4140    24.2800 
  182.5000   -25.3090     2.2040    61.9500   137.0740   122.0480   100.2210    24.2920 
  182.6250   -25.5130     2.2090    59.3180   136.5780   121.0500    96.6030    24.2100 
  182.7500   -25.6900     2.2100    60.5260   138.3070   122.0810   120.7680    24.0650 
  182.8750   -25.7450     2.2070    64.2140   140.8580   124.2310   148.2570    24.0200 
  183.0000   -25.7330     2.2030    64.3500   142.2250   125.7870   135.4750    24.0440 
  183.1250   -25.7260     2.2010    61.7120   141.4400   125.7810   126.8990    24.1690 
  183.2500   -25.7880     2.2030    59.6300   138.7320   124.1430   123.2770    24.2650 
  183.3750   -25.8720     2.2060    62.7140   135.3900   121.7190   113.8290    24.3110 
  183.5000   -25.9590     2.2080    67.3540   132.7290   119.6850   108.5150    24.3690 
  183.6250   -26.0510     2.2080    68.5370   130.8700   118.2530   110.5810    24.4840 
  183.7500   -26.1420     2.2070    66.2920   129.3100   117.0240   114.7360    24.6040 
  183.8750   -26.2580     2.2080    63.9580   127.4360   115.3960   115.2780    24.7430 
  184.0000   -26.3710     2.2110    63.2910   125.1950   113.2990   110.8310    24.7800 
  184.1250   -26.4560     2.2170    63.6990   122.8830   110.9960   106.2730    24.7290 
  184.2500   -26.5630     2.2230    65.8270   120.8970   108.8580   102.8300    24.6480 
  184.3750   -26.7140     2.2300    69.3680   119.7940   107.3950   102.2060    24.5940 
  184.5000   -26.7830     2.2410    71.1740   119.7360   106.8300   106.7550    24.5350 
  184.6250   -26.7050     2.2530    70.7160   120.7440   107.2510   116.4340    24.4380 
  184.7500   -26.5200     2.2620    69.0480   122.6640   108.5510   125.0760    24.3840 
  184.8750   -26.2980     2.2610    65.9190   125.4390   110.6650   115.9020    24.4480 
  185.0000   -26.1390     2.2490    63.5040   128.9110   113.3890   114.8370    24.5560 
  185.1250   -26.0720     2.2320    63.3650   133.0820   116.6980   131.4110    24.5830 
  185.2500   -26.0140     2.2190    64.4280   137.8330   120.5150   145.5540    24.5510 
  185.3750   -25.9450     2.2190    64.9100   142.5420   124.4300   156.4650    24.5500 
  185.5000   -25.8770     2.2230    63.8420   146.0280   127.4900   152.5150    24.5930 
  185.6250   -25.8120     2.2170    62.4290   147.3810   128.8770   145.9900    24.7660 
  185.7500   -25.7880     2.1820    60.1840   146.6640   128.5230   154.0690    25.0790 
  185.8750   -25.8460     2.1200    56.8890   145.0870   127.3120   157.4990    25.5070 
  186.0000   -25.9190     2.0730    54.3120   144.3380   126.6770   150.3610    25.4190 
  186.1250   -25.9830     2.0870    53.1890   145.1490   127.3280   139.6240    25.1130 
  186.2500   -25.9960     2.1750    55.1890   147.3220   129.2540   145.0450    24.6660 
  186.3750   -25.8540     2.3030    59.3190   149.5400   131.5520   199.1670    24.3350 
  186.5000   -25.6660     2.3980    61.3840   150.1980   132.8450   200.6060    24.0970 
  186.6250   -25.4870     2.4220    59.9010   148.6110   132.4090   158.1970    23.9640 
  186.7500   -25.3060     2.3790    57.9480   145.1230   130.2780   124.3620    23.8880 
  186.8750   -25.1350     2.3100    59.9250   140.8310   127.1010   115.0010    23.8360 
  187.0000   -24.9890     2.2550    64.8470   137.0780   124.0410   112.1890    23.8160 
  187.1250   -24.8600     2.2220    69.7440   134.4730   121.7180   108.8100    23.8070 
  187.2500   -24.7440     2.2070    70.8950   133.1520   120.3520    99.3410    23.7860 
  187.3750   -24.6630     2.2040    68.7420   133.1010   119.9880   101.8790    23.7590 
  187.5000   -24.5890     2.2080    68.3260   133.6630   120.1550   101.2970    23.7920 
  187.6250   -24.5230     2.2180    69.7570   134.0050   120.2380   101.1590    23.9250 
  187.7500   -24.5190     2.2330    70.2350   133.2430   119.5190   101.8990    24.2090 
  187.8750   -24.5050     2.2500    67.8330   131.3230   117.8600   103.1280    24.4130 
  188.0000   -24.4060     2.2600    66.2810   130.3680   116.9000   100.4050    24.4820 
  188.1250   -24.2150     2.2600    66.0270   133.2800   119.0620    99.5510    24.4800 
  188.2500   -23.9810     2.2440    64.6350   143.5100   127.5400   101.7960    24.4570 
  188.3750   -23.8240     2.2130    61.9500   166.8210   148.2150   123.4610    24.6030 
  188.5000   -23.7250     2.1780    57.4640   202.9790   181.5830   209.0920    24.7360 
  188.6250   -23.6300     2.1460    50.9270   246.0070   222.7870   399.6840    24.7990 
  188.7500   -23.4020     2.1250    44.6410   276.0170   254.9330   547.7310    24.8210 
  188.8750   -23.0160     2.1210    44.2820   258.0360   246.2460   579.5340    24.8060 
  189.0000   -22.6290     2.1320    51.0100   205.1110   202.1830   404.3200    24.7850 
  189.1250   -22.3170     2.1600    58.5870   148.1980   148.5040   197.7900    24.7320 
  189.2500   -22.0950     2.2040    62.4010   106.1570   105.9270    94.1490    24.5980 
  189.3750   -21.8890     2.2620    65.2170    83.4180    81.9230    65.1300    24.4040 
  189.5000   -21.6470     2.3180    68.0300    72.7730    70.1400    49.2190    24.1500 
  189.6250   -21.4130     2.3570    67.4450    70.7390    66.9180    43.6740    23.9630 
  189.7500   -21.2900     2.3630    63.2310    74.5860    69.5610    56.5670    24.0250 
  189.8750   -21.3690     2.3310    59.7590    81.6630    75.8280   101.0630    24.4060 
  190.0000   -21.5830     2.2810    58.5820    88.1590    82.2190   128.9740    24.6650 
  190.1250   -21.8790     2.2370    58.3700    91.7980    86.5290   113.4810    24.6990 
  190.2500   -22.1990     2.2140    58.6780    91.9550    87.8730    87.0830    24.6380 
  190.3750   -22.4430     2.2190    60.9780    89.2860    86.4160    79.9340    24.6820 
  190.5000   -22.6330     2.2380    64.6090    85.3480    83.4190    81.4880    24.7060 
  190.6250   -22.7710     2.2580    68.6620    80.2510    79.0100    82.3500    24.7180 
  190.7500   -22.9130     2.2700    71.1300    73.6970    72.9700    81.7110    24.7440 
  190.8750   -23.0410     2.2690    71.3820    66.1280    65.6690    70.7150    24.8900 
  191.0000   -23.0990     2.2590    71.6290    59.5000    58.9670    54.2070    25.1570 
  191.1250   -23.0570     2.2480    72.5040    55.3740    54.3530    41.2720    25.4590 
  191.2500   -22.9190     2.2400    72.5980    54.3840    52.5060    36.8900    25.5920 
  191.3750   -22.8100     2.2380    71.2020    56.5390    53.5970    44.8850    25.4140 
  191.5000   -22.8190     2.2380    70.4410    60.2230    56.3060    64.5130    25.1640 
  191.6250   -22.9330     2.2370    71.0330    64.2190    59.5830    82.0710    24.9960 
  191.7500   -23.0960     2.2360    70.8110    67.6960    62.5710    76.3880    24.9940 
  191.8750   -23.2310     2.2380    69.7290    70.8700    65.1860    61.3140    25.0730 
