~V
VERS. 2.00: Ver 2.00
~W
STRT.M 48.0000:
STOP.M 276.0000:
STEP.M 0.1250:
NULL. -999.2500:
UWI. F10244:
~C
DEPT.M :
GR.API :
RML.OHMM :
RI. :
RXO.OHMM :
CALI.CM :
DEN.GM/CC :
SP.MV :
~A
# ...
  160.5000    89.4920    28.5750    27.6320    28.6140    25.0300     2.2930    -7.8030 
  160.6250    93.4390    28.8250    27.7960    28.9240    25.0310     2.2840    -7.8210 
  160.7500    91.9190    29.5840    28.4500    28.4430    25.0460     2.2690    -7.8800 
  160.8750    86.0370    31.0210    29.8320    30.2630    25.0950     2.2510    -7.9120 
  161.0000    79.5530    32.9130    31.7850    34.7420    25.1590     2.2350    -7.9200 
  161.1250    74.5790    34.8910    33.9260    38.9520    25.1780     2.2240    -7.9040 
  161.2500    71.8770    36.4620    35.6700    40.6710    25.1720     2.2210    -7.8800 
  161.3750    71.7690    37.1610    36.4120    44.4540    25.1540     2.2230    -7.8960 
  161.5000    74.2330    37.2650    36.4030    46.1800    25.1300     2.2260    -7.8880 
  161.6250    78.6970    37.2990    36.1880    41.4270    25.1100     2.2270    -7.8620 
  161.7500    82.1090    37.8910    36.4840    36.1610    25.1110     2.2260    -7.8150 
  161.8750    82.3020    39.7870    38.1460    46.1530    25.1330     2.2240    -7.8110 
  162.0000    80.3780    43.0830    41.2370    60.5260    25.1310     2.2240    -7.8150 
  162.1250    78.1130    47.7960    45.6740    69.9200    25.0890     2.2250    -7.8380 
  162.2500    77.0090    53.8000    51.2680    69.6640    25.0200     2.2240    -7.8880 
  162.3750    76.8540    61.1310    58.0640    60.8830    24.7980     2.2220    -7.9670 
  162.5000    75.7670    69.6070    65.9750    54.0660    24.3870     2.2190    -8.0770 
  162.6250    73.2940    79.2480    75.0060    51.0230    24.0580     2.2170    -8.2000 
  162.7500    71.1820    89.6130    84.6470    55.6150    24.1140     2.2180    -8.2910 
  162.8750    70.4040    99.1270    93.3370    82.6690    24.5650     2.2200    -8.3530 
  163.0000    70.4450   106.2120    99.6660   147.2710    25.0140     2.2210    -8.4240 
  163.1250    70.6450   110.3630   103.2020   156.4970    25.1990     2.2200    -8.4760 
  163.2500    69.7800   112.4860   104.7830   105.5810    25.2020     2.2150    -8.5240 
  163.3750    67.5260   114.6500   106.5250    79.3550    25.1640     2.2100    -8.5200 
  163.5000    64.9780   118.6220   110.2310   114.6370    25.1610     2.2070    -8.5040 
  163.6250    64.4730   124.8310   116.3430   141.1670    25.1530     2.2060    -8.4760 
  163.7500    66.1060   132.3550   124.0640   132.5010    25.1460     2.2070    -8.5080 
  163.8750    67.9830   138.5370   130.9540   135.8800    25.1780     2.2110    -8.5510 
  164.0000    68.4600   141.0770   134.4930   148.4400    25.1990     2.2190    -8.5810 
  164.1250    67.7960   139.2380   133.7920   147.4530    25.1890     2.2310    -8.6350 
  164.2500    66.9840   133.9060   129.7500   127.2970    25.1720     2.2420    -8.6860 
  164.3750    66.3710   126.7600   123.8750   100.3350    25.1570     2.2470    -8.7460 
  164.5000    67.1800   119.7170   117.7850    75.7190    25.1480     2.2450    -8.8140 
  164.6250    69.7720   113.6270   112.3990    62.4230    25.1500     2.2380    -8.9070 
  164.7500    71.9920   108.8510   108.2880    64.8800    25.1350     2.2330    -8.9840 
  164.8750    71.2870   105.4820   105.6320    68.7150    25.0410     2.2330    -9.0600 
  165.0000    69.4470   102.9370   103.7570    73.3890    24.9550     2.2370    -9.1410 
  165.1250    69.5590   100.9270   102.2770    78.6600    24.9620     2.2430    -9.2030 
  165.2500    71.9300    99.3500   101.0310    83.0730    25.0550     2.2480    -9.2580 
  165.3750    73.4320    98.3550   100.1760    83.3110    25.0870     2.2500    -9.3120 
  165.5000    72.0440    97.9190    99.8260    83.2320    25.0080     2.2530    -9.3700 
  165.6250    69.3260    97.9690    99.9530    84.8260    24.9060     2.2580    -9.4110 
  165.7500    67.6130    98.3360   100.3690    93.4910    24.9430     2.2650    -9.4270 
  165.8750    68.1960    98.8800   100.8680    96.5440    25.0880     2.2700    -9.4890 
  166.0000    69.3020    99.5880   101.3880    92.6230    25.1910     2.2720    -9.5520 
  166.1250    69.2830   100.7210   102.1380    92.8000    25.2230     2.2700    -9.6080 
  166.2500    67.9310   102.7590   103.6090    95.3240    25.2200     2.2640    -9.6440 
  166.3750    64.8160   106.6560   106.7960   106.7910    25.2020     2.2530    -9.6700 
  166.5000    62.0270   112.7690   112.1030   108.5740    25.1790     2.2380    -9.6770 
  166.6250    61.6100   121.3980   119.7890   110.8360    25.1610     2.2230    -9.6830 
  166.7500    63.8180   132.5000   129.7280   120.3420    25.0860     2.2110    -9.6850 
  166.8750    65.6620   145.9560   141.6320   142.3120    24.8590     2.2050    -9.6580 
  167.0000    65.8340   160.8120   154.5350   170.3270    24.6170     2.2020    -9.6480 
  167.1250    65.0860   176.6680   168.0450   198.6840    24.6250     2.1970    -9.5960 
  167.2500    62.6770   193.3690   182.0980   215.5270    24.8450     2.1900    -9.5880 
  167.3750    57.6520   210.9770   196.9750   225.3390    24.9980     2.1810    -9.5820 
  167.5000    54.0270   228.8570   212.3850   232.7570    25.0780     2.1770    -9.5640 
  167.6250    54.1350   245.6910   227.2920   253.2490    25.1300     2.1790    -9.5340 
  167.7500    56.1100   259.4060   239.8990   256.3160    25.1330     2.1830    -9.4990 
  167.8750    57.9110   266.8950   247.4150   256.6070    25.0970     2.1850    -9.4330 
  168.0000    60.8320   268.4090   249.7540   259.6770    25.0430     2.1830    -9.3460 
  168.1250    63.5600   265.1580   247.8650   271.4110    24.9800     2.1780    -9.2840 
  168.2500    63.5500   258.9410   243.5730   278.4980    24.8990     2.1730    -9.1690 
  168.3750    62.2420   250.3200   237.9760   278.1080    24.8790     2.1740    -9.0640 
  168.5000    62.0570   238.9020   230.4290   261.1890    24.8880     2.1810    -8.9550 
  168.6250    61.6150   223.9330   219.3150   241.1120    24.8930     2.1930    -8.8350 
  168.7500    60.1960   206.0760   204.2530   227.0060    24.8980     2.2090    -8.7100 
  168.8750    59.4210   188.0000   187.1840   223.7520    24.9200     2.2210    -8.6270 
  169.0000    59.0000   172.8720   172.0260   211.9870    25.0070     2.2280    -8.5730 
  169.1250    58.7460   162.4760   161.3960   190.3370    25.1710     2.2280    -8.5670 
  169.2500    59.7740   157.2730   156.4450   158.2930    25.2960     2.2240    -8.5970 
  169.3750    60.5410   156.7140   157.0550   154.0630    25.3100     2.2210    -8.5750 
  169.5000    59.9000   157.2300   159.5700   163.5760    25.2650     2.2200    -8.5280 
  169.6250    60.0310   155.4100   160.3470   167.7850    25.2200     2.2240    -8.4640 
  169.7500    63.2230   148.6550   155.9120   160.7240    25.1790     2.2300    -8.4600 
  169.8750    68.0460   136.3480   144.1510   142.7980    25.1630     2.2370    -8.4280 
  170.0000    70.2590   122.4810   129.1460   124.5490    25.1580     2.2440    -8.3830 
  170.1250    68.0320   110.4540   115.1320   106.8660    25.1580     2.2510    -8.2420 
  170.2500    63.8530   102.5100   105.2440    90.5310    25.1600     2.2590    -8.0890 
  170.3750    63.2690   100.4510   101.9680    78.2050    25.1620     2.2770    -7.9730 
  170.5000    66.1900   103.6860   104.7900    80.0270    25.1630     2.3120    -7.9320 
  170.6250    68.7250   112.3130   113.6470    98.9370    25.1600     2.3670    -7.9160 
  170.7500    68.8850   126.1460   128.0320   122.6980    25.1590     2.4330    -7.8400 
  170.8750    66.7370   144.2720   146.8480   135.0950    25.1340     2.4820    -7.7590 
  171.0000    63.2620   162.3550   165.8300   150.1980    25.0010     2.4870    -7.6700 
  171.1250    59.8210   175.7180   180.3120   173.7300    24.7300     2.4380    -7.6540 
  171.2500    58.7810   180.3650   186.1180   200.0200    24.5800     2.3510    -7.6380 
  171.3750    59.8880   173.5120   180.1870   213.3290    24.7530     2.2580    -7.6340 
  171.5000    59.8930   159.3940   166.4030   201.4560    25.0690     2.1920    -7.5860 
  171.6250    59.6660   141.9610   148.3400   168.5200    25.2000     2.1610    -7.5440 
