~V
VERS. 2.00: Ver 2.00
~W
STRT.M 56.0000:
STOP.M 284.0000:
STEP.M 0.1250:
NULL. -999.2500:
UWI. F10233:
~C
DEPT.M :
GR.API :
RML.OHMM :
RI. :
RXO.OHMM :
CALI.CM :
DEN.GM/CC :
SP.MV :
~A
   56.0000     0.0000     0.0000     0.0000     0.0000     0.0000     2.1560    94.3150 
   56.1250     0.0000     0.0000     0.0000     0.0000     0.0000     2.1480    94.0280 
   56.2500     0.0000     0.0000     0.0000     0.0000     0.0000     2.1360    93.7320 
   56.3750     0.0000     0.0000     0.0000     0.0000     0.0000     2.1260    93.4080 
   56.5000     0.0000     0.0000     0.0000     0.0000     0.0000     2.1230    93.0810 
   56.6250     0.0000     0.0000     0.0000     0.0000     0.0000     2.1300    92.7810 
   56.7500    18.6250     0.3420     0.3220     0.2370    12.8070     2.1580    92.4370 
   56.8750    38.3360     0.6800     0.6160     0.4660    25.6050     2.2270    92.0530 
   57.0000    39.1980     0.5070     0.5010     0.3890    25.5950     2.3480    91.6100 
   57.1250    37.1490     0.4260     0.4700     0.3420    25.5650     2.4650    91.1340 
   57.2500    35.2530     0.3600     0.4350     0.3140    25.5410     2.4770    90.7190 
   57.3750    35.8400     0.3570     0.4260     0.3180    25.5480     2.3890    90.3630 
   57.5000    37.0420     0.4300     0.4240     0.3520    25.5900     2.2820    90.0170 
   57.6250    36.9680     0.4740     0.4260     0.3810    25.6060     2.2300    89.6540 
   57.7500    37.3640     0.4450     0.4590     0.3870    25.6140     2.2190    89.3550 
   57.8750    39.3280     0.4600     0.5320     0.3820    25.6150     2.2210    89.1150 
   58.0000    41.8860     0.5400     0.5950     0.3660    25.5990     2.2190    88.8510 
   58.1250    42.4690     0.6510     0.7560     0.3620    25.5490     2.2170    88.5650 
   58.2500    40.3360     0.7090     0.8530     0.3750    25.5280     2.2160    88.2860 
   58.3750    37.4600     0.6670     0.9010     0.4130    25.5400     2.2120    88.0070 
   58.5000    36.6330     0.5350     1.0260     0.4310    25.5820     2.2040    87.7520 
   58.6250    37.0180     0.4570     1.1460     0.4100    25.6040     2.1940    87.5660 
   58.7500    36.4450     0.3810     0.8960     0.3400    25.6040     2.1870    87.3550 
   58.8750    36.4100     0.3310     0.7380     0.2860    25.5760     2.1840    87.1030 
   59.0000    38.1690     0.3100     0.6010     0.2590    25.5690     2.1870    86.9520 
   59.1250    39.2350     0.3190     0.5410     0.2530    25.5370     2.1980    86.8940 
   59.2500    39.7540     0.3870     0.5200     0.2450    25.5310     2.2150    86.8480 
   59.3750    42.3810     0.4650     0.4920     0.2380    25.5470     2.2350    86.8390 
   59.5000    46.1060     0.5850     0.4680     0.2340    25.5950     2.2490    86.8240 
   59.6250    47.0030     0.4720     0.4000     0.2370    25.6140     2.2510    86.7400 
   59.7500    45.6500     0.3880     0.3540     0.2460    25.6190     2.2440    86.6680 
   59.8750    44.3460     0.3460     0.3360     0.2460    25.6240     2.2340    86.6280 
   60.0000    44.3420     0.3510     0.3120     0.2420    25.6170     2.2290    86.5240 
   60.1250    44.2280     0.4250     0.3100     0.2320    25.5920     2.2320    86.3730 
   60.2500    42.6600     0.3680     0.3180     0.2240    25.5490     2.2390    86.1950 
   60.3750    39.7310     0.3390     0.3710     0.2210    25.5450     2.2480    85.9150 
   60.5000    38.6750     0.2700     0.3920     0.2280    25.5820     2.2610    85.4680 
   60.6250    40.6620     0.2570     0.3320     0.2280    25.6080     2.2770    84.7830 
   60.7500    41.7020     0.2480     0.2900     0.2240    25.6110     2.2930    83.8290 
   60.8750    41.2760     0.2420     0.2670     0.2200    25.5940     2.3120    82.5140 
   61.0000    40.7850     0.2400     0.2540     0.2160    25.5520     2.3480    80.7800 
   61.1250    41.2400     0.2390     0.2360     0.2150    25.5330     2.4070    78.4950 
   61.2500    39.8780     0.2370     0.2320     0.2130    25.5380     2.4780    75.7020 
   61.3750    37.3660     0.2340     0.2330     0.2120    25.5670     2.5420    72.4150 
   61.5000    36.4810     0.2100     0.2320     0.2090    25.5960     2.5880    68.6590 
   61.6250    38.7590     0.2050     0.2250     0.2090    25.6110     2.5850    64.2550 
   61.7500    43.1960     0.2050     0.1910     0.2500    25.6140     2.4680    59.1770 
   61.8750    47.6610     0.2230     0.0940     0.3640    25.6640     2.2260    53.4440 
   62.0000    51.5300     0.2850     0.0690     1.3690    26.0270     1.9660    47.1620 
   62.1250    54.7370     0.7100     0.1580     1.8330    27.0510     1.8250    40.5240 
   62.2500    58.6540     0.9520     0.3520     3.6840    28.0730     1.8140    33.8320 
   62.3750    65.9960     1.4130     0.6980     6.2030    28.0150     1.9030    27.2670 
   62.5000    76.7010     2.0620     1.2380     7.1270    26.6890     2.0520    21.0020 
   62.6250    84.3960     2.8280     1.9980     5.9960    25.1020     2.2180    15.3160 
   62.7500    86.1410     3.6360     2.8940     5.9890    24.0600     2.3530    10.3450 
   62.8750    84.7480     4.4950     3.8540     6.6290    23.3620     2.4280     6.2300 
   63.0000    84.4600     5.3780     4.7840     7.4720    22.8030     2.4400     2.9600 
   63.1250    84.6770     6.0770     5.4910     7.8100    22.6520     2.3870     0.5410 
   63.2500    82.8130     6.3820     5.8480     7.6470    22.8810     2.3160    -1.3040 
   63.3750    81.6460     6.2200     5.8200     7.0280    23.4340     2.2690    -2.7370 
   63.5000    84.9500     5.7510     5.5140     6.3700    24.0040     2.2660    -3.8830 
   63.6250    92.7810     5.2880     5.1350     5.7070    24.4620     2.2870    -4.7250 
   63.7500    99.6120     5.0370     4.8620     5.2660    24.7440     2.2970    -5.3140 
   63.8750   102.6640     5.0340     4.7530     5.2390    24.7580     2.2910    -5.7930 
   64.0000   102.3730     5.2490     4.8190     5.4190    24.5780     2.2800    -6.2570 
   64.1250   101.2190     5.6490     5.0700     5.7940    24.3840     2.2740    -6.6920 
   64.2500    99.9240     6.1270     5.4340     6.1840    24.3780     2.2740    -7.1030 
   64.3750    97.9660     6.5990     5.8360     6.2420    24.5270     2.2910    -7.4950 
   64.5000    96.9450     6.9900     6.1860     7.0260    24.5600     2.3320    -7.8690 
   64.6250    99.3220     7.2300     6.3940     9.1410    24.2400     2.3710    -8.2530 
   64.7500   101.7510     7.3380     6.4790    10.0580    23.9030     2.3680    -8.7360 
   64.8750    98.3480     7.3700     6.4960     8.0650    23.6470     2.3250    -9.2540 
   65.0000    90.9570     7.3970     6.5060     6.7670    23.5500     2.2810    -9.6820 
   65.1250    84.7310     7.4340     6.5220     7.1570    23.6790     2.2550   -10.0980 
   65.2500    81.3700     7.4090     6.4920     8.0270    23.9350     2.2410   -10.4910 
   65.3750    81.5010     7.2510     6.3640     8.2410    24.1110     2.2390   -10.8230 
   65.5000    85.4620     6.9510     6.1300     7.3030    24.1100     2.2440   -11.1290 
   65.6250    91.1770     6.6200     5.8590     6.1110    24.0330     2.2450   -11.4020 
   65.7500    94.8490     6.4300     5.6690     5.4960    23.9860     2.2360   -11.5860 
   65.8750    94.7190     6.4450     5.6240     5.3030    24.0270     2.2200   -11.7570 
   66.0000    92.9410     6.6160     5.7240     5.6290    24.1840     2.2010   -12.0440 
   66.1250    90.8150     6.8200     5.9090     6.5170    24.4490     2.1880   -12.3690 
   66.2500    88.9240     6.9240     6.0640     7.3750    24.6930     2.1880   -12.7100 
   66.3750    87.1860     6.8830     6.1190     7.2310    24.8990     2.2020   -13.0960 
   66.5000    86.5940     6.7410     6.0620     6.4070    24.9970     2.2210   -13.5340 
   66.6250    86.9100     6.6460     5.9780     6.1500    24.9580     2.2340   -14.0240 
   66.7500    86.1210     6.7250     5.9990     6.4230    24.8850     2.2490   -14.5200 
   66.8750    86.8100     7.0210     6.1950     6.7980    24.7650     2.2800   -14.9560 
   67.0000    91.5550     7.5310     6.5770     6.8680    24.5410     2.3280   -15.3290 
   67.1250    94.8550     8.2040     7.0880     8.4230    24.2970     2.3520   -15.7120 
