~V
VERS. 2.00: Ver 2.00
~W
STRT.M 56.0000:
STOP.M 270.0000:
STEP.M 0.1250:
NULL. -999.2500:
UWI. F10225:
~C
DEPT.M :
SP.MV :
DEN.GM/CC :
GR.API :
RML.OHMM :
RI. :
RXO.OHMM :
CALI.CM :
~A
# ...
  191.0000   -27.3140     2.2510    55.9700    73.2520    75.2310    96.5090    24.2040 
  191.1250   -27.3780     2.2650    55.0390    60.6500    62.3270    71.0540    24.0890 
  191.2500   -27.4420     2.2780    56.0770    49.7840    51.0210    61.2290    23.8130 
  191.3750   -27.4860     2.2890    61.0970    41.3680    42.3100    56.2060    23.4400 
  191.5000   -27.5420     2.3000    66.5560    35.6990    36.3790    45.4580    23.1250 
  191.6250   -27.6380     2.3050    68.0400    33.5480    33.6850    33.0490    23.0100 
  191.7500   -27.8120     2.2990    66.9450    35.1010    34.1840    29.3550    23.0290 
  191.8750   -28.0430     2.2810    65.7180    40.8070    38.3450    34.3910    23.0700 
  192.0000   -28.2720     2.2570    63.6770    51.1970    47.1310    48.9340    23.0740 
  192.1250   -28.4550     2.2380    59.5730    66.6380    61.9320    77.2830    23.0260 
  192.2500   -28.6110     2.2290    55.8570    84.6950    80.8630   102.4580    22.9860 
  192.3750   -28.7890     2.2270    54.4270   101.0210    99.2920   116.8640    23.0580 
  192.5000   -29.0280     2.2290    56.0310   110.2010   110.9580   124.8760    23.3030 
  192.6250   -29.3000     2.2330    58.3370   106.6210   108.9800   121.6220    23.6300 
  192.7500   -29.5220     2.2440    59.0090    92.4740    94.9760   116.4450    23.8310 
  192.8750   -29.6960     2.2610    58.2170    73.5950    75.4230   111.5420    23.9130 
  193.0000   -29.8700     2.2790    57.7760    55.7150    56.9630    86.1080    23.9730 
  193.1250   -30.0890     2.2960    58.7130    43.0360    43.9820    49.1390    24.0620 
  193.2500   -30.3700     2.3080    59.7760    35.7930    36.3490    24.8100    24.1260 
  193.3750   -30.7080     2.3120    59.9470    32.8870    32.7680    19.0700    24.1490 
  193.5000   -31.0750     2.3060    60.2190    33.0830    32.0990    26.2140    24.1570 
  193.6250   -31.4260     2.2970    61.5530    35.4590    33.7240    37.0010    24.1650 
  193.7500   -31.7390     2.2900    62.4360    39.0110    36.8450    41.8250    24.1820 
  193.8750   -31.9920     2.2840    60.6410    43.1930    40.8670    41.7580    24.2040 
  194.0000   -32.1740     2.2780    57.3100    47.9200    45.4670    43.5980    24.1980 
  194.1250   -32.2750     2.2700    55.8790    53.5660    50.7850    52.2860    24.1960 
  194.2500   -32.2990     2.2620    56.4250    60.1220    56.8690    66.7230    24.2040 
  194.3750   -32.2490     2.2550    57.6180    66.9380    63.1850    80.3430    24.1950 
  194.5000   -32.1260     2.2480    58.5290    72.9110    68.6430    85.4730    24.1610 
  194.6250   -31.9280     2.2450    59.7010    76.9090    72.0380    78.3910    24.1230 
  194.7500   -31.6720     2.2440    61.4120    79.0330    73.4620    71.8190    24.1190 
  194.8750   -31.3890     2.2460    62.1100    79.7800    73.4710    65.9520    24.1590 
  195.0000   -31.0810     2.2490    60.8070    79.5530    72.5730    61.2100    24.2630 
  195.1250   -30.7600     2.2510    58.7020    78.5880    71.1410    63.9210    24.3940 
  195.2500   -30.4550     2.2530    57.7650    77.4450    69.6730    70.9670    24.4510 
  195.3750   -30.1560     2.2570    56.7380    76.9890    68.8150    69.4630    24.4290 
  195.5000   -29.8340     2.2600    54.0140    78.2230    69.3440    62.5120    24.3830 
  195.6250   -29.4950     2.2610    52.1240    82.1680    72.1860    67.7710    24.3400 
  195.7500   -29.2020     2.2600    51.9100    88.4610    77.2000    82.8230    24.2900 
  195.8750   -28.9830     2.2620    50.9260    95.9660    83.6130    98.5750    24.2290 
  196.0000   -28.8390     2.2710    47.9590   102.9100    90.0480   107.7820    24.1750 
  196.1250   -28.7300     2.2910    44.7500   106.8370    94.3600   106.7850    24.1040 
  196.2500   -28.6050     2.3210    43.5380   107.2610    95.7390   102.0500    24.0460 
  196.3750   -28.4530     2.3530    44.2850   105.1950    94.7200   104.2970    24.0490 
  196.5000   -28.2830     2.3780    46.0580   101.8120    92.2320   111.2940    24.2140 
  196.6250   -28.1330     2.3970    47.1990    97.3460    88.5150   106.6010    24.3990 
  196.7500   -27.9930     2.4140    47.1930    91.7180    83.5580    95.7910    24.4840 
  196.8750   -27.8340     2.4260    48.5050    85.2110    77.6120    91.2330    24.3840 
  197.0000   -27.6510     2.4200    52.3910    78.7290    71.4950    90.9610    24.1530 
  197.1250   -27.4390     2.3940    56.2230    73.9210    66.7370    81.6410    24.1070 
  197.2500   -27.1910     2.3770    58.2440    71.9710    64.4760    69.0730    24.1860 
  197.3750   -26.9110     2.3950    58.6680    73.7190    65.4730    64.8450    24.2380 
  197.5000   -26.6020     2.4500    56.8660    79.8920    70.3590    74.6490    24.1770 
  197.6250   -26.2400     2.5240    51.8970    91.7510    80.3050    89.8170    24.0090 
  197.7500   -25.8320     2.5950    46.9200   108.2400    94.4990   104.2630    23.8500 
  197.8750   -25.3970     2.6460    45.5550   124.7330   109.1540   119.7430    23.7710 
  198.0000   -24.9310     2.6740    46.7100   130.7080   115.4920   144.7450    23.7440 
  198.1250   -24.4360     2.6860    46.9540   113.4990   101.6930   181.1510    23.7010 
  198.2500   -23.9120     2.6960    45.7990    82.1030    74.2560   175.6570    23.6300 
  198.3750   -23.3640     2.7070    45.8600    52.0470    47.1980   101.6350    23.5090 
  198.5000   -22.8270     2.7090    48.8820    30.8550    28.0820    39.5560    23.3230 
  198.6250   -22.3620     2.6750    52.2020    17.1540    17.5750    15.1460    23.1480 
  198.7500   -21.9780     2.6080    53.1910    11.1220    12.1390     9.5540    23.0140 
  198.8750   -21.6320     2.5350    51.9820     8.7100     9.3220     8.9170    22.9110 
  199.0000   -21.3010     2.4810    50.9570     7.7330     7.9330     8.7510    22.8300 
  199.1250   -21.0170     2.4490    50.6970     7.4870     7.4040     8.1360    22.7650 
  199.2500   -20.8420     2.4310    50.6620     7.5150     7.3150     7.4370    22.7170 
  199.3750   -20.7940     2.4190    51.1190     7.6670     7.4690     7.1390    22.7140 
  199.5000   -20.8580     2.4140    51.6230     7.9530     7.7950     7.5840    22.7640 
  199.6250   -20.9770     2.4140    50.9170     8.4090     8.2830     8.7850    22.8430 
  199.7500   -21.1030     2.4130    48.9000     8.9610     8.8740     9.8640    22.9260 
  199.8750   -21.2490     2.4080    46.9120     9.4940     9.4710    10.3340    23.0360 
  200.0000   -21.4460     2.3950    45.9710     9.9060     9.9580    10.5110    23.1860 
  200.1250   -21.6880     2.3730    44.6970    10.1300    10.2140     9.7740    23.3620 
  200.2500   -21.9370     2.3420    43.3110    10.2020    10.2540     9.4020    23.5500 
  200.3750   -22.1790     2.3130    43.1070    10.1770    10.1520    10.2050    23.6940 
  200.5000   -22.4030     2.2980    44.7720    10.0860     9.9790    11.6240    23.7610 
  200.6250   -22.6120     2.3030    47.0060     9.9370     9.7680    12.6050    23.7870 
  200.7500   -22.8200     2.3160    48.3800     9.7420     9.5140    12.7670    23.8310 
  200.8750   -23.0320     2.3330    48.3880     9.5200     9.2110    12.1810    23.9100 
  201.0000   -23.2230     2.3500    46.8340     9.3000     8.8780    11.2280    23.9870 
  201.1250   -23.3670     2.3710    44.2290     9.1350     8.5650    10.7430    23.9900 
  201.2500   -23.4770     2.3980    41.6570     9.0470     8.3210    10.4050    23.9480 
  201.3750   -23.5770     2.4240    40.2650     9.0230     8.1670    10.0850    23.8710 
  201.5000   -23.6760     2.4360    40.3920     9.0300     8.0970     9.7140    23.7950 
  201.6250   -23.7710     2.4310    40.4810     9.0410     8.0940     9.6070    23.7280 
  201.7500   -23.8310     2.4210    39.0520     9.0440     8.1100     9.6470    23.6670 
  201.8750   -23.8500     2.4140    36.3890     9.0290     8.0930     9.6630    23.5880 
  202.0000   -23.8660     2.4080    34.9750     8.9910     8.0080     9.5510    23.4920 
  202.1250   -23.9350     2.3990    36.7430     8.9290     7.8560     8.9170    23.3990 
