~V
VERS. 2.00: Ver 2.00
~W
STRT.M 48.0000:
STOP.M 276.0000:
STEP.M 0.1250:
NULL. -999.2500:
UWI. F10244:
~C
DEPT.M :
GR.API :
RML.OHMM :
RI. :
RXO.OHMM :
CALI.CM :
DEN.GM/CC :
SP.MV :
~A
# ...
  250.5000    65.8340     7.4910     6.5870     7.3880    25.1110     2.2650   -10.4140 
  250.6250    65.6770     7.6140     6.6710     7.7020    25.1280     2.2360   -10.4980 
  250.7500    63.7900     7.7410     6.7660     7.8190    25.2360     2.1990   -10.5710 
  250.8750    61.4730     7.8320     6.8330     8.0510    25.5870     2.1580   -10.6370 
  251.0000    60.3600     7.8600     6.8460     8.1770    25.8530     2.1200   -10.6920 
  251.1250    60.9810     7.8170     6.7950     8.0090    25.7840     2.0880   -10.7460 
  251.2500    62.3180     7.7180     6.6900     7.1980    25.1500     2.0730   -10.7720 
  251.3750    63.1760     7.6050     6.5620     6.5410    24.8650     2.0930   -10.7520 
  251.5000    63.8950     7.5260     6.4560     6.3570    25.2730     2.1460   -10.7000 
  251.6250    66.1130     7.5050     6.4010     6.5700    25.6000     2.2210   -10.7080 
  251.7500    68.3900     7.5430     6.4020     6.6000    25.5100     2.2970   -10.7800 
  251.8750    65.9110     7.6200     6.4490     6.3560    25.1810     2.3430   -10.8350 
  252.0000    61.7400     7.6930     6.5000     6.0630    25.0900     2.3560   -10.8530 
  252.1250    59.1590     7.7290     6.5240     5.7920    25.0780     2.3400   -10.8530 
  252.2500    59.8460     7.7160     6.5070     5.5860    25.0840     2.3140   -10.8610 
  252.3750    62.7470     7.6670     6.4600     5.6220    25.0820     2.2990   -10.8870 
  252.5000    64.3070     7.6340     6.4250     5.7380    25.0930     2.3050   -10.9250 
  252.6250    62.3080     7.6650     6.4400     5.7980    25.1640     2.3270   -10.9090 
  252.7500    57.6520     7.7910     6.5300     5.7920    25.1350     2.3520   -10.8290 
  252.8750    55.2960     8.0140     6.7060     5.8390    25.0360     2.3660   -10.7160 
  253.0000    56.0430     8.2570     6.9120     5.8240    25.0770     2.3720   -10.6590 
  253.1250    55.8950     8.4390     7.0880     5.6270    25.1650     2.3790   -10.6450 
  253.2500    54.1640     8.4890     7.1730     5.3290    25.1730     2.3950   -10.6190 
  253.3750    53.0730     8.3630     7.1090     5.3260    25.5230     2.4140   -10.5830 
  253.5000    54.6060     8.1280     6.9350     5.5670    26.4420     2.4150   -10.5710 
  253.6250    56.7030     7.8530     6.6990     5.6990    27.2210     2.3860   -10.5710 
  253.7500    56.7450     7.5980     6.4560     5.4980    27.0470     2.3280   -10.5870 
  253.8750    54.8640     7.4120     6.2570     5.3880    26.5000     2.2600   -10.6270 
  254.0000    54.7130     7.2950     6.1160     5.5010    26.6440     2.2100   -10.6720 
  254.1250    56.4030     7.2400     6.0300     5.7770    26.9920     2.1950   -10.7160 
  254.2500    56.4160     7.2300     5.9880     6.0640    27.1170     2.2120   -10.7480 
  254.3750    54.3820     7.2420     5.9720     6.3360    26.9950     2.2460   -10.7800 
  254.5000    53.5880     7.2500     5.9590     6.0720    26.6360     2.2670   -10.7640 
  254.6250    54.2940     7.2390     5.9380     5.4150    26.1630     2.2630   -10.7600 
  254.7500    55.5730     7.2120     5.9050     5.0830    25.8090     2.2370   -10.8370 
  254.8750    55.6800     7.1840     5.8700     5.1900    25.5360     2.2090   -10.8790 
  255.0000    56.4520     7.1820     5.8550     5.1620    25.7530     2.1920   -10.8210 
  255.1250    57.3880     7.2200     5.8750     5.0910    26.6960     2.1800   -10.7380 
  255.2500    57.8540     7.2960     5.9340     5.0540    27.5790     2.1580   -10.7320 
  255.3750    57.1680     7.3970     6.0200     4.9460    28.1890     2.1130   -10.7780 
  255.5000    56.2620     7.5000     6.1100     5.0010    28.7960     2.0640   -10.8570 
  255.6250    55.7450     7.6020     6.1990     5.3340    29.6130     2.0400   -10.9110 
  255.7500    55.3900     7.7120     6.3000     5.8330    30.1260     2.0680   -10.9010 
  255.8750    55.8890     7.8490     6.4330     6.0920    29.7410     2.1630   -10.9490 
  256.0000    56.1750     8.0000     6.5910     6.0120    28.2930     2.2890   -11.0900 
  256.1250    54.2630     8.1300     6.7420     5.9310    26.4120     2.4090   -11.2500 
  256.2500    51.5060     8.1930     6.8400     5.9340    25.3690     2.4910   -11.3360 
  256.3750    50.7710     8.1440     6.8290     6.0100    25.2670     2.5040   -11.3700 
  256.5000    51.4200     8.0250     6.7360     5.8900    25.3880     2.4620   -11.4370 
  256.6250    50.6690     7.8940     6.6100     5.6400    25.6400     2.3820   -11.5460 
  256.7500    48.8060     7.8130     6.5100     5.4810    26.0430     2.2860   -11.6260 
  256.8750    49.1930     7.8260     6.4880     5.5230    26.2890     2.2000   -11.6260 
  257.0000    52.4630     7.8940     6.5280     5.6520    25.9330     2.1290   -11.6380 
  257.1250    56.2400     7.9650     6.5900     5.8850    25.4760     2.0660   -11.6620 
  257.2500    57.1010     7.9840     6.6300     6.0860    25.3210     1.9970   -11.6910 
  257.3750    55.2460     7.9190     6.6100     6.0270    25.2780     1.9180   -11.7310 
  257.5000    54.3080     7.8080     6.5500     5.9730    25.2050     1.8490   -11.7150 
  257.6250    54.4920     7.7030     6.4870     6.0660    25.0970     1.8150   -11.6930 
  257.7500    54.4360     7.6530     6.4620     6.4670    24.9810     1.8280   -11.7390 
  257.8750    55.0490     7.7020     6.5150     6.9940    24.8520     1.8800   -11.8080 
  258.0000    56.2960     7.8290     6.6360     7.2050    24.8020     1.9400   -11.8080 
  258.1250    57.3340     8.0030     6.7980     7.1920    24.7890     1.9920   -11.7950 
  258.2500    56.9910     8.1790     6.9640     7.0590    24.7760     2.0300   -11.8360 
  258.3750    56.8710     8.3080     7.0940     7.0130    24.7820     2.0470   -11.9360 
  258.5000    58.2980     8.3700     7.1680     7.0490    24.8020     2.0460   -12.0690 
  258.6250    59.2540     8.3630     7.1850     7.0640    24.8110     2.0370   -12.1420 
  258.7500    58.3470     8.2970     7.1520     7.0900    24.8130     2.0380   -12.1340 
  258.8750    54.9300     8.1900     7.0810     7.2500    24.8300     2.0670   -12.1320 
  259.0000    52.9660     8.0730     6.9990     7.3250    24.8470     2.1160   -12.1780 
  259.1250    54.1630     7.9640     6.9210     7.2750    24.8420     2.1640   -12.2610 
  259.2500    55.6840     7.8790     6.8570     7.1480    24.8350     2.1930   -12.3030 
  259.3750    56.8430     7.8380     6.8120     7.2640    24.8440     2.1990   -12.2550 
  259.5000    58.3070     7.8410     6.7870     7.2990    24.8790     2.2070   -12.1780 
  259.6250    58.6060     7.8820     6.7840     7.3010    24.9530     2.2340   -12.1500 
  259.7500    57.7810     7.9440     6.8040     7.3520    25.0670     2.2800   -12.1820 
  259.8750    58.2100     7.9990     6.8420     7.3800    25.0310     2.3280   -12.2020 
  260.0000    59.7810     8.0340     6.8860     7.5980    24.8780     2.3580   -12.2260 
  260.1250    59.7990     8.0570     6.9320     7.9900    24.8010     2.3650   -12.2570 
  260.2500    58.6740     8.0890     6.9790     8.5560    24.7830     2.3570   -12.3270 
  260.3750    59.8430     8.1520     7.0320     9.0340    24.7730     2.3530   -12.4360 
  260.5000    60.6860     8.2340     7.0890     9.4450    24.7850     2.3630   -12.5410 
  260.6250    60.0570     8.3060     7.1430    10.0580    24.8100     2.3870   -12.6450 
  260.7500    59.7450     8.3420     7.1900    10.7490    24.8360     2.4190   -12.7300 
  260.8750    60.2230     8.3420     7.2360    10.4820    24.8600     2.4500   -12.8050 
  261.0000    60.3630     8.3450     7.2960    10.2920    24.8730     2.4760   -12.8350 
  261.1250    60.0390     8.3790     7.3700    10.5730    24.8740     2.4960   -12.8290 
  261.2500    59.2820     8.4430     7.4450    11.2950    24.8690     2.5080   -12.8510 
  261.3750    59.2950     8.4920     7.4860    11.4630    24.8520     2.5110   -12.9350 
  261.5000    61.0630     8.4780     7.4670    10.8820    24.8180     2.5070   -13.0320 
  261.6250    64.0010     8.3870     7.3830    10.1300    24.8010     2.4980   -13.1050 
