~V
VERS. 2.00: Ver 2.00
~W
STRT.M 53.0000:
STOP.M 267.0000:
STEP.M 0.1250:
NULL. -999.2500:
UWI. F10211:
~C
DEPT.M :
GR.API :
RML.OHMM :
RI. :
RXO.OHMM :
CALI.CM :
SP.MV :
DEN.GM/CC :
~A
# ...
  165.5000    82.0530     5.1790     5.3410     4.9020    24.1640   -12.0680     2.2850 
  165.6250    84.9950     5.0290     5.2200     4.8410    24.1660   -12.2670     2.2640 
  165.7500    85.6380     4.9440     5.1000     4.6290    24.1650   -12.4690     2.2430 
  165.8750    83.3890     4.9710     5.0250     4.4940    24.1710   -12.6720     2.2310 
  166.0000    81.5410     5.1400     5.0330     4.5360    24.1870   -12.9030     2.2370 
  166.1250    81.2500     5.4040     5.1080     4.7750    24.2120   -13.1690     2.2570 
  166.2500    81.9730     5.6860     5.2050     4.9820    24.2280   -13.4880     2.2780 
  166.3750    82.8560     5.8930     5.2620     5.1460    24.2280   -13.8780     2.2920 
  166.5000    83.5040     5.9190     5.1890     5.2320    24.1710   -14.3440     2.2970 
  166.6250    84.5880     5.7890     4.9860     5.2330    24.0360   -14.8830     2.2990 
  166.7500    86.6750     5.6350     4.7320     5.1640    23.8800   -15.5170     2.3040 
  166.8750    90.1680     5.6660     4.5700     5.0930    23.7740   -16.2600     2.3080 
  167.0000    92.7490     6.2390     4.7220     5.3510    23.7830   -17.1120     2.3030 
  167.1250    90.7020     7.6770     5.3730     6.5620    23.9820   -18.0600     2.2900 
  167.2500    84.1730    10.4300     6.7900     9.9040    24.3160   -19.0880     2.2720 
  167.3750    77.3110    15.1020     9.3860    15.3960    24.5760   -20.1690     2.2550 
  167.5000    74.0750    21.1250    14.1540    22.7650    24.6730   -21.2800     2.2430 
  167.6250    72.5390    31.3280    21.8560    28.9540    24.7110   -22.4050     2.2320 
  167.7500    69.5550    45.6550    33.2450    35.5910    24.7900   -23.5040     2.2200 
  167.8750    65.2600    63.7550    48.4870    48.5330    24.9320   -24.5510     2.2070 
  168.0000    62.6800    84.4330    66.5530    78.6550    25.0860   -25.5190     2.1980 
  168.1250    63.8720   104.2020    84.3580   104.2870    25.1870   -26.3940     2.1980 
  168.2500    66.2120   119.1970    98.7040   107.7580    25.2350   -27.1730     2.2040 
  168.3750    65.4610   127.2670   107.6170    97.7530    25.2640   -27.8590     2.2110 
  168.5000    62.8210   129.5400   111.3330    91.7470    25.2670   -28.4430     2.2160 
  168.6250    62.3480   130.4240   113.2200    96.8040    25.2600   -28.9330     2.2170 
  168.7500    63.6970   132.5320   115.8290   103.2780    25.2980   -29.3480     2.2140 
  168.8750    65.0100   136.0720   119.9740   102.6570    25.3780   -29.7020     2.2070 
  169.0000    65.4610   138.8580   124.5410    97.6640    25.4120   -30.0010     2.2040 
  169.1250    64.6800   137.4420   126.6890    97.3080    25.3050   -30.2580     2.2100 
  169.2500    63.3860   129.0620   123.4370   100.3410    25.1540   -30.4660     2.2260 
  169.3750    64.0010   113.5930   113.3170   101.6240    25.0370   -30.6160     2.2480 
  169.5000    67.8090    94.1290    97.3390    87.3250    24.9370   -30.7210     2.2750 
  169.6250    71.4600    75.5140    79.9100    63.0120    24.8440   -30.8190     2.2980 
  169.7500    73.4820    60.5500    64.5450    41.1180    24.7720   -30.9330     2.3160 
  169.8750    75.1430    50.0600    52.9830    28.1380    24.6880   -31.0630     2.3280 
  170.0000    77.8620    44.1820    45.9770    22.9850    24.5400   -31.2060     2.3310 
  170.1250    80.2750    41.7050    42.5210    21.8570    24.4090   -31.3680     2.3220 
  170.2500    80.4410    41.8310    41.8220    22.4220    24.3510   -31.5600     2.3070 
  170.3750    78.4800    44.0940    43.3780    23.6580    24.3510   -31.7930     2.2930 
  170.5000    76.2800    48.4230    47.0770    24.9840    24.2560   -32.0730     2.2840 
  170.6250    74.3460    54.5620    52.5970    26.2350    24.1890   -32.3760     2.2770 
  170.7500    72.6630    62.6140    59.9820    31.4970    24.2010   -32.6850     2.2690 
  170.8750    71.7110    72.7950    69.3760    44.5730    24.2930   -33.0000     2.2580 
  171.0000    70.1660    85.3230    80.7970    61.4740    24.3680   -33.3250     2.2510 
  171.1250    67.0850    99.4410    93.3350    73.2250    24.3280   -33.6630     2.2490 
  171.2500    63.8420   114.1960   105.9990    82.6960    24.2560   -33.9970     2.2480 
  171.3750    62.4550   128.6490   117.9630    96.3570    24.2020   -34.3230     2.2420 
  171.5000    61.5850   142.0230   128.6290   107.0800    24.2420   -34.6370     2.2270 
  171.6250    60.3270   154.4480   138.2810   110.9020    24.4500   -34.9190     2.2090 
  171.7500    58.6370   166.2930   147.4260   109.5890    24.7970   -35.1610     2.1950 
  171.8750    56.5260   177.8060   156.5450   109.8280    25.0780   -35.3580     2.1900 
  172.0000    55.4760   189.2240   166.2430   115.2390    25.1940   -35.5040     2.1940 
  172.1250    57.1940   200.2480   176.5070   122.7430    25.2200   -35.5790     2.1990 
  172.2500    61.0140   209.1850   186.1580   132.1350    25.2160   -35.5980     2.2020 
  172.3750    63.4630   213.0230   192.7750   143.4320    25.1550   -35.5740     2.2060 
  172.5000    62.9740   207.7310   192.5830   146.3480    24.9700   -35.5040     2.2130 
  172.6250    61.6780   193.9560   184.9740   136.8250    24.7100   -35.3930     2.2250 
  172.7500    60.6040   174.2480   171.1440   116.6170    24.4330   -35.2630     2.2380 
  172.8750    58.6850   171.7730   153.3100    96.2290    24.0760   -35.1210     2.2490 
  173.0000    56.6370   152.0150   134.2640    81.8720    23.7490   -34.9580     2.2560 
  173.1250    57.0430   130.0400   116.7090    73.4260    23.6670   -34.8070     2.2630 
  173.2500    59.1210   113.0380   102.3960    67.5390    23.7910   -34.6790     2.2690 
  173.3750    60.2830   101.4200    92.2530    62.1780    23.9690   -34.5700     2.2720 
  173.5000    62.0380    95.3700    86.9750    55.4340    24.0510   -34.4770     2.2660 
  173.6250    65.6440    93.1740    85.3800    52.3160    23.9700   -34.4050     2.2600 
  173.7500    68.1230    93.0120    85.9620    54.0180    23.6620   -34.3290     2.2600 
  173.8750    66.2910    93.0010    87.0080    58.2440    23.2510   -34.2340     2.2660 
  174.0000    63.4650    91.1020    86.4690    57.2770    22.9520   -34.1320     2.2720 
  174.1250    65.7490    86.9070    83.5650    50.6770    22.8690   -34.0300     2.2720 
  174.2500    72.0970    81.3440    78.8070    43.8220    22.9070   -33.9280     2.2630 
  174.3750    76.4370    75.9430    73.5260    40.0240    22.9600   -33.8260     2.2480 
  174.5000    74.6260    72.1860    69.2660    40.0400    23.0140   -33.7400     2.2300 
  174.6250    71.8380    70.2940    66.5600    41.9580    23.1590   -33.6750     2.2160 
  174.7500    72.4360    69.9940    65.3280    44.6880    23.4310   -33.6290     2.2110 
  174.8750    73.4390    70.9770    65.3200    49.8300    23.6270   -33.6080     2.2180 
  175.0000    70.8540    73.3730    66.5950    56.7180    23.7270   -33.6030     2.2340 
  175.1250    66.8050    77.4570    69.2940    60.4410    23.9280   -33.5920     2.2460 
  175.2500    63.8590    83.7930    73.8470    61.1820    24.3120   -33.5620     2.2470 
  175.3750    62.8780    92.9040    80.7480    67.5650    24.6490   -33.5080     2.2380 
  175.5000    64.2820   105.1840    90.5420    87.2580    24.7500   -33.4100     2.2270 
  175.6250    67.3610   119.3950   102.3710   102.7820    24.6770   -33.2740     2.2230 
  175.7500    68.7990   133.6730   114.7790    96.2970    24.4190   -33.1110     2.2280 
  175.8750    66.8300   146.0190   126.0550    77.2540    23.8810   -32.9240     2.2370 
  176.0000    63.5560   154.8980   134.6580    63.6740    23.1110   -32.7320     2.2460 
  176.1250    61.1010   161.4120   141.1690    58.6390    22.4910   -32.5380     2.2600 
  176.2500    59.5730   167.2250   146.9230    58.5020    22.1740   -32.3410     2.2800 
  176.3750    58.6920   173.0380   152.7260    59.8530    22.1370   -32.1300     2.2940 
  176.5000    58.2130   176.9950   157.4640    58.9610    22.2900   -31.9010     2.2870 
  176.6250    58.2630   175.2490   158.0980    57.9850    22.4890   -31.6680     2.2640 
