~V
VERS. 2.00: Ver 2.00
~W
STRT.M 55.0000:
STOP.M 276.0000:
STEP.M 0.1250:
NULL. -999.2500:
UWI. F10239:
~C
DEPT.M :
SP.MV :
DEN.GM/CC :
GR.API :
RML.OHMM :
RI. :
RXO.OHMM :
CALI.CM :
~A
# ...
  235.0000   -21.5280     2.2480    62.8400    49.5760    46.0080    44.9780    23.0880 
  235.1250   -21.0880     2.2180    58.8320    43.9760    41.3020    40.0770    23.1650 
  235.2500   -20.6800     2.1800    59.0000    38.6730    36.6500    35.5160    23.1650 
  235.3750   -20.3200     2.1540    61.2200    34.0170    32.4470    30.5930    23.1190 
  235.5000   -19.9920     2.1490    61.5670    30.1290    28.8590    26.3960    23.0310 
  235.6250   -19.6750     2.1590    60.9240    27.0390    25.9590    23.5020    22.9320 
  235.7500   -19.3600     2.1780    63.0850    24.7560    23.7820    21.0390    22.8690 
  235.8750   -19.0930     2.2010    66.9270    23.0890    22.1720    18.8880    22.8640 
  236.0000   -18.8800     2.2220    69.0450    21.9080    21.0250    17.8230    22.8620 
  236.1250   -18.6940     2.2350    68.3430    21.0700    20.2160    17.9110    22.8310 
  236.2500   -18.5150     2.2380    66.6150    20.4800    19.6620    18.4340    22.7820 
  236.3750   -18.2990     2.2400    66.7280    20.1120    19.3100    18.2050    22.7650 
  236.5000   -18.0400     2.2460    68.9510    20.0670    19.2310    17.3830    22.8090 
  236.6250   -17.7570     2.2560    70.2670    20.4840    19.5370    16.9250    22.8970 
  236.7500   -17.4970     2.2650    68.7040    21.4660    20.3400    17.4610    22.9720 
  236.8750   -17.2690     2.2690    66.7470    22.8430    21.5360    19.2280    23.0790 
  237.0000   -17.0670     2.2680    65.3620    24.3420    22.9260    21.9290    23.1960 
  237.1250   -16.8890     2.2660    63.9090    25.5650    24.1580    23.7410    23.2200 
  237.2500   -16.7320     2.2610    62.4180    26.0990    24.8100    23.5540    23.1040 
  237.3750   -16.6120     2.2490    60.8620    25.9140    24.7740    22.9540    22.9360 
  237.5000   -16.5480     2.2320    59.4630    25.1660    24.1570    22.0380    22.8130 
  237.6250   -16.5390     2.2200    59.4720    24.1410    23.2160    21.2140    22.7320 
  237.7500   -16.5620     2.2200    60.6730    23.1310    22.2290    21.0960    22.7370 
  237.8750   -16.5880     2.2280    62.2710    22.3040    21.3850    21.0170    22.7340 
  238.0000   -16.6060     2.2390    65.0980    21.7070    20.7470    20.0230    22.6110 
  238.1250   -16.6300     2.2470    67.3260    21.3750    20.3570    18.2740    22.3470 
  238.2500   -16.6750     2.2510    65.5020    21.3570    20.2640    17.2510    22.1170 
  238.3750   -16.7450     2.2550    61.6860    21.6270    20.4440    17.7930    22.1430 
  238.5000   -16.8310     2.2570    60.3970    22.1350    20.8670    18.8600    22.2880 
  238.6250   -16.9050     2.2550    61.6140    22.7120    21.4070    19.4290    22.3960 
  238.7500   -16.9720     2.2490    60.3510    22.9880    21.7560    20.1180    22.4220 
  238.8750   -17.0640     2.2440    58.1380    22.6190    21.5600    20.7520    22.4180 
  239.0000   -17.1960     2.2430    59.6600    21.4890    20.6620    20.5990    22.3950 
  239.1250   -17.3400     2.2450    64.6700    19.8480    19.2490    19.4260    22.3540 
  239.2500   -17.4830     2.2430    67.4120    18.2760    17.8120    17.0920    22.3040 
  239.3750   -17.6050     2.2390    66.2150    17.3720    16.8560    14.6940    22.2480 
  239.5000   -17.6720     2.2330    64.7130    17.4650    16.6590    14.1320    22.2170 
  239.6250   -17.7130     2.2300    64.2970    18.6060    17.3450    15.8130    22.2120 
  239.7500   -17.7560     2.2310    63.8270    20.4890    18.8360    18.8880    22.2140 
  239.8750   -17.7810     2.2350    63.6540    22.2950    20.5420    21.8170    22.2000 
  240.0000   -17.7730     2.2410    64.0330    23.3040    21.7730    23.7760    22.1640 
  240.1250   -17.7460     2.2460    63.7700    23.0690    21.9210    23.6920    22.1410 
  240.2500   -17.7010     2.2460    63.5640    21.7020    20.8970    20.4500    22.1520 
  240.3750   -17.6490     2.2390    64.8050    20.0490    19.4480    16.5900    22.1620 
  240.5000   -17.6140     2.2290    66.5180    18.6970    18.1380    14.6440    22.1270 
  240.6250   -17.5910     2.2220    66.9490    17.9420    17.2860    14.5830    22.0890 
  240.7500   -17.5770     2.2200    65.5480    17.8230    16.9900    15.2140    22.0850 
  240.8750   -17.5480     2.2220    64.8960    18.0810    17.0710    15.5520    22.0870 
  241.0000   -17.5100     2.2280    65.8600    18.5280    17.3750    15.9400    22.0540 
  241.1250   -17.4720     2.2360    67.4720    19.0220    17.7610    16.4240    22.0070 
  241.2500   -17.4690     2.2470    68.9340    19.4960    18.1440    16.6550    21.9700 
  241.3750   -17.5050     2.2540    69.2890    19.9510    18.5140    16.6880    21.9070 
  241.5000   -17.5900     2.2540    67.7690    20.3900    18.8790    16.7770    21.8080 
  241.6250   -17.7070     2.2470    63.4900    20.7960    19.2230    16.9250    21.6840 
  241.7500   -17.8230     2.2370    57.9280    21.1550    19.5230    16.8360    21.5910 
  241.8750   -17.9440     2.2300    54.8020    21.4930    19.7860    16.9280    21.6170 
  242.0000   -18.0680     2.2240    55.7480    21.8340    20.0330    17.1940    21.7300 
  242.1250   -18.1980     2.2220    59.2890    22.1880    20.2770    17.5940    21.8160 
  242.2500   -18.3060     2.2250    61.4770    22.5440    20.5290    18.0070    21.8540 
  242.3750   -18.3760     2.2330    61.2570    22.8730    20.7830    18.0810    21.8730 
  242.5000   -18.4040     2.2440    60.3710    23.1480    21.0180    18.0330    21.8920 
  242.6250   -18.3870     2.2510    60.7280    23.3470    21.2090    18.0940    21.9030 
  242.7500   -18.3380     2.2530    62.2180    23.4600    21.3300    18.2940    21.9190 
  242.8750   -18.2840     2.2500    63.1200    23.5030    21.3840    18.8850    21.9530 
  243.0000   -18.2240     2.2400    63.1460    23.4780    21.3790    19.6430    22.0070 
  243.1250   -18.1370     2.2200    62.7910    23.3920    21.3240    20.1790    22.0890 
  243.2500   -18.0090     2.1900    61.7460    23.2560    21.2300    20.2350    22.1800 
  243.3750   -17.8630     2.1620    59.2190    23.1050    21.1170    20.0390    22.3050 
  243.5000   -17.6840     2.1520    56.9630    22.9490    20.9890    19.8280    22.4240 
  243.6250   -17.5040     2.1650    57.4420    22.7570    20.8230    19.7140    22.4910 
  243.7500   -17.3410     2.1950    59.4700    22.4850    20.5880    19.7130    22.5150 
  243.8750   -17.1680     2.2260    59.5510    22.1580    20.3110    19.8720    22.5400 
  244.0000   -16.9700     2.2510    59.1640    21.8650    20.0700    19.5020    22.5650 
  244.1250   -16.7600     2.2620    59.9660    21.7460    19.9780    18.3070    22.5660 
  244.2500   -16.5660     2.2610    60.4850    21.9450    20.1590    17.1350    22.4670 
  244.3750   -16.3970     2.2500    60.2190    22.4350    20.6010    17.4240    22.3150 
  244.5000   -16.2760     2.2370    60.6140    23.1010    21.2220    18.7880    22.1820 
  244.6250   -16.1830     2.2250    62.4060    23.7610    21.8710    19.4110    22.0520 
  244.7500   -16.0750     2.2160    64.3160    24.2240    22.3700    18.1290    21.8480 
  244.8750   -15.9550     2.2110    65.3720    24.4510    22.6540    15.7380    21.4830 
  245.0000   -15.8520     2.2090    65.5010    24.5040    22.7570    13.8960    21.0460 
  245.1250   -15.7780     2.2120    65.0260    24.4900    22.7710    13.7780    20.9590 
  245.2500   -15.7010     2.2180    66.0830    24.4510    22.7530    15.2710    21.3730 
  245.3750   -15.5710     2.2250    68.7880    24.3180    22.6700    17.3360    22.0180 
  245.5000   -15.3790     2.2290    70.2330    24.0310    22.4720    18.9210    22.3870 
  245.6250   -15.1370     2.2310    68.0200    23.6390    22.1940    18.9620    22.4030 
  245.7500   -14.8800     2.2320    64.3070    23.3260    21.9860    18.1600    22.5620 
  245.8750   -14.6480     2.2340    63.3920    23.2830    22.0170    18.1590    23.1950 
  246.0000   -14.4330     2.2350    63.9980    23.5750    22.3760    19.4020    24.0150 
  246.1250   -14.2040     2.2330    62.5820    24.1240    23.0430    21.5690    24.5590 
