~V
VERS. 2.00: Ver 2.00
~W
STRT.M 48.0000:
STOP.M 276.0000:
STEP.M 0.1250:
NULL. -999.2500:
UWI. F10244:
~C
DEPT.M :
GR.API :
RML.OHMM :
RI. :
RXO.OHMM :
CALI.CM :
DEN.GM/CC :
SP.MV :
~A
# ...
  216.7500    63.1150   122.5200   124.5490   126.5980    25.4600     2.2090    -0.6930 
  216.8750    61.8530   118.3050   119.7790   121.9800    25.3860     2.2050    -0.7520 
  217.0000    65.1060   115.8180   116.6690   124.5130    25.2580     2.2000    -0.8460 
  217.1250    67.4850   115.2990   115.5210   121.8830    25.0290     2.1960    -0.9230 
  217.2500    65.3150   116.6330   116.2720   116.3930    24.7190     2.1940    -1.0080 
  217.3750    60.3930   119.5850   118.7530   121.9860    24.5520     2.1950    -1.0700 
  217.5000    57.5170   123.2040   122.0400   134.6970    24.6330     2.1960    -1.1370 
  217.6250    58.1770   126.7750   125.4530   145.6760    24.7500     2.1960    -1.2210 
  217.7500    61.7040   129.6950   128.4220   146.5170    24.7520     2.1950    -1.3060 
  217.8750    65.1230   131.5130   130.5230   133.5550    24.7130     2.1940    -1.3240 
  218.0000    66.5480   132.5720   131.9940   131.2270    24.7890     2.1950    -1.3220 
  218.1250    66.6910   133.2980   133.2230   140.8460    24.9460     2.2000    -1.3020 
  218.2500    65.6650   134.0420   134.5960   144.8890    24.9860     2.2050    -1.2730 
  218.3750    63.2620   134.5430   136.1270   142.2690    24.8770     2.2100    -1.2450 
  218.5000    61.5220   133.6010   136.8610   139.5110    24.7860     2.2170    -1.2290 
  218.6250    61.4900   129.5220   135.0480   141.2710    24.7480     2.2290    -1.1830 
  218.7500    61.8000   121.0350   128.8640   141.9180    24.7220     2.2470    -1.0960 
  218.8750    62.4570   107.9260   116.9660   138.9260    24.7110     2.2670    -1.0180 
  219.0000    63.7840    93.2570   101.9760   128.7650    24.6900     2.2810    -0.9630 
  219.1250    65.2830    79.6610    86.7700   104.8490    24.6540     2.2850    -0.9270 
  219.2500    65.7610    69.0680    74.0420    75.1740    24.5990     2.2760    -0.8870 
  219.3750    66.8000    63.0550    66.2550    59.1440    24.6410     2.2540    -0.8690 
  219.5000    67.9550    61.1130    63.2270    53.1530    24.8050     2.2270    -0.8460 
  219.6250    67.5690    63.2450    64.9680    53.5760    24.9860     2.2020    -0.8180 
  219.7500    66.4630    69.5050    71.3660    64.2030    25.0910     2.1830    -0.8220 
  219.8750    65.3090    80.2040    82.3730    85.4050    25.1560     2.1770    -0.8480 
  220.0000    64.2900    93.2480    95.4640   112.8340    25.2140     2.1780    -0.8100 
  220.1250    65.3570   106.1480   108.0030   130.8070    25.2310     2.1830    -0.7600 
  220.2500    68.3480   116.0970   117.3460   131.2440    25.1740     2.1860    -0.7340 
  220.3750    69.5520   120.3660   121.1330   118.1330    25.1070     2.1840    -0.6750 
  220.5000    67.4630   119.9130   120.4860   118.5630    25.0450     2.1810    -0.6090 
  220.6250    64.8950   116.0570   116.6770   123.2190    25.0260     2.1780    -0.5670 
  220.7500    64.3600   110.2190   110.9940   123.4960    25.0270     2.1790    -0.5000 
  220.8750    65.5360   103.5220   104.3350   113.5960    25.0330     2.1870    -0.4210 
  221.0000    67.3750    97.1090    97.7210    99.6180    25.0390     2.1970    -0.3830 
  221.1250    68.3450    91.7810    92.0530    89.9860    25.0740     2.2060    -0.3510 
  221.2500    68.1020    88.0810    88.0970    86.0040    25.1100     2.2100    -0.2990 
  221.3750    67.6330    86.3090    86.3370    87.8160    25.1340     2.2050    -0.2640 
  221.5000    67.7350    85.5620    85.8110    88.3360    25.1240     2.1980    -0.2740 
  221.6250    68.9420    84.9120    85.4530    99.9080    25.0940     2.1910    -0.2850 
  221.7500    71.0410    83.4600    84.1240   110.6360    25.0880     2.1900    -0.3070 
  221.8750    71.3060    80.5620    80.9600   102.2880    25.0570     2.1950    -0.3170 
  222.0000    69.8940    76.8110    76.6980    88.5320    25.0450     2.2030    -0.3590 
  222.1250    68.4640    73.0600    72.3310    76.9880    25.0430     2.2100    -0.3770 
  222.2500    67.8430    70.2340    68.8810    69.0210    25.0430     2.2150    -0.4280 
  222.3750    68.4560    69.3930    67.5060    63.8920    25.0410     2.2160    -0.4380 
  222.5000    69.5810    70.5790    68.2520    65.4720    25.0520     2.2120    -0.4320 
  222.6250    69.4080    73.6090    70.8910    70.7910    25.0560     2.2050    -0.4260 
  222.7500    66.0750    77.8200    74.7460    80.4820    25.0370     2.1940    -0.3550 
  222.8750    62.2730    81.8320    78.5230    94.1500    25.0290     2.1830    -0.2830 
  223.0000    60.5540    84.1490    80.7260    97.1660    25.0320     2.1790    -0.2420 
  223.1250    60.2910    84.0080    80.5340    95.7640    25.0310     2.1830    -0.2740 
  223.2500    62.5460    81.6610    78.1210    90.8260    25.0240     2.1950    -0.2660 
  223.3750    68.0980    78.3110    74.6420    77.6920    25.0170     2.2070    -0.2620 
  223.5000    71.8630    75.6210    71.8310    65.5420    25.0220     2.2140    -0.2260 
  223.6250    69.9190    74.3470    70.5230    62.5790    25.0360     2.2140    -0.1960 
  223.7500    65.5580    74.5120    70.7130    75.0270    25.0530     2.2120    -0.2580 
  223.8750    64.9010    75.5860    71.7500    87.8760    25.0140     2.2110    -0.3310 
  224.0000    66.2260    76.5060    72.6290    89.7760    24.8980     2.2130    -0.2950 
  224.1250    66.2520    76.4250    72.7440    79.7500    24.7070     2.2190    -0.1980 
  224.2500    64.1570    74.4790    71.4790    67.1860    24.4630     2.2310    -0.1620 
  224.3750    64.2500    69.5280    67.6090    61.8900    24.2850     2.2530    -0.1920 
  224.5000    66.6390    62.2530    61.0950    69.4990    24.2160     2.2800    -0.2100 
  224.6250    68.7490    53.9950    52.8470    66.4470    24.2300     2.3060    -0.1800 
  224.7500    69.1300    46.5470    44.7760    46.9380    24.2520     2.3210    -0.1540 
  224.8750    69.3490    41.8680    39.3150    28.9880    24.2220     2.3130    -0.1960 
  225.0000    70.3490    40.3580    37.3420    22.8710    24.0870     2.2880    -0.2460 
  225.1250    70.1210    42.5150    39.5310    26.3190    23.8920     2.2540    -0.3090 
  225.2500    69.0460    49.0560    46.3620    48.0990    23.8930     2.2220    -0.3870 
  225.3750    68.9280    60.9020    58.0470    76.6650    24.1240     2.2020    -0.5020 
  225.5000    68.0400    74.4520    70.9190    88.0550    24.3520     2.1960    -0.6290 
  225.6250    65.7180    84.3210    80.0130    82.7420    24.2930     2.2010    -0.7500 
  225.7500    64.7130    86.0180    81.2240    75.2530    24.1140     2.2150    -0.8460 
  225.8750    66.9810    78.8960    74.2550    65.5630    23.9610     2.2320    -0.9510 
  226.0000    68.6460    69.2800    64.9690    55.5650    23.8560     2.2470    -1.1320 
  226.1250    68.8760    61.1870    56.8230    46.8990    23.8680     2.2640    -1.3320 
  226.2500    69.7620    56.3940    51.5840    40.3620    24.0340     2.2960    -1.4510 
  226.3750    71.7750    56.1820    50.9950    35.9660    24.2360     2.3620    -1.4490 
  226.5000    71.8140    60.4890    55.4000    36.8040    24.3770     2.4550    -1.4670 
  226.6250    69.9180    68.3560    65.0210    49.9040    24.4310     2.5600    -1.5570 
  226.7500    67.7370    74.5310    77.4180    89.8690    24.4540     2.6510    -1.6840 
  226.8750    64.8260    69.2420    82.0230   223.1900    24.4910     2.6940    -1.7830 
  227.0000    61.7800    53.3760    70.4570   274.5320    24.5800     2.6800    -1.8130 
  227.1250    59.7760    34.3950    48.3540   124.9850    24.7110     2.6120    -1.8310 
  227.2500    59.7490    19.7720    28.1940    33.1400    24.8700     2.5070    -1.9500 
  227.3750    61.1250    12.2410    16.5440    11.7900    24.9530     2.4010    -2.2260 
  227.5000    64.6620     8.5230    10.4810     6.9130    24.8380     2.3280    -2.5670 
  227.6250    71.9140     6.9210     7.6750     6.9480    24.7510     2.3030    -2.9370 
  227.7500    80.4480     6.4440     6.6230     8.4280    24.8610     2.3200    -3.3520 
  227.8750    84.8540     6.7210     6.7000     9.0570    24.9880     2.3570    -3.8050 
