~V
VERS. 2.00: Ver 2.00
~W
STRT.M 53.0000:
STOP.M 267.0000:
STEP.M 0.1250:
NULL. -999.2500:
UWI. F10211:
~C
DEPT.M :
GR.API :
RML.OHMM :
RI. :
RXO.OHMM :
CALI.CM :
SP.MV :
DEN.GM/CC :
~A
# ...
   98.0000    63.5970     7.2980     6.5320    10.1430    30.2380   -21.9500     2.1980 
   98.1250    72.0540     6.7980     6.0350     7.3700    28.8520   -20.8600     2.2440 
   98.2500    79.4810     6.5600     5.7080     6.3320    27.6770   -20.0600     2.2610 
   98.3750    83.8530     6.6690     5.6320     6.6590    26.8610   -19.5940     2.2630 
   98.5000    84.4290     7.1670     5.8670     7.4330    26.3240   -19.5320     2.2620 
   98.6250    82.8250     7.9360     6.3620     8.2890    26.0190   -19.8070     2.2630 
   98.7500    80.7600     8.8370     7.0420     9.4310    25.9490   -20.3580     2.2630 
   98.8750    78.0560     9.7240     7.8090    10.6980    25.9880   -21.1240     2.2620 
   99.0000    74.1980    10.4650     8.5500    11.5840    25.9320   -22.0230     2.2590 
   99.1250    70.7540    11.0240     9.1910    12.7360    25.7720   -22.9500     2.2520 
   99.2500    68.1550    11.3910     9.6830    14.3730    25.7060   -23.8390     2.2470 
   99.3750    65.3510    11.5630     9.9930    15.4900    25.8930   -24.6530     2.2480 
   99.5000    62.5190    11.5350    10.0920    15.6160    26.3220   -25.3460     2.2490 
   99.6250    61.7600    11.3720    10.0270    15.3820    26.8590   -25.9280     2.2440 
   99.7500    62.9560    11.1370     9.8470    15.1100    27.4130   -26.4130     2.2350 
   99.8750    64.7240    10.8810     9.6010    14.8430    27.8840   -26.7930     2.2250 
  100.0000    65.0440    10.6480     9.3400    14.6280    28.2130   -27.0590     2.2130 
  100.1250    64.0750    10.4560     9.1020    13.9300    28.3750   -27.2460     2.1990 
  100.2500    62.9530    10.3170     8.9140    13.1100    28.4490   -27.3860     2.1830 
  100.3750    61.6110    10.2660     8.8100    12.9520    28.6830   -27.4970     2.1700 
  100.5000    60.1330    10.3900     8.8550    13.0730    29.1190   -27.6260     2.1560 
  100.6250    59.9840    10.7130     9.0730    12.8860    29.4160   -27.7830     2.1350 
  100.7500    61.0000    11.2080     9.4570    12.4310    29.3130   -27.9370     2.1110 
  100.8750    59.8910    11.7760     9.9460    12.2830    28.8500   -28.1120     2.0930 
  101.0000    57.1040    12.2260    10.4060    12.9420    28.4250   -28.3090     2.0950 
  101.1250    56.5340    12.4070    10.6950    13.5720    28.2610   -28.5060     2.1100 
  101.2500    57.7550    12.2720    10.7390    13.5370    28.2860   -28.7010     2.1280 
  101.3750    58.8230    11.8800    10.5520    13.2770    28.3480   -28.8770     2.1420 
  101.5000    60.5660    11.3620    10.2020    13.2630    28.2940   -29.0010     2.1550 
  101.6250    62.6870    10.8570     9.8000    13.5280    28.2120   -29.0580     2.1650 
  101.7500    63.1300    10.4360     9.4190    13.6330    28.3560   -29.0830     2.1650 
  101.8750    61.7190    10.1110     9.0940    13.5540    28.8760   -29.0890     2.1500 
  102.0000    61.0320     9.8910     8.8530    13.5210    29.4300   -29.0750     2.1470 
  102.1250    61.2290     9.7650     8.6980    13.6090    29.6070   -29.0660     2.1750 
  102.2500    61.9030     9.7410     8.6340    13.5910    29.4750   -29.0670     2.2210 
  102.3750    62.8410     9.8340     8.6730    13.3580    29.3260   -29.0900     2.2510 
  102.5000    62.0520    10.0580     8.8340    12.9980    29.2800   -29.1410     2.2450 
  102.6250    58.8170    10.3550     9.0810    12.6840    29.3270   -29.2300     2.2230 
  102.7500    55.6020    10.6430     9.3560    12.4910    29.5330   -29.3550     2.1950 
  102.8750    54.7110    10.8260     9.5760    12.5660    29.8910   -29.4960     2.1570 
  103.0000    55.0920    10.8110     9.6460    12.6970    30.2910   -29.6350     2.1150 
  103.1250    54.8050    10.6210     9.5580    12.8090    30.5900   -29.7890     2.0850 
  103.2500    55.7870    10.3380     9.3620    12.9760    30.6790   -29.9380     2.0790 
  103.3750    58.5590    10.0650     9.1360    13.1250    30.4610   -30.0860     2.0980 
  103.5000    59.7190     9.8930     8.9590    13.4590    30.1110   -30.2350     2.1310 
  103.6250    58.5860     9.8260     8.8540    13.6940    29.9110   -30.3810     2.1570 
  103.7500    58.4780     9.8190     8.8060    13.8710    29.9270   -30.5290     2.1640 
  103.8750    61.5230     9.8100     8.7760    14.1720    30.1610   -30.6840     2.1550 
  104.0000    63.7380     9.7580     8.7250    14.3440    30.4800   -30.8650     2.1360 
  104.1250    62.1100     9.6790     8.6580    14.2670    30.8000   -31.0460     2.1150 
  104.2500    59.8870     9.6150     8.5980    13.8320    30.9750   -31.2330     2.1050 
  104.3750    60.7290     9.5950     8.5730    13.3040    30.6220   -31.4230     2.1190 
  104.5000    62.4930     9.6260     8.6020    13.2450    29.8440   -31.6160     2.1540 
  104.6250    61.2280     9.6800     8.6650    13.8390    29.3470   -31.7950     2.1840 
  104.7500    58.5450     9.7370     8.7400    13.9080    29.2830   -31.9410     2.1960 
  104.8750    58.4880     9.7920     8.8130    12.9910    29.5750   -32.0510     2.1950 
  105.0000    60.9660     9.8630     8.8900    12.6700    30.1330   -32.0980     2.1900 
  105.1250    62.1990     9.9610     8.9820    13.6570    30.7530   -32.0910     2.1820 
  105.2500    60.8190    10.0800     9.0890    14.8080    31.1790   -32.0170     2.1650 
  105.3750    58.8310    10.1790     9.1880    15.3670    31.2390   -31.8580     2.1350 
  105.5000    59.6960    10.1760     9.2120    15.7120    30.9650   -31.6000     2.0930 
  105.6250    62.2940    10.0110     9.1000    15.4400    30.6580   -31.2620     2.0440 
  105.7500    63.2860     9.6700     8.8270    14.8180    30.8680   -30.8750     1.9880 
  105.8750    61.6470     9.2080     8.4250    13.8530    31.7780   -30.4360     1.9360 
  106.0000    61.9830     8.7520     7.9940    12.7010    32.4310   -29.9860     1.9310 
  106.1250    66.7180     8.4250     7.6460    11.4970    31.6490   -29.5940     1.9930 
  106.2500    71.5890     8.2920     7.4460    10.6830    29.3050   -29.3050     2.1030 
  106.3750    70.9080     8.3550     7.4050    11.2170    27.1090   -29.1260     2.2050 
  106.5000    65.8800     8.5630     7.4990    13.0260    26.2130   -29.0510     2.2370 
  106.6250    64.1820     8.8040     7.6440    13.3040    26.0850   -29.0670     2.2240 
  106.7500    67.7410     8.9900     7.7720    11.3240    26.0410   -29.1640     2.2110 
  106.8750    72.1730     9.0900     7.8500     9.1720    25.9450   -29.3580     2.2130 
  107.0000    72.2830     9.1390     7.8850     9.4060    26.1150   -29.6190     2.2160 
  107.1250    67.8610     9.2250     7.9280    11.4040    26.6850   -29.8470     2.2080 
  107.2500    62.3530     9.4140     8.0310    13.0090    27.4240   -29.9880     2.1960 
  107.3750    59.3980     9.7290     8.2280    13.6870    27.9830   -30.0610     2.1880 
  107.5000    58.6830    10.1250     8.5100    14.0880    28.2860   -30.0840     2.1870 
  107.6250    57.3740    10.4920     8.8050    14.1630    28.3200   -30.0660     2.1810 
  107.7500    55.9220    10.7290     9.0280    13.7970    27.9570   -29.9890     2.1740 
  107.8750    55.9330    10.7680     9.1090    13.5120    27.3690   -29.8380     2.1690 
  108.0000    55.9050    10.5660     8.9930    13.3980    26.8450   -29.6280     2.1670 
  108.1250    55.1440    10.1990     8.7310    12.4050    26.6100   -29.3870     2.1570 
  108.2500    54.3190     9.7780     8.4030    11.5870    26.6130   -29.1200     2.1370 
  108.3750    54.5750     9.4000     8.0880    11.5610    26.8520   -28.8130     2.1190 
  108.5000    56.1930     9.1410     7.8520    12.1240    27.3370   -28.4410     2.1160 
  108.6250    58.8510     8.9880     7.7000    12.7200    27.7890   -28.0060     2.1270 
  108.7500    60.9480     8.9060     7.6110    12.9140    28.0660   -27.4900     2.1390 
  108.8750    61.4830     8.8570     7.5620    12.6840    28.2860   -26.8650     2.1430 
  109.0000    61.7370     8.8370     7.5470    12.6170    28.5300   -26.0920     2.1390 
  109.1250    61.4150     8.8670     7.5820    12.7500    28.5320   -25.1650     2.1330 
