~V
VERS. 2.00: Ver 2.00
~W
STRT.M 50.0000:
STOP.M 283.0000:
STEP.M 0.1250:
NULL. -999.2500:
UWI. F10256:
~C
DEPT.M :
DEN.GM/CC :
GR.API :
RML.OHMM :
RI. :
RXO.OHMM :
CALI.CM :
SP.MV :
~A
# ...
   95.0000     2.2180    61.2910     9.7990     7.3200     8.3070    24.5150   -10.9370 
   95.1250     2.2600    58.4620    10.9450     8.1830     9.8480    24.5470   -11.3510 
   95.2500     2.2860    54.0590    11.7890     8.9360    11.9880    24.5570   -11.8030 
   95.3750     2.2810    49.9270    12.0730     9.3580    14.6240    24.5090   -12.2410 
   95.5000     2.2490    48.6740    11.7250     9.3230    15.2030    24.3040   -12.6870 
   95.6250     2.2070    48.7410    10.8960     8.8520    11.2260    23.9610   -13.1290 
   95.7500     2.1760    49.3590    10.0160     8.2620     9.2680    23.6990   -13.5010 
   95.8750     2.1580    51.5960     9.3090     7.7550     8.8580    23.7000   -13.7680 
   96.0000     2.1490    54.5500     8.8340     7.4200     8.7830    23.9310   -13.9570 
   96.1250     2.1460    56.8390     8.5070     7.2670     8.9880    24.2630   -14.0760 
   96.2500     2.1460    58.2410     8.2990     7.1970     9.1180    24.5620   -14.1060 
   96.3750     2.1530    58.8210     8.1380     7.1530     9.0660    24.7210   -14.0750 
   96.5000     2.1650    57.8270     8.1050     7.1140     8.9060    24.7290   -13.9900 
   96.6250     2.1760    55.9080     8.1260     7.0920     8.7700    24.6790   -13.8700 
   96.7500     2.1800    55.9540     8.1820     7.1010     8.7310    24.6680   -13.7670 
   96.8750     2.1730    57.2850     8.2870     7.1450     8.7130    24.6480   -13.6680 
   97.0000     2.1580    57.9190     8.4000     7.2160     8.9470    24.6350   -13.5270 
   97.1250     2.1420    57.6450     8.5370     7.2920     9.1210    24.6630   -13.3050 
   97.2500     2.1310    56.9630     8.6280     7.3440     9.1750    24.6860   -13.0080 
   97.3750     2.1260    56.0280     8.5930     7.3480     9.1910    24.6830   -12.6330 
   97.5000     2.1290    55.5790     8.4300     7.2820     9.2070    24.6910   -12.1230 
   97.6250     2.1460    57.9850     8.1780     7.1300     9.1440    24.7270   -11.3880 
   97.7500     2.1780    61.1920     7.8960     6.9230     8.9190    24.7430   -10.4590 
   97.8750     2.2260    64.4810     7.6230     6.6860     8.5090    24.7730    -9.3990 
   98.0000     2.2800    71.0500     7.3830     6.4320     7.7490    24.8920    -8.2680 
   98.1250     2.3240    79.3660     7.1580     6.1550     7.0090    25.1150    -7.1570 
   98.2500     2.3480    83.0670     6.8990     5.8440     7.0030    25.3260    -6.1160 
   98.3750     2.3530    82.1330     6.5040     5.4930     7.5590    25.4900    -5.1840 
   98.5000     2.3510    80.4190     6.0670     5.1110     6.8790    25.5790    -4.4130 
   98.6250     2.3490    80.3590     5.6370     4.7360     5.7400    25.5860    -3.8840 
   98.7500     2.3490    81.9540     5.2800     4.4200     4.9600    25.5820    -3.5710 
   98.8750     2.3430    86.1770     5.0620     4.2100     4.6590    25.5920    -3.4380 
   99.0000     2.3280    89.3050     5.0390     4.1520     4.6000    25.5920    -3.4680 
   99.1250     2.3030    87.1260     5.2820     4.3050     4.6280    25.5530    -3.6680 
   99.2500     2.2780    81.5750     5.7290     4.6320     4.7830    25.5140    -3.9900 
   99.3750     2.2590    75.6330     6.3000     5.0840     5.2390    25.4200    -4.3850 
   99.5000     2.2490    69.8830     6.8640     5.5700     6.0140    25.2110    -4.8360 
   99.6250     2.2520    65.6180     7.2240     5.9390     6.9950    24.9430    -5.2790 
   99.7500     2.2610    65.0300     7.3090     6.1040     7.3170    24.7600    -5.7200 
   99.8750     2.2700    68.6700     7.1540     6.0550     7.1880    24.6780    -6.1770 
  100.0000     2.2710    73.4090     6.9030     5.8810     6.6420    24.6700    -6.6410 
  100.1250     2.2620    73.7480     6.8040     5.7570     6.0190    24.7210    -7.1230 
  100.2500     2.2470    70.5650     6.9990     5.8230     6.0470    24.7520    -7.6590 
  100.3750     2.2320    67.2950     7.5310     6.1390     6.6470    24.7230    -8.2400 
  100.5000     2.2200    64.0520     8.3530     6.7050     7.6840    24.7040    -8.8670 
  100.6250     2.2140    59.2950     9.3550     7.4850     9.5000    24.7320    -9.5580 
  100.7500     2.2130    55.9970    10.3400     8.3300    11.9030    24.7530   -10.2870 
  100.8750     2.2170    56.1780    11.1590     9.1210    14.5360    24.7440   -11.0350 
  101.0000     2.2210    56.4840    11.7120     9.7500    16.6400    24.7450   -11.7970 
  101.1250     2.2200    53.3840    11.9190    10.1130    17.9470    24.7380   -12.5270 
  101.2500     2.2110    52.0180    11.8780    10.2480    17.0580    24.6980   -13.1670 
  101.3750     2.1960    55.3970    11.6680    10.1980    13.9200    24.6810   -13.7150 
  101.5000     2.1780    59.6250    11.3810    10.0270    11.4000    24.7320   -14.1930 
  101.6250     2.1640    58.6290    11.1040     9.8030    10.4590    24.7850   -14.5850 
  101.7500     2.1560    55.2180    10.8990     9.6010    10.1690    24.8090   -14.9040 
  101.8750     2.1550    53.2120    10.7930     9.4630     9.9710    24.8150   -15.1500 
  102.0000     2.1580    52.3730    10.7890     9.4110     9.7400    24.8300   -15.2980 
  102.1250     2.1640    51.5590    10.8770     9.4530     9.5980    24.8050   -15.3610 
  102.2500     2.1710    51.3350    10.9980     9.5450     9.5480    24.7640   -15.3820 
  102.3750     2.1760    50.8100    11.1050     9.6480     9.5960    24.7450   -15.3450 
  102.5000     2.1780    49.9390    11.1540     9.7200     9.6740    24.7300   -15.2250 
  102.6250     2.1780    51.0080    11.0950     9.7110     9.7230    24.7110   -15.0740 
  102.7500     2.1770    54.7220    10.9390     9.6180     9.7290    24.7340   -14.8750 
  102.8750     2.1780    58.8220    10.7180     9.4580     9.6810    24.7740   -14.6750 
  103.0000     2.1810    60.9090    10.4850     9.2700     9.5680    24.7820   -14.4800 
  103.1250     2.1860    61.0550    10.3120     9.1110     9.3530    24.7800   -14.2510 
  103.2500     2.1910    61.4320    10.2330     9.0160     9.0560    24.8230   -14.0310 
  103.3750     2.1940    61.8870    10.2460     8.9910     8.8940    24.8790   -13.8680 
  103.5000     2.1910    61.6550    10.3140     9.0120     9.0650    24.9130   -13.7640 
  103.6250     2.1830    60.1210    10.3770     9.0340     9.4560    24.9390   -13.7050 
  103.7500     2.1730    59.3950    10.3940     9.0190     9.7410    24.9630   -13.6650 
  103.8750     2.1650    58.6900    10.3680     8.9610     9.6880    24.9350   -13.6410 
  104.0000     2.1610    57.5290    10.3330     8.8790     9.4740    24.8840   -13.6730 
  104.1250     2.1640    57.8510    10.3360     8.8120     9.3210    24.8430   -13.7510 
  104.2500     2.1700    59.4140    10.3740     8.7740     9.3910    24.8140   -13.8380 
  104.3750     2.1740    60.1070    10.4080     8.7520     9.8170    24.7580   -13.9080 
  104.5000     2.1730    59.4850    10.3990     8.7230    10.5120    24.7430   -13.9800 
  104.6250     2.1650    58.1700    10.3810     8.7020    11.3500    24.7870   -14.0880 
  104.7500     2.1610    57.2780    10.5380     8.7900    11.8180    24.7920   -14.2420 
  104.8750     2.1750    57.3220    11.1280     9.1600    11.1630    24.7840   -14.3980 
  105.0000     2.2210    57.8790    12.3720     9.9950    10.7590    24.8120   -14.5170 
  105.1250     2.3030    56.6610    14.3460    11.4510    12.2440    24.8630   -14.6120 
  105.2500     2.3940    53.0660    16.4910    13.2020    16.0460    24.9060   -14.7260 
  105.3750     2.4570    49.2280    18.1240    14.7710    22.0310    24.9970   -14.8680 
  105.5000     2.4590    47.6960    18.5620    15.5700    31.6550    25.1220   -15.0270 
  105.6250     2.3970    48.8860    17.2360    14.9420    38.9580    25.1530   -15.1810 
  105.7500     2.3160    50.9470    14.8860    13.2950    28.5010    25.0640   -15.3460 
  105.8750     2.2480    53.3370    12.4190    11.3410    16.0300    24.9320   -15.5270 
  106.0000     2.2040    56.3000    10.5570     9.7160    11.4230    24.8130   -15.7040 
  106.1250     2.1860    58.1730     9.6600     8.7710    10.4400    24.7370   -15.8770 
