~V
VERS. 2.00: Ver 2.00
~W
STRT.M 57.0000:
STOP.M 274.0000:
STEP.M 0.1250:
NULL. -999.2500:
UWI. F10215:
~C
DEPT.M :
SP.MV :
DEN.GM/CC :
GR.API :
RML.OHMM :
RI. :
RXO.OHMM :
CALI.CM :
~A
# ...
  248.2500   -22.6720     2.4450    60.1460     9.5930     7.3360    10.9980    23.9960 
  248.3750   -22.6740     2.4350    58.5590     9.6670     7.3340    10.5660    23.9200 
  248.5000   -22.6820     2.4200    56.3400     9.7170     7.3320    10.2210    23.8110 
  248.6250   -22.6990     2.4050    56.2450     9.7610     7.3330     9.8900    23.8160 
  248.7500   -22.7160     2.3940    56.6000     9.8310     7.3500     9.6880    23.8580 
  248.8750   -22.7290     2.3890    57.0640     9.9450     7.3950     9.1600    23.8430 
  249.0000   -22.7560     2.3910    58.7300    10.0980     7.4690     8.4310    23.7380 
  249.1250   -22.7900     2.3980    60.5140    10.2700     7.5690     8.3120    23.6110 
  249.2500   -22.8330     2.4040    61.0810    10.4280     7.6780     8.8650    23.6080 
  249.3750   -22.8720     2.4030    61.8800    10.5530     7.7790     9.7020    23.6520 
  249.5000   -22.9100     2.3990    63.0970    10.6410     7.8650    10.1170    23.7090 
  249.6250   -22.9260     2.3980    63.6500    10.7240     7.9460    10.7010    23.6480 
  249.7500   -22.9390     2.4110    63.3300    10.8620     8.0580    11.4250    23.6370 
  249.8750   -22.9470     2.4370    61.8250    11.1140     8.2400    12.2180    23.7470 
  250.0000   -22.9360     2.4640    59.8550    11.5150     8.5210    14.7030    23.8510 
  250.1250   -22.9290     2.4710    59.2870    12.0730     8.9180    19.0480    23.8690 
  250.2500   -22.9190     2.4590    59.9670    12.6650     9.3630    19.0510    23.8520 
  250.3750   -22.9270     2.4400    60.1150    13.1490     9.7570    13.7210    23.8400 
  250.5000   -22.9260     2.4260    59.7440    13.3780     9.9890    10.8240    23.8530 
  250.6250   -22.9440     2.4260    59.5370    13.2180     9.9350    11.2960    23.9150 
  250.7500   -22.9630     2.4320    58.4450    12.7740     9.6500    11.2850    23.9700 
  250.8750   -22.9950     2.4330    57.4100    12.1970     9.2320    10.9210    23.9920 
  251.0000   -23.0370     2.4270    57.7390    11.6690     8.8110    11.2850    24.0770 
  251.1250   -23.0800     2.4170    57.1370    11.3690     8.5190    11.0670    24.0490 
  251.2500   -23.1290     2.4110    54.7240    11.3190     8.3930    11.0570    24.0380 
  251.3750   -23.1740     2.4090    53.5190    11.5090     8.4440    11.0310    24.0440 
  251.5000   -23.2280     2.4100    57.0300    11.8960     8.6600    11.4970    24.0730 
  251.6250   -23.2750     2.4150    62.5740    12.4450     9.0350    12.3390    24.0750 
  251.7500   -23.3260     2.4270    64.5940    13.1110     9.5250    12.7430    24.1110 
  251.8750   -23.3670     2.4440    63.9880    13.8950    10.1230    13.8630    24.1410 
  252.0000   -23.4060     2.4640    63.4770    14.7710    10.8110    15.3070    24.1060 
  252.1250   -23.4350     2.4820    66.1070    15.6460    11.5260    16.1700    24.0270 
  252.2500   -23.4560     2.4930    67.7760    16.3830    12.1650    16.4790    23.9530 
  252.3750   -23.4710     2.4970    65.9350    16.8780    12.6380    16.6790    23.9270 
  252.5000   -23.4810     2.4930    62.3390    17.0850    12.8930    17.0500    23.9120 
  252.6250   -23.4990     2.4830    60.6080    17.0100    12.9190    16.3360    23.9580 
  252.7500   -23.5210     2.4710    61.2140    16.7970    12.8210    15.4450    24.0160 
  252.8750   -23.5520     2.4630    61.0030    16.5310    12.6620    14.7590    24.0660 
  253.0000   -23.5860     2.4650    58.4720    16.2780    12.4870    14.6020    24.1060 
  253.1250   -23.6240     2.4830    57.7750    16.1070    12.3490    15.2540    24.1110 
  253.2500   -23.6780     2.5100    59.9170    16.0470    12.2860    16.5650    24.1430 
  253.3750   -23.7270     2.5330    62.0440    16.1160    12.3220    17.1760    24.1350 
  253.5000   -23.7890     2.5400    61.3530    16.3120    12.4650    16.5000    24.0860 
  253.6250   -23.8240     2.5230    59.5090    16.6120    12.7040    17.0200    24.0590 
  253.7500   -23.8750     2.4950    60.6350    16.9270    12.9730    17.1940    24.0530 
  253.8750   -23.9210     2.4690    64.4130    17.1800    13.2180    17.1070    24.0410 
  254.0000   -23.9670     2.4540    67.2010    17.3200    13.3950    17.0270    23.9820 
  254.1250   -24.0100     2.4580    66.3980    17.3110    13.4690    17.1190    23.9220 
  254.2500   -24.0380     2.4750    64.4340    17.1990    13.4530    17.9730    23.8950 
  254.3750   -24.0660     2.4990    63.7800    17.0060    13.3560    19.7520    23.9450 
  254.5000   -24.0850     2.5210    64.1940    16.7450    13.1880    21.2980    23.9490 
  254.6250   -24.1190     2.5320    64.1960    16.4330    12.9610    20.4070    23.9230 
  254.7500   -24.1280     2.5320    64.0870    16.1350    12.7320    17.4090    23.9030 
  254.8750   -24.1380     2.5260    63.8930    15.9270    12.5570    16.6730    23.8660 
  255.0000   -24.1350     2.5160    63.4500    15.8850    12.4910    16.5500    23.8460 
  255.1250   -24.1440     2.5050    62.1770    16.0880    12.5950    17.9140    23.8340 
  255.2500   -24.1510     2.4910    62.9660    16.4790    12.8470    23.7050    23.8780 
  255.3750   -24.1620     2.4760    67.3700    16.9750    13.2040    35.4850    23.9400 
  255.5000   -24.1730     2.4640    70.5800    17.4480    13.5870    33.5550    23.9850 
  255.6250   -24.1750     2.4650    67.6940    17.7190    13.8640    28.6860    23.9840 
  255.7500   -24.2040     2.4740    62.8780    17.7420    13.9700    27.0100    23.9160 
  255.8750   -24.2340     2.4790    60.0740    17.5580    13.9070    27.1310    23.8470 
  256.0000   -24.2780     2.4730    60.3570    17.2900    13.7520    22.3770    23.8320 
  256.1250   -24.3090     2.4570    62.3050    17.1180    13.6360    20.5890    23.9180 
  256.2500   -24.3610     2.4450    64.2530    17.1400    13.6410    20.4550    24.0160 
  256.3750   -24.3950     2.4470    64.9770    17.3600    13.7850    20.8130    24.0780 
  256.5000   -24.4320     2.4610    64.0280    17.7020    14.0260    21.3130    24.0470 
  256.6250   -24.4630     2.4730    62.7400    18.0090    14.2710    21.0920    23.9540 
  256.7500   -24.4880     2.4690    61.7260    18.1440    14.4150    22.3380    23.8690 
  256.8750   -24.5080     2.4520    62.6020    18.0470    14.3970    24.1330    23.8500 
  257.0000   -24.5130     2.4380    65.4420    17.7440    14.2160    25.4290    23.8690 
  257.1250   -24.5190     2.4390    67.0830    17.3330    13.9200    24.1030    23.8150 
  257.2500   -24.5140     2.4560    65.6950    16.9580    13.6180    20.9680    23.7550 
  257.3750   -24.5130     2.4790    62.7320    16.6950    13.3740    17.7400    23.6680 
  257.5000   -24.5080     2.4950    61.7250    16.5820    13.2300    15.7130    23.5670 
  257.6250   -24.5160     2.4980    64.5590    16.6420    13.2220    15.5240    23.5810 
  257.7500   -24.5150     2.4960    66.8550    16.8030    13.3130    15.2980    23.5470 
  257.8750   -24.5140     2.4950    66.7660    16.9950    13.4620    14.9650    23.5040 
  258.0000   -24.5220     2.4950    66.1160    17.1470    13.6160    14.9930    23.4900 
  258.1250   -24.5030     2.4910    66.0430    17.2080    13.7230    15.7900    23.5250 
  258.2500   -24.4920     2.4830    64.8100    17.2040    13.7760    16.6760    23.5250 
  258.3750   -24.4820     2.4760    62.2770    17.1520    13.7780    16.3970    23.4850 
  258.5000   -24.4870     2.4750    60.1870    17.0450    13.7200    14.6580    23.4470 
  258.6250   -24.4640     2.4810    60.2260    16.8300    13.5640    13.1470    23.4760 
  258.7500   -24.4420     2.4880    61.2620    16.4960    13.3080    13.2340    23.5470 
  258.8750   -24.4100     2.4860    60.9090    16.0500    12.9590    12.2770    23.6020 
  259.0000   -24.3840     2.4710    59.0660    15.5340    12.5490     9.9900    23.6310 
  259.1250   -24.3820     2.4460    58.8510    15.0280    12.1330     8.4090    23.6690 
  259.2500   -24.3670     2.4240    61.3500    14.6160    11.7740     8.0420    23.6940 
  259.3750   -24.3570     2.4180    62.4370    14.3590    11.5190     8.0470    23.6840 
