~V
VERS. 2.00: Ver 2.00
~W
STRT.M 53.0000:
STOP.M 267.0000:
STEP.M 0.1250:
NULL. -999.2500:
UWI. F10211:
~C
DEPT.M :
GR.API :
RML.OHMM :
RI. :
RXO.OHMM :
CALI.CM :
SP.MV :
DEN.GM/CC :
~A
# ...
  188.0000    79.7250    27.1570    23.8950    17.5910    24.7350   -31.6510     2.2320 
  188.1250    73.3930    28.1820    24.7300    18.6250    24.8400   -31.8740     2.2330 
  188.2500    69.9520    29.3900    25.6880    20.2570    24.9200   -32.1170     2.2560 
  188.3750    69.9230    31.0940    27.0040    21.5880    25.0020   -32.3650     2.2830 
  188.5000    71.3210    33.6990    29.0190    21.9580    25.0970   -32.6060     2.2930 
  188.6250    72.4130    37.1220    31.7540    23.7410    25.1850   -32.8390     2.2850 
  188.7500    72.7850    40.8490    34.9040    28.5980    25.2590   -33.0770     2.2750 
  188.8750    73.8290    43.9590    37.7670    35.8630    25.2930   -33.3340     2.2730 
  189.0000    74.5930    45.1800    39.2050    40.6050    25.1490   -33.6120     2.2830 
  189.1250    73.0030    44.3850    38.8960    42.1780    24.8740   -33.9020     2.2960 
  189.2500    71.6620    42.3110    37.2800    38.7880    24.6540   -34.2000     2.3010 
  189.3750    72.9140    40.2090    35.3060    30.9350    24.5530   -34.5380     2.2950 
  189.5000    75.0490    39.6160    34.2150    25.1200    24.4230   -34.9200     2.2870 
  189.6250    76.3800    41.1990    34.6990    26.3600    24.1450   -35.3320     2.2900 
  189.7500    77.1340    45.1470    37.0880    32.0740    23.8570   -35.7660     2.2990 
  189.8750    76.2680    51.3110    41.4630    38.4450    23.6420   -36.2240     2.3020 
  190.0000    72.0270    59.1650    47.6590    44.1990    23.4880   -36.6990     2.2930 
  190.1250    67.3290    67.3100    54.5430    50.7300    23.3920   -37.1760     2.2850 
  190.2500    65.4970    74.4730    60.9280    57.5490    23.3800   -37.6470     2.2800 
  190.3750    67.3370    79.9920    66.0610    63.1980    23.4240   -38.0910     2.2770 
  190.5000    69.5650    83.9870    69.8100    65.0830    23.5060   -38.5050     2.2750 
  190.6250    69.0520    87.6460    73.0320    61.9350    23.5620   -38.9080     2.2770 
  190.7500    66.8930    92.1700    76.7070    58.3650    23.5260   -39.3090     2.2780 
  190.8750    67.2540    98.4240    81.6290    67.4810    23.3840   -39.6910     2.2760 
  191.0000    69.9860   107.0300    88.4700    77.8430    23.2400   -40.0670     2.2700 
  191.1250    69.6640   117.5510    97.0340    84.4120    23.1700   -40.4600     2.2590 
  191.2500    65.9210   129.2510   106.8380    88.5680    23.1920   -40.8600     2.2470 
  191.3750    62.6830   141.0300   117.0550    98.1140    23.3220   -41.2660     2.2280 
  191.5000    62.4300   151.0690   126.2290   105.5220    23.5540   -41.6710     2.2010 
  191.6250    61.8930   158.0790   133.1670   110.6620    23.9020   -42.0540     2.1690 
  191.7500    59.7310   161.4610   137.2040   119.3170    24.2840   -42.4090     2.1460 
  191.8750    59.0640   161.5690   138.4250   132.5170    24.5210   -42.7320     2.1430 
  192.0000    60.6820   159.8370   137.7280   132.0530    24.5860   -43.0030     2.1600 
  192.1250    62.2220   158.6640   137.0270   119.7880    24.6110   -43.2130     2.1840 
  192.2500    63.2570   159.8900   137.9650   113.4360    24.6330   -43.3830     2.2030 
  192.3750    64.1860   164.5080   141.6210   115.3580    24.6310   -43.5150     2.2120 
  192.5000    63.6080   172.7690   148.5960   121.5200    24.6230   -43.6270     2.2150 
  192.6250    61.1040   182.7940   157.5590   138.4410    24.6180   -43.7260     2.2150 
  192.7500    59.9200   192.0990   166.4890   153.2080    24.6180   -43.8150     2.2140 
  192.8750    61.5320   198.3100   173.2130   157.7610    24.6200   -43.8920     2.2090 
  193.0000    63.1460   199.5730   175.7500   151.7130    24.6190   -43.9430     2.2000 
  193.1250    62.5660   197.0070   174.6700   142.0830    24.6220   -43.9530     2.1900 
  193.2500    59.6190   192.3670   171.3720   134.3300    24.6290   -43.9030     2.1830 
  193.3750    57.0300   187.1120   167.2290   130.7640    24.6270   -43.7930     2.1810 
  193.5000    57.8980   182.2930   163.3040   129.5420    24.6240   -43.5970     2.1840 
  193.6250    60.8530   178.5320   160.2470   126.6580    24.6180   -43.3240     2.1910 
  193.7500    63.4110   176.2900   158.5440   123.5740    24.6110   -42.9900     2.1970 
  193.8750    64.8010   175.6540   158.3670   127.0800    24.5940   -42.6070     2.1990 
  194.0000    64.3040   176.0030   159.3010   129.1550    24.5520   -42.1610     2.1970 
  194.1250    60.7240   175.6310   159.8890   133.9280    24.5060   -41.6730     2.1940 
  194.2500    56.2990   172.6730   158.4440   143.5270    24.4610   -41.1680     2.1960 
  194.3750    54.2750   165.9020   153.6890   147.4610    24.4180   -40.6310     2.2050 
  194.5000    54.5600   155.0640   144.9980   136.0830    24.3910   -40.0860     2.2160 
  194.6250    55.4280   142.2690   133.9540   119.7110    24.4450   -39.5390     2.2250 
  194.7500    57.2540   129.8840   122.6030   104.6990    24.5420   -38.9840     2.2310 
  194.8750    60.1390   119.8200   112.8530    90.6240    24.6090   -38.4250     2.2340 
  195.0000    61.2430   113.5320   106.3780    80.4240    24.6310   -37.9020     2.2380 
  195.1250    60.2600   110.6150   103.1050    77.8080    24.6560   -37.4150     2.2410 
  195.2500    58.4360   110.4020   102.5520    80.6100    24.6930   -36.9530     2.2440 
  195.3750    57.5230   112.1820   104.1210    90.1770    24.7090   -36.5390     2.2470 
  195.5000    60.0860   115.2250   107.1750    95.9460    24.6740   -36.1630     2.2530 
  195.6250    63.9440   118.5930   110.7510    94.6700    24.6360   -35.7910     2.2590 
  195.7500    64.7700   121.5390   114.0410    96.3630    24.5840   -35.4190     2.2620 
  195.8750    60.6170   123.3640   116.3040   102.8420    24.4580   -35.0450     2.2670 
  196.0000    56.0180   122.8940   116.4320   107.0590    24.2280   -34.6550     2.2740 
  196.1250    56.3160   119.3460   113.7230   105.3830    24.0790   -34.2490     2.2790 
  196.2500    60.0860   112.1860   107.6000    99.7820    24.1440   -33.8110     2.2780 
  196.3750    63.0020   101.8090    98.1750    94.5620    24.3090   -33.3200     2.2730 
  196.5000    63.0340    89.9320    86.7340    89.1420    24.3500   -32.7620     2.2710 
  196.6250    63.6810    78.9490    75.6250    77.2250    24.2920   -32.1790     2.2770 
  196.7500    66.4030    70.4810    66.6020    60.6060    24.2660   -31.5680     2.2900 
  196.8750    68.3460    65.4540    60.7070    46.2360    24.2720   -30.9110     2.3100 
  197.0000    65.5060    64.9990    59.0410    41.4850    24.0590   -30.2060     2.3420 
  197.1250    60.4900    69.1950    61.7250    38.8120    23.6260   -29.4490     2.3950 
  197.2500    58.0910    78.2270    69.1450    37.5870    23.1810   -28.6810     2.4690 
  197.3750    58.5670    91.7310    81.2890    45.1340    22.9900   -27.9310     2.5510 
  197.5000    59.0560   107.0410    96.0990    72.5270    23.1850   -27.2020     2.6180 
  197.6250    58.1200   117.4620   107.5360   115.4790    23.5540   -26.4970     2.6530 
  197.7500    56.7700   115.6350   108.6200   152.6640    23.8510   -25.8300     2.6670 
  197.8750    55.8540    99.2210    95.8610   146.9360    23.9420   -25.2170     2.6710 
  198.0000    55.4860    74.3270    73.1080    92.5590    23.7750   -24.6840     2.6700 
  198.1250    56.4190    50.9470    50.3980    45.9530    23.3330   -24.2390     2.6540 
  198.2500    59.5230    33.4740    33.1320    23.0060    22.6990   -23.8750     2.6080 
  198.3750    64.7110    22.0180    21.8520    14.7900    22.1970   -23.5940     2.5310 
  198.5000    70.4870    15.5720    15.4620    11.5170    22.1090   -23.4130     2.4560 
  198.6250    74.3310    12.0700    11.8560     9.3390    22.4720   -23.3140     2.4090 
  198.7500    76.0560    10.2660     9.8540     8.3450    23.1430   -23.3110     2.3960 
  198.8750    77.2440     9.4900     8.8610     8.2840    23.7480   -23.3940     2.4020 
  199.0000    77.6250     9.3700     8.5730     8.6350    23.9570   -23.5540     2.4100 
  199.1250    76.2220     9.5410     8.6590     8.9120    23.9110   -23.7710     2.4130 
