~V
VERS. 2.00: Ver 2.00
~W
STRT.M 60.0000:
STOP.M 271.0000:
STEP.M 0.1250:
NULL. -999.2500:
UWI. F10237:
~C
DEPT.M :
GR.API :
RML.OHMM :
RI. :
RXO.OHMM :
CALI.CM :
DEN.GM/CC :
SP.MV :
~A
# ...
  183.7500    71.4330    40.7190    32.5590    31.1100    24.7750     2.2870   -21.7870 
  183.8750    64.9960    52.8150    42.1470    48.3440    24.6240     2.2510   -22.0880 
  184.0000    59.2200    64.2080    51.5590    52.3430    24.5070     2.2200   -22.4030 
  184.1250    55.6440    71.5340    57.7290    45.6840    24.4290     2.2080   -22.6950 
  184.2500    55.6280    74.8080    60.4310    46.8400    24.3620     2.2170   -22.9740 
  184.3750    56.9230    75.7100    61.0210    49.2710    24.3380     2.2360   -23.2110 
  184.5000    57.4420    76.0460    61.0890    57.6010    24.4310     2.2530   -23.4250 
  184.6250    56.7320    76.4720    61.3810    68.0000    24.6160     2.2610   -23.6190 
  184.7500    56.6550    76.6420    61.6530    68.0470    24.8470     2.2640   -23.7810 
  184.8750    57.6110    76.3750    61.6750    58.2240    25.0500     2.2670   -23.9560 
  185.0000    58.6050    75.8910    61.5150    48.1680    25.1590     2.2710   -24.1540 
  185.1250    59.5390    75.7220    61.5020    51.0440    25.1890     2.2760   -24.2820 
  185.2500    58.9120    76.1390    61.8830    57.4380    25.1840     2.2780   -24.4320 
  185.3750    56.1380    77.0070    62.6580    65.7330    25.1900     2.2810   -24.6300 
  185.5000    54.7450    77.8240    63.5350    70.3500    25.2160     2.2860   -24.7460 
  185.6250    57.8540    77.8320    63.9190    68.4630    25.2360     2.2910   -24.9350 
  185.7500    61.7670    76.8740    63.5160    64.9690    25.2400     2.2940   -25.1380 
  185.8750    61.7830    75.1120    62.3150    63.9470    25.2290     2.2950   -25.2930 
  186.0000    58.6340    72.8810    60.5390    64.5690    25.2180     2.2930   -25.4940 
  186.1250    58.0070    70.5690    58.5380    62.3040    25.2540     2.2890   -25.6670 
  186.2500    60.0850    68.6170    56.7680    58.2480    25.2910     2.2850   -25.7710 
  186.3750    61.1300    67.4670    55.6020    53.9090    25.2650     2.2840   -25.9030 
  186.5000    60.6680    67.5420    55.3710    49.7360    25.2070     2.2840   -26.0400 
  186.6250    61.1450    69.3130    56.4680    49.4190    25.1830     2.2820   -26.1080 
  186.7500    61.1370    72.3670    58.6370    55.5750    25.1990     2.2750   -26.2030 
  186.8750    58.1710    76.2070    61.5680    62.8850    25.2600     2.2650   -26.2570 
  187.0000    54.5610    80.1530    64.7800    67.2330    25.3500     2.2590   -26.2470 
  187.1250    56.3800    83.4420    67.6580    65.7090    25.3880     2.2600   -26.3150 
  187.2500    60.2790    85.9070    69.8990    63.8710    25.3660     2.2620   -26.3780 
  187.3750    60.1050    87.7830    71.5320    65.7050    25.2640     2.2630   -26.4070 
  187.5000    56.8930    89.5930    72.8730    68.5710    25.1030     2.2660   -26.4730 
  187.6250    57.2170    92.0080    74.4620    70.5750    24.9790     2.2700   -26.5080 
  187.7500    60.3170    95.1750    76.6180    71.8290    24.9260     2.2700   -26.5400 
  187.8750    60.8180    98.9300    79.3650    70.3640    24.9230     2.2650   -26.5840 
  188.0000    58.4200   102.8790    82.4820    71.7610    24.9610     2.2590   -26.5970 
  188.1250    56.8010   106.3490    85.4720    82.7610    25.0020     2.2580   -26.6030 
  188.2500    55.2700   108.8160    87.7940    86.8440    25.0310     2.2580   -26.5960 
  188.3750    51.6350   110.0140    89.1160    86.2670    25.0610     2.2580   -26.5670 
  188.5000    47.5700   110.0830    89.4320    84.8030    25.0660     2.2590   -26.5760 
  188.6250    50.5450   109.5620    89.1060    84.5970    25.0490     2.2630   -26.5540 
  188.7500    60.0640   109.2680    88.8960    83.8830    25.0660     2.2660   -26.4830 
  188.8750    68.0890   109.5840    89.2370    82.4060    25.1180     2.2670   -26.4860 
  189.0000    68.3050   110.5290    90.2250    80.8240    25.1110     2.2660   -26.4900 
  189.1250    63.5350   111.9200    91.7220    81.0260    24.9920     2.2660   -26.4570 
  189.2500    60.8280   113.4070    93.3640    83.6020    24.8520     2.2670   -26.5200 
  189.3750    59.5550   114.7750    94.9400    86.6060    24.7740     2.2690   -26.5630 
  189.5000    58.5820   115.8560    96.2930    87.1960    24.7730     2.2700   -26.5420 
  189.6250    58.0400   116.4150    97.2310    87.8250    24.7750     2.2710   -26.6350 
  189.7500    56.7960   116.2040    97.6080    91.4660    24.6740     2.2750   -26.7460 
  189.8750    56.1770   114.5370    96.9700    94.4710    24.5730     2.2830   -26.8710 
  190.0000    58.3840   110.5180    94.6280    93.9170    24.7200     2.2880   -27.0510 
  190.1250    62.5670   103.4950    89.8810    89.7630    25.1650     2.2860   -27.2290 
  190.2500    65.2680    95.3120    83.9080    84.5750    25.5180     2.2820   -27.4250 
  190.3750    65.3010    88.1540    78.3450    74.5570    25.6840     2.2740   -27.6620 
  190.5000    63.1970    84.0130    74.9300    60.9860    25.7780     2.2600   -27.8900 
  190.6250    60.3920    84.7010    75.5800    58.5880    25.8230     2.2420   -28.1360 
  190.7500    59.5030    89.0140    79.7880    79.5470    25.7520     2.2360   -28.3960 
  190.8750    60.3030    94.8140    86.0420   114.3540    25.6090     2.2440   -28.5600 
  191.0000    59.5380    98.6780    91.3840   135.9610    25.5090     2.2580   -28.7660 
  191.1250    57.2560    96.0400    91.2550   125.4090    25.4860     2.2700   -28.9870 
  191.2500    56.4650    87.5590    85.1800   101.6560    25.4790     2.2790   -29.0840 
  191.3750    58.6130    76.5060    75.5430    74.0620    25.4560     2.2860   -29.2030 
  191.5000    63.6440    66.6610    65.9780    53.2380    25.4200     2.2880   -29.3850 
  191.6250    68.9500    60.6950    59.5660    48.3330    25.3730     2.2860   -29.4530 
  191.7500    70.2770    58.0910    56.3540    47.8460    25.2980     2.2810   -29.5300 
  191.8750    67.7640    58.2140    55.8330    52.4810    25.2190     2.2770   -29.6620 
  192.0000    65.0670    60.4840    57.4020    63.2410    25.1690     2.2750   -29.7390 
  192.1250    63.3460    64.8880    60.9270    56.8250    25.1350     2.2750   -29.8500 
  192.2500    59.1360    71.2430    66.1550    54.7340    25.0890     2.2730   -29.9980 
  192.3750    54.0760    79.9470    73.4760    57.9630    25.0570     2.2640   -30.0700 
  192.5000    53.3980    91.3800    83.3670    63.3900    25.0660     2.2490   -30.1380 
  192.6250    55.2970   105.7320    96.1920    88.9490    25.1260     2.2350   -30.2610 
  192.7500    54.8100   121.0850   110.1690   108.0060    25.1630     2.2280   -30.3330 
  192.8750    53.7900   135.0480   122.9520   114.9650    25.1740     2.2280   -30.3990 
  193.0000    53.8410   145.3390   132.1850   124.0930    25.1570     2.2310   -30.4370 
  193.1250    51.7990   150.9130   136.5210   123.8810    25.0930     2.2380   -30.3790 
  193.2500    48.1140   154.7790   138.6640   117.3560    25.0260     2.2440   -30.3710 
  193.3750    49.0290   159.8950   141.4220   115.3450    25.0650     2.2450   -30.3840 
  193.5000    53.8280   168.4950   147.0320   116.5660    25.2120     2.2410   -30.3150 
  193.6250    55.2250   182.0380   157.1210   128.3560    25.3850     2.2340   -30.2500 
  193.7500    53.0820   198.3800   170.1530   157.3260    25.5120     2.2280   -30.1570 
  193.8750    49.6210   214.0410   183.4520   188.1250    25.6330     2.2200   -30.0370 
  194.0000    46.8690   224.3530   193.2260   207.2570    25.7570     2.2120   -29.9270 
  194.1250    46.3790   224.6410   195.2690   200.5510    25.8370     2.2030   -29.7750 
  194.2500    47.8320   218.2940   191.4340   197.4840    25.8350     2.1990   -29.5860 
  194.3750    48.0860   210.3660   185.4440   165.6280    25.7480     2.2040   -29.3910 
  194.5000    45.8150   205.4920   181.3970   133.4040    25.5950     2.2150   -29.1270 
  194.6250    43.5840   206.4360   182.4730   138.1360    25.5020     2.2290   -28.7920 
  194.7500    44.7610   210.2300   186.9720   169.7820    25.5320     2.2470   -28.5120 
  194.8750    48.7430   211.3780   190.8840   214.0640    25.5040     2.2710   -28.1630 
