~V
VERS. 2.00: Ver 2.00
~W
STRT.M 53.0000:
STOP.M 276.0000:
STEP.M 0.1250:
NULL. -999.2500:
UWI. F10245:
~C
DEPT.M :
GR.API :
RML.OHMM :
RI. :
RXO.OHMM :
CALI.CM :
DEN.GM/CC :
SP.MV :
~A
# ...
   86.7500    51.6440     9.6430     8.2160     8.4850    22.8430     2.1320   -15.0550 
   86.8750    49.8260     9.6260     8.2100     8.4370    22.7840     2.1370   -14.8820 
   87.0000    49.3700     9.5950     8.1950     8.4380    22.7450     2.1440   -14.6780 
   87.1250    50.5450     9.5450     8.1630     8.4660    22.7870     2.1520   -14.4520 
   87.2500    51.1960     9.4840     8.1180     8.4820    22.8850     2.1570   -14.1940 
   87.3750    49.7910     9.4260     8.0690     8.4680    22.9580     2.1560   -13.9580 
   87.5000    48.5900     9.3850     8.0290     8.4340    22.9750     2.1480   -13.7220 
   87.6250    51.1060     9.3760     8.0150     8.4380    22.9360     2.1360   -13.5290 
   87.7500    53.7290     9.3970     8.0290     8.3710    22.8510     2.1270   -13.3720 
   87.8750    54.3290     9.4350     8.0650     8.3370    22.7510     2.1260   -13.2520 
   88.0000    54.9700     9.4700     8.1090     8.2740    22.6740     2.1350   -13.1320 
   88.1250    57.0870     9.4760     8.1370     8.2160    22.6530     2.1480   -12.9750 
   88.2500    59.3890     9.4430     8.1410     8.2390    22.6530     2.1600   -12.8560 
   88.3750    60.8790     9.3750     8.1190     8.2710    22.6430     2.1650   -12.7860 
   88.5000    62.1770     9.2870     8.0810     8.2130    22.5920     2.1640   -12.7740 
   88.6250    62.9420     9.2070     8.0420     8.0460    22.5210     2.1580   -12.7810 
   88.7500    62.3000     9.1600     8.0190     7.9800    22.4310     2.1530   -12.7330 
   88.8750    60.9150     9.1590     8.0200     8.0410    22.3670     2.1500   -12.6200 
   89.0000    59.5500     9.2040     8.0470     8.0750    22.3430     2.1500   -12.4710 
   89.1250    57.4490     9.2710     8.0880     7.9710    22.3570     2.1530   -12.3240 
   89.2500    55.0580     9.3180     8.1140     7.9170    22.3960     2.1560   -12.1860 
   89.3750    54.8650     9.3060     8.0980     7.9870    22.4790     2.1600   -11.9970 
   89.5000    57.3090     9.2050     8.0190     8.1970    22.6340     2.1620   -11.7780 
   89.6250    60.2400     8.9840     7.8510     8.3270    22.8600     2.1610   -11.4860 
   89.7500    62.4410     8.6790     7.6210     8.3020    23.0350     2.1600   -11.1540 
   89.8750    64.1600     8.3490     7.3680     8.2830    23.1010     2.1620   -10.8260 
   90.0000    65.7940     8.1020     7.1630     8.4920    23.0870     2.1730   -10.5110 
   90.1250    66.8730     8.1340     7.1380     8.9410    23.0840     2.1960   -10.1830 
   90.2500    67.7950     8.5260     7.3650     9.4700    23.1740     2.2310    -9.8160 
   90.3750    68.7700     9.2670     7.8590    10.0920    23.4350     2.2770    -9.4260 
   90.5000    69.1930    10.1870     8.5280    11.0050    23.8490     2.3310    -9.0420 
   90.6250    68.7160    10.9050     9.1250    12.6590    24.2630     2.3800    -8.7440 
   90.7500    69.1130    11.0910     9.3790    15.3520    24.3780     2.4040    -8.5790 
   90.8750    71.6090    10.6160     9.1410    16.4040    24.1230     2.3900    -8.5210 
   91.0000    73.7180     9.6270     8.4640    13.0630    23.5750     2.3420    -8.5810 
   91.1250    72.0980     8.5420     7.6220     8.7840    23.1400     2.2780    -8.8060 
   91.2500    70.5570     7.7860     6.9590     7.1850    22.8730     2.2180    -9.0760 
   91.3750    71.4010     7.5060     6.6140     6.8830    22.6450     2.1740    -9.4290 
   91.5000    71.1440     7.6520     6.5910     7.3520    22.3840     2.1480    -9.8040 
   91.6250    66.0310     8.0650     6.8320     7.9780    22.1610     2.1420   -10.1980 
   91.7500    60.4760     8.4990     7.1620     8.6570    22.0730     2.1500   -10.6140 
   91.8750    58.3590     8.8250     7.4740     9.0480    22.1640     2.1620   -10.9790 
   92.0000    59.0540     8.9930     7.6980     9.0660    22.4050     2.1710   -11.2590 
   92.1250    59.1570     9.0080     7.8010     8.7690    22.6680     2.1690   -11.4240 
   92.2500    58.4500     8.9560     7.8310     8.5430    22.7400     2.1590   -11.5410 
   92.3750    59.8220     8.8840     7.8200     8.3390    22.6210     2.1490   -11.6300 
   92.5000    62.9320     8.8160     7.7910     8.2040    22.3840     2.1420   -11.7310 
   92.6250    63.2810     8.7600     7.7530     8.0270    22.3310     2.1410   -11.7850 
   92.7500    60.3980     8.7130     7.7110     7.7810    22.4600     2.1440   -11.7570 
   92.8750    58.2560     8.6730     7.6700     7.6320    22.6310     2.1500   -11.6960 
   93.0000    58.9120     8.6430     7.6330     7.5710    22.6910     2.1550   -11.6170 
   93.1250    58.5490     8.6280     7.6110     7.5640    22.6210     2.1540   -11.5080 
   93.2500    55.6630     8.6250     7.6050     7.5680    22.6240     2.1450   -11.4230 
   93.3750    52.9090     8.6280     7.6120     7.6080    22.8240     2.1280   -11.3290 
   93.5000    52.8910     8.6250     7.6190     7.6980    23.0750     2.1070   -11.1920 
   93.6250    54.5900     8.6410     7.5960     7.8450    23.2200     2.0890   -11.0080 
   93.7500    55.6020     8.6130     7.5190     7.8540    23.1090     2.0810   -10.7880 
   93.8750    56.5280     8.5210     7.3660     7.7000    22.8080     2.0840   -10.5620 
   94.0000    57.6920     8.4130     7.1300     7.5730    22.5760     2.0980   -10.3340 
   94.1250    59.9300     7.9900     6.8180     7.4270    22.5940     2.1240   -10.1300 
   94.2500    62.9160     7.5420     6.4860     7.1910    22.6650     2.1540    -9.9290 
   94.3750    65.4820     7.1460     6.1880     6.9200    22.6970     2.1810    -9.7150 
   94.5000    68.6940     6.8780     5.9800     6.7490    22.7020     2.2000    -9.5130 
   94.6250    72.3730     6.8180     5.9290     6.6750    22.7020     2.2020    -9.3040 
   94.7500    74.1280     6.9430     6.0240     6.6000    22.7000     2.1940    -9.0900 
   94.8750    71.3790     7.2100     6.2490     6.5910    22.6880     2.1810    -8.8380 
   95.0000    66.8390     7.5430     6.5540     6.6860    22.6320     2.1690    -8.5320 
   95.1250    65.0990     7.8100     6.8420     6.9020    22.5260     2.1660    -8.1470 
   95.2500    64.9210     7.8970     7.0040     7.0120    22.5170     2.1750    -7.6120 
   95.3750    66.6500     7.7340     6.9610     7.0390    22.6490     2.1950    -6.9530 
   95.5000    72.0600     7.3180     6.6830     7.0570    22.7750     2.2240    -6.1970 
   95.6250    79.1840     6.7150     6.1980     6.9010    22.8820     2.2550    -5.4100 
   95.7500    83.8510     6.0970     5.6550     6.4180    23.1350     2.2760    -4.6660 
   95.8750    86.1680     5.5840     5.1590     5.7590    23.5210     2.2820    -3.9590 
   96.0000    87.5520     5.2500     4.7840     5.0900    23.7850     2.2760    -3.3060 
   96.1250    86.6690     5.1380     4.5830     4.8270    23.9170     2.2700    -2.7880 
   96.2500    84.4230     5.1820     4.5170     4.7810    23.9990     2.2720    -2.4860 
   96.3750    81.6320     5.3330     4.5570     4.8260    24.0660     2.2810    -2.4320 
   96.5000    79.4340     5.5510     4.6720     4.9110    24.0630     2.2910    -2.5940 
   96.6250    78.5570     5.8200     4.8500     5.0430    23.9620     2.2900    -2.9400 
   96.7500    77.7910     6.1440     5.0830     5.1920    23.8330     2.2770    -3.3430 
   96.8750    76.1510     6.5600     5.3910     5.3630    23.7490     2.2530    -3.8250 
   97.0000    74.1050     7.1330     5.8140     5.8220    23.6990     2.2230    -4.3790 
   97.1250    74.4980     8.0290     6.4620     6.5610    23.6710     2.2000    -4.8830 
   97.2500    77.2450     9.3580     7.4110     7.5630    23.6660     2.2010    -5.3200 
   97.3750    82.7880    11.2440     8.7670     8.7120    23.7070     2.2400    -5.6290 
   97.5000    90.6750    13.7300    10.6030    10.1920    23.7450     2.3250    -5.8580 
   97.6250    96.2110    16.6840    12.9200    12.6340    23.7580     2.4450    -6.0180 
   97.7500    96.2280    19.5040    15.3220    16.4150    23.7540     2.5580    -6.1370 
   97.8750    90.1820    21.5020    17.2940    20.5150    23.7310     2.6250    -6.2480 
