~V
VERS. 2.00: Ver 2.00
~W
STRT.M 57.0000:
STOP.M 281.0000:
STEP.M 0.1250:
NULL. -999.2500:
UWI. F10238:
~C
DEPT.M :
GR.API :
RML.OHMM :
RI. :
RXO.OHMM :
CALI.CM :
DEN.GM/CC :
SP.MV :
~A
# ...
  147.0000    83.3410     7.3140     4.8820     5.5560    24.3940     2.3410    -9.1530 
  147.1250    85.4280     7.2950     4.8880     5.5620    24.3960     2.3340    -9.1500 
  147.2500    89.1410     7.2460     4.8800     5.4850    24.3980     2.3320    -9.1440 
  147.3750    93.4960     7.1770     4.8630     5.3860    24.3970     2.3330    -9.1310 
  147.5000    95.6510     7.1110     4.8470     5.3340    24.3920     2.3330    -9.1180 
  147.6250    94.0170     7.0730     4.8370     5.3290    24.3830     2.3350    -9.1140 
  147.7500    89.4570     7.0700     4.8330     5.3240    24.3730     2.3390    -9.1060 
  147.8750    84.6860     7.0860     4.8250     5.3220    24.3730     2.3440    -9.1000 
  148.0000    81.8310     7.0770     4.8030     5.3250    24.3900     2.3410    -9.0960 
  148.1250    81.9410     7.0090     4.7580     5.2980    24.3990     2.3280    -9.0980 
  148.2500    84.0700     6.8750     4.6880     5.1990    24.4000     2.3080    -9.1070 
  148.3750    85.2060     6.7070     4.6040     5.0870    24.3960     2.2930    -9.1130 
  148.5000    84.0580     6.5510     4.5160     5.0170    24.3940     2.2870    -9.1240 
  148.6250    83.7130     6.4270     4.4310     4.9570    24.3910     2.2830    -9.1260 
  148.7500    85.9830     6.3310     4.3510     4.8650    24.3880     2.2760    -9.1320 
  148.8750    88.6340     6.2450     4.2750     4.7670    24.3910     2.2650    -9.1420 
  149.0000    89.0000     6.1540     4.1990     4.6870    24.3920     2.2610    -9.1620 
  149.1250    87.4060     6.0520     4.1260     4.6300    24.3910     2.2680    -9.1810 
  149.2500    86.7240     5.9470     4.0570     4.5560    24.3890     2.2840    -9.1860 
  149.3750    89.6530     5.8510     3.9990     4.4520    24.3940     2.3030    -9.1910 
  149.5000    94.3380     5.7790     3.9570     4.3690    24.4010     2.3160    -9.1860 
  149.6250    95.3180     5.7330     3.9360     4.3410    24.4250     2.3200    -9.1760 
  149.7500    90.2020     5.7080     3.9310     4.3400    24.4600     2.3180    -9.1650 
  149.8750    83.6710     5.6910     3.9300     4.3680    24.4950     2.3140    -9.1510 
  150.0000    81.9230     5.6710     3.9220     4.4300    24.5280     2.3100    -9.1290 
  150.1250    85.2260     5.6440     3.9030     4.4370    24.5430     2.3080    -9.1130 
  150.2500    88.7030     5.6250     3.8770     4.3820    24.5260     2.3090    -9.1100 
  150.3750    87.9470     5.6300     3.8560     4.3540    24.4920     2.3120    -9.1220 
  150.5000    84.1210     5.6670     3.8520     4.3890    24.4650     2.3140    -9.1390 
  150.6250    81.7320     5.7340     3.8690     4.4340    24.4260     2.3150    -9.1680 
  150.7500    83.0250     5.8130     3.9010     4.4450    24.3810     2.3130    -9.2080 
  150.8750    86.0640     5.8670     3.9340     4.4440    24.3660     2.3090    -9.2640 
  151.0000    88.1620     5.8650     3.9460     4.4850    24.3760     2.3050    -9.3250 
  151.1250    88.1210     5.8020     3.9280     4.5210    24.3720     2.3040    -9.3840 
  151.2500    85.3160     5.6990     3.8810     4.5060    24.3450     2.3080    -9.4470 
  151.3750    81.8810     5.5960     3.8230     4.4670    24.3110     2.3150    -9.5120 
  151.5000    81.3440     5.5320     3.7770     4.4040    24.2900     2.3180    -9.5900 
  151.6250    84.2510     5.5280     3.7630     4.3290    24.2650     2.3110    -9.6670 
  151.7500    87.8130     5.5950     3.7950     4.3180    24.2180     2.2920    -9.7370 
  151.8750    89.2500     5.7230     3.8760     4.3740    24.1680     2.2740    -9.7890 
  152.0000    88.2030     5.8720     3.9880     4.4150    24.1680     2.2690    -9.8430 
  152.1250    86.9710     5.9950     4.1040     4.4970    24.2420     2.2760    -9.9000 
  152.2500    89.3290     6.0580     4.1920     4.6850    24.3510     2.2880    -9.9490 
  152.3750    93.9400     6.0670     4.2400     4.8360    24.4170     2.2940    -9.9810 
  152.5000    94.6360     6.0700     4.2650     4.7240    24.4310     2.2970   -10.0070 
  152.6250    90.2660     6.0960     4.2860     4.4220    24.3790     2.3000   -10.0350 
  152.7500    85.8160     6.1440     4.3100     4.4160    24.2750     2.3020   -10.0700 
  152.8750    85.0920     6.1670     4.3150     4.9160    24.1420     2.2980   -10.1070 
  153.0000    86.7570     6.0960     4.2620     5.4050    24.0570     2.2900   -10.1420 
  153.1250    89.0330     5.8830     4.1230     5.2690    24.2350     2.2860   -10.1710 
  153.2500    90.3130     5.5380     3.9000     4.6240    24.6920     2.2950   -10.2060 
  153.3750    90.3660     5.1580     3.6470     4.1410    24.9970     2.3170   -10.2490 
  153.5000    90.8650     4.8900     3.4510     3.9620    24.9170     2.3380   -10.2900 
  153.6250    91.8770     4.8610     3.3890     3.9590    24.6790     2.3470   -10.3350 
  153.7500    91.1690     5.1650     3.5320     4.0480    24.4840     2.3470   -10.3800 
  153.8750    88.1750     5.7970     3.9010     4.3880    24.3650     2.3440   -10.4510 
  154.0000    85.8150     6.5940     4.4280     5.2760    24.2940     2.3400   -10.5430 
  154.1250    84.3180     7.3260     4.9890     6.5390    24.2090     2.3300   -10.6520 
  154.2500    81.2700     7.6880     5.3870     7.2780    24.1290     2.3130   -10.7570 
  154.3750    78.2920     7.5060     5.4590     7.0530    24.0680     2.2950   -10.8600 
  154.5000    79.5670     6.9260     5.2260     6.4280    24.0310     2.2840   -10.9680 
  154.6250    84.0030     6.2080     4.8150     5.7610    24.0190     2.2850   -11.0660 
  154.7500    87.7200     5.6150     4.3990     5.2330    24.0410     2.2930   -11.1600 
  154.8750    90.0580     5.2780     4.0990     4.8480    24.1500     2.2990   -11.2380 
  155.0000    92.4690     5.1660     3.9420     4.5470    24.3580     2.2990   -11.3090 
  155.1250    93.8530     5.2130     3.9140     4.3560    24.4900     2.2950   -11.3830 
  155.2500    92.6910     5.3440     3.9760     4.4350    24.4200     2.2890   -11.4750 
  155.3750    89.9290     5.4860     4.0770     4.7800    24.2770     2.2880   -11.5930 
  155.5000    88.0040     5.5920     4.1710     5.1920    24.1180     2.2920   -11.7250 
  155.6250    87.8740     5.6580     4.2420     5.4050    23.9860     2.2960   -11.8750 
  155.7500    87.6830     5.7290     4.3090     5.2430    23.9350     2.2940   -12.0490 
  155.8750    86.1710     5.8880     4.4200     4.9560    23.9920     2.2810   -12.2380 
  156.0000    84.9920     6.2090     4.6190     4.9740    24.1230     2.2620   -12.4340 
  156.1250    83.8310     6.7250     4.9320     5.4100    24.2340     2.2460   -12.6340 
  156.2500    80.0540     7.4100     5.3570     6.0800    24.2020     2.2400   -12.8530 
  156.3750    74.7180     8.1510     5.8450     6.6810    24.0620     2.2440   -13.0790 
  156.5000    72.0580     8.7870     6.3050     7.2330    23.9670     2.2490   -13.3080 
  156.6250    72.0250     9.2160     6.6650     7.6650    23.9700     2.2480   -13.5360 
  156.7500    71.7660     9.4590     6.9080     8.1680    24.0710     2.2430   -13.7470 
  156.8750    71.5400     9.7120     7.1200     8.7610    24.2460     2.2390   -13.9380 
  157.0000    72.7090    10.2870     7.4790     9.1210    24.4140     2.2400   -14.1070 
  157.1250    73.7460    11.4650     8.1660     9.5290    24.5160     2.2420   -14.2740 
  157.2500    72.1230    13.4950     9.3840    10.8130    24.5330     2.2350   -14.4310 
  157.3750    67.2740    16.3730    11.2310    13.8340    24.4860     2.2170   -14.5740 
  157.5000    61.4970    19.6500    13.5320    17.8390    24.4090     2.1930   -14.7010 
  157.6250    56.9870    22.6610    15.9070    20.5850    24.3400     2.1740   -14.8260 
  157.7500    55.8890    24.5690    17.7240    20.8360    24.2750     2.1680   -14.9580 
  157.8750    57.8420    25.0160    18.5450    19.3410    24.1800     2.1740   -15.0910 
  158.0000    60.0020    24.5420    18.5670    17.6350    24.0550     2.1870   -15.2310 
  158.1250    61.1310    23.8570    18.2410    16.4400    23.9480     2.1990   -15.3660 
