~V
VERS. 2.00: Ver 2.00
~W
STRT.M 50.0000:
STOP.M 273.0000:
STEP.M 0.1250:
NULL. -999.2500:
UWI. F10249:
~C
DEPT.M :
DEN.GM/CC :
GR.API :
RML.OHMM :
RI. :
RXO.OHMM :
CALI.CM :
SP.MV :
~A
   50.0000     2.1670  -999.2500  -999.2500  -999.2500  -999.2500  -999.2500  -999.2500 
   50.1250     2.1870  -999.2500  -999.2500  -999.2500  -999.2500  -999.2500  -999.2500 
   50.2500     2.1930  -999.2500  -999.2500  -999.2500  -999.2500  -999.2500  -999.2500 
   50.3750     2.1830  -999.2500  -999.2500  -999.2500  -999.2500  -999.2500     0.0000 
   50.5000     2.1680  -999.2500  -999.2500  -999.2500  -999.2500  -999.2500     0.0000 
   50.6250     2.1680  -999.2500  -999.2500  -999.2500  -999.2500  -999.2500   241.5320 
   50.7500     2.1880  -999.2500  -999.2500  -999.2500  -999.2500  -999.2500   240.5890 
   50.8750     2.2100  -999.2500  -999.2500  -999.2500  -999.2500  -999.2500   239.5660 
   51.0000     2.2130  -999.2500  -999.2500  -999.2500  -999.2500  -999.2500   238.4470 
   51.1250     2.1780  -999.2500  -999.2500  -999.2500  -999.2500  -999.2500   237.2790 
   51.2500     2.1220  -999.2500  -999.2500  -999.2500  -999.2500  -999.2500   236.1020 
   51.3750     2.0650  -999.2500  -999.2500  -999.2500  -999.2500  -999.2500   234.8960 
   51.5000     2.0230  -999.2500  -999.2500  -999.2500  -999.2500  -999.2500   233.5910 
   51.6250     2.0030  -999.2500  -999.2500  -999.2500  -999.2500  -999.2500   232.1960 
   51.7500     1.9920  -999.2500  -999.2500  -999.2500  -999.2500  -999.2500   230.8080 
   51.8750     1.9840  -999.2500  -999.2500  -999.2500  -999.2500  -999.2500   229.4100 
   52.0000     1.9770  -999.2500  -999.2500  -999.2500  -999.2500  -999.2500   227.9800 
   52.1250     1.9760  -999.2500  -999.2500  -999.2500  -999.2500  -999.2500   226.5290 
   52.2500     1.9810  -999.2500  -999.2500  -999.2500  -999.2500  -999.2500   225.0790 
   52.3750     1.9910  -999.2500  -999.2500  -999.2500  -999.2500  -999.2500   223.6140 
   52.5000     2.0010  -999.2500  -999.2500  -999.2500  -999.2500  -999.2500   222.1590 
   52.6250     2.0080  -999.2500  -999.2500  -999.2500  -999.2500  -999.2500   220.6880 
   52.7500     2.0110  -999.2500  -999.2500  -999.2500  -999.2500  -999.2500   219.1440 
   52.8750     2.0100  -999.2500  -999.2500  -999.2500  -999.2500  -999.2500   217.5190 
   53.0000     2.0060  -999.2500  -999.2500  -999.2500  -999.2500  -999.2500   215.8300 
   53.1250     1.9940  -999.2500  -999.2500  -999.2500  -999.2500  -999.2500   214.0340 
   53.2500     1.9750  -999.2500  -999.2500  -999.2500  -999.2500  -999.2500   212.0700 
   53.3750     1.9540  -999.2500  -999.2500  -999.2500  -999.2500  -999.2500   209.9570 
   53.5000     1.9390  -999.2500  -999.2500  -999.2500  -999.2500  -999.2500   207.7630 
   53.6250     1.9440  -999.2500  -999.2500  -999.2500  -999.2500  -999.2500   205.3700 
   53.7500     1.9650  -999.2500  -999.2500  -999.2500  -999.2500  -999.2500   202.7890 
   53.8750     1.9950  -999.2500  -999.2500  -999.2500  -999.2500  -999.2500   200.0990 
   54.0000     2.0240  -999.2500  -999.2500  -999.2500  -999.2500  -999.2500   197.2830 
   54.1250     2.0350  -999.2500  -999.2500  -999.2500  -999.2500  -999.2500   194.2680 
   54.2500     2.0260  -999.2500  -999.2500  -999.2500  -999.2500  -999.2500   191.1190 
   54.3750     2.0000  -999.2500  -999.2500  -999.2500  -999.2500  -999.2500   187.8330 
   54.5000     1.9680  -999.2500  -999.2500  -999.2500  -999.2500  -999.2500   184.3910 
   54.6250     1.9440  -999.2500  -999.2500  -999.2500  -999.2500  -999.2500   180.8110 
   54.7500     1.9340  -999.2500  -999.2500  -999.2500  -999.2500  -999.2500   177.0560 
   54.8750     1.9400    40.7920     3.1680     0.4060     1.4400    25.6230   173.0390 
   55.0000     1.9550    40.7920     3.1680     0.4060     1.4400    25.6230   168.6990 
   55.1250     1.9700    52.7700     3.0600     0.4280     1.4430    23.8660   163.9910 
   55.2500     1.9810    49.6530     2.9180     0.4200     1.2260    24.3990   158.9050 
   55.3750     1.9860    43.2900     2.8300     0.4070     1.7260    25.5160   153.4280 
   55.5000     1.9870    44.7510     2.7810     0.4040     2.2940    25.8600   147.6760 
   55.6250     1.9880    46.5220     2.7430     0.4050     2.2820    25.8620   141.5930 
   55.7500     1.9890    46.5830     2.6910     0.4060     2.3160    25.8630   135.2470 
   55.8750     1.9920    46.7430     2.6210     0.4070     2.3750    25.8630   128.8300 
   56.0000     2.0000    46.5770     2.5380     0.4080     2.4240    25.8630   122.4690 
   56.1250     2.0120    44.5790     2.4570     0.4090     2.4380    25.8630   116.1470 
   56.2500     2.0250    43.5270     2.3880     0.4100     2.4380    25.8630   109.8630 
   56.3750     2.0360    45.1640     2.3300     0.4100     2.4100    25.8620   103.6550 
   56.5000     2.0400    48.0210     2.2810     0.4110     2.3790    25.8600    97.4220 
   56.6250     2.0390    49.7340     2.2320     0.4130     2.3190    25.8470    91.2800 
   56.7500     2.0400    49.5640     2.1770     0.4140     2.2450    25.8250    85.3360 
   56.8750     2.0480    46.6440     2.1110     0.4130     2.1990    25.8040    79.4770 
   57.0000     2.0690    43.4330     2.0360     0.4090     2.1950    25.7950    73.7390 
   57.1250     2.1080    43.5720     1.9540     0.4010     2.1990    25.7950    68.2620 
   57.2500     2.1620    45.4260     1.8760     0.3910     2.1800    25.7950    63.0550 
   57.3750     2.2250    46.1190     1.8200     0.3790     2.1640    25.7930    58.1250 
   57.5000     2.2930    46.0820     1.8090     0.3670     2.2560    25.7760    53.4960 
   57.6250     2.3610    47.6770     1.8600     0.3580     2.5010    25.6560    49.1050 
   57.7500     2.4210    49.2840     1.9070     0.3470     2.4130    25.3810    44.9170 
   57.8750     2.4670    48.3330     1.8160     0.3280     1.6860    24.9830    40.9860 
   58.0000     2.5020    45.4730     1.4520     0.2910     1.0570    24.6430    37.2460 
   58.1250     2.5500    43.7320     0.8100     0.2330     0.9020    24.1210    33.7070 
   58.2500     2.6190    44.2520     0.1590     0.1710     0.9050    23.8070    30.3490 
   58.3750     2.6900    46.7540    -0.2970     0.1210     0.9490    23.6440    27.1200 
   58.5000     2.7120    50.0160    -0.4790     0.0920     0.9740    23.6010    23.9600 
   58.6250     2.6190    54.2800    -0.3520     0.1000     1.0740    23.6800    20.8010 
   58.7500     2.4350    57.5520     0.0500     0.1660     1.6490    23.9420    17.5240 
   58.8750     2.2240    58.6720     0.7760     0.3350     3.6420    24.3010    14.1850 
   59.0000     2.0600    58.7600     1.8590     0.6830     6.6960    24.5070    10.9860 
   59.1250     2.0090    60.8310     3.2800     1.3750     8.9410    24.1610     8.0800 
   59.2500     2.0530    66.0020     4.8230     2.4500     9.2670    23.6300     5.4730 
   59.3750     2.1610    70.9610     6.3280     3.8730     9.3060    23.1300     3.2420 
   59.5000     2.2970    73.5440     7.6750     5.4760     9.8840    22.7620     1.3950 
   59.6250     2.4160    74.6080     8.6690     6.9100    12.1540    22.5860     0.0710 
   59.7500     2.4860    77.5450     9.1380     7.7910    14.8310    22.6740    -0.6880 
   59.8750     2.4950    83.7850     8.9470     7.8610    12.0430    23.0660    -1.0320 
   60.0000     2.4560    91.0810     8.2140     7.2190     6.9090    23.5580    -1.2460 
   60.1250     2.4000    97.4920     7.3620     6.3300     5.4850    23.9130    -1.4950 
   60.2500     2.3580   101.8010     6.8580     5.6800     5.4040    24.1140    -1.7480 
   60.3750     2.3380   104.1980     6.8710     5.4260     5.8380    24.1270    -2.0050 
   60.5000     2.3360   105.5570     7.3390     5.5570     6.1010    24.0460    -2.3130 
   60.6250     2.3400   102.8920     8.0150     5.9470     6.1790    23.9660    -2.6540 
   60.7500     2.3440    96.4320     8.5250     6.3160     6.3910    23.9460    -3.0360 
   60.8750     2.3490    89.2190     8.6710     6.4880     6.6190    23.9940    -3.4190 
   61.0000     2.3530    86.9250     8.4500     6.4170     6.5440    24.1080    -3.7470 
   61.1250     2.3550    91.1760     8.0390     6.1790     6.2240    24.2720    -4.0180 
