~V
VERS. 2.00: Ver 2.00
~W
STRT.M 53.0000:
STOP.M 276.0000:
STEP.M 0.1250:
NULL. -999.2500:
UWI. F10245:
~C
DEPT.M :
GR.API :
RML.OHMM :
RI. :
RXO.OHMM :
CALI.CM :
DEN.GM/CC :
SP.MV :
~A
# ...
   64.2500    75.4010     7.8520     6.7700     6.3250    23.2230     2.0710   -16.3020 
   64.3750    72.1970     7.9290     6.8320     6.4430    22.6730     2.1210   -15.9740 
   64.5000    72.7830     7.8680     6.8040     6.4000    22.0900     2.1780   -15.5800 
   64.6250    78.4050     7.6320     6.6450     6.3390    21.7650     2.2210   -15.1210 
   64.7500    84.3110     7.3030     6.4000     6.2850    21.7520     2.2440   -14.6470 
   64.8750    89.1390     6.9720     6.1320     6.1760    21.9340     2.2530   -14.1550 
   65.0000    93.1630     6.7510     5.9170     6.0190    22.0860     2.2540   -13.6650 
   65.1250    95.0360     6.8070     5.8780     6.0720    22.1580     2.2470   -13.1880 
   65.2500    90.8750     7.2180     6.0850     6.2410    22.2270     2.2360   -12.8000 
   65.3750    83.6320     8.0260     6.5880     6.4620    22.2990     2.2330   -12.5350 
   65.5000    79.1320     9.1630     7.3690     6.8280    22.3220     2.2490   -12.3860 
   65.6250    78.3950    10.3680     8.2940     7.7090    22.2240     2.2890   -12.4350 
   65.7500    78.6120    11.2250     9.0640     9.2010    21.9860     2.3310   -12.5860 
   65.8750    80.6770    11.4140     9.4160    11.0460    21.5950     2.3510   -12.8000 
   66.0000    83.9090    10.8280     9.1940    11.5140    21.1500     2.3350   -13.0540 
   66.1250    82.6840     9.6600     8.4410     9.9340    20.7460     2.2990   -13.3040 
   66.2500    78.9250     8.5380     7.6060     8.1190    20.5270     2.2760   -13.5800 
   66.3750    80.1580     7.8810     7.0140     6.9230    20.4590     2.2790   -13.9100 
   66.5000    83.8400     7.8690     6.8340     6.3900    20.4520     2.3080   -14.2770 
   66.6250    82.5860     8.4920     7.1250     6.3310    20.4520     2.3500   -14.6600 
   66.7500    77.2970     9.3480     7.6580     6.6940    20.4520     2.3800   -15.0220 
   66.8750    72.9340    10.0810     8.2050     7.5950    20.4520     2.3840   -15.3620 
   67.0000    69.7890    10.3800     8.5280     8.3720    20.4450     2.3590   -15.6770 
   67.1250    66.0560    10.0340     8.4170     8.3120    20.4240     2.3090   -16.0270 
   67.2500    64.8270     9.3320     8.0060     7.8060    20.3960     2.2560   -16.4010 
   67.3750    66.5720     8.6360     7.5250     7.1310    20.3840     2.2150   -16.7660 
   67.5000    68.0840     8.2830     7.2240     6.5910    20.3970     2.1940   -17.1320 
   67.6250    66.2080     8.5200     7.3140     6.5420    20.4860     2.1920   -17.4340 
   67.7500    63.0050     9.1600     7.7240     6.8490    20.6910     2.1930   -17.7280 
   67.8750    60.9430     9.9470     8.3100     7.4030    20.9470     2.1870   -17.9990 
   68.0000    60.9180    10.5750     8.8630     8.2570    21.0920     2.1680   -18.2690 
   68.1250    61.2160    10.7040     9.1080     9.7700    21.0380     2.1410   -18.5170 
   68.2500    60.3430    10.3510     8.9820    11.1820    20.8370     2.1170   -18.6950 
   68.3750    59.7650     9.6850     8.5640    10.3160    20.6180     2.1040   -18.7810 
   68.5000    60.4510     8.9780     8.0420     8.0670    20.4750     2.1030   -18.7720 
   68.6250    61.9050     8.4950     7.6250     7.2470    20.4030     2.1110   -18.6990 
   68.7500    62.7760     8.2780     7.3880     7.0940    20.3250     2.1220   -18.6120 
   68.8750    62.9490     8.2750     7.3210     7.1700    20.1880     2.1330   -18.5190 
   69.0000    62.5800     8.3920     7.3700     7.3290    19.9900     2.1430   -18.4020 
   69.1250    62.8200     8.5350     7.4650     7.5780    19.8670     2.1520   -18.2420 
   69.2500    65.0000     8.6460     7.5490     7.8650    19.8470     2.1590   -18.0550 
   69.3750    68.0710     8.7210     7.6070     8.0850    19.9540     2.1670   -17.8870 
   69.5000    70.6550     8.7760     7.6500     8.2380    20.2340     2.1790   -17.7640 
   69.6250    72.5890     8.8570     7.7080     8.2320    20.5290     2.1970   -17.6770 
   69.7500    72.3340     9.0070     7.8120     8.2400    20.7090     2.2170   -17.5600 
   69.8750    70.4190     9.2450     7.9750     8.3830    20.8280     2.2250   -17.3790 
   70.0000    68.0610     9.5430     8.1840     8.7570    21.0220     2.2100   -17.1920 
   70.1250    66.6170     9.8130     8.3810     9.5040    21.3280     2.1690   -17.0590 
   70.2500    66.0030     9.9600     8.4950    10.6710    21.6010     2.1200   -16.9890 
   70.3750    66.1970     9.9270     8.4800    12.4630    21.7060     2.0790   -16.9380 
   70.5000    65.8560     9.7210     8.3310    14.1680    21.7190     2.0560   -16.8590 
   70.6250    64.2500     9.4000     8.0840    11.3800    21.7290     2.0560   -16.7690 
   70.7500    64.3950     9.0840     7.8270     9.0450    21.7500     2.0680   -16.7140 
   70.8750    66.4280     8.8400     7.6160     8.1790    21.7550     2.0840   -16.7220 
   71.0000    67.0750     8.6950     7.4770     8.0440    21.7110     2.0970   -16.7450 
   71.1250    65.1800     8.6620     7.4260     7.9930    21.6430     2.1060   -16.7950 
   71.2500    64.0340     8.7070     7.4390     7.9050    21.5950     2.1110   -16.8680 
   71.3750    64.1810     8.8150     7.5030     7.8450    21.5800     2.1150   -16.9610 
   71.5000    63.6510     8.9630     7.6010     7.8230    21.5780     2.1210   -17.0890 
   71.6250    62.1100     9.1140     7.7070     7.8320    21.5710     2.1320   -17.2260 
   71.7500    60.3710     9.2180     7.7850     7.8460    21.5570     2.1450   -17.3380 
   71.8750    60.5560     9.2360     7.8050     7.8800    21.5760     2.1530   -17.4630 
   72.0000    62.8260     9.1570     7.7540     7.9100    21.6940     2.1520   -17.5860 
   72.1250    64.3350     9.0020     7.6360     7.9350    21.9270     2.1420   -17.6580 
   72.2500    63.4530     8.8450     7.5000     7.9500    22.1210     2.1310   -17.6640 
   72.3750    61.0750     8.7340     7.3860     7.9130    22.2590     2.1240   -17.6090 
   72.5000    60.1630     8.6940     7.3180     7.8340    22.3460     2.1240   -17.5580 
   72.6250    59.9790     8.7240     7.3070     7.7840    22.3970     2.1270   -17.5160 
   72.7500    59.4250     8.7760     7.3270     7.8070    22.4170     2.1300   -17.4980 
   72.8750    60.2220     8.8180     7.3550     7.8920    22.4220     2.1330   -17.4760 
   73.0000    63.6420     8.8260     7.3720     8.0030    22.4130     2.1360   -17.4320 
   73.1250    65.7010     8.7930     7.3670     8.0700    22.3780     2.1420   -17.3550 
   73.2500    64.7320     8.7370     7.3440     7.9910    22.3240     2.1500   -17.2930 
   73.3750    63.2870     8.6730     7.3100     7.8170    22.2910     2.1570   -17.2860 
   73.5000    62.3580     8.6180     7.2730     7.6960    22.2810     2.1590   -17.2880 
   73.6250    60.9790     8.5910     7.2450     7.6760    22.2820     2.1560   -17.2700 
   73.7500    61.3340     8.5950     7.2320     7.6670    22.2880     2.1520   -17.2190 
   73.8750    63.6560     8.6290     7.2350     7.6760    22.3060     2.1480   -17.1170 
   74.0000    64.1470     8.6870     7.2550     7.6850    22.3340     2.1460   -17.0340 
   74.1250    61.2230     8.7630     7.2910     7.7290    22.3580     2.1440   -17.0010 
   74.2500    59.2490     8.8440     7.3370     7.8450    22.3870     2.1420   -16.9980 
   74.3750    59.7050     8.9240     7.3890     7.9680    22.4110     2.1420   -16.9870 
   74.5000    60.3900     9.0030     7.4460     8.0870    22.4290     2.1430   -16.9140 
   74.6250    61.3250     9.0890     7.5110     8.2640    22.4510     2.1440   -16.8000 
   74.7500    62.6350     9.1900     7.5870     8.4410    22.4830     2.1440   -16.6530 
   74.8750    63.6030     9.3120     7.6760     8.5460    22.4990     2.1470   -16.4870 
   75.0000    63.5600     9.4480     7.7760     8.5550    22.5020     2.1530   -16.3120 
   75.1250    63.7330     9.5790     7.8790     8.4960    22.5000     2.1670   -16.1100 
   75.2500    64.6010     9.6760     7.9670     8.3930    22.4860     2.1890   -15.8530 
   75.3750    64.1960     9.7110     8.0180     8.3670    22.4540     2.2170   -15.5680 
