~V
VERS. 2.00: Ver 2.00
~W
STRT.M 54.0000:
STOP.M 277.0000:
STEP.M 0.1250:
NULL. -999.2500:
UWI. F10247:
~C
DEPT.M :
GR.API :
RML.OHMM :
RI. :
RXO.OHMM :
CALI.CM :
DEN.GM/CC :
SP.MV :
~A
# ...
  256.5000    59.4830    10.4200     8.5280    10.0410    24.0760     2.3910   -16.2430 
  256.6250    56.7570    10.9160     8.8890    10.0210    24.0940     2.4020   -16.4750 
  256.7500    55.5240    11.4030     9.2760    10.7950    24.2560     2.4160   -16.6710 
  256.8750    57.9190    11.7670     9.5970    13.2690    24.3590     2.4250   -16.8330 
  257.0000    60.9580    11.9100     9.7610    18.8340    24.3800     2.4220   -16.9730 
  257.1250    61.4120    11.7890     9.7140    27.1630    24.3700     2.4020   -17.0750 
  257.2500    60.2120    11.4340     9.4410    23.6500    24.3380     2.3720   -17.1170 
  257.3750    59.5810    11.0210     9.0700    17.9220    24.3530     2.3500   -17.1100 
  257.5000    60.4260    10.6780     8.7020    12.4040    24.3520     2.3430   -17.0570 
  257.6250    60.8630    10.4800     8.4120     9.9670    24.2750     2.3470   -16.9980 
  257.7500    60.5910    10.4590     8.2530     9.1910    24.2150     2.3440   -16.9350 
  257.8750    59.6540    10.5530     8.2080     8.5970    24.2780     2.3310   -16.8830 
  258.0000    57.9180    10.7180     8.2580     8.0730    24.4240     2.3240   -16.8360 
  258.1250    56.5970    10.9210     8.3770     8.3540    24.5460     2.3500   -16.7740 
  258.2500    57.8720    11.1380     8.5340     8.8830    24.5530     2.4230   -16.6830 
  258.3750    60.2950    11.3390     8.6880     9.4900    24.5090     2.5060   -16.5800 
  258.5000    60.8650    11.4940     8.8130    10.1380    24.4530     2.5560   -16.4720 
  258.6250    58.6720    11.5770     8.8890    10.9270    24.4310     2.5540   -16.3310 
  258.7500    54.3110    11.5750     8.9020    12.2650    24.4570     2.5030   -16.1530 
  258.8750    50.9720    11.5370     8.8800    12.4540    24.5070     2.4370   -15.9320 
  259.0000    51.9260    11.5180     8.8540    12.6450    24.5160     2.3810   -15.6750 
  259.1250    55.7400    11.5640     8.8620    13.3320    24.4880     2.3510   -15.4240 
  259.2500    57.7000    11.7080     8.9380    12.9200    24.4190     2.3570   -15.2010 
  259.3750    57.1800    11.9080     9.0670    11.2270    24.3320     2.3810   -14.9940 
  259.5000    56.6070    12.0940     9.2040    10.1630    24.2290     2.4050   -14.8010 
  259.6250    57.5730    12.1740     9.2800    10.4350    24.2120     2.4130   -14.6390 
  259.7500    60.1690    12.0310     9.1980    10.8710    24.3560     2.3990   -14.4880 
  259.8750    61.5560    11.6870     8.9610    10.4290    24.4370     2.3790   -14.3370 
  260.0000    59.7670    11.2200     8.6130     9.5290    24.4440     2.3600   -14.2010 
  260.1250    56.1790    10.7550     8.2380     8.7500    24.4530     2.3470   -14.0610 
  260.2500    53.6700    10.4500     7.9430     8.3460    24.4640     2.3440   -13.9300 
  260.3750    52.9460    10.3410     7.7750     7.9860    24.5030     2.3510   -13.8180 
  260.5000    53.2460    10.4060     7.7390     7.7960    24.5290     2.3670   -13.7190 
  260.6250    55.0110    10.5860     7.8090     7.6480    24.4970     2.3870   -13.6230 
  260.7500    57.5090    10.8000     7.9420     7.6600    24.4270     2.4020   -13.5280 
  260.8750    58.4620    10.9680     8.0690     7.7410    24.3820     2.4110   -13.4320 
  261.0000    57.5110    11.0470     8.1520     7.8980    24.3970     2.4160   -13.3460 
  261.1250    55.3640    11.0260     8.1750     7.9960    24.4540     2.4200   -13.2780 
  261.2500    54.2610    10.9050     8.1290     8.2280    24.5250     2.4260   -13.2220 
  261.3750    53.8870    10.7330     8.0390     8.2250    24.5650     2.4290   -13.1690 
  261.5000    53.9400    10.5480     7.9230     7.7960    24.5150     2.4240   -13.1070 
  261.6250    53.5540    10.3770     7.7960     7.3720    24.3860     2.4100   -13.0480 
  261.7500    54.1720    10.2300     7.6700     7.1390    24.2540     2.3920   -13.0100 
  261.8750    56.1910    10.0950     7.5460     7.0380    24.3140     2.3800   -13.0000 
  262.0000    58.0800     9.9720     7.4260     6.9470    24.3960     2.3790   -12.9990 
  262.1250    57.7700     9.8760     7.3200     6.9360    24.4040     2.3870   -12.9830 
  262.2500    55.2320     9.8400     7.2460     6.8510    24.3360     2.3910   -12.9560 
  262.3750    55.2940     9.8700     7.2100     6.7640    24.2960     2.3810   -12.9470 
  262.5000    58.5240     9.9550     7.2120     6.7570    24.2960     2.3570   -12.9850 
  262.6250    61.7410    10.0640     7.2420     6.7910    24.3690     2.3300   -13.0160 
  262.7500    62.1640    10.1680     7.2870     6.7140    24.4970     2.3150   -13.0370 
  262.8750    60.8020    10.2530     7.3340     6.6200    24.7470     2.3170   -13.0690 
  263.0000    60.0280    10.3200     7.3780     6.6380    25.0310     2.3330   -13.0860 
  263.1250    60.2530    10.3770     7.4180     6.6820    25.0510     2.3510   -13.1150 
  263.2500    61.6320    10.4380     7.4500     6.5670    24.7220     2.3630   -13.1860 
  263.3750    62.2310    10.5130     7.4720     6.4160    24.4250     2.3690   -13.2290 
  263.5000    61.2440    10.5840     7.4770     6.3110    24.5060     2.3710   -13.2310 
  263.6250    59.5670    10.6170     7.4570     6.3570    24.6930     2.3760   -13.2400 
  263.7500    58.8330    10.5740     7.4070     6.5330    24.6910     2.3910   -13.2490 
  263.8750    58.8460    10.4780     7.3430     6.7450    24.4070     2.4140   -13.2470 
  264.0000    58.2930    10.3750     7.2770     6.8370    24.2000     2.4310   -13.2440 
  264.1250    57.2320    10.3010     7.2200     6.8280    24.2020     2.4300   -13.2420 
  264.2500    56.5650    10.2740     7.1760     6.8890    24.3220     2.4040   -13.1920 
  264.3750    56.3280    10.2620     7.1390     7.0000    24.4530     2.3670   -13.1510 
  264.5000    56.7650    10.2460     7.1060     6.9300    24.6980     2.3350   -13.1240 
  264.6250    57.5240    10.2290     7.0770     6.8080    24.8560     2.3200   -13.1100 
  264.7500    57.8540    10.2310     7.0560     6.7790    24.5950     2.3280   -13.1180 
  264.8750    57.0520    10.2580     7.0460     6.8070    24.3320     2.3510   -13.1140 
  265.0000    55.3680    10.3060     7.0510     7.0010    24.2400     2.3780   -13.1100 
  265.1250    54.9400    10.3570     7.0670     7.6920    24.1620     2.3990   -13.1000 
  265.2500    57.2450    10.3770     7.0810     9.8360    24.0580     2.4040   -13.1170 
  265.3750    59.4190    10.3490     7.0780    12.5180    23.9950     2.3940   -13.1620 
  265.5000    59.4770    10.2810     7.0520    13.7930    23.9690     2.3760   -13.1970 
  265.6250    59.2790    10.2030     7.0090    12.0740    23.9490     2.3570   -13.2050 
  265.7500    61.6010    10.1780     6.9690     8.8100    23.9780     2.3480   -13.2040 
  265.8750    63.2340    10.2440     6.9650     9.0170    24.3130     2.3520   -13.2220 
  266.0000    61.5670    10.4080     7.0140    11.7200    25.0590     2.3660   -13.2480 
  266.1250    58.9970    10.6430     7.1170    12.6620    25.7180     2.3820   -13.2870 
  266.2500    58.4170    10.8930     7.2510    10.9960    25.7730     2.3860   -13.3210 
  266.3750    58.4860    11.0950     7.3700     9.0430    25.2480     2.3750   -13.3120 
  266.5000    58.6990    11.1960     7.4320     7.7530    24.7620     2.3590   -13.2950 
  266.6250    59.8270    11.1630     7.4130     7.5540    24.6430     2.3540   -13.2950 
  266.7500    60.6930    10.9620     7.2950     8.0080    24.6240     2.3750   -13.2700 
  266.8750    61.4340    10.6420     7.1080     7.4590    24.5520     2.4030   -13.2170 
  267.0000    61.9540    10.2580     6.8820     6.4600    24.6720     2.4160   -13.1640 
  267.1250    61.9540     9.8860     6.6530     5.8520    25.0930     2.4010   -13.1080 
  267.2500    61.9540     9.6180     6.4750     5.7560    25.4670     2.3650   -13.0610 
  267.3750    61.9540     9.4760     6.3690     5.8690    25.1690     2.3310   -13.0300 
  267.5000    61.9540     9.4590     6.3470     6.1740    24.8600     2.3120   -12.9980 
  267.6250    61.9540     9.5520     6.4120     6.4350    24.7360     2.3170   -12.9520 
