~V
VERS. 2.00: Ver 2.00
~W
STRT.M 52.0000:
STOP.M 254.0000:
STEP.M 0.1250:
NULL. -999.2500:
UWI. F10213:
~C
DEPT.M :
DEN.GM/CC :
GR.API :
RML.OHMM :
RI. :
RXO.OHMM :
CALI.CM :
SP.MV :
~A
# ...
  187.0000     2.2510    66.0020    62.9810    52.3800    19.7120    21.7280   -28.6320 
  187.1250     2.2410    64.8310    73.5990    61.8750    19.7330    21.3420   -28.5980 
  187.2500     2.2240    66.1910    83.5660    71.8770    17.0660    20.5760   -28.5430 
  187.3750     2.2170    69.0300    89.7250    79.2200    13.7780    19.2730   -28.4650 
  187.5000     2.2260    70.0130    90.3650    81.6800    11.9540    17.7940   -28.3750 
  187.6250     2.2440    67.4870    86.2200    79.1530    11.7590    16.9570   -28.3640 
  187.7500     2.2590    65.1740    80.8210    74.7690    11.8210    16.7150   -28.4550 
  187.8750     2.2690    65.8640    75.6070    70.0760    12.0930    16.8560   -28.5670 
  188.0000     2.2740    67.3050    70.7920    65.5410    12.9410    17.3450   -28.6500 
  188.1250     2.2760    70.1900    66.2550    61.2080    14.6230    18.3730   -28.7540 
  188.2500     2.2780    75.2890    62.2310    57.2960    17.5130    19.7800   -28.9150 
  188.3750     2.2800    78.0940    59.4730    54.3920    20.7300    21.2560   -29.1050 
  188.5000     2.2820    76.3890    58.9230    53.2240    23.2480    22.3980   -29.3270 
  188.6250     2.2770    71.6660    62.0640    55.0770    26.8040    22.8350   -29.4800 
  188.7500     2.2670    67.1700    68.9570    60.3140    31.4770    23.0310   -29.5680 
  188.8750     2.2520    62.4510    79.5140    69.2460    37.8650    23.2660   -29.6660 
  189.0000     2.2330    57.6890    92.6680    81.2360    44.9730    23.7170   -29.7970 
  189.1250     2.2100    55.9620   105.3930    93.7050    51.7110    24.0290   -29.9560 
  189.2500     2.1860    58.2530   113.7660   102.6660    56.7400    24.1990   -30.0990 
  189.3750     2.1680    62.2410   115.5970   105.6800    61.8080    24.3030   -30.2110 
  189.5000     2.1590    64.6790   111.6120   102.9270    72.3130    24.3890   -30.2860 
  189.6250     2.1650    65.3160   104.9650    96.8390    83.5550    24.4280   -30.3660 
  189.7500     2.1830    66.7170    99.5980    91.2010    84.2260    24.4240   -30.4560 
  189.8750     2.2110    68.2620    97.5240    88.0350    72.8230    24.4020   -30.5010 
  190.0000     2.2390    66.6740    99.9600    88.6470    66.1730    24.4190   -30.5110 
  190.1250     2.2460    63.7270   108.5060    94.7810    71.3340    24.5110   -30.4950 
  190.2500     2.2350    60.0370   122.3040   105.9870    92.0570    24.6560   -30.4380 
  190.3750     2.2110    57.3950   140.1720   121.4040   112.9950    24.7810   -30.3910 
  190.5000     2.1850    56.4030   158.9500   138.3860   120.7850    24.7860   -30.3590 
  190.6250     2.1680    56.6070   171.2970   150.9930   128.6420    24.5870   -30.2960 
  190.7500     2.1680    55.9890   172.4260   154.8430   138.9810    24.3520   -30.1940 
  190.8750     2.1830    55.8270   163.0140   149.4760   142.9810    24.1650   -30.1100 
  191.0000     2.2100    57.9800   148.7060   138.5980   119.2220    24.0540   -30.0720 
  191.1250     2.2360    60.7910   136.3080   127.8080    91.9540    24.0320   -30.0440 
  191.2500     2.2550    60.9050   128.8260   120.7270    79.9740    24.0810   -29.9800 
  191.3750     2.2580    58.6750   126.7490   118.4390    85.5840    24.2130   -29.8800 
  191.5000     2.2460    56.2340   129.2630   120.6750   103.6260    24.4820   -29.7730 
  191.6250     2.2180    58.4200   134.2530   125.9480   123.3930    24.9890   -29.7360 
  191.7500     2.1880    63.3840   137.3600   130.3030   132.1870    25.5900   -29.7640 
  191.8750     2.1660    65.7230   134.7450   130.0050   135.2190    26.0400   -29.7550 
  192.0000     2.1600    64.3320   124.5500   122.5870   137.8250    26.2990   -29.6870 
  192.1250     2.1680    63.1610   108.5370   108.4290   124.5030    26.3710   -29.6340 
  192.2500     2.1820    65.0930    92.8790    93.2620    95.8380    26.3530   -29.6750 
  192.3750     2.1950    67.3840    81.3180    81.1240    70.5160    26.2820   -29.7900 
  192.5000     2.2040    66.5990    75.6690    74.2170    52.7470    26.1510   -29.9440 
  192.6250     2.2070    65.5640    77.5250    74.3740    47.5470    25.9290   -30.0800 
  192.7500     2.2050    65.6030    85.6180    80.7470    66.1940    25.6800   -30.1850 
  192.8750     2.1970    64.5260    99.1930    92.9430   115.9430    25.5450   -30.3270 
  193.0000     2.1900    61.8100   116.4450   109.4200   173.9540    25.5220   -30.5170 
  193.1250     2.1940    62.2080   133.2950   126.3420   184.3910    25.5720   -30.7200 
  193.2500     2.2060    65.7010   144.9570   138.7990   176.8600    25.6040   -30.8960 
  193.3750     2.2150    66.4240   149.3980   144.4480   164.4060    25.6400   -31.0260 
  193.5000     2.2160    62.5400   148.0670   144.1310   156.9480    25.6730   -31.1400 
  193.6250     2.2150    58.9740   144.0720   140.4650   153.8580    25.6670   -31.2590 
  193.7500     2.2170    59.0860   140.1260   136.4010   152.4070    25.5920   -31.4090 
  193.8750     2.2190    61.6940   136.9200   132.8730   150.1250    25.4610   -31.5720 
  194.0000     2.2170    64.8150   134.6550   130.2410   147.7360    25.3580   -31.7140 
  194.1250     2.2130    67.8780   133.5340   128.8640   142.7160    25.3310   -31.8370 
  194.2500     2.2120    70.4800   133.1770   128.4990   135.4870    25.3450   -31.9850 
  194.3750     2.2160    69.9700   133.1230   128.7960   129.2810    25.3700   -32.1700 
  194.5000     2.2210    65.1350   132.7270   129.1930   130.9100    25.4250   -32.3240 
  194.6250     2.2240    59.6090   130.9450   128.7390   137.3220    25.4690   -32.4750 
  194.7500     2.2280    59.3810   127.1510   126.6370   139.0730    25.4980   -32.6570 
  194.8750     2.2350    61.7040   120.8000   122.1170   132.5890    25.5230   -32.8520 
  195.0000     2.2430    61.1430   111.9110   114.8530   126.4240    25.5660   -33.0440 
  195.1250     2.2480    57.2950   101.4410   105.3490   124.5700    25.6040   -33.2430 
  195.2500     2.2530    55.9060    91.4960    95.7130   118.1150    25.5860   -33.4260 
  195.3750     2.2620    57.9830    83.4470    87.4820   104.1860    25.5240   -33.5720 
  195.5000     2.2760    60.8540    77.9200    81.5220    87.9160    25.4790   -33.7280 
  195.6250     2.2890    64.6560    75.0500    78.1910    82.0210    25.4720   -33.8740 
  195.7500     2.2920    68.6420    73.5580    76.3380    85.9230    25.4690   -33.9450 
  195.8750     2.2870    71.2510    72.5220    75.0520    88.4260    25.4530   -33.9830 
  196.0000     2.2790    73.3640    71.3120    73.6510    83.2240    25.4180   -34.0150 
  196.1250     2.2770    73.8330    69.7730    71.8640    74.4550    25.4040   -34.0180 
  196.2500     2.2790    72.5920    68.4050    70.0830    67.5260    25.4010   -34.0030 
  196.3750     2.2800    70.0550    67.8860    68.9370    64.1500    25.4100   -34.0010 
  196.5000     2.2790    68.6900    68.8640    69.0970    66.8790    25.4200   -33.9960 
  196.6250     2.2770    71.2770    72.1630    71.4380    69.5970    25.4410   -33.9770 
  196.7500     2.2760    73.8200    77.6490    75.9120    69.8880    25.4440   -33.9570 
  196.8750     2.2750    73.2050    85.1700    82.4080    75.4370    25.4550   -33.8910 
  197.0000     2.2730    68.9260    94.1410    90.3490    91.9560    25.4600   -33.8190 
  197.1250     2.2690    67.0580   103.3060    98.4830   110.5420    25.4410   -33.7200 
  197.2500     2.2620    68.1390   111.1310   105.3490   124.4370    25.4060   -33.5850 
  197.3750     2.2550    67.5130   116.8020   110.1880   130.8000    25.3710   -33.4300 
  197.5000     2.2470    65.0600   120.3890   113.0210   129.2850    25.3390   -33.2760 
  197.6250     2.2390    64.6790   122.6530   114.4210   127.6720    25.3270   -33.1360 
  197.7500     2.2330    65.2120   124.7750   115.4620   132.1360    25.3340   -32.9920 
  197.8750     2.2270    63.5210   127.0620   116.4930   141.8830    25.3330   -32.8860 
  198.0000     2.2220    60.0180   129.2180   117.3660   151.7210    25.3380   -32.7640 
  198.1250     2.2190    57.1850   130.4520   117.5070   154.0410    25.3990   -32.6020 
