~V
VERS. 2.00: Ver 2.00
~W
STRT.M 57.0000:
STOP.M 274.0000:
STEP.M 0.1250:
NULL. -999.2500:
UWI. F10215:
~C
DEPT.M :
SP.MV :
DEN.GM/CC :
GR.API :
RML.OHMM :
RI. :
RXO.OHMM :
CALI.CM :
~A
# ...
  203.2500   -27.4310     2.2960    72.2870    16.1340    11.0650    14.9350    24.5360 
  203.3750   -27.1590     2.3180    65.5800    17.7000    12.1850    15.5260    24.5900 
  203.5000   -26.7570     2.3580    62.1250    19.5710    13.5570    16.7680    24.5130 
  203.6250   -26.2110     2.4170    63.1770    20.8930    14.7380    20.2070    24.3540 
  203.7500   -25.5740     2.4830    65.5450    20.7150    15.0320    25.0580    24.2360 
  203.8750   -24.8630     2.5370    66.0920    18.6490    14.0280    28.2000    24.1430 
  204.0000   -24.1220     2.5580    64.5160    15.2720    11.9840    23.2990    24.0720 
  204.1250   -23.3830     2.5270    60.4060    11.8880     9.6960    13.4700    23.9690 
  204.2500   -22.6880     2.4690    55.2500     9.3760     7.8340     8.0910    24.0040 
  204.3750   -22.0610     2.4000    52.1460     7.8470     6.5610     6.3180    24.0860 
  204.5000   -21.5350     2.3390    52.1170     7.1030     5.8320     5.6370    24.0950 
  204.6250   -21.1310     2.3080    54.8010     6.9200     5.5750     5.2680    23.9090 
  204.7500   -20.8520     2.3110    60.3930     6.9490     5.5640     5.1750    23.8240 
  204.8750   -20.6790     2.3370    70.3940     7.0290     5.6700     5.2980    23.9200 
  205.0000   -20.5910     2.3710    81.6070     7.0850     5.8040     5.6450    24.0840 
  205.1250   -20.5800     2.3960    86.7360     7.0980     5.9130     5.8890    24.1470 
  205.2500   -20.6370     2.4040    85.6930     7.0770     5.9790     5.9890    24.1690 
  205.3750   -20.7490     2.3990    81.3450     7.0210     5.9910     6.1450    24.1880 
  205.5000   -20.8970     2.3910    78.5720     6.9370     5.9470     6.2200    24.2140 
  205.6250   -21.0840     2.3870    79.8630     6.8510     5.8550     6.0940    24.2140 
  205.7500   -21.2820     2.3880    80.4870     6.7920     5.7490     5.9710    24.1480 
  205.8750   -21.4990     2.3940    78.9960     6.7710     5.6460     5.7970    24.0590 
  206.0000   -21.7350     2.4010    78.0600     6.7820     5.5580     5.7500    23.9970 
  206.1250   -22.0010     2.4070    77.9530     6.8160     5.4930     6.0450    23.9750 
  206.2500   -22.2600     2.4100    76.9120     6.8660     5.4560     6.2970    24.0410 
  206.3750   -22.5340     2.4100    76.8910     6.9770     5.4740     6.2600    24.1220 
  206.5000   -22.7800     2.4060    79.4550     7.2470     5.6100     6.3040    24.1030 
  206.6250   -23.0210     2.4040    81.9530     7.8800     5.9940     6.6310    24.0280 
  206.7500   -23.2450     2.4090    81.9350     8.9670     6.6880     7.6050    24.0170 
  206.8750   -23.4720     2.4180    81.2270    10.5690     7.7520     9.6790    24.0430 
  207.0000   -23.6850     2.4210    79.8980    12.6220     9.1890    13.2970    24.0960 
  207.1250   -23.8830     2.4020    78.0430    14.8510    10.9010    16.0220    24.0870 
  207.2500   -24.0670     2.3680    77.8550    16.7640    12.5350    17.2770    24.1400 
  207.3750   -24.2320     2.3330    77.4250    18.0040    13.7680    17.7510    24.1710 
  207.5000   -24.4000     2.3140    74.3710    18.4640    14.4140    18.2840    24.1370 
  207.6250   -24.5810     2.3170    70.7450    18.2820    14.4630    18.0380    24.0780 
  207.7500   -24.7700     2.3270    71.6700    17.9330    14.2590    17.5080    24.0570 
  207.8750   -24.9550     2.3280    76.5310    17.6970    14.0310    16.5920    24.0990 
  208.0000   -25.1460     2.3170    79.5400    17.7240    13.9290    15.5850    24.1300 
  208.1250   -25.3560     2.3040    78.7330    18.0770    14.0480    15.7190    24.1220 
  208.2500   -25.5740     2.2970    76.1930    18.6460    14.3520    16.5920    24.0510 
  208.3750   -25.8070     2.2970    73.8590    19.3860    14.8230    17.4780    23.9930 
  208.5000   -26.0630     2.2980    73.1700    20.3230    15.4680    18.2380    23.9800 
  208.6250   -26.3230     2.2960    72.2180    21.7120    16.4260    18.5350    24.0490 
  208.7500   -26.5800     2.2910    70.9140    23.7550    17.8180    19.2710    24.1150 
  208.8750   -26.8370     2.2810    71.0160    26.5710    19.7770    21.6690    24.1420 
  209.0000   -27.1020     2.2670    71.8340    30.0080    22.2940    25.2160    24.1620 
  209.1250   -27.3470     2.2500    71.3090    33.5070    25.1000    30.2770    24.1710 
  209.2500   -27.5910     2.2350    70.0230    36.3840    27.6400    35.8320    24.2020 
  209.3750   -27.8270     2.2270    70.3750    38.3960    29.5970    39.6940    24.2230 
  209.5000   -28.0500     2.2310    71.6660    39.8680    31.0410    40.6900    24.2370 
  209.6250   -28.2680     2.2530    72.7410    41.8370    32.5610    37.5310    24.1810 
  209.7500   -28.4690     2.2820    72.4860    45.2660    34.9230    35.8700    24.1070 
  209.8750   -28.6600     2.3040    70.3740    50.6060    38.6040    42.7530    24.0590 
  210.0000   -28.8330     2.3040    68.9270    57.6140    43.6180    58.7040    24.0100 
  210.1250   -28.9980     2.2780    68.8510    65.1410    49.3500    67.7990    24.0210 
  210.2500   -29.1380     2.2430    65.6130    71.4030    54.4800    74.7330    24.0760 
  210.3750   -29.2650     2.2140    59.3410    75.4230    58.1320    77.8460    24.1640 
  210.5000   -29.3710     2.2010    55.6110    77.5150    60.2720    68.0920    24.1660 
  210.6250   -29.4460     2.2050    57.1480    79.1570    61.7750    58.8690    24.1860 
  210.7500   -29.5030     2.2150    57.9410    81.6750    63.7440    68.6380    24.2070 
  210.8750   -29.5420     2.2190    56.2610    85.1990    66.4580    81.9180    24.2040 
  211.0000   -29.5560     2.2090    54.2890    89.1440    69.6250    88.2420    24.1750 
  211.1250   -29.5320     2.1910    53.6050    92.3360    72.4540    78.7250    24.2000 
  211.2500   -29.4860     2.1780    55.8010    94.0900    74.3080    69.5130    24.2130 
  211.3750   -29.4130     2.1780    59.7860    94.4830    75.1230    66.6150    24.0940 
  211.5000   -29.3130     2.1870    62.0340    94.1670    75.3290    68.9140    23.7860 
  211.6250   -29.1610     2.1910    58.9810    93.9670    75.5420    66.1650    23.6790 
  211.7500   -28.9810     2.1810    53.8760    94.3560    76.1790    59.4650    23.6650 
  211.8750   -28.7370     2.1640    52.1270    95.3910    77.3440    62.8000    23.5530 
  212.0000   -28.4360     2.1520    54.5950    96.7810    78.8750    73.8460    23.3620 
  212.1250   -28.0240     2.1550    58.2620    97.9080    80.3400    69.2190    23.4240 
  212.2500   -27.5390     2.1660    60.2590    98.2370    81.2700    57.4710    23.4570 
  212.3750   -26.9400     2.1730    60.4280    97.4890    81.3510    52.7080    23.5250 
  212.5000   -26.2580     2.1710    60.1420    95.7270    80.5230    48.2610    23.6640 
  212.6250   -25.4880     2.1590    59.6000    93.2310    78.9330    44.4590    23.7400 
  212.7500   -24.6810     2.1490    59.6690    90.4760    77.0190    42.6920    23.7580 
  212.8750   -23.8790     2.1430    61.3770    87.7220    74.9920    41.7390    23.6560 
  213.0000   -23.1040     2.1400    63.5770    85.3050    73.0990    39.4710    23.4400 
  213.1250   -22.3870     2.1350    62.8770    83.7250    71.7500    37.6370    23.2340 
  213.2500   -21.7280     2.1280    60.5160    83.0170    71.0650    35.6750    22.9990 
  213.3750   -21.1700     2.1260    60.2850    83.1130    71.0260    34.2050    22.7560 
  213.5000   -20.7070     2.1340    63.6720    83.9380    71.5570    34.2780    22.4180 
  213.6250   -20.3610     2.1540    66.6720    85.7390    72.8000    36.3600    21.9330 
  213.7500   -20.0790     2.1750    65.1670    88.7810    74.9560    36.7620    21.3980 
  213.8750   -19.8520     2.1890    60.9890    93.5410    78.4400    38.8810    21.0010 
  214.0000   -19.6580     2.1950    58.3170   100.2760    83.5330    45.8420    20.8190 
  214.1250   -19.5170     2.1990    59.3130   108.7880    90.2210    57.9140    20.8440 
  214.2500   -19.4120     2.2030    60.7100   117.4370    97.2480    77.8990    21.0010 
  214.3750   -19.3210     2.2050    59.6410   124.4640   103.1900   112.7350    21.3350 
