~V
VERS. 2.00: Ver 2.00
~W
STRT.M 58.0000:
STOP.M 277.0000:
STEP.M 0.1250:
NULL. -999.2500:
UWI. F10219:
~C
DEPT.M :
SP.MV :
DEN.GM/CC :
GR.API :
RML.OHMM :
RI. :
RXO.OHMM :
CALI.CM :
~A
# ...
   69.2500   -31.4690     2.1110    57.8280     9.3660     8.1140    10.1410    26.1630 
   69.3750   -31.6680     2.1020    57.7730     8.7290     7.5760     9.8100    26.5060 
   69.5000   -31.8540     2.1040    58.5360     8.3710     7.3270     9.5860    27.0310 
   69.6250   -32.0120     2.1140    59.3540     8.2060     7.2890     9.5290    27.5550 
   69.7500   -32.1590     2.1260    60.1310     8.1660     7.3550     9.7390    27.6960 
   69.8750   -32.3350     2.1330    61.5530     8.1910     7.4250    10.1360    27.4930 
   70.0000   -32.5560     2.1360    64.0220     8.2210     7.4430    10.4690    27.2550 
   70.1250   -32.7910     2.1390    67.0110     8.2210     7.3910    10.6420    27.0610 
   70.2500   -33.0100     2.1410    68.7910     8.1830     7.2750    10.6950    26.9740 
   70.3750   -33.2270     2.1420    67.5930     8.1310     7.1220    10.6910    26.9520 
   70.5000   -33.4740     2.1420    64.3490     8.0930     6.9690    10.6400    26.9220 
   70.6250   -33.7590     2.1410    61.4940     8.0730     6.8420    10.5490    26.9050 
   70.7500   -34.0560     2.1390    60.3930     8.0570     6.7600    10.4670    26.9170 
   70.8750   -34.3450     2.1350    60.4960     8.0340     6.7270    10.4570    26.9420 
   71.0000   -34.6480     2.1310    60.6990     8.0120     6.7320    10.5630    26.9610 
   71.1250   -34.9800     2.1290    60.8220     8.0110     6.7640    10.8180    27.0040 
   71.2500   -35.3210     2.1320    61.3870     8.0460     6.8060    11.1360    27.1460 
   71.3750   -35.6460     2.1360    62.7250     8.1140     6.8370    11.4370    27.4380 
   71.5000   -35.9780     2.1410    63.7430     8.1870     6.8440    11.6980    27.8280 
   71.6250   -36.2820     2.1480    63.3590     8.2420     6.8230    11.8350    28.1960 
   71.7500   -36.5090     2.1540    61.4030     8.2640     6.7830    11.7120    28.4590 
   71.8750   -36.7090     2.1590    59.3470     8.2600     6.7390    11.4060    28.6220 
   72.0000   -36.8920     2.1610    58.9430     8.2540     6.7030    11.2460    28.7000 
   72.1250   -36.9850     2.1600    60.3440     8.2620     6.6800    11.2220    28.6410 
   72.2500   -36.9830     2.1540    62.2750     8.2830     6.6650    11.2340    28.4570 
   72.3750   -36.9550     2.1470    62.9390     8.2910     6.6470    11.2420    28.2560 
   72.5000   -36.8620     2.1430    61.7750     8.2520     6.6120    11.2590    28.0830 
   72.6250   -36.6390     2.1430    59.9320     8.1470     6.5450    11.2880    27.9500 
   72.7500   -36.3210     2.1450    59.0830     7.9840     6.4390    11.2400    27.8780 
   72.8750   -35.9080     2.1490    60.3990     7.8100     6.3080    11.0200    27.8770 
   73.0000   -35.4060     2.1550    63.1190     7.6850     6.1850    10.7000    28.0230 
   73.1250   -34.9390     2.1640    66.1330     7.6510     6.0960    10.3820    28.3580 
   73.2500   -34.6050     2.1700    68.3020     7.7200     6.0640    10.3590    28.6290 
   73.3750   -34.3360     2.1650    68.4360     7.8640     6.0970    10.8070    28.5390 
   73.5000   -34.1090     2.1530    66.3180     8.0170     6.1750    11.4210    28.2270 
   73.6250   -34.0160     2.1380    63.1730     8.1310     6.2710    11.9640    27.9460 
   73.7500   -34.0290     2.1250    60.9230     8.1840     6.3540    12.2550    27.8440 
   73.8750   -34.0980     2.1150    59.7210     8.1910     6.4010    12.3260    27.9530 
   74.0000   -34.2600     2.1100    58.4630     8.1840     6.4190    12.1300    28.2500 
   74.1250   -34.4770     2.1150    57.3870     8.1820     6.4270    11.8240    28.6010 
   74.2500   -34.6320     2.1260    57.2190     8.1900     6.4420    11.6130    28.7510 
   74.3750   -34.7460     2.1370    57.6650     8.1980     6.4690    11.5530    28.6190 
   74.5000   -34.8570     2.1410    58.2240     8.1990     6.4900    11.5370    28.4060 
   74.6250   -34.8940     2.1370    58.7260     8.1880     6.4930    11.4660    28.2620 
   74.7500   -34.9300     2.1310    58.8550     8.1720     6.4760    11.3820    28.1930 
   74.8750   -35.0230     2.1230    58.6280     8.1660     6.4570    11.3800    28.2010 
   75.0000   -35.0670     2.1140    57.9440     8.1860     6.4550    11.4860    28.3480 
   75.1250   -35.0350     2.1050    56.6690     8.2360     6.4800    11.6430    28.6350 
   75.2500   -35.0290     2.1000    55.2630     8.2950     6.5290    11.7500    28.9670 
   75.3750   -35.0270     2.1020    54.4570     8.3280     6.5860    11.7900    29.3480 
   75.5000   -34.9600     2.1090    54.2770     8.3100     6.6360    11.7910    29.9390 
   75.6250   -34.9030     2.1230    54.2500     8.2380     6.6630    11.7190    30.7100 
   75.7500   -34.8210     2.1420    54.2890     8.1300     6.6590    11.5570    31.1590 
   75.8750   -34.6140     2.1610    54.2510     8.0180     6.6190    11.3480    30.7080 
   76.0000   -34.3500     2.1720    54.4420     7.9300     6.5560    11.1550    29.4040 
   76.1250   -34.0960     2.1740    55.9410     7.8830     6.4910    11.0830    27.9150 
   76.2500   -33.8120     2.1700    58.7370     7.8790     6.4440    11.1760    26.9290 
   76.3750   -33.5360     2.1650    60.6900     7.9130     6.4350    11.3270    26.4670 
   76.5000   -33.3260     2.1580    60.0980     7.9770     6.4720    11.4370    26.3110 
   76.6250   -33.0380     2.1490    58.0490     8.0760     6.5540    11.4750    26.3910 
   76.7500   -32.5590     2.1410    56.4390     8.2110     6.6710    11.4460    26.6350 
   76.8750   -31.8970     2.1410    55.5660     8.3540     6.7980    11.3740    26.8720 
   77.0000   -30.9410     2.1530    55.2050     8.4290     6.8900    11.2050    26.9420 
   77.1250   -29.5220     2.1790    56.7490     8.3460     6.8980    10.8190    26.8280 
   77.2500   -27.5930     2.2190    61.6970     8.0260     6.7670    10.0360    26.6400 
   77.3750   -25.1680     2.2670    68.9310     7.4840     6.4710     8.7980    26.4850 
   77.5000   -22.4020     2.3090    76.4410     6.8360     6.0410     7.3440    26.2950 
   77.6250   -19.5790     2.3330    84.5930     6.1900     5.5240     6.0370    25.9200 
   77.7500   -16.8750     2.3420    92.6520     5.6250     4.9890     5.2190    25.4600 
   77.8750   -14.3570     2.3460    98.0440     5.1800     4.5090     4.9190    25.1870 
   78.0000   -12.2170     2.3530   100.0740     4.8810     4.1440     4.8420    25.0800 
   78.1250   -10.6110     2.3640   100.4760     4.8210     3.9660     4.8650    25.0260 
   78.2500    -9.5740     2.3820   101.3980     5.2310     4.1010     5.1370    24.9790 
   78.3750    -9.1590     2.4150   102.9700     6.3780     4.7130     6.2760    24.9540 
   78.5000    -9.2780     2.4650   102.3490     8.3530     5.9090     9.4300    24.9450 
   78.6250    -9.7600     2.5290    96.4770    11.0460     7.7250    15.5090    24.9440 
   78.7500   -10.6080     2.5880    85.9670    13.9280     9.9540    23.8090    24.9310 
   78.8750   -11.8950     2.6110    75.0100    16.1020    12.0380    31.7280    24.8860 
   79.0000   -13.5230     2.5800    67.3480    16.7560    13.2620    34.4870    24.7970 
   79.1250   -15.4270     2.5050    64.7110    15.6310    13.1510    28.9950    24.6440 
   79.2500   -17.6120     2.4220    66.5580    13.3270    11.8340    20.2480    24.4440 
   79.3750   -19.9520     2.3610    68.5970    10.9790    10.0760    15.0110    24.2660 
   79.5000   -22.2450     2.3170    67.7390     9.3500     8.6180    13.3860    24.1370 
   79.6250   -24.4560     2.2730    66.1160     8.4920     7.6410    13.1560    24.1030 
   79.7500   -26.4820     2.2260    65.8430     8.1830     7.0990    12.8390    24.2100 
   79.8750   -28.1080     2.1860    66.4480     8.1480     6.8510    12.1970    24.3750 
   80.0000   -29.2830     2.1620    67.0690     8.1700     6.7340    11.6720    24.4870 
   80.1250   -30.0480     2.1480    67.3440     8.1780     6.6690    11.4190    24.5370 
   80.2500   -30.3270     2.1400    66.1720     8.1670     6.6210    11.3570    24.5430 
   80.3750   -30.1230     2.1390    63.1170     8.1660     6.5870    11.3380    24.5170 
