~V
VERS. 2.00: Ver 2.00
~W
STRT.M 50.0000:
STOP.M 274.0000:
STEP.M 0.1250:
NULL. -999.2500:
UWI. F10206:
~C
DEPT.M :
SP.MV :
DEN.GM/CC :
GR.API :
RML.OHMM :
RI. :
RXO.OHMM :
CALI.CM :
~A
# ...
  162.5000   -16.2950     2.1970    61.0150    34.0160    29.3410    32.1760    24.9870 
  162.6250   -16.2190     2.1940    59.7060    33.8410    29.3130    34.5730    24.8510 
  162.7500   -16.1580     2.1890    61.1680    33.0870    28.9450    34.1980    24.7360 
  162.8750   -16.0920     2.1860    61.9340    31.7290    28.0310    30.6830    24.6410 
  163.0000   -16.0390     2.1890    59.9670    29.9580    26.5900    26.8110    24.5990 
  163.1250   -15.9560     2.1990    58.6810    28.0380    24.8150    24.5810    24.5020 
  163.2500   -15.9110     2.2150    59.1160    26.2120    23.0950    23.6570    24.4100 
  163.3750   -15.8560     2.2300    58.5800    24.6470    21.6870    23.3050    24.4250 
  163.5000   -15.8310     2.2400    57.1860    23.5270    20.7380    23.0580    24.4500 
  163.6250   -15.8180     2.2420    57.6810    23.2200    20.4140    21.3590    24.4220 
  163.7500   -15.7920     2.2400    60.1690    23.7970    20.6730    19.2150    24.3670 
  163.8750   -15.7660     2.2340    62.6330    25.1540    21.4680    19.7570    24.3190 
  164.0000   -15.6970     2.2260    62.3450    26.8560    22.5730    22.4160    24.4360 
  164.1250   -15.6420     2.2190    60.4810    28.0830    23.4880    24.6700    24.4710 
  164.2500   -15.5380     2.2150    61.1610    28.2960    23.7720    26.0370    24.5650 
  164.3750   -15.4390     2.2150    63.2750    27.4630    23.2910    25.1160    24.6690 
  164.5000   -15.3430     2.2200    63.5520    26.0200    22.2620    23.3790    24.7130 
  164.6250   -15.2620     2.2290    62.7640    24.6110    21.1140    21.2440    24.7380 
  164.7500   -15.2370     2.2370    63.4250    23.5890    20.1640    21.1580    24.7740 
  164.8750   -15.1910     2.2430    64.9570    22.9460    19.4650    21.0120    24.7600 
  165.0000   -15.1650     2.2440    66.4170    22.5450    18.9780    20.6550    24.7220 
  165.1250   -15.1650     2.2410    66.4530    22.2350    18.6460    20.3090    24.7140 
  165.2500   -15.1670     2.2360    64.4280    21.8990    18.3800    19.7400    24.7130 
  165.3750   -15.1670     2.2270    62.2920    21.5430    18.1640    19.2020    24.7310 
  165.5000   -15.1670     2.2180    61.8040    21.2110    18.0100    18.7310    24.6830 
  165.6250   -15.1670     2.2120    63.1190    20.9440    17.9110    18.5760    24.5490 
  165.7500   -15.1660     2.2100    64.8040    20.7280    17.7920    18.5410    24.4650 
  165.8750   -15.1630     2.2130    65.3570    20.5220    17.5900    18.5940    24.4640 
  166.0000   -15.1810     2.2190    64.3930    20.2670    17.2870    18.6000    24.5360 
  166.1250   -15.3380     2.2240    64.2260    19.8990    16.8980    18.3460    24.6050 
  166.2500   -15.3340     2.2280    65.6780    19.4290    16.4790    17.8110    24.7140 
  166.3750   -15.3320     2.2310    65.3680    18.8880    16.0400    17.3070    24.7210 
  166.5000   -15.3320     2.2350    63.3360    18.3260    15.5660    16.6990    24.7160 
  166.6250   -15.3560     2.2390    64.1430    17.8210    15.0440    16.0960    24.7200 
  166.7500   -15.3890     2.2420    68.2700    17.4290    14.5400    15.7130    24.7350 
  166.8750   -15.3550     2.2430    71.1400    17.1980    14.1450    15.5300    24.7760 
  167.0000   -15.3060     2.2420    70.8840    17.1600    13.9410    15.4260    24.8090 
  167.1250   -15.2990     2.2420    69.5540    17.3440    14.0090    15.7700    24.9110 
  167.2500   -15.2820     2.2440    69.9310    17.6940    14.3070    16.2410    24.9800 
  167.3750   -15.2610     2.2480    71.0660    18.1990    14.7970    16.7600    25.0630 
  167.5000   -15.2330     2.2520    69.6420    18.8330    15.4110    17.5110    25.1550 
  167.6250   -15.2150     2.2520    66.8820    19.4450    15.9920    18.6750    25.1710 
  167.7500   -15.2090     2.2480    67.7520    19.7390    16.3100    19.5210    25.1710 
  167.8750   -15.1930     2.2410    70.6230    19.4410    16.1710    19.5700    25.1330 
  168.0000   -15.1600     2.2340    69.8510    18.4770    15.5300    18.9190    25.1120 
  168.1250   -15.0990     2.2320    65.1410    17.0570    14.5260    17.4680    25.1470 
  168.2500   -15.0590     2.2350    63.0740    15.6930    13.4980    15.5240    25.1700 
  168.3750   -14.9970     2.2420    64.9100    14.6740    12.6270    13.4730    25.1740 
  168.5000   -14.9710     2.2500    66.4250    14.0780    11.9900    12.7060    25.1780 
  168.6250   -14.9620     2.2540    65.7650    13.8560    11.6190    12.8390    25.1910 
  168.7500   -14.9520     2.2540    64.8950    13.7740    11.4240    13.3100    25.1910 
  168.8750   -14.9570     2.2520    64.2330    13.6990    11.3410    13.2850    25.1700 
  169.0000   -14.9890     2.2500    63.7650    13.5870    11.2980    12.7190    25.1670 
  169.1250   -15.0590     2.2510    67.0460    13.4970    11.2480    12.2900    25.1840 
  169.2500   -15.1140     2.2540    71.7080    13.5450    11.2300    12.2470    25.2230 
  169.3750   -15.2150     2.2590    72.1120    13.8140    11.3260    12.4280    25.2620 
  169.5000   -15.3060     2.2660    66.4410    14.3190    11.6060    12.9650    25.2690 
  169.6250   -15.3830     2.2720    61.9660    15.0210    12.1190    14.0110    25.2950 
  169.7500   -15.4900     2.2760    63.2430    15.7800    12.7750    14.8690    25.2650 
  169.8750   -15.5960     2.2760    66.0860    16.5310    13.4770    15.6130    25.3000 
  170.0000   -15.6970     2.2700    66.4580    17.2530    14.1230    16.2320    25.3110 
  170.1250   -15.7720     2.2620    64.7000    17.9320    14.6280    16.8220    25.2610 
  170.2500   -15.8680     2.2540    64.1950    18.5580    15.0160    17.3120    25.2530 
  170.3750   -15.9320     2.2460    64.2670    19.0960    15.3380    18.1490    25.2510 
  170.5000   -16.0080     2.2380    63.4390    19.4940    15.6500    18.9690    25.2470 
  170.6250   -16.0800     2.2280    61.8000    19.6860    15.9700    19.3590    25.2300 
  170.7500   -16.1430     2.2170    61.6020    19.6940    16.2410    19.2360    25.2120 
  170.8750   -16.1960     2.2080    63.2150    19.5020    16.3610    18.9620    25.2400 
  171.0000   -16.2340     2.2030    65.0470    19.0820    16.2270    18.4680    25.2500 
  171.1250   -16.2890     2.2030    64.9730    18.4140    15.7750    17.7680    25.2480 
  171.2500   -16.3320     2.2060    63.7910    17.6190    15.1650    16.8650    25.2340 
  171.3750   -16.4110     2.2100    65.1050    16.8280    14.5670    15.7870    25.2410 
  171.5000   -16.4780     2.2160    68.7590    16.2020    14.1430    14.6340    25.3020 
  171.6250   -16.5730     2.2220    69.7810    15.9570    14.0400    14.0440    25.2660 
  171.7500   -16.6710     2.2280    67.6830    16.1210    14.2220    14.2590    25.2480 
  171.8750   -16.7870     2.2330    65.9430    16.6770    14.6360    14.8980    25.1150 
  172.0000   -16.9420     2.2340    67.7800    17.5510    15.2120    15.4410    25.0280 
  172.1250   -17.1040     2.2310    70.3810    18.6030    15.8950    16.0100    25.0300 
  172.2500   -17.3020     2.2280    71.8550    19.5700    16.5870    16.8630    25.0940 
  172.3750   -17.5050     2.2260    73.6640    20.2340    17.1650    18.0890    25.0900 
  172.5000   -17.7540     2.2250    76.2460    20.4450    17.4740    19.2640    25.0590 
  172.6250   -18.0380     2.2230    76.7250    20.1990    17.3740    19.1500    24.9560 
  172.7500   -18.3830     2.2200    73.7090    19.9760    17.0940    18.4560    24.8710 
  172.8750   -18.7780     2.2160    69.4500    20.4180    17.0260    17.5850    24.8240 
  173.0000   -19.2370     2.2120    66.6830    22.3240    17.7270    17.9140    24.8410 
  173.1250   -19.7670     2.2060    64.5070    27.1410    20.3010    20.1780    24.8630 
  173.2500   -20.3360     2.1980    61.7980    35.4710    25.5430    25.3990    24.9810 
  173.3750   -20.9510     2.1900    58.8930    51.6960    34.4280    35.3410    25.2430 
  173.5000   -21.5500     2.1800    57.4370    70.4260    47.3040    53.7360    25.3690 
  173.6250   -22.1610     2.1720    57.5510    89.0740    62.5640    82.6260    25.4890 
