~V
VERS. 2.00: Ver 2.00
~W
STRT.M 56.0000:
STOP.M 275.0000:
STEP.M 0.1250:
NULL. -999.2500:
UWI. F10253:
~C
DEPT.M :
GR.API :
RML.OHMM :
RI. :
RXO.OHMM :
CALI.CM :
DEN.GM/CC :
SP.MV :
~A
# ...
  179.7500    48.1320    97.2050    94.5320    63.4160    24.2120     2.3180   -20.0710 
  179.8750    50.0560    93.2460    91.1000    67.6850    24.3010     2.2850   -19.9400 
  180.0000    49.4740    89.4410    87.6820    70.3310    24.3330     2.2650   -19.7980 
  180.1250    50.3530    86.2020    84.6780    70.4910    24.3260     2.2590   -19.6690 
  180.2500    55.3950    83.7240    82.3150    70.0210    24.2930     2.2630   -19.5250 
  180.3750    61.4110    81.9800    80.6260    69.6660    24.2550     2.2700   -19.4030 
  180.5000    63.9940    80.4890    79.1940    68.9770    24.2280     2.2740   -19.3030 
  180.6250    62.1850    78.8600    77.6580    67.1920    24.2150     2.2740   -19.2030 
  180.7500    59.6310    76.8120    75.7380    63.8960    24.1890     2.2710   -19.1060 
  180.8750    58.9300    74.2390    73.3080    59.9640    24.0860     2.2640   -19.0170 
  181.0000    58.3420    71.4750    70.6610    55.1600    23.8800     2.2580   -18.9550 
  181.1250    57.9870    68.8600    68.1030    50.3710    23.6270     2.2530   -18.8930 
  181.2500    58.3880    66.6570    65.8850    47.7140    23.3940     2.2490   -18.8350 
  181.3750    58.4940    65.0460    64.1810    47.4560    23.2520     2.2470   -18.7760 
  181.5000    57.5890    63.8810    62.8780    47.7260    23.1910     2.2460   -18.7080 
  181.6250    56.6450    63.0720    61.9010    46.6920    23.1990     2.2480   -18.6490 
  181.7500    57.4660    62.5600    61.2010    44.6470    23.1930     2.2520   -18.6120 
  181.8750    58.4140    62.3810    60.7990    43.0950    23.1640     2.2590   -18.5790 
  182.0000    58.7850    62.5000    60.6530    43.8230    23.1490     2.2660   -18.5550 
  182.1250    59.6920    62.9530    60.7830    46.8700    23.1700     2.2710   -18.5320 
  182.2500    60.8090    63.8170    61.2510    50.4690    23.2390     2.2740   -18.5050 
  182.3750    59.8180    65.3740    62.2970    52.7030    23.3520     2.2740   -18.5030 
  182.5000    57.4880    67.8000    64.0810    54.3160    23.4940     2.2720   -18.5120 
  182.6250    56.2580    71.3300    66.8320    58.2350    23.6480     2.2690   -18.5270 
  182.7500    57.8940    76.0380    70.6640    65.7930    23.8040     2.2640   -18.5200 
  182.8750    58.5600    81.7980    75.5620    74.7420    23.9690     2.2570   -18.5150 
  183.0000    55.7960    87.8160    80.8610    81.0960    24.1410     2.2490   -18.5000 
  183.1250    53.5090    93.3690    85.9250    83.9050    24.2480     2.2440   -18.4860 
  183.2500    54.8000    97.7920    90.1240    84.8190    24.2680     2.2420   -18.4740 
  183.3750    57.0520   100.3420    92.7360    85.6900    24.2300     2.2440   -18.4520 
  183.5000    55.8120   101.1220    93.7830    86.6980    24.1810     2.2470   -18.4480 
  183.6250    52.5230   100.1420    93.2410    86.9620    24.1090     2.2470   -18.4440 
  183.7500    50.2690    97.4790    91.1440    83.6470    24.0140     2.2450   -18.4530 
  183.8750    51.7220    93.1570    87.4500    73.8330    23.9310     2.2400   -18.4730 
  184.0000    54.6140    87.9090    82.7910    61.6450    23.8670     2.2370   -18.5000 
  184.1250    55.3600    82.2940    77.6590    50.0460    23.8070     2.2380   -18.5360 
  184.2500    54.7990    76.8830    72.5890    41.6930    23.7390     2.2410   -18.6020 
  184.3750    57.2270    72.4220    68.2800    38.4930    23.7200     2.2460   -18.6840 
  184.5000    61.0460    69.3240    65.1530    39.7350    23.8000     2.2500   -18.7410 
  184.6250    61.5780    68.0160    63.6040    42.8860    23.9530     2.2520   -18.7840 
  184.7500    58.7920    68.8330    63.9480    47.1210    24.1030     2.2510   -18.8190 
  184.8750    56.7920    72.2650    66.6850    54.5740    24.1500     2.2470   -18.8610 
  185.0000    56.0660    77.5660    71.2490    65.8790    24.1980     2.2380   -18.9060 
  185.1250    54.1440    83.8410    76.9480    80.6530    24.3260     2.2280   -18.9460 
  185.2500    50.9150    89.7550    82.6470    95.5240    24.4700     2.2190   -18.9740 
  185.3750    50.8730    93.3230    86.5610   105.5000    24.5160     2.2170   -18.9800 
  185.5000    53.3700    93.7620    87.7780   106.1800    24.5050     2.2210   -18.9940 
  185.6250    54.3690    91.0050    86.0560    97.9230    24.4550     2.2290   -19.0450 
  185.7500    53.0790    85.7850    81.9020    85.3870    24.3860     2.2410   -19.1420 
  185.8750    53.9440    79.2540    76.2330    76.6230    24.3410     2.2540   -19.2020 
  186.0000    56.4500    72.9070    70.4820    71.9770    24.3120     2.2680   -19.2470 
  186.1250    56.9720    67.5800    65.4930    67.7000    24.3000     2.2800   -19.2970 
  186.2500    55.6210    63.6890    61.7370    59.5550    24.2950     2.2880   -19.3280 
  186.3750    55.1960    61.3110    59.3590    53.3450    24.3020     2.2900   -19.3620 
  186.5000    54.7830    59.5940    57.6210    53.5860    24.3050     2.2870   -19.3940 
  186.6250    53.4010    57.8360    55.8780    57.5160    24.3050     2.2850   -19.3970 
  186.7500    52.5270    55.5400    53.6480    60.6240    24.3020     2.2870   -19.3680 
  186.8750    54.3890    52.6690    50.8400    55.7660    24.2950     2.2940   -19.3820 
  187.0000    57.1070    50.0320    48.1540    46.0520    24.2810     2.3030   -19.4030 
  187.1250    58.9250    48.6030    46.4490    39.3880    24.2630     2.3100   -19.4140 
  187.2500    60.4080    49.2900    46.5330    38.9730    24.2590     2.3110   -19.4190 
  187.3750    61.2780    53.1130    49.3820    42.5130    24.2700     2.3060   -19.4080 
  187.5000    59.5510    59.5510    54.6950    48.7400    24.2850     2.2950   -19.4030 
  187.6250    56.3560    67.9890    62.0700    54.8950    24.2850     2.2810   -19.4110 
  187.7500    55.4080    77.4340    70.6810    57.3480    24.2660     2.2670   -19.4160 
  187.8750    56.9150    86.3930    79.1420    56.1300    24.2300     2.2560   -19.3900 
  188.0000    56.3170    93.5060    85.9980    50.1910    24.1870     2.2480   -19.3600 
  188.1250    53.5580    97.8000    90.2240    41.9390    24.1260     2.2430   -19.3250 
  188.2500    52.3820    98.7440    91.2610    38.9190    24.0440     2.2410   -19.2970 
  188.3750    53.9300    95.8890    88.6390    44.4330    24.0320     2.2430   -19.2900 
  188.5000    55.8040    90.6750    83.6790    51.8990    24.0730     2.2480   -19.2990 
  188.6250    56.8050    84.5570    77.6910    56.3730    24.1340     2.2580   -19.2840 
  188.7500    57.3490    79.3330    72.3150    54.5820    24.1690     2.2720   -19.2510 
  188.8750    56.7760    77.4450    69.7750    49.2010    24.1820     2.2840   -19.2640 
  189.0000    55.8640    79.7650    70.9890    48.8730    24.1980     2.2900   -19.2860 
  189.1250    56.6020    86.5360    76.3710    54.3610    24.2230     2.2860   -19.3130 
  189.2500    58.7950    96.8660    85.4020    65.6260    24.2480     2.2710   -19.3520 
  189.3750    58.6250   108.2790    96.2860    79.9410    24.2670     2.2520   -19.3740 
  189.5000    55.4260   116.8710   105.4320    94.1840    24.2780     2.2350   -19.3690 
  189.6250    51.8990   119.5400   109.7430    99.2170    24.2700     2.2280   -19.3590 
  189.7500    50.1340   114.8730   107.4020    90.3140    24.2420     2.2330   -19.3790 
  189.8750    49.5750   103.6380    98.3650    78.6040    24.2000     2.2460   -19.3420 
  190.0000    48.9310    90.3310    86.5520    68.0520    24.1570     2.2600   -19.2530 
  190.1250    48.5060    77.4470    74.4740    59.4420    24.1110     2.2680   -19.1500 
  190.2500    49.0660    66.2990    63.7530    50.6770    24.0340     2.2720   -19.0400 
  190.3750    50.7110    57.9520    55.6670    40.7440    23.9150     2.2740   -18.9470 
  190.5000    52.4680    52.4200    50.2200    30.4110    23.7620     2.2770   -18.8770 
  190.6250    53.6040    49.9470    47.5320    22.6140    23.6150     2.2810   -18.8400 
  190.7500    55.2400    50.5440    47.5830    20.2530    23.4780     2.2840   -18.7930 
  190.8750    58.5850    54.1700    50.4600    22.4800    23.3830     2.2830   -18.7680 
