~V
VERS. 2.00: Ver 2.00
~W
STRT.M 50.0000:
STOP.M 281.0000:
STEP.M 0.1250:
NULL. -999.2500:
UWI. F10222:
~C
DEPT.M :
GR.API :
RML.OHMM :
RI. :
RXO.OHMM :
CALI.CM :
DEN.GM/CC :
SP.MV :
~A
# ...
   61.2500    98.1090     5.3000     6.4730     7.2080    24.6600     2.2670   -27.4940 
   61.3750   103.8020     5.6840     6.5240     7.7100    24.7210     2.2600   -27.8060 
   61.5000   106.1040     5.9110     6.4370     7.2550    24.8130     2.2530   -28.1140 
   61.6250   106.1820     5.8990     6.2600     6.4640    24.8380     2.2520   -28.4770 
   61.7500   109.3190     5.8470     6.1100     6.2330    24.8050     2.2560   -28.8200 
   61.8750   111.6980     5.9040     6.0550     6.0080    24.7360     2.2580   -29.1690 
   62.0000   107.4210     6.0740     6.1110     6.0030    24.6030     2.2540   -29.5270 
   62.1250    99.7860     6.2910     6.2600     6.3140    24.4330     2.2430   -29.8890 
   62.2500    96.7460     6.4740     6.4230     6.6690    24.2690     2.2320   -30.2690 
   62.3750    98.1160     6.6060     6.5450     6.5830    24.0930     2.2310   -30.6730 
   62.5000   101.7880     6.7180     6.6030     6.2890    23.8990     2.2440   -31.1100 
   62.6250   106.2370     6.8630     6.6050     6.2210    23.7540     2.2630   -31.5450 
   62.7500   107.0560     7.0560     6.5810     6.3480    23.6760     2.2780   -31.9900 
   62.8750   103.4950     7.2700     6.5490     6.5520    23.6370     2.2820   -32.4300 
   63.0000    97.7950     7.4510     6.5190     6.8680    23.6180     2.2750   -32.8450 
   63.1250    96.5480     7.5580     6.5140     6.9260    23.6650     2.2600   -33.2260 
   63.2500    99.5770     7.6740     6.5670     6.6530    23.8590     2.2450   -33.6310 
   63.3750   101.1530     7.9010     6.6990     6.6500    24.2910     2.2310   -34.0910 
   63.5000    99.4750     8.2500     6.8860     7.2390    24.9940     2.2150   -34.5260 
   63.6250    95.2220     8.5480     7.0180     8.1700    25.6040     2.1970   -34.8960 
   63.7500    92.3200     8.5830     6.9870     8.5930    25.9450     2.1850   -35.2320 
   63.8750    92.2540     8.2880     6.7730     8.5800    26.0200     2.1850   -35.5140 
   64.0000    92.7790     7.7990     6.4530     7.8710    25.8860     2.1950   -35.7800 
   64.1250    92.8800     7.4770     6.2170     7.0630    25.6980     2.2150   -36.0780 
   64.2500    90.8930     7.6500     6.2480     7.3830    25.6760     2.2390   -36.3760 
   64.3750    87.7970     8.5850     6.7140     8.6870    25.8400     2.2640   -36.6510 
   64.5000    84.3520    10.5160     7.7920    10.2720    26.0100     2.2910   -36.9110 
   64.6250    80.4090    13.8330     9.8100    12.5090    25.8880     2.3390   -37.2370 
   64.7500    76.6560    18.1300    12.6410    16.2490    25.6240     2.4160   -37.6080 
   64.8750    72.2790    22.2180    15.7100    22.9000    25.3240     2.5080   -38.0390 
   65.0000    67.5220    23.7980    17.6130    31.0240    25.0790     2.5770   -38.5190 
   65.1250    66.5040    20.9450    16.6030    29.6440    24.9750     2.5800   -39.0270 
   65.2500    67.9350    16.3640    13.8360    21.7090    25.0860     2.5210   -39.5390 
   65.3750    68.9230    12.3580    10.8920    14.5130    25.5470     2.4170   -40.0650 
   65.5000    68.9170     9.9010     8.7300    10.9130    26.1840     2.3000   -40.5780 
   65.6250    67.8320     9.3140     7.7630    10.0650    26.4980     2.2190   -41.0040 
   65.7500    65.3060    10.0850     7.7450    10.3500    26.6720     2.1860   -41.3480 
   65.8750    63.3820    11.9030     8.5500    11.7630    26.8000     2.1850   -41.6230 
   66.0000    65.2310    14.2470     9.9440    16.1890    26.6030     2.1990   -41.8190 
   66.1250    69.6660    15.9860    11.3140    25.0470    26.1210     2.2300   -41.9570 
   66.2500    72.1450    16.1500    11.8340    26.3880    25.8830     2.2660   -42.0520 
   66.3750    74.0520    14.6930    11.2420    17.9370    25.8640     2.2730   -42.1150 
   66.5000    77.3790    12.4890     9.9660    12.4120    25.9360     2.2370   -42.1880 
   66.6250    78.0920    10.6440     8.6910    10.9550    25.9600     2.1990   -42.3210 
   66.7500    74.0840     9.5670     7.7940    10.7070    25.8290     2.1930   -42.4790 
   66.8750    70.3670     9.2110     7.3280    10.7260    25.6990     2.2040   -42.6460 
   67.0000    69.2150     9.3430     7.2150    10.7790    25.8080     2.2130   -42.8000 
   67.1250    69.1470     9.6880     7.3340    10.9190    26.1400     2.2100   -42.9230 
   67.2500    70.1140    10.0010     7.5210    11.1700    26.3080     2.1980   -43.0150 
   67.3750    71.9390    10.1820     7.7090    11.4500    26.3640     2.1800   -43.0890 
   67.5000    73.3020    10.1900     7.8580    11.7020    26.4140     2.1560   -43.1260 
   67.6250    72.4130    10.0340     7.9420    11.6450    26.4560     2.1360   -43.0830 
   67.7500    71.9750     9.8330     7.9780    11.5170    26.3810     2.1280   -43.0050 
   67.8750    73.6080     9.6780     7.9800    11.4910    26.1220     2.1330   -42.8820 
   68.0000    78.2730     9.6200     7.9680    11.5430    25.7890     2.1480   -42.7200 
   68.1250    84.7530     9.6420     7.9540    11.5910    25.7140     2.1650   -42.5080 
   68.2500    86.7900     9.6310     7.9260    11.5190    25.8580     2.1830   -42.2140 
   68.3750    82.3050     9.4910     7.8460    11.4500    26.0700     2.1980   -41.8470 
   68.5000    76.8200     9.1790     7.6670    11.3310    26.1860     2.2080   -41.4710 
   68.6250    81.7750     8.7370     7.3660    10.8020    26.2220     2.2130   -41.1400 
   68.7500    91.6180     8.3130     7.0220     9.6810    26.2160     2.2210   -40.8620 
   68.8750    96.3470     8.0190     6.7210     8.4510    26.2140     2.2360   -40.6880 
   69.0000    93.7910     7.9240     6.5400     7.8260    26.2230     2.2520   -40.6370 
   69.1250    86.4930     8.0700     6.5400     7.9750    26.2750     2.2570   -40.7050 
   69.2500    77.9290     8.3530     6.6740     8.9640    26.3320     2.2490   -40.9070 
   69.3750    69.5260     8.6640     6.8750    10.0020    26.3630     2.2320   -41.2090 
   69.5000    64.9500     8.8890     7.0510    10.5560    26.3570     2.2150   -41.5790 
   69.6250    64.9760     8.9670     7.1290    10.7820    26.3690     2.2060   -41.9690 
   69.7500    66.2940     9.0420     7.1710    11.0060    26.4020     2.2060   -42.3030 
   69.8750    68.7480     9.3460     7.3070    11.1500    26.4460     2.2140   -42.5600 
   70.0000    70.7680    10.0900     7.6770    11.1740    26.4600     2.2260   -42.7720 
   70.1250    69.8660    11.3860     8.4120    12.6220    26.4920     2.2400   -42.9060 
   70.2500    66.5610    12.8960     9.3880    19.4970    26.8940     2.2630   -43.0080 
   70.3750    63.1330    14.1550    10.3540    36.2980    28.0180     2.3120   -43.0950 
   70.5000    64.3700    14.6470    10.9320    51.0890    29.4450     2.3900   -43.1340 
   70.6250    69.7100    13.9840    10.7490    36.9540    29.8340     2.4400   -43.2050 
   70.7500    72.1500    12.7370    10.0890    21.9330    28.9640     2.3970   -43.3210 
   70.8750    69.1650    11.5190     9.3400    14.7310    27.9090     2.2870   -43.4200 
   71.0000    66.4810    10.7670     8.8040    12.5730    27.5770     2.1810   -43.4840 
   71.1250    69.1390    10.6620     8.6510    11.8120    27.6930     2.1180   -43.5340 
   71.2500    72.1890    10.8830     8.7430    11.1930    27.2170     2.0970   -43.5680 
   71.3750    73.7980    11.1080     8.8970    10.9140    26.2690     2.1150   -43.6020 
   71.5000    74.4510    11.0890     8.9300    10.9190    25.5780     2.1490   -43.6210 
   71.6250    73.9190    10.7390     8.7430    10.9530    25.3730     2.1660   -43.5940 
   71.7500    72.7700    10.2650     8.4390    10.8640    25.3310     2.1620   -43.5610 
   71.8750    70.9270     9.8430     8.1300    10.7470    25.2740     2.1510   -43.5370 
   72.0000    70.5560     9.5800     7.9010    10.7670    25.1130     2.1480   -43.5130 
   72.1250    70.2260     9.4970     7.7950    10.8790    24.8980     2.1560   -43.5380 
   72.2500    68.6840     9.4980     7.7610    10.9930    24.7280     2.1690   -43.5140 
   72.3750    67.0820     9.5180     7.7430    11.3020    24.6360     2.1800   -43.4450 
