~V
VERS. 2.00: Ver 2.00
~W
STRT.M 58.0000:
STOP.M 273.0000:
STEP.M 0.1250:
NULL. -999.2500:
UWI. F10226:
~C
DEPT.M :
SP.MV :
DEN.GM/CC :
GR.API :
RML.OHMM :
RI. :
RXO.OHMM :
CALI.CM :
~A
# ...
  260.5000   -12.0370     2.4920    49.5570    12.8740    12.1100    11.1520    24.7380 
  260.6250   -11.8590     2.4850    48.6230    13.0970    12.3270    12.7100    24.6110 
  260.7500   -11.6780     2.4760    48.0790    13.2460    12.5000    13.9250    24.5480 
  260.8750   -11.5060     2.4690    48.7100    13.2660    12.5660    13.1830    24.5300 
  261.0000   -11.3630     2.4660    50.0330    13.2000    12.5370    12.0070    24.5050 
  261.1250   -11.2820     2.4660    50.9410    13.0930    12.4400    11.9700    24.4440 
  261.2500   -11.2450     2.4690    50.6980    12.9840    12.3130    12.5780    24.3610 
  261.3750   -11.2820     2.4710    48.2990    12.8980    12.1910    13.3340    24.3190 
  261.5000   -11.4140     2.4690    45.6170    12.8270    12.0830    13.8280    24.3680 
  261.6250   -11.5120     2.4600    44.4780    12.7560    11.9890    13.4800    24.4550 
  261.7500   -11.6240     2.4430    44.5050    12.6810    11.8990    12.2400    24.5000 
  261.8750   -11.7130     2.4300    44.9510    12.6030    11.8170    12.1640    24.4720 
  262.0000   -11.7660     2.4310    45.9590    12.5160    11.7390    12.3890    24.4490 
  262.1250   -11.7750     2.4470    46.9190    12.4210    11.6690    11.9590    24.4900 
  262.2500   -11.7790     2.4720    46.6180    12.3340    11.6220    11.3970    24.5990 
  262.3750   -11.7470     2.4910    45.7870    12.3100    11.6410    11.6220    24.5720 
  262.5000   -11.7200     2.4940    46.5920    12.3790    11.7510    11.7280    24.4920 
  262.6250   -11.7620     2.4830    47.6910    12.5480    11.9500    11.8860    24.4100 
  262.7500   -11.7780     2.4650    47.8840    12.7720    12.2040    13.6520    24.3740 
  262.8750   -11.7990     2.4460    48.5680    12.9380    12.4160    16.5610    24.3520 
  263.0000   -11.9100     2.4300    49.9740    12.9450    12.4860    17.2520    24.3320 
  263.1250   -12.0250     2.4190    50.5520    12.7390    12.3530    15.2360    24.3110 
  263.2500   -12.1430     2.4120    50.5920    12.3370    12.0200    13.1900    24.3100 
  263.3750   -12.2830     2.4080    50.5920    11.8200    11.5500    11.4460    24.4280 
  263.5000   -12.3540     2.4070    50.5920    11.3240    11.0740    10.5540    24.6900 
  263.6250   -12.3310     2.4060    50.5920    10.9340    10.6800    10.5730    24.8840 
  263.7500   -12.3000     2.4000    50.5920    10.6870    10.4100    12.1860    24.9670 
  263.8750   -12.2950     2.3820    50.5920    10.5680    10.2690    14.5380    24.9590 
  264.0000   -12.2500     2.3550    50.5920    10.4930    10.1890    15.8200    24.8070 
  264.1250   -12.2100     2.3250    50.5920    10.3970    10.1110    15.9920    24.6790 
  264.2500   -12.1900     2.3060    50.5920    10.2460    10.0030    11.7450    24.6400 
  264.3750   -12.1430     2.3110    50.5920    10.0620     9.8690     8.9320    24.6250 
  264.5000   -12.0980     2.3400    50.5920     9.9090     9.7520     7.7260    24.5660 
  264.6250   -12.0980     2.3830    50.5920     9.8370     9.6910     7.6050    24.4220 
  264.7500   -12.0850     2.4280    50.5920     9.8610     9.7040     7.8860    24.3500 
  264.8750   -12.0350     2.4520    50.5920     9.9530     9.7740     8.6760    24.5630 
  265.0000   -12.0150     2.4480    50.5920    10.0330     9.8410     9.6700    24.8810 
  265.1250   -12.0030     2.4160    50.5920    10.0440     9.8540    10.5110    25.0960 
  265.2500   -11.9320     2.3650    50.5920     9.9760     9.7990    10.9910    25.3650 
  265.3750   -11.8780     2.3120    50.5920     9.8750     9.7030    10.5750    25.6270 
  265.5000   -11.8850     2.2730    50.5920     9.8250     9.6350     9.7920    25.6270 
  265.6250   -11.9020     2.2560    50.5920     9.8890     9.6550    10.1270    25.3850 
  265.7500   -11.9690     2.2610    50.5920    10.0920     9.7960    12.5210    25.2490 
  265.8750   -12.0100     2.2850    50.5920    10.4240    10.0680    15.7450    25.3580 
  266.0000   -12.0220     2.3160    50.5920    10.8060    10.4130    16.9810    25.3340 
  266.1250   -12.0200     2.3500    50.5920    11.1940    10.7820    16.3740    25.0500 
  266.2500   -12.0230     2.3860    50.5920    11.5660    11.1460    15.2100    24.6540 
  266.3750   -11.9720     2.4220    50.5920    11.9260    11.4950    16.0550    24.5010 
  266.5000   -11.8170     2.4530    50.5920    12.2920    11.8440    16.6590    24.4580 
  266.6250   -11.6440     2.4730    50.5920    12.6630    12.1980    16.2540    24.4300 
  266.7500   -11.4520     2.4830    50.5920    13.0170    12.5400    15.2280    24.3830 
  266.8750   -11.3380     2.4880    50.5920    13.3000    12.8280    15.5090    24.3560 
  267.0000   -11.2210     2.4940    50.5920    13.4890    13.0370    16.3160    24.3000 
  267.1250   -11.0450     2.5030    50.5920    13.5840    13.1580    17.0590    24.2080 
  267.2500   -10.8380     2.5100    50.5920    13.6090    13.2090    17.5200    24.2660 
  267.3750   -10.6190     2.5090    50.5920    13.6020    13.2180    18.1320    24.3120 
  267.5000   -10.4580     2.5040    50.5920    13.5910    13.2200    18.2970    24.3330 
  267.6250   -10.3400     2.4980    50.5920    13.5810    13.2260    17.8040    24.3720 
  267.7500   -10.2030     2.4930    50.5920    13.5680    13.2340    17.1970    24.4890 
  267.8750   -10.0690     2.4870    50.5920    13.5580    13.2380    16.5860    24.5420 
  268.0000    -9.9510     2.4770    50.5920    13.5540    13.2340    17.8050    24.5410 
  268.1250    -9.8690     2.4590    50.5920    13.5590    13.2280    19.5600    24.5020 
  268.2500    -9.8740     2.4410    50.5920    13.5650    13.2250    20.3200    24.4730 
  268.3750   -10.0070     2.4290    50.5920    13.5710    13.2300    18.5650    24.4360 
  268.5000   -10.1700     2.4270    50.5920    13.5740    13.2420    17.0260    24.4130 
  268.6250   -10.2630     2.4330    50.5920    13.5780    13.2610    15.5080    24.4350 
  268.7500   -10.4010     2.4440    50.5920    13.5830    13.2800    14.4840    24.4530 
  268.8750   -10.4970     2.4540    50.5920    13.5860    13.2940    13.9270    24.4700 
  269.0000   -10.5490     2.4620    50.5920    13.5870    13.3010    14.0040    24.4350 
  269.1250   -10.6480     2.4670    50.5920    13.5870    13.3010    13.8890    24.3930 
  269.2500   -10.7520     2.4700    50.5920    13.5870    13.3010    12.6370    24.3920 
  269.3750   -10.8050     2.4750    50.5920    13.5870    13.3010    11.9820    24.4450 
  269.5000   -10.8170     2.4810    50.5920    13.5870    13.3010    12.5960    24.4980 
  269.6250   -10.8600     2.4890    50.5920    13.5870    13.3010    13.1820    24.5060 
  269.7500   -10.8810     2.4980    50.5920    13.5870    13.3010    13.1330    24.4910 
  269.8750   -10.8920     2.5040    50.5920    13.5870    13.3010    12.9810    24.4750 
  270.0000   -10.9390     2.5050    50.5920    13.5870    13.3010    13.1900    24.4620 
  270.1250   -10.9640     2.5040    50.5920    13.5870    13.3010    13.6660    24.4490 
  270.2500   -10.9840     2.5040    50.5920    13.5870    13.3010    13.9090    24.4450 
  270.3750   -11.0100     2.5080    50.5920    13.5870    13.3010    14.5220    24.4660 
  270.5000   -11.0470     2.5140    50.5920    13.5870    13.3010    15.5220    24.4640 
  270.6250   -11.0720     2.5180    50.5920    13.5870    13.3010    16.5500    24.4250 
  270.7500   -11.1220     2.5190    50.5920    13.5870    13.3010    16.6780    24.3640 
  270.8750   -11.1730     2.5140    50.5920    13.5870    13.3010    16.1280    24.3760 
  271.0000   -11.2060     2.5080    50.5920    13.5870    13.3010    16.1830    24.4050 
  271.1250   -11.2720     2.5000    50.5920    13.5870    13.3010    16.4930    24.3810 
  271.2500   -11.3180     2.4890    50.5920    13.5870    13.3010    15.1780    24.2820 
  271.3750   -11.3850     2.4780    50.5920    13.5870    13.3010    14.6350    24.1530 
  271.5000   -11.4370     2.4680    50.5920    13.5870    13.3010    14.9550    24.1040 
  271.6250   -11.4660     2.4670    50.5920    13.5870    13.3010    16.1170    24.1400 
