~V
VERS. 2.00: Ver 2.00
~W
STRT.M 53.0000:
STOP.M 267.0000:
STEP.M 0.1250:
NULL. -999.2500:
UWI. F10211:
~C
DEPT.M :
GR.API :
RML.OHMM :
RI. :
RXO.OHMM :
CALI.CM :
SP.MV :
DEN.GM/CC :
~A
# ...
  233.0000    80.0270    10.1240     9.9430     9.9390    24.0120   -16.0150     2.3360 
  233.1250    81.6150    10.0770     9.7550     9.7690    24.0080   -15.9410     2.3430 
  233.2500    81.2120    10.0370     9.5860     9.8120    24.0200   -15.9230     2.3510 
  233.3750    79.5580     9.9690     9.4100    10.1210    24.0500   -15.9560     2.3600 
  233.5000    79.3340     9.9000     9.2480    10.0470    24.0710   -16.0460     2.3680 
  233.6250    81.5070     9.9280     9.1730     9.8350    24.0840   -16.1810     2.3770 
  233.7500    83.2670    10.1750     9.2760     9.6700    24.1070   -16.3550     2.3880 
  233.8750    81.7730    10.7660     9.6550    10.6050    24.1540   -16.5680     2.4030 
  234.0000    79.8490    11.8950    10.4710    11.8970    24.2180   -16.8230     2.4170 
  234.1250    80.5830    13.6240    11.7920    13.3000    24.2700   -17.0850     2.4220 
  234.2500    81.9720    15.9930    13.6890    15.0060    24.3020   -17.3640     2.4120 
  234.3750    81.5830    18.9240    16.1630    18.3730    24.3240   -17.6430     2.3940 
  234.5000    81.2950    22.0520    19.0240    22.6310    24.3380   -17.8580     2.3830 
  234.6250    84.2670    24.7170    21.7170    27.5910    24.2880   -18.0610     2.3780 
  234.7500    90.1210    26.3560    23.6730    31.3790    24.1450   -18.2150     2.3700 
  234.8750    95.9440    26.7540    24.5630    36.1330    23.8860   -18.2870     2.3500 
  235.0000    98.3110    26.0130    24.3080    38.2050    23.5390   -18.3100     2.3280 
  235.1250    97.9930    24.7000    23.3490    31.6410    23.3480   -18.2620     2.3150 
  235.2500    97.2280    23.2670    22.1070    23.4020    23.3440   -18.1360     2.3110 
  235.3750    96.8130    22.0050    20.9130    19.5450    23.5300   -17.9580     2.3070 
  235.5000    93.5450    21.1520    20.0490    17.6060    23.8250   -17.7620     2.2960 
  235.6250    86.4450    20.7210    19.5880    17.6940    24.0940   -17.5410     2.2870 
  235.7500    77.6760    20.5770    19.4590    18.7420    24.2640   -17.3230     2.2920 
  235.8750    70.0960    20.4610    19.4630    22.0940    24.3230   -17.1190     2.3080 
  236.0000    66.3020    20.0520    19.3090    23.7100    24.3090   -16.8890     2.3160 
  236.1250    64.4610    19.2790    18.8650    23.4060    24.2670   -16.6900     2.3070 
  236.2500    62.0370    18.2770    18.1830    20.7960    24.2750   -16.4960     2.2930 
  236.3750    58.8050    17.3020    17.4320    17.4330    24.3690   -16.3300     2.2840 
  236.5000    56.2000    16.6380    16.8420    16.1230    24.4460   -16.2030     2.2840 
  236.6250    56.4770    16.2980    16.4820    16.5380    24.4690   -16.0890     2.2860 
  236.7500    59.7200    16.0920    16.2590    17.5510    24.4000   -16.0090     2.2890 
  236.8750    63.6650    15.7370    15.9600    17.5120    24.1540   -15.9550     2.2910 
  237.0000    64.6850    14.9820    15.3360    14.9560    23.7470   -15.9500     2.2980 
  237.1250    63.9350    13.9350    14.4260    12.9780    23.4130   -15.9760     2.3050 
  237.2500    64.4850    12.8850    13.4550    11.9060    23.3190   -16.0360     2.3030 
  237.3750    65.1590    12.1380    12.6920    11.4550    23.4570   -16.1120     2.2940 
  237.5000    64.3340    11.9780    12.4100    11.1030    23.6000   -16.1980     2.2860 
  237.6250    64.4280    12.3900    12.6380    11.2150    23.6290   -16.2900     2.2890 
  237.7500    67.4270    13.2340    13.2980    12.4340    23.5750   -16.3760     2.3040 
  237.8750    71.6480    14.2700    14.2030    14.6500    23.5060   -16.4510     2.3290 
  238.0000    72.5200    15.1050    15.0190    16.1060    23.4970   -16.5160     2.3560 
  238.1250    70.5150    15.4000    15.3960    15.6920    23.5760   -16.5680     2.3760 
  238.2500    68.4230    14.9980    15.1150    14.4560    23.7250   -16.6100     2.3880 
  238.3750    69.0450    14.0310    14.2320    13.1730    23.8640   -16.6570     2.3990 
  238.5000    72.1630    12.9500    13.1320    13.3960    23.9160   -16.6840     2.4090 
  238.6250    74.6380    12.2740    12.3090    13.5760    23.8430   -16.6940     2.4110 
  238.7500    74.5410    12.3590    12.1010    12.1550    23.7130   -16.6850     2.3910 
  238.8750    71.8930    13.4110    12.7200    12.1250    23.6420   -16.6710     2.3440 
  239.0000    66.3580    15.5400    14.3930    17.1900    23.6440   -16.6530     2.2920 
  239.1250    59.9150    18.2730    16.8580    24.2520    23.6490   -16.6270     2.2620 
  239.2500    56.3220    20.8660    19.5370    27.2600    23.6320   -16.5850     2.2570 
  239.3750    58.0460    22.4670    21.5780    25.8900    23.5970   -16.5180     2.2640 
  239.5000    62.4820    22.3970    22.0820    23.3710    23.5590   -16.4320     2.2700 
  239.6250    63.7070    21.1990    21.3280    21.6970    23.5560   -16.3400     2.2730 
  239.7500    61.4990    19.7020    20.0350    20.3760    23.5990   -16.2610     2.2760 
  239.8750    60.6630    18.4710    18.7870    18.4960    23.6400   -16.1880     2.2820 
  240.0000    62.7430    17.7160    17.8730    17.1190    23.6420   -16.1110     2.2880 
  240.1250    63.8920    17.2780    17.2430    16.5460    23.6150   -16.0390     2.2930 
  240.2500    63.0350    16.9500    16.7660    17.0850    23.5870   -15.9840     2.2970 
  240.3750    62.7970    16.5270    16.2710    18.0760    23.5750   -15.9440     2.3000 
  240.5000    65.1720    15.8240    15.5720    17.4250    23.5910   -15.9300     2.2980 
  240.6250    68.8800    14.9010    14.6710    16.6520    23.6000   -15.9280     2.2940 
  240.7500    72.1170    13.9920    13.7360    15.4360    23.5990   -15.9250     2.2870 
  240.8750    74.0130    13.4170    13.0270    13.4460    23.6120   -15.9300     2.2800 
  241.0000    73.7470    13.5810    12.8910    11.9890    23.6800   -15.9430     2.2720 
  241.1250    71.2850    14.6000    13.4630    11.7030    23.7630   -15.9620     2.2690 
  241.2500    67.4060    16.4420    14.8090    13.3490    23.8510   -15.9820     2.2770 
  241.3750    63.3220    18.8690    16.8500    18.6240    23.9380   -15.9960     2.2960 
  241.5000    61.2770    21.2440    19.1910    24.1840    23.9840   -16.0170     2.3180 
  241.6250    60.6790    22.7770    21.0530    27.6130    23.9830   -16.0460     2.3250 
  241.7500    60.6460    23.0420    21.8270    29.1710    23.9320   -16.0910     2.3080 
  241.8750    61.0230    22.2340    21.4660    29.1710    23.8520   -16.1230     2.2750 
  242.0000    61.7530    21.0780    20.4800    25.8800    23.8060   -16.1550     2.2520 
  242.1250    63.4040    20.2870    19.5870    21.3680    23.8510   -16.1870     2.2460 
  242.2500    65.0390    20.0940    19.1190    19.1620    23.9330   -16.2170     2.2530 
  242.3750    64.4990    20.3270    19.0480    19.4920    24.0060   -16.2450     2.2660 
  242.5000    62.6580    20.4970    19.0570    21.3390    24.0180   -16.2660     2.2850 
  242.6250    62.8360    20.1460    18.7400    22.3780    24.0200   -16.2720     2.3150 
  242.7500    65.7570    19.1470    17.9200    21.8010    24.0340   -16.2530     2.3610 
  242.8750    68.3810    17.7720    16.7490    19.5470    24.0350   -16.2310     2.4180 
  243.0000    68.9550    16.6240    15.6720    16.1590    23.9730   -16.1890     2.4640 
  243.1250    68.5430    16.1540    15.0780    13.4810    23.9020   -16.1370     2.4820 
  243.2500    67.7360    16.5120    15.1600    12.2800    23.8440   -16.0740     2.4810 
  243.3750    67.4200    17.5690    15.9100    13.0430    23.8150   -15.9950     2.4680 
  243.5000    67.2780    18.8330    17.0570    15.3440    23.8410   -15.8880     2.4360 
  243.6250    66.6690    19.5230    17.9180    17.7370    23.8390   -15.7550     2.3870 
  243.7500    66.1240    19.0500    17.8550    19.3480    23.8200   -15.5890     2.3310 
  243.8750    66.8220    17.3740    16.6740    20.8950    23.8250   -15.3810     2.2820 
  244.0000    67.0310    15.0960    14.7230    20.2540    23.8030   -15.1570     2.2470 
  244.1250    64.0430    12.7760    12.6770    15.6010    23.7110   -14.9260     2.2330 
