~V
VERS. 2.00: Ver 2.00
~W
STRT.M 55.0000:
STOP.M 276.0000:
STEP.M 0.1250:
NULL. -999.2500:
UWI. F10239:
~C
DEPT.M :
SP.MV :
DEN.GM/CC :
GR.API :
RML.OHMM :
RI. :
RXO.OHMM :
CALI.CM :
~A
# ...
  111.2500   -16.2060     1.9120    69.5280     9.6090     7.9610    10.6100    26.3970 
  111.3750   -16.1930     1.9520    66.2410    10.2340     8.5830    11.5630    25.8960 
  111.5000   -16.1160     2.0380    64.7410    10.6440     9.0960    11.8880    25.7450 
  111.6250   -15.9340     2.1200    66.6880    10.7250     9.3560    11.9780    25.7350 
  111.7500   -15.5680     2.1610    70.2010    10.4250     9.2700    11.7570    25.7160 
  111.8750   -14.9910     2.1790    72.3040     9.8860     8.9290    11.2960    25.6900 
  112.0000   -14.2190     2.1980    73.8710     9.2630     8.4560    10.7050    25.6520 
  112.1250   -13.3300     2.2210    77.7550     8.7240     7.9920     9.8320    25.6310 
  112.2500   -12.3900     2.2400    83.5100     8.3980     7.6580     9.2530    25.6110 
  112.3750   -11.4320     2.2430    85.1130     8.2590     7.4640     9.0270    25.5190 
  112.5000   -10.4750     2.2320    82.2170     8.2110     7.3590     8.9870    25.2570 
  112.6250    -9.5270     2.2220    80.9750     8.1060     7.2420     8.8430    24.8100 
  112.7500    -8.6260     2.2280    86.1680     7.8130     6.9950     7.7710    24.3460 
  112.8750    -7.8200     2.2480    94.2500     7.3470     6.6010     6.4590    24.0080 
  113.0000    -7.1420     2.2720   100.2890     6.8060     6.1180     5.6880    23.8670 
  113.1250    -6.6170     2.2920   103.9390     6.3180     5.6420     5.2630    23.9070 
  113.2500    -6.2650     2.3030   107.5670     5.9710     5.2560     4.9050    24.0650 
  113.3750    -6.0580     2.3090   111.1080     5.7250     4.9610     4.8080    24.2030 
  113.5000    -5.9800     2.3070   112.8740     5.5040     4.7180     4.8210    24.3330 
  113.6250    -6.0240     2.3000   111.9250     5.2680     4.5010     4.9640    24.4100 
  113.7500    -6.1960     2.2970   110.2930     5.0930     4.3480     5.1230    24.4430 
  113.8750    -6.4880     2.3080   108.8500     5.1800     4.3700     5.2080    24.4620 
  114.0000    -6.9020     2.3370   106.9700     5.7860     4.7240     5.3720    24.4790 
  114.1250    -7.4320     2.3830   102.8980     7.1470     5.5870     6.1610    24.4910 
  114.2500    -8.0680     2.4420    95.1490     9.3410     7.1230     8.6590    24.4940 
  114.3750    -8.7930     2.4940    86.3400    11.8750     9.1370    13.1860    24.4910 
  114.5000    -9.6040     2.5170    81.1970    13.9930    11.1400    18.4650    24.4690 
  114.6250   -10.4870     2.4870    81.0070    14.7920    12.2950    20.8170    24.3900 
  114.7500   -11.4020     2.4010    81.2180    13.8350    11.9620    16.5210    24.2440 
  114.8750   -12.2640     2.2960    78.2110    12.0380    10.7320    11.8540    24.1140 
  115.0000   -13.0400     2.2070    74.1330    10.2750     9.3190    10.1820    24.0520 
  115.1250   -13.6870     2.1530    72.5250     9.0350     8.1730    10.1350    24.0330 
  115.2500   -14.1890     2.1350    74.3670     8.4050     7.4520     9.9570    24.0300 
  115.3750   -14.5660     2.1350    77.4680     8.1420     7.0520     8.8850    24.0220 
  115.5000   -14.8390     2.1460    79.5740     8.0840     6.8720     7.9650    24.0120 
  115.6250   -15.0330     2.1580    80.8310     8.1190     6.8190     7.7020    24.0150 
  115.7500   -15.1520     2.1640    82.3660     8.1910     6.8270     7.8910    24.0260 
  115.8750   -15.2350     2.1640    83.5960     8.2760     6.8580     8.1500    24.0250 
  116.0000   -15.3010     2.1610    83.1630     8.3580     6.8960     8.2070    24.0110 
  116.1250   -15.3880     2.1590    80.1570     8.4240     6.9330     8.1220    23.9960 
  116.2500   -15.5220     2.1560    76.9200     8.4720     6.9660     8.2190    24.0080 
  116.3750   -15.7100     2.1530    75.8480     8.5170     7.0010     8.4840    24.0440 
  116.5000   -15.9490     2.1500    75.5390     8.5670     7.0380     8.8520    24.0890 
  116.6250   -16.2520     2.1480    74.4170     8.6190     7.0720     9.0300    24.1150 
  116.7500   -16.6330     2.1460    73.9670     8.6710     7.0930     8.9650    24.1320 
  116.8750   -17.0590     2.1460    74.0980     8.7320     7.1110     9.0190    24.1670 
  117.0000   -17.4920     2.1440    72.5680     8.8270     7.1450     9.3640    24.2270 
  117.1250   -17.9140     2.1400    70.3400     8.9830     7.2190     9.8700    24.2770 
  117.2500   -18.3140     2.1350    70.9750     9.2280     7.3550    10.2580    24.3000 
  117.3750   -18.6990     2.1310    73.4890     9.5380     7.5470    10.5560    24.2950 
  117.5000   -19.0580     2.1290    74.4610     9.8770     7.7790    10.8580    24.2800 
  117.6250   -19.3690     2.1310    73.3910    10.1940     8.0150    11.3770    24.2760 
  117.7500   -19.5950     2.1360    71.4840    10.4260     8.2070    11.9600    24.2850 
  117.8750   -19.7430     2.1410    70.0250    10.5460     8.3220    12.2810    24.2790 
  118.0000   -19.8290     2.1400    70.8530    10.5540     8.3500    12.2080    24.2400 
  118.1250   -19.8600     2.1340    73.1890    10.4760     8.3100    11.9430    24.1800 
  118.2500   -19.8500     2.1290    73.7060    10.3680     8.2420    11.7830    24.1350 
  118.3750   -19.8000     2.1310    72.8040    10.2980     8.1960    11.9770    24.1190 
  118.5000   -19.7210     2.1380    72.7790    10.3080     8.2040    12.1050    24.1150 
  118.6250   -19.6210     2.1450    73.5780    10.4070     8.2720    12.2500    24.1140 
  118.7500   -19.5080     2.1510    73.4430    10.5560     8.3850    12.3770    24.1140 
  118.8750   -19.3760     2.1560    72.7500    10.6780     8.4990    12.5400    24.1190 
  119.0000   -19.1990     2.1630    71.8230    10.7170     8.5820    12.7140    24.1410 
  119.1250   -18.9670     2.1710    69.7900    10.6530     8.6130    12.8230    24.1900 
  119.2500   -18.6760     2.1800    67.4210    10.5130     8.5900    12.7600    24.2490 
  119.3750   -18.3270     2.1870    66.5370    10.3590     8.5410    12.4840    24.2840 
  119.5000   -17.9320     2.1910    66.2650    10.2300     8.4870    12.0760    24.3080 
  119.6250   -17.4940     2.1900    66.3020    10.1460     8.4570    11.7290    24.3280 
  119.7500   -17.0400     2.1850    67.1060    10.1240     8.4750    11.6490    24.3170 
  119.8750   -16.6030     2.1820    67.2090    10.1760     8.5520    11.7120    24.2630 
  120.0000   -16.1910     2.1820    66.7200    10.3160     8.7010    11.8170    24.1840 
  120.1250   -15.7750     2.1810    67.6760    10.5140     8.9140    11.8930    24.1300 
  120.2500   -15.3100     2.1780    70.5670    10.6540     9.1280    11.9940    24.1110 
  120.3750   -14.7880     2.1750    72.6270    10.5760     9.2120    12.1260    24.0970 
  120.5000   -14.2170     2.1770    74.2870    10.1850     9.0570    12.2640    24.0780 
  120.6250   -13.6090     2.1880    77.3060     9.5200     8.6490    12.1240    24.0680 
  120.7500   -12.9930     2.2090    79.3410     8.7770     8.1070    10.8610    24.0820 
  120.8750   -12.3830     2.2300    78.2640     8.2180     7.6480     8.9770    24.0840 
  121.0000   -11.7780     2.2400    76.0040     7.9870     7.4120     7.8040    24.0150 
  121.1250   -11.1820     2.2310    73.7860     8.0950     7.4520     7.9430    23.9440 
  121.2500   -10.5940     2.2090    72.5600     8.4220     7.7230     8.9470    23.9920 
  121.3750   -10.0190     2.1910    73.4260     8.6990     8.0310     9.6710    24.1840 
  121.5000    -9.4270     2.1940    75.0500     8.7240     8.1820     9.6630    24.2960 
  121.6250    -8.8110     2.2220    75.1560     8.3960     8.0320     9.0560    24.3360 
  121.7500    -8.1580     2.2680    75.4000     7.7930     7.5830     8.1980    24.3740 
  121.8750    -7.4880     2.3140    79.1450     7.1700     7.0390     7.4900    24.4370 
  122.0000    -6.8380     2.3530    83.4680     6.6820     6.5540     6.7010    24.4810 
  122.1250    -6.2360     2.3780    83.6480     6.3950     6.2170     6.1810    24.4950 
  122.2500    -5.7170     2.3850    80.5870     6.2900     6.0440     6.3630    24.4930 
  122.3750    -5.2850     2.3860    79.0510     6.2950     5.9860     6.7850    24.4920 
