~V
VERS. 2.00: Ver 2.00
~W
STRT.M 50.0000:
STOP.M 274.0000:
STEP.M 0.1250:
NULL. -999.2500:
UWI. F10208:
~C
DEPT.M :
SP.MV :
DEN.GM/CC :
GR.API :
RML.OHMM :
RI. :
RXO.OHMM :
CALI.CM :
~A
   50.0000  -999.2500  -999.2500  -999.2500  -999.2500  -999.2500  -999.2500  -999.2500 
   50.1250  -999.2500  -999.2500  -999.2500  -999.2500  -999.2500  -999.2500  -999.2500 
   50.2500  -999.2500  -999.2500  -999.2500  -999.2500  -999.2500  -999.2500  -999.2500 
   50.3750  -999.2500  -999.2500  -999.2500  -999.2500  -999.2500  -999.2500  -999.2500 
   50.5000  -999.2500  -999.2500  -999.2500  -999.2500  -999.2500  -999.2500  -999.2500 
   50.6250  -999.2500  -999.2500  -999.2500  -999.2500  -999.2500  -999.2500  -999.2500 
   50.7500  -999.2500  -999.2500  -999.2500  -999.2500  -999.2500  -999.2500  -999.2500 
   50.8750  -999.2500  -999.2500  -999.2500  -999.2500  -999.2500  -999.2500  -999.2500 
   51.0000  -999.2500  -999.2500  -999.2500  -999.2500  -999.2500  -999.2500  -999.2500 
   51.1250  -999.2500  -999.2500  -999.2500  -999.2500  -999.2500  -999.2500  -999.2500 
   51.2500  -999.2500  -999.2500  -999.2500  -999.2500  -999.2500  -999.2500  -999.2500 
   51.3750  -999.2500  -999.2500  -999.2500  -999.2500  -999.2500  -999.2500  -999.2500 
   51.5000  -999.2500  -999.2500  -999.2500  -999.2500  -999.2500  -999.2500  -999.2500 
   51.6250  -999.2500  -999.2500  -999.2500  -999.2500  -999.2500  -999.2500  -999.2500 
   51.7500  -999.2500  -999.2500  -999.2500  -999.2500  -999.2500  -999.2500  -999.2500 
   51.8750  -999.2500  -999.2500  -999.2500  -999.2500  -999.2500  -999.2500  -999.2500 
   52.0000  -999.2500  -999.2500  -999.2500  -999.2500  -999.2500  -999.2500  -999.2500 
   52.1250  -999.2500  -999.2500  -999.2500  -999.2500  -999.2500  -999.2500  -999.2500 
   52.2500  -999.2500  -999.2500  -999.2500  -999.2500  -999.2500  -999.2500  -999.2500 
   52.3750  -999.2500  -999.2500  -999.2500  -999.2500  -999.2500  -999.2500  -999.2500 
   52.5000  -999.2500  -999.2500  -999.2500  -999.2500  -999.2500  -999.2500  -999.2500 
   52.6250  -999.2500  -999.2500  -999.2500  -999.2500  -999.2500  -999.2500  -999.2500 
   52.7500  -999.2500  -999.2500  -999.2500  -999.2500  -999.2500  -999.2500  -999.2500 
   52.8750  -999.2500  -999.2500  -999.2500  -999.2500  -999.2500  -999.2500  -999.2500 
   53.0000  -999.2500  -999.2500  -999.2500  -999.2500  -999.2500  -999.2500  -999.2500 
   53.1250  -999.2500  -999.2500  -999.2500  -999.2500  -999.2500  -999.2500  -999.2500 
   53.2500  -999.2500  -999.2500  -999.2500  -999.2500  -999.2500  -999.2500  -999.2500 
   53.3750  -999.2500  -999.2500  -999.2500  -999.2500  -999.2500  -999.2500  -999.2500 
   53.5000  -999.2500  -999.2500  -999.2500  -999.2500  -999.2500  -999.2500  -999.2500 
   53.6250  -999.2500  -999.2500  -999.2500  -999.2500  -999.2500  -999.2500  -999.2500 
   53.7500  -999.2500  -999.2500  -999.2500  -999.2500  -999.2500  -999.2500  -999.2500 
   53.8750  -999.2500  -999.2500  -999.2500  -999.2500  -999.2500  -999.2500  -999.2500 
   54.0000  -999.2500  -999.2500  -999.2500  -999.2500  -999.2500  -999.2500  -999.2500 
   54.1250  -999.2500  -999.2500  -999.2500  -999.2500  -999.2500  -999.2500  -999.2500 
   54.2500  -999.2500  -999.2500  -999.2500  -999.2500  -999.2500  -999.2500  -999.2500 
   54.3750  -999.2500  -999.2500  -999.2500  -999.2500  -999.2500  -999.2500  -999.2500 
   54.5000  -999.2500  -999.2500    37.4320     0.4270     0.2950     0.8180    24.5440 
   54.6250  -999.2500  -999.2500    37.4320     0.4270     0.2950     0.8180    24.5440 
   54.7500  -999.2500  -999.2500    37.2720     0.4330     0.2970     0.7360    24.5370 
   54.8750  -999.2500  -999.2500    37.4490     0.4190     0.2940     0.5980    24.6250 
   55.0000  -999.2500  -999.2500    37.7950     0.3590     0.2840     0.5470    24.5400 
   55.1250  -999.2500  -999.2500    37.4590     0.2830     0.2700     0.6150    24.2460 
   55.2500  -999.2500  -999.2500    37.7670     0.2270     0.2610     0.7510    24.4540 
   55.3750  -999.2500  -999.2500    38.3770     0.2020     0.2580     0.8760    24.9910 
   55.5000  -999.2500  -999.2500    38.0210     0.2030     0.2620     0.9270    25.3250 
   55.6250  -999.2500  -999.2500    36.9730     0.2310     0.2690     0.9540    25.3770 
   55.7500  -999.2500  -999.2500    36.6980     0.2800     0.2750     0.9190    25.3810 
   55.8750  -999.2500  -999.2500    36.9130     0.3330     0.2770     0.9540    25.3630 
   56.0000  -999.2500  -999.2500    36.8790     0.3700     0.2760     1.1800    25.3170 
   56.1250  -999.2500  -999.2500    35.3440     0.3710     0.2730     1.4790    25.2990 
   56.2500  -999.2500  -999.2500    32.2720     0.3460     0.2680     1.4020    25.2440 
   56.3750  -999.2500  -999.2500    29.8590     0.3160     0.2630     1.0700    25.1230 
   56.5000  -999.2500  -999.2500    29.0340     0.2960     0.2600     0.8480    24.8940 
   56.6250  -999.2500     1.9200    29.3450     0.2820     0.2580     0.8760    24.7100 
   56.7500  -999.2500     1.9200    29.6230     0.2640     0.2560     0.9450    24.5510 
   56.8750  -999.2500     1.9200    30.4970     0.2410     0.2530     0.9450    24.4590 
   57.0000  -999.2500     1.9200    31.9600     0.2230     0.2490     0.9520    24.4080 
   57.1250  -999.2500     1.9210    32.8880     0.2150     0.2450     1.0380    24.2640 
   57.2500  -999.2500     1.9190    32.4920     0.2140     0.2430     1.2370    24.1100 
   57.3750  -999.2500     1.9140    30.5240     0.2100     0.2420     1.4220    23.9840 
   57.5000    41.2680     1.9070    29.3950     0.1990     0.2380     1.4620    23.9070 
   57.6250    41.2680     1.8980    29.5070     0.1830     0.2300     1.4450    23.8790 
   57.7500    42.1520     1.8890    28.5440     0.1740     0.2190     1.4340    23.8280 
   57.8750    43.0950     1.8840    28.0260     0.1730     0.2070     1.4670    23.7730 
   58.0000    44.0810     1.8830    29.9890     0.1770     0.1980     1.5000    23.7380 
   58.1250    45.0390     1.8860    33.4020     0.1830     0.1970     1.5380    23.7320 
   58.2500    45.9030     1.8890    34.1990     0.1860     0.2030     1.5540    23.7310 
   58.3750    46.6430     1.8910    32.9020     0.1910     0.2130     1.5520    23.7280 
   58.5000    47.3340     1.8890    32.6230     0.2010     0.2220     1.5670    23.7140 
   58.6250    47.9140     1.8840    34.3710     0.2140     0.2290     1.5880    23.6720 
   58.7500    48.3410     1.8780    36.5890     0.2150     0.2340     1.5840    23.6560 
   58.8750    48.5850     1.8700    39.0450     0.2010     0.2370     1.5790    23.6180 
   59.0000    48.7070     1.8590    41.8920     0.1810     0.2390     1.5960    23.5940 
   59.1250    48.7670     1.8440    43.9080     0.1670     0.2450     1.5730    23.5950 
   59.2500    48.8050     1.8300    44.2900     0.1660     0.2510     1.5720    23.6210 
   59.3750    48.9210     1.8210    43.9620     0.1830     0.2530     1.5830    23.6210 
   59.5000    49.2140     1.8200    43.0100     0.2110     0.2500     1.6030    23.6010 
   59.6250    49.7320     1.8290    40.1150     0.2300     0.2430     1.5760    23.6210 
   59.7500    50.3280     1.8440    37.0290     0.2290     0.2340     1.5530    23.6590 
   59.8750    50.9460     1.8640    35.5530     0.2080     0.2270     1.5360    23.6700 
   60.0000    51.4960     1.8850    35.8610     0.1770     0.2270     1.5380    23.6950 
   60.1250    51.8990     1.9020    38.2970     0.1530     0.2330     1.5380    23.7500 
   60.2500    52.2440     1.9120    40.8980     0.1410     0.2400     1.4970    23.7990 
   60.3750    52.4520     1.9130    41.2760     0.1350     0.2440     1.4410    23.8070 
   60.5000    52.3510     1.9070    37.9980     0.1230     0.2440     1.4060    23.8090 
   60.6250    51.9660     1.9000    33.0490     0.1020     0.2390     1.4040    23.8110 
   60.7500    51.5820     1.8960    31.2020     0.0850     0.2320     1.3930    23.8130 
   60.8750    51.2340     1.8960    33.8890     0.0840     0.2240     1.3840    23.8060 
   61.0000    50.9530     1.9010    37.2180     0.1010     0.2130     1.4150    23.7890 
   61.1250    50.8220     1.9060    36.0550     0.1290     0.1990     1.4750    23.6860 
