~V
VERS. 2.00: Ver 2.00
~W
STRT.M 50.0000:
STOP.M 284.0000:
STEP.M 0.1250:
NULL. -999.2500:
UWI. F10254:
~C
DEPT.M :
GR.API :
RML.OHMM :
RI. :
RXO.OHMM :
CALI.CM :
DEN.GM/CC :
SP.MV :
~A
# ...
  196.2500    97.2190    10.5350    10.1330     9.1500    24.4800     2.5290    -2.6850 
  196.3750    94.4630    11.0920    10.8550     9.6380    24.4660     2.5120    -2.9230 
  196.5000    92.7990    11.5160    11.4000     9.8720    24.4380     2.5000    -3.1800 
  196.6250    93.4260    11.8130    11.7440    10.2120    24.4840     2.4900    -3.5580 
  196.7500    94.0360    12.0660    11.9590    10.6370    24.6300     2.4750    -3.9190 
  196.8750    92.2140    12.3420    12.0930    11.4200    24.8090     2.4550    -4.2070 
  197.0000    87.0360    12.6700    12.1850    12.4040    24.9520     2.4310    -4.4630 
  197.1250    80.7840    13.0260    12.2400    13.1780    25.0650     2.4120    -4.6760 
  197.2500    78.3850    13.3210    12.2450    13.6650    25.1350     2.4030    -4.8800 
  197.3750    80.2480    13.5000    12.1910    13.8610    25.1270     2.4050    -5.1320 
  197.5000    83.2720    13.5900    12.1120    13.8270    25.0650     2.4140    -5.3680 
  197.6250    85.4500    13.7300    12.1160    13.6160    25.0440     2.4220    -5.5260 
  197.7500    85.3560    14.0760    12.3040    13.3340    25.0850     2.4230    -5.6940 
  197.8750    81.3950    14.7510    12.7660    13.5510    25.1030     2.4170    -5.9890 
  198.0000    76.7590    15.8150    13.5630    14.6910    25.0320     2.4060    -6.4360 
  198.1250    77.1480    17.2560    14.7370    16.4520    24.7970     2.3940    -6.9130 
  198.2500    79.2840    18.8090    16.1060    17.6050    24.4900     2.3810    -7.3320 
  198.3750    79.8650    20.2000    17.4570    18.7790    24.3000     2.3690    -7.7400 
  198.5000    80.9200    21.1490    18.5270    21.3870    24.2630     2.3590    -8.1880 
  198.6250    83.8280    21.4190    19.0440    21.4620    24.3190     2.3560    -8.6130 
  198.7500    84.6810    21.2820    19.1630    19.5400    24.3820     2.3600    -8.9470 
  198.8750    84.1100    21.0730    19.1410    18.9460    24.4060     2.3630    -9.1830 
  199.0000    83.8440    21.0910    19.2320    20.0410    24.4080     2.3610    -9.3280 
  199.1250    83.1780    21.5600    19.6550    19.9110    24.4350     2.3500    -9.3750 
  199.2500    81.9920    22.3320    20.3550    24.1430    24.5320     2.3410    -9.3900 
  199.3750    82.0500    23.1300    21.1460    31.1230    24.6920     2.3390    -9.4190 
  199.5000    82.4150    23.6190    21.7450    37.8570    24.8010     2.3470    -9.3860 
  199.6250    81.5690    23.5290    21.8680    36.2110    24.8230     2.3600    -9.2810 
  199.7500    80.5690    23.0680    21.6310    30.3310    24.8050     2.3700    -9.2240 
  199.8750    80.3330    22.5330    21.2630    23.8770    24.7960     2.3750    -9.1910 
  200.0000    79.3770    22.2060    21.0070    20.3300    24.8000     2.3730    -9.1390 
  200.1250    76.9640    22.2330    21.0190    20.9390    24.8390     2.3680    -9.1240 
  200.2500    75.0930    22.4630    21.2160    23.4020    24.9110     2.3600    -9.1850 
  200.3750    73.6580    22.8060    21.5400    25.8050    24.9860     2.3510    -9.2300 
  200.5000    72.5610    23.2720    22.0030    26.1440    25.0740     2.3410    -9.3080 
  200.6250    72.3910    24.0040    22.7300    25.9940    25.2160     2.3290    -9.4790 
  200.7500    73.5350    25.0700    23.7780    26.3850    25.3260     2.3160    -9.6400 
  200.8750    76.2780    26.4420    25.1420    29.9260    25.3640     2.3060    -9.8020 
  201.0000    79.6030    27.9200    26.6740    33.7160    25.3610     2.3030   -10.0250 
  201.1250    81.4030    29.2070    28.1090    34.5270    25.3290     2.3080   -10.2820 
  201.2500    79.9180    30.2990    29.3670    34.6210    25.2870     2.3160   -10.5360 
  201.3750    75.8220    31.4800    30.6360    34.9370    25.2570     2.3210   -10.8340 
  201.5000    71.6340    33.1830    32.2740    32.2260    25.2470     2.3190   -11.1970 
  201.6250    70.4700    35.9410    34.8120    33.0370    25.2470     2.3090   -11.6720 
  201.7500    69.9080    39.6170    38.2640    41.0700    25.2410     2.2980   -12.1740 
  201.8750    67.4580    43.8360    42.3920    52.3840    25.2240     2.2890   -12.6120 
  202.0000    64.8950    48.0440    46.6970    60.1960    25.1960     2.2830   -13.0400 
  202.1250    65.0690    51.6280    50.5260    56.7580    25.1860     2.2750   -13.5270 
  202.2500    66.6170    54.4350    53.5760    53.6250    25.2040     2.2640   -13.9780 
  202.3750    67.2500    56.4820    55.7790    56.5560    25.2520     2.2520   -14.3600 
  202.5000    66.3840    57.9100    57.2480    64.8770    25.2910     2.2430   -14.7200 
  202.6250    64.5680    58.9720    58.2490    68.9040    25.3060     2.2420   -14.9990 
  202.7500    63.9000    60.2460    59.3800    67.9550    25.3070     2.2450   -15.2440 
  202.8750    66.9080    62.3830    61.2560    65.2430    25.3060     2.2470   -15.5830 
  203.0000    70.1900    66.0770    64.5410    64.9180    25.3050     2.2450   -15.9440 
  203.1250    68.9360    72.2080    70.1450    70.0600    25.3040     2.2380   -16.2180 
  203.2500    65.5950    80.3540    77.7870    83.8510    25.3060     2.2320   -16.4460 
  203.3750    65.0040    89.7710    86.8340    99.1100    25.2990     2.2300   -16.6880 
  203.5000    67.7670    99.3420    96.2230   106.3300    25.2420     2.2330   -16.9600 
  203.6250    67.7780   107.9470   104.7950   104.5070    25.0470     2.2370   -17.3020 
  203.7500    64.2160   115.5490   112.3310   102.7460    24.8180     2.2370   -17.6410 
  203.8750    61.7900   122.4600   119.0160   106.9650    24.7930     2.2310   -17.8480 
  204.0000    62.3930   128.8240   124.9690   116.1740    25.0080     2.2220   -17.9630 
  204.1250    62.9790   134.1400   129.7970   131.1330    25.1830     2.2160   -18.1280 
  204.2500    62.1380   138.0820   133.3350   131.2780    25.2180     2.2150   -18.3700 
  204.3750    60.8110   140.7050   135.6780   121.4490    25.2260     2.2180   -18.5540 
  204.5000    59.1170   142.6490   137.4220   114.3160    25.2720     2.2190   -18.5750 
  204.6250    57.2330   144.9260   139.5460   121.3370    25.2980     2.2140   -18.5480 
  204.7500    56.0340   148.0690   142.6480   136.3590    25.3040     2.2070   -18.5980 
  204.8750    55.5510   152.0080   146.7720   147.6980    25.2920     2.1980   -18.6880 
  205.0000    55.0550   156.2580   151.5010   151.7520    25.2710     2.1910   -18.7120 
  205.1250    54.6260   159.9420   155.9760   151.5660    25.2840     2.1870   -18.6370 
  205.2500    53.9230   162.0780   159.1140   150.4950    25.3230     2.1860   -18.5620 
  205.3750    53.5290   161.1530   159.4380   154.8780    25.3550     2.1890   -18.5020 
  205.5000    55.6310   155.3310   155.1730   161.2410    25.3700     2.1950   -18.4130 
  205.6250    58.1210   142.7280   144.2680   158.0540    25.3940     2.2060   -18.2290 
  205.7500    59.3240   125.9760   128.8110   144.8700    25.4170     2.2190   -18.0220 
  205.8750    61.0860   108.2310   111.6170   117.2830    25.4290     2.2340   -17.7810 
  206.0000    64.0830    92.4870    95.7450    86.3050    25.4310     2.2480   -17.5470 
  206.1250    65.8220    81.2570    84.0330    75.3170    25.4360     2.2580   -17.4210 
  206.2500    64.9320    74.3890    76.6510    72.7120    25.4510     2.2640   -17.2440 
  206.3750    65.2120    71.7920    73.5890    75.1900    25.4810     2.2620   -16.9980 
  206.5000    66.9140    73.3050    74.7250    76.4170    25.5190     2.2540   -16.8040 
  206.6250    66.6800    79.2630    80.5100    80.4310    25.5780     2.2400   -16.7150 
  206.7500    64.5170    88.2670    89.6050    91.4000    25.6390     2.2260   -16.6800 
  206.8750    62.1400    98.7110   100.4540   114.6190    25.6590     2.2130   -16.7340 
  207.0000    60.4650   107.8690   110.3350   142.2890    25.6250     2.2030   -16.8370 
  207.1250    59.3940   111.4710   114.9240   153.4610    25.5710     2.1970   -16.8530 
  207.2500    58.3040   108.8740   113.2440   138.8700    25.4960     2.1990   -16.9280 
  207.3750    57.3200   101.5970   106.4640   111.5740    25.3390     2.2080   -17.1640 
