~V
VERS. 2.00: Ver 2.00
~W
STRT.M 50.0000:
STOP.M 271.0000:
STEP.M 0.1250:
NULL. -999.2500:
UWI. F10251:
~C
DEPT.M :
DEN.GM/CC :
GR.API :
RML.OHMM :
RI. :
RXO.OHMM :
CALI.CM :
SP.MV :
~A
# ...
  230.0000     2.4440    58.2080   120.9280   105.4600   126.1360    23.6600    -3.5710 
  230.1250     2.5500    57.3720   110.6590    98.8670   216.3100    23.6870    -3.2130 
  230.2500     2.6250    56.4970    83.1600    76.8860   241.1180    23.6750    -2.7160 
  230.3750     2.6430    58.4780    52.3000    49.7480   117.2730    23.6740    -2.0990 
  230.5000     2.6100    65.9400    29.4210    28.4460    37.3240    23.7040    -1.5060 
  230.6250     2.5470    76.3100    17.2210    16.7650    15.6660    23.7960    -0.9090 
  230.7500     2.4870    83.1460    10.9310    10.6270     8.0190    23.8990    -0.2510 
  230.8750     2.4520    84.8590     8.0370     7.6470     6.8090    23.9180     0.3520 
  231.0000     2.4480    85.3640     6.9580     6.3630     7.3680    23.8490     0.8510 
  231.1250     2.4580    87.7580     6.8900     6.1000     7.5530    23.8590     1.2940 
  231.2500     2.4610    92.6550     7.1720     6.2760     7.6340    23.9150     1.7000 
  231.3750     2.4600   101.7910     7.5240     6.6290     7.9920    23.9790     1.9780 
  231.5000     2.4550   112.1320     7.7900     6.9800     8.3620    23.9980     2.1340 
  231.6250     2.4450   118.6200     7.9260     7.2340     8.4520    23.9720     2.2600 
  231.7500     2.4310   123.2460     8.0050     7.4200     8.1870    23.9910     2.3240 
  231.8750     2.4180   125.9760     8.0400     7.5570     8.1070    24.0370     2.2970 
  232.0000     2.4090   126.6470     8.0180     7.6450     8.3200    24.0510     2.2700 
  232.1250     2.4050   124.7650     7.9160     7.6480     8.7190    24.0390     2.3220 
  232.2500     2.4050   120.7320     7.7590     7.5610     8.7350    24.0300     2.3350 
  232.3750     2.4060   114.1260     7.5990     7.4030     8.6060    24.0340     2.3150 
  232.5000     2.4080   109.2270     7.5170     7.2370     8.4180    24.0360     2.4000 
  232.6250     2.4120   112.4120     7.6430     7.1850     8.3710    24.0290     2.5360 
  232.7500     2.4200   117.0320     8.0060     7.3100     8.6430    24.0290     2.5960 
  232.8750     2.4280   116.0440     8.5840     7.6210     9.1510    24.0290     2.6970 
  233.0000     2.4340   110.8610     9.2790     8.0540    10.1630    24.0280     2.8650 
  233.1250     2.4320   106.1460     9.8510     8.4320    11.5170    24.0420     3.0170 
  233.2500     2.4230   104.7650    10.0690     8.5460    11.4100    24.0640     3.1160 
  233.3750     2.4100   107.7640     9.8310     8.2910    10.4500    24.0890     3.2020 
  233.5000     2.3960   111.3200     9.2640     7.7490     9.5460    24.1070     3.2510 
  233.6250     2.3880   110.0790     8.7440     7.1980     9.2130    24.1690     3.2000 
  233.7500     2.3850   105.4640     8.6280     6.9150     8.7050    24.1950     3.1180 
  233.8750     2.3860   100.2970     9.1060     7.0500     8.8930    24.1630     3.0310 
  234.0000     2.3890    95.1990    10.2940     7.7070    10.8100    24.0580     2.8860 
  234.1250     2.3910    92.8530    12.4320     9.0970    16.2000    23.9320     2.6150 
  234.2500     2.3840    95.2450    15.4980    11.2420    22.0110    23.8560     2.3470 
  234.3750     2.3610    97.5260    19.7280    14.3270    23.3860    23.8040     2.1290 
  234.5000     2.3150    93.6120    25.5990    18.7220    23.6820    23.8730     1.8260 
  234.6250     2.2520    83.8890    34.2010    25.3650    33.2140    24.1890     1.4680 
  234.7500     2.1950    73.8450    45.6030    34.4500    58.3660    24.5950     1.2350 
  234.8750     2.1640    66.3140    59.5800    45.9680    91.7310    24.7880     1.0700 
  235.0000     2.1630    62.2060    75.0560    59.1560   118.1330    24.7840     0.9120 
  235.1250     2.1810    61.5360    89.6100    71.9570   139.3540    24.6700     0.8280 
  235.2500     2.2030    60.8940   100.8370    82.0840   144.5070    24.5500     0.8610 
  235.3750     2.2290    59.3280   106.9410    88.0270   146.0690    24.4000     0.9480 
  235.5000     2.2530    58.8230   106.4320    88.7080   145.8840    24.2690     1.0480 
  235.6250     2.2620    59.9970    97.5970    82.6940   135.8020    24.2600     1.1920 
  235.7500     2.2560    61.9110    84.2420    72.5630   112.7450    24.2710     1.3320 
  235.8750     2.2480    66.1640    70.3760    61.2660    82.5200    24.2210     1.3860 
  236.0000     2.2450    72.1100    58.9080    51.3410    55.5610    24.2350     1.3610 
  236.1250     2.2430    74.5270    51.2420    44.3430    46.2340    24.2800     1.3040 
  236.2500     2.2410    72.4520    46.1540    39.5810    44.2780    24.2490     1.1810 
  236.3750     2.2390    71.3990    42.7590    36.3950    44.6120    24.1800     0.9120 
  236.5000     2.2390    75.5490    40.4220    34.2550    43.2390    24.1070     0.6240 
  236.6250     2.2430    82.6070    38.9630    32.9970    38.5450    24.0730     0.3720 
  236.7500     2.2500    85.7720    38.3250    32.4800    33.8000    24.0520     0.0230 
  236.8750     2.2540    83.6220    38.6920    32.8030    31.6230    24.0480    -0.3630 
  237.0000     2.2520    79.1220    40.0670    33.9700    34.8260    24.0450    -0.6750 
  237.1250     2.2440    78.2350    42.1170    35.7740    41.0570    24.0450    -0.9170 
  237.2500     2.2380    80.4110    44.0620    37.5710    45.4450    24.0380    -1.1930 
  237.3750     2.2360    81.6010    45.4660    38.9160    44.2330    24.0040    -1.4140 
  237.5000     2.2350    80.8880    46.3500    39.6940    41.1520    23.9360    -1.5340 
  237.6250     2.2330    79.7800    47.3200    40.2680    39.5360    23.9410    -1.6390 
  237.7500     2.2290    78.7670    49.0300    41.2660    41.0730    24.0270    -1.7160 
  237.8750     2.2230    76.0520    51.6220    42.9580    46.5980    24.1860    -1.7070 
  238.0000     2.2130    72.1660    54.6460    45.1530    53.4420    24.2930    -1.6850 
  238.1250     2.2010    70.1430    56.9780    47.1050    56.9840    24.2980    -1.7350 
  238.2500     2.1970    70.5170    57.7460    48.0430    57.9550    24.3040    -1.7480 
  238.3750     2.2010    72.6260    56.7040    47.6370    56.3320    24.2570    -1.6980 
  238.5000     2.2100    75.3060    54.4000    46.1630    51.4640    24.1780    -1.7020 
  238.6250     2.2170    78.2490    52.0740    44.4700    47.3970    24.0960    -1.7660 
  238.7500     2.2220    79.6980    50.8630    43.4900    46.4080    24.0660    -1.7350 
  238.8750     2.2240    79.2340    51.3140    43.7270    45.7870    24.0710    -1.7180 
  239.0000     2.2250    78.3600    53.5980    45.4060    45.7010    24.1120    -1.7800 
  239.1250     2.2200    76.9500    57.6050    48.6110    49.2270    24.1630    -1.8420 
  239.2500     2.2100    75.1130    61.8340    52.3070    54.7840    24.1650    -1.8800 
  239.3750     2.1990    72.6600    64.2860    54.9900    60.4700    24.1320    -1.9310 
  239.5000     2.1940    70.5330    62.9540    54.9240    64.5570    24.0660    -2.0290 
  239.6250     2.1970    70.8920    57.0200    50.9720    62.5840    24.0080    -2.0750 
  239.7500     2.2060    74.5520    49.5970    45.2740    52.6930    23.9110    -2.1320 
  239.8750     2.2220    80.8210    43.3390    39.9780    39.5160    23.7710    -2.2520 
  240.0000     2.2390    85.1610    39.8770    36.6230    29.0790    23.6600    -2.3630 
  240.1250     2.2430    82.8970    40.2490    36.3250    29.4630    23.7130    -2.3750 
  240.2500     2.2330    77.1420    43.6210    38.6550    37.0090    23.8790    -2.3860 
  240.3750     2.2200    72.2830    49.3800    43.2920    45.8900    24.0420    -2.4900 
  240.5000     2.2110    69.7700    56.4890    49.5460    49.4990    24.1160    -2.5200 
  240.6250     2.2100    68.3550    62.8170    55.7860    53.2690    24.1400    -2.4580 
  240.7500     2.2110    67.2150    66.0780    59.7960    60.2800    24.1960    -2.4730 
  240.8750     2.2100    67.6660    65.2560    60.3230    70.1430    24.1990    -2.4470 
  241.0000     2.2100    69.3760    61.2710    57.7400    74.1340    24.1130    -2.3110 
  241.1250     2.2140    71.3260    56.5680    53.8020    59.4250    24.0420    -2.1410 
