~V
VERS. 2.00: Ver 2.00
~W
STRT.M 50.0000:
STOP.M 278.0000:
STEP.M 0.1250:
NULL. -999.2500:
UWI. F10217:
~C
DEPT.M :
SP.MV :
DEN.GM/CC :
GR.API :
RML.OHMM :
RI. :
RXO.OHMM :
CALI.CM :
~A
# ...
  252.5000   -11.2370     2.3460    65.2400    10.9260     9.4320     9.8970    24.2020 
  252.6250   -11.3020     2.3620    64.9310    10.7260     9.2410     9.2520    24.2990 
  252.7500   -11.3590     2.3730    62.4620    10.5640     9.0660     8.7540    24.3490 
  252.8750   -11.3970     2.3790    61.1350    10.5200     8.9720     8.4510    24.3410 
  253.0000   -11.4260     2.3800    62.1130    10.6480     9.0120     8.1070    24.3300 
  253.1250   -11.4620     2.3820    64.5140    10.9810     9.2330     8.3680    24.3470 
  253.2500   -11.4440     2.3850    68.0550    11.4270     9.5750     8.8340    24.3720 
  253.3750   -11.3850     2.3910    70.1980    11.8830     9.9680     9.6960    24.3880 
  253.5000   -11.2910     2.3990    69.3890    12.2430    10.3230    10.9300    24.4020 
  253.6250   -11.1860     2.4080    67.6530    12.4020    10.5370    11.8200    24.3730 
  253.7500   -11.0810     2.4150    66.4110    12.3930    10.6050    12.3730    24.3240 
  253.8750   -10.9710     2.4200    64.4740    12.2700    10.5560    12.4930    24.3080 
  254.0000   -10.8760     2.4190    62.2440    12.1030    10.4420    11.6680    24.3250 
  254.1250   -10.7770     2.4110    61.5600    11.9530    10.3180     9.9230    24.3310 
  254.2500   -10.6960     2.4010    61.5460    11.8380    10.2150     8.7840    24.3300 
  254.3750   -10.6480     2.3920    61.2640    11.7620    10.1410     8.6200    24.3460 
  254.5000   -10.5960     2.3880    62.9360    11.7170    10.0940     8.7340    24.3750 
  254.6250   -10.5770     2.3890    66.9780    11.6920    10.0690     8.7880    24.4160 
  254.7500   -10.5470     2.3930    69.8110    11.6660    10.0510     8.9040    24.4330 
  254.8750   -10.5390     2.3940    68.0050    11.6290    10.0280     9.0890    24.4250 
  255.0000   -10.5410     2.3900    63.5050    11.5820     9.9940     9.2320    24.4160 
  255.1250   -10.5760     2.3780    61.4070    11.5370     9.9530     9.1240    24.3830 
  255.2500   -10.6200     2.3630    62.2210    11.5040     9.9170     8.8450    24.2270 
  255.3750   -10.6780     2.3520    62.9530    11.4880     9.8960     8.4760    23.9020 
  255.5000   -10.7730     2.3480    62.0610    11.4890     9.8920     8.3200    23.7090 
  255.6250   -10.8460     2.3520    61.6360    11.5140     9.9100     8.4450    23.8410 
  255.7500   -10.9410     2.3560    62.4180    11.5660     9.9500     8.4700    24.1310 
  255.8750   -11.0170     2.3540    61.7760    11.6530    10.0140     8.1710    24.2910 
  256.0000   -11.0780     2.3490    58.9860    11.7870    10.1100     7.8390    24.3160 
  256.1250   -11.0930     2.3520    56.6730    11.9800    10.2520     7.9650    24.3110 
  256.2500   -11.0750     2.3710    56.5740    12.2170    10.4320     9.0330    24.3230 
  256.3750   -11.0110     2.4030    56.2990    12.4760    10.6390    11.1510    24.3350 
  256.5000   -10.9190     2.4400    56.8220    12.7250    10.8510    13.0490    24.3450 
  256.6250   -10.8310     2.4690    59.9330    12.9150    11.0300    12.5130    24.3620 
  256.7500   -10.7300     2.4860    62.0870    13.0240    11.1470    11.2750    24.3680 
  256.8750   -10.6480     2.4890    62.0320    13.0440    11.1900    10.7150    24.3620 
  257.0000   -10.5900     2.4770    61.4000    12.9850    11.1630    10.8010    24.3480 
  257.1250   -10.5800     2.4470    60.7980    12.8560    11.0760    10.8490    24.3360 
  257.2500   -10.5990     2.4050    58.5880    12.6900    10.9580    10.8350    24.3210 
  257.3750   -10.6400     2.3630    56.6470    12.5080    10.8300    10.6690    24.2990 
  257.5000   -10.6870     2.3360    59.2990    12.3350    10.7100    10.2910    24.2950 
  257.6250   -10.7180     2.3360    64.4180    12.2130    10.6260     9.9490    24.3510 
  257.7500   -10.7450     2.3560    66.8080    12.1660    10.5950     9.5710    24.4420 
  257.8750   -10.7590     2.3830    65.2680    12.2030    10.6310     9.1650    24.5060 
  258.0000   -10.7600     2.4040    63.6790    12.3060    10.7290     8.6440    24.5240 
  258.1250   -10.7640     2.4090    66.7810    12.4400    10.8730     8.4110    24.4730 
  258.2500   -10.7510     2.4050    70.3020    12.5630    11.0240     9.0650    24.4330 
  258.3750   -10.7670     2.3960    70.4130    12.6500    11.1550    10.4030    24.3650 
  258.5000   -10.7850     2.3890    67.5500    12.6860    11.2500    11.0470    24.3050 
  258.6250   -10.8220     2.3860    65.6730    12.6640    11.2950    10.7080    24.2820 
  258.7500   -10.8700     2.3880    65.7770    12.6050    11.3030    10.3590    24.2850 
  258.8750   -10.9050     2.3920    67.0700    12.5210    11.2810    10.3320    24.3190 
  259.0000   -10.9250     2.3950    69.0350    12.4210    11.2350    10.3550    24.4050 
  259.1250   -10.9150     2.3970    70.0240    12.3000    11.1650     9.7760    24.4930 
  259.2500   -10.9130     2.4000    68.6830    12.1590    11.0810     9.0600    24.5550 
  259.3750   -10.8790     2.4090    65.8610    12.0130    10.9920     8.9030    24.5580 
  259.5000   -10.8280     2.4220    63.6690    11.8940    10.9170     9.2460    24.5590 
  259.6250   -10.7540     2.4400    62.9950    11.8480    10.8830     9.5370    24.5480 
  259.7500   -10.6600     2.4530    62.5330    11.8700    10.8940     9.7800    24.4610 
  259.8750   -10.5740     2.4560    62.3150    11.9420    10.9430     9.8070    24.3660 
  260.0000   -10.5160     2.4490    63.8200    12.0320    11.0140     9.7150    24.2990 
  260.1250   -10.4980     2.4370    65.6140    12.0990    11.0780     9.7840    24.2630 
  260.2500   -10.5010     2.4300    64.2130    12.1290    11.1140     9.8500    24.2460 
  260.3750   -10.5220     2.4310    62.1540    12.1250    11.1170     9.8210    24.2540 
  260.5000   -10.5770     2.4380    62.5950    12.1080    11.0980     9.8930    24.2830 
  260.6250   -10.6170     2.4450    64.3540    12.1390    11.1030    10.1870    24.3340 
  260.7500   -10.6810     2.4470    63.6820    12.2970    11.1980    10.3910    24.3800 
  260.8750   -10.7680     2.4470    60.4610    12.6640    11.4540    10.1810    24.3970 
  261.0000   -10.8760     2.4540    57.4470    13.2990    11.9280     9.6720    24.3820 
  261.1250   -10.9700     2.4730    57.1850    14.2510    12.6810    10.1850    24.3400 
  261.2500   -11.0440     2.4980    60.2250    15.3880    13.6320    12.9960    24.3050 
  261.3750   -11.1050     2.5180    64.0470    16.5510    14.6690    18.7570    24.2830 
  261.5000   -11.1570     2.5270    66.8960    17.5510    15.6330    25.2500    24.3150 
  261.6250   -11.2370     2.5200    69.3150    18.1850    16.3160    26.7030    24.3720 
  261.7500   -11.3010     2.5060    70.4020    18.4910    16.6940    26.0060    24.4080 
  261.8750   -11.3510     2.4920    68.4290    18.5680    16.8230    24.5180    24.3920 
  262.0000   -11.3530     2.4820    64.4970    18.5510    16.8220    22.5800    24.3480 
  262.1250   -11.3690     2.4750    60.4860    18.5920    16.8420    21.7390    24.2580 
  262.2500   -11.3530     2.4660    56.1500    18.7740    16.9890    20.4900    24.1230 
  262.3750   -11.3220     2.4530    52.7730    19.1660    17.3300    19.5380    24.0120 
  262.5000   -11.2550     2.4350    54.0260    19.8340    17.9240    18.9190    23.9900 
  262.6250   -11.1790     2.4070    60.7320    20.8750    18.8670    18.6680    23.9330 
  262.7500   -11.0990     2.3780    65.9420    22.1630    20.0860    19.2640    23.8220 
  262.8750   -11.0240     2.3540    66.4340    23.4590    21.4250    21.0220    23.7800 
  263.0000   -10.9560     2.3480    64.4140    24.3820    22.5620    24.5490    23.8770 
  263.1250   -10.8810     2.3670    64.4320    24.3640    22.9250    28.9690    24.0360 
  263.2500   -10.8490     2.4040    66.2370    23.3980    22.3620    29.7470    24.1090 
  263.3750   -10.8490     2.4450    66.4060    21.7470    21.0210    24.5430    24.0980 
  263.5000   -10.9010     2.4770    64.5520    19.8490    19.2880    16.5870    24.0680 
  263.6250   -10.9710     2.4910    61.9900    18.1600    17.6060    12.3150    24.1500 
