~V
VERS. 2.00: Ver 2.00
~W
STRT.M 57.0000:
STOP.M 274.0000:
STEP.M 0.1250:
NULL. -999.2500:
UWI. F10215:
~C
DEPT.M :
SP.MV :
DEN.GM/CC :
GR.API :
RML.OHMM :
RI. :
RXO.OHMM :
CALI.CM :
~A
# ...
  237.0000   -21.0980     2.3300    62.7430    25.9760    23.0440    23.0540    23.7410 
  237.1250   -21.0450     2.3150    65.2450    25.2360    22.1090    24.8550    23.7300 
  237.2500   -20.9830     2.2990    66.0760    25.1160    21.7820    24.7280    23.7610 
  237.3750   -20.9250     2.2930    64.4020    25.1700    21.7250    25.5730    23.7700 
  237.5000   -20.8680     2.3070    63.4410    25.0880    21.6730    25.3020    23.7630 
  237.6250   -20.8340     2.3340    66.3050    24.8260    21.5290    23.5940    23.7510 
  237.7500   -20.8170     2.3530    68.6280    24.6550    21.4260    22.6190    23.7280 
  237.8750   -20.8170     2.3490    67.0060    24.7750    21.5110    23.7570    23.7290 
  238.0000   -20.8260     2.3250    63.9450    25.1810    21.8130    24.2080    23.7180 
  238.1250   -20.8330     2.2950    64.5920    25.5880    22.1620    24.9460    23.6780 
  238.2500   -20.8580     2.2730    65.1760    25.5980    22.2430    24.4470    23.5960 
  238.3750   -20.8780     2.2640    62.9040    25.0000    21.8490    23.7990    23.5840 
  238.5000   -20.9070     2.2650    60.2890    23.8690    20.9830    23.5740    23.5970 
  238.6250   -20.9120     2.2700    60.0680    22.5580    19.8900    21.8330    23.6050 
  238.7500   -20.9260     2.2720    61.3130    21.5150    18.9520    19.6020    23.5700 
  238.8750   -20.9270     2.2710    61.9370    20.9570    18.3760    17.7570    23.4950 
  239.0000   -20.9450     2.2680    61.5520    20.8980    18.2220    17.6420    23.4120 
  239.1250   -20.9780     2.2640    61.6990    21.1870    18.4320    19.6100    23.4330 
  239.2500   -21.0130     2.2610    61.5890    21.4580    18.7180    21.3990    23.5570 
  239.3750   -21.0490     2.2590    60.5440    21.4660    18.8520    22.2970    23.6930 
  239.5000   -21.0750     2.2550    58.4420    21.1030    18.6960    22.1310    23.8440 
  239.6250   -21.1210     2.2560    55.7170    20.4080    18.2360    20.7500    23.8350 
  239.7500   -21.1640     2.2720    55.4310    19.6460    17.6800    19.2220    23.7740 
  239.8750   -21.2120     2.3040    58.3820    18.9800    17.1760    19.1030    23.7680 
  240.0000   -21.2410     2.3380    62.4440    18.4400    16.7770    20.1350    23.8010 
  240.1250   -21.2720     2.3480    64.5170    17.8940    16.3940    20.8650    23.8320 
  240.2500   -21.3030     2.3320    65.6630    17.1790    15.8720    19.8840    23.7810 
  240.3750   -21.3660     2.3040    66.5670    16.2710    15.1570    19.2740    23.7520 
  240.5000   -21.4560     2.2840    65.9020    15.3140    14.3420    18.7080    23.7190 
  240.6250   -21.5590     2.2850    64.3600    14.6460    13.6780    16.8010    23.8540 
  240.7500   -21.6740     2.2930    65.0140    14.4660    13.3580    13.7990    24.0400 
  240.8750   -21.8070     2.2940    67.6450    14.7900    13.4330    12.7150    24.1710 
  241.0000   -21.9580     2.2850    69.9230    15.3900    13.7720    15.0140    24.1870 
  241.1250   -22.1260     2.2750    70.5670    15.7730    14.0100    18.2540    24.0840 
  241.2500   -22.3160     2.2730    68.9940    15.5690    13.8120    19.9190    23.9640 
  241.3750   -22.4960     2.2780    67.1780    14.7680    13.1220    18.1730    23.9080 
  241.5000   -22.6920     2.2860    68.4720    13.7630    12.2060    14.4710    24.0170 
  241.6250   -22.8880     2.2920    73.1110    13.3020    11.5840    11.6310    24.0660 
  241.7500   -23.1020     2.2960    75.1650    13.8340    11.6060    11.5980    24.0820 
  241.8750   -23.3250     2.3060    74.1140    15.5830    12.4780    13.9070    24.0910 
  242.0000   -23.5480     2.3230    73.3700    18.5920    14.3180    17.5320    24.1130 
  242.1250   -23.7600     2.3450    72.8110    22.8360    17.2780    21.0590    24.1190 
  242.2500   -23.9610     2.3630    71.0800    27.6240    20.9260    26.5890    24.0890 
  242.3750   -24.1470     2.3740    69.5070    32.3180    24.7760    31.2030    24.0540 
  242.5000   -24.3000     2.3770    68.8730    36.3790    28.3120    32.2220    24.0550 
  242.6250   -24.4210     2.3770    68.2870    39.4270    31.0990    34.9730    24.0520 
  242.7500   -24.4810     2.3780    68.7410    41.6810    33.2130    38.8680    24.0520 
  242.8750   -24.4900     2.3790    70.3030    43.2680    34.7250    41.5430    24.0660 
  243.0000   -24.4420     2.3770    70.0160    44.2260    35.6710    42.1790    24.0950 
  243.1250   -24.3280     2.3690    67.3290    44.3010    35.8730    42.7420    24.0830 
  243.2500   -24.1620     2.3590    67.4750    43.3970    35.2940    41.0250    24.0480 
  243.3750   -23.9590     2.3510    69.8190    41.3710    33.8240    36.6490    23.9910 
  243.5000   -23.7290     2.3460    70.3830    38.2550    31.4680    35.0360    23.9960 
  243.6250   -23.4760     2.3360    69.4960    34.2750    28.3650    32.1660    23.9100 
  243.7500   -23.2420     2.3190    70.6360    30.1070    25.0460    28.0140    23.8220 
  243.8750   -23.0160     2.2940    70.7980    26.2630    21.9110    22.6350    23.9080 
  244.0000   -22.8270     2.2650    68.3790    23.1940    19.3080    20.0560    24.0780 
  244.1250   -22.6870     2.2390    65.7660    21.4340    17.6410    19.3940    24.1510 
  244.2500   -22.5930     2.2290    66.8890    20.9240    16.8910    19.2110    24.1300 
  244.3750   -22.5220     2.2480    70.1210    21.5780    17.0400    19.0190    24.1340 
  244.5000   -22.4930     2.3020    73.4910    23.1450    17.9770    20.2280    24.1550 
  244.6250   -22.4780     2.3720    74.5420    25.1410    19.4820    28.1810    24.1320 
  244.7500   -22.4630     2.4210    72.2850    26.7790    20.9630    37.1310    24.0330 
  244.8750   -22.4580     2.4290    69.0590    27.5470    21.9460    39.2550    23.9560 
  245.0000   -22.4460     2.4050    67.1450    27.3910    22.2240    30.4180    23.9010 
  245.1250   -22.4250     2.3880    67.4260    26.7140    21.9470    26.3100    23.8620 
  245.2500   -22.3820     2.4040    68.5680    26.0480    21.5360    23.8930    23.8780 
  245.3750   -22.3540     2.4490    68.7420    25.3250    21.0090    24.4250    23.9240 
  245.5000   -22.2950     2.4920    65.8190    24.0720    20.0560    26.8070    24.0290 
  245.6250   -22.2580     2.4930    59.6460    21.5940    18.1320    28.7620    24.0080 
  245.7500   -22.2190     2.4570    54.6270    18.1780    15.4450    22.9980    23.9230 
  245.8750   -22.1940     2.4040    52.7560    14.5330    12.5370    13.0150    23.8160 
  246.0000   -22.1800     2.3590    53.2560    11.4200     9.9870     8.6660    23.7650 
  246.1250   -22.1710     2.3420    54.3720     9.3900     8.2130     7.7250    23.7210 
  246.2500   -22.1780     2.3470    56.4280     8.2370     7.0980     7.4140    23.6700 
  246.3750   -22.1800     2.3630    60.0890     7.7590     6.5260     7.2740    23.6290 
  246.5000   -22.2120     2.3810    63.4240     7.7500     6.3650     7.3660    23.5780 
  246.6250   -22.2400     2.3880    63.2140     8.0390     6.5100     7.7980    23.6130 
  246.7500   -22.2830     2.3850    61.6660     8.4180     6.7880     8.7440    23.6540 
  246.8750   -22.3170     2.3770    60.6180     8.8060     7.1170     9.6420    23.6990 
  247.0000   -22.3600     2.3720    59.6450     9.1650     7.4450     9.7370    23.7100 
  247.1250   -22.4050     2.3760    58.5060     9.4510     7.7200    10.4900    23.6440 
  247.2500   -22.4430     2.3870    59.5590     9.6400     7.9070    12.1330    23.5030 
  247.3750   -22.4950     2.3980    62.8490     9.7090     7.9840    13.3210    23.3970 
  247.5000   -22.5260     2.4080    65.2480     9.6650     7.9460    14.0140    23.3730 
  247.6250   -22.5650     2.4140    64.4780     9.5480     7.8100    13.8580    23.4230 
  247.7500   -22.5940     2.4210    61.5960     9.4380     7.6430    13.6630    23.5560 
  247.8750   -22.6280     2.4310    57.6260     9.3870     7.4930    13.5000    23.7170 
  248.0000   -22.6440     2.4400    55.7380     9.4140     7.3920    11.8320    23.8420 
  248.1250   -22.6610     2.4460    58.4040     9.5000     7.3480    11.2700    23.9450 
