~V
VERS. 2.00: Ver 2.00
~W
STRT.M 50.0000:
STOP.M 283.0000:
STEP.M 0.1250:
NULL. -999.2500:
UWI. F10256:
~C
DEPT.M :
DEN.GM/CC :
GR.API :
RML.OHMM :
RI. :
RXO.OHMM :
CALI.CM :
SP.MV :
~A
# ...
  128.7500     2.2200    68.3140     9.4300     8.4450     9.6140    24.6920    -9.5530 
  128.8750     2.2290    67.1180     9.3230     8.3470     9.7400    24.7900    -9.6950 
  129.0000     2.2370    61.8630     9.3220     8.3240     9.6440    24.8630    -9.8060 
  129.1250     2.2370    56.5170     9.5360     8.4700     9.0050    24.9230    -9.8940 
  129.2500     2.2320    56.5500     9.9310     8.7780     8.8580    24.9690    -9.9880 
  129.3750     2.2250    57.8060    10.4350     9.2100     9.5210    24.9820   -10.0750 
  129.5000     2.2180    56.1510    10.9360     9.6860    10.5670    24.9690   -10.1450 
  129.6250     2.2150    53.7650    11.2920    10.0890    11.2690    24.9550   -10.1950 
  129.7500     2.2120    54.0880    11.4670    10.3540    11.5060    24.9030   -10.2650 
  129.8750     2.2080    55.8940    11.4890    10.4760    11.6260    24.8260   -10.3590 
  130.0000     2.2000    56.8650    11.4410    10.5010    11.5990    24.7970   -10.4500 
  130.1250     2.1890    56.8250    11.4340    10.5150    11.4410    24.8660   -10.5020 
  130.2500     2.1780    55.8690    11.5290    10.5910    11.3980    24.9230   -10.5490 
  130.3750     2.1690    54.0630    11.7310    10.7550    11.4830    24.9780   -10.6050 
  130.5000     2.1620    51.0970    12.0070    10.9970    11.5100    25.0470   -10.6870 
  130.6250     2.1600    49.0300    12.2870    11.2770    11.4860    25.0670   -10.7600 
  130.7500     2.1590    52.0510    12.4860    11.5180    11.6120    25.0760   -10.7960 
  130.8750     2.1600    58.1960    12.5460    11.6600    11.8300    25.1160   -10.8240 
  131.0000     2.1600    61.6980    12.4440    11.6660    12.0630    25.1410   -10.8690 
  131.1250     2.1610    61.2180    12.1960    11.5250    12.3330    25.0910   -10.9390 
  131.2500     2.1610    60.7480    11.9010    11.3090    12.3980    25.0430   -10.9990 
  131.3750     2.1620    59.9830    11.6350    11.0850    11.9640    25.0120   -11.0220 
  131.5000     2.1630    57.1530    11.4510    10.9070    11.4830    24.9430   -11.0220 
  131.6250     2.1640    53.9190    11.3780    10.8170    11.2880    24.8910   -11.0470 
  131.7500     2.1630    52.6950    11.3740    10.7970    11.3050    24.9060   -11.0510 
  131.8750     2.1620    53.2530    11.4020    10.8200    11.4540    24.9340   -11.0390 
  132.0000     2.1620    54.8080    11.4380    10.8630    11.6670    24.9240   -11.0080 
  132.1250     2.1650    56.0270    11.4900    10.9240    11.8240    24.9380   -10.9800 
  132.2500     2.1700    56.1540    11.5980    11.0280    11.9050    24.9560   -10.9590 
  132.3750     2.1770    56.2140    11.8010    11.2080    11.9590    24.9290   -10.9430 
  132.5000     2.1850    56.6630    12.1060    11.4760    12.1090    24.9240   -10.9050 
  132.6250     2.1950    55.8620    12.4520    11.7980    12.5020    24.9800   -10.8590 
  132.7500     2.2060    55.6210    12.7170    12.0690    13.1160    25.0330   -10.8680 
  132.8750     2.2140    58.1950    12.8030    12.2010    14.0360    25.0230   -10.9210 
  133.0000     2.2160    61.2060    12.6690    12.1420    14.7340    24.9920   -10.9890 
  133.1250     2.2100    59.6030    12.3400    11.8880    14.2920    24.9560   -11.0480 
  133.2500     2.2000    54.5990    11.9690    11.5670    12.5330    24.9060   -11.0870 
  133.3750     2.1910    49.8110    11.6690    11.2830    11.6430    24.8840   -11.1400 
  133.5000     2.1850    47.5880    11.5030    11.1070    11.5640    24.9100   -11.2190 
  133.6250     2.1820    48.5770    11.4820    11.0730    11.7460    24.9090   -11.2750 
  133.7500     2.1780    51.8270    11.5190    11.1120    11.7900    24.8860   -11.2890 
  133.8750     2.1720    54.4900    11.5390    11.1550    11.7160    24.8820   -11.2550 
  134.0000     2.1670    53.9760    11.4840    11.1400    11.6230    24.8470   -11.2010 
  134.1250     2.1670    52.2640    11.3190    11.0240    11.6360    24.7630   -11.1400 
  134.2500     2.1740    54.1870    11.0940    10.8410    11.5970    24.6840   -11.0680 
  134.3750     2.1860    60.8620    10.8690    10.6430    11.4080    24.5910   -10.9690 
  134.5000     2.1980    67.2170    10.7020    10.4830    11.1070    24.4350   -10.8730 
  134.6250     2.2060    66.4920    10.6440    10.4080    10.9360    24.3140   -10.8140 
  134.7500     2.2100    61.9710    10.6510    10.3920    10.9710    24.3130   -10.7730 
  134.8750     2.2130    58.1850    10.6550    10.3860    11.3400    24.3540   -10.7450 
  135.0000     2.2220    58.1600    10.5920    10.3350    11.5810    24.4240   -10.7180 
  135.1250     2.2370    61.4150    10.4280    10.2020    11.5000    24.5740   -10.7050 
  135.2500     2.2520    63.6470    10.2270    10.0270    11.0910    24.7110   -10.7400 
  135.3750     2.2610    61.9450    10.0680     9.8700    10.3620    24.7800   -10.7950 
  135.5000     2.2600    57.3570    10.0160     9.7870     9.6700    24.8610   -10.8140 
  135.6250     2.2510    56.2620    10.0910     9.8100     9.7120    24.9580   -10.8240 
  135.7500     2.2400    59.6730    10.1960     9.8750    10.1770    25.0110   -10.8260 
  135.8750     2.2310    64.0860    10.2330     9.9040    10.3080    25.0460   -10.8260 
  136.0000     2.2280    65.9230    10.1250     9.8250    10.2770    25.0900   -10.8030 
  136.1250     2.2330    66.0690     9.8390     9.5910    10.3380    25.0670   -10.7380 
  136.2500     2.2420    66.7240     9.4750     9.2740    10.4630    25.0110   -10.6740 
  136.3750     2.2530    66.3450     9.1370     8.9580    10.4940    24.9430   -10.6410 
  136.5000     2.2600    64.3360     8.9190     8.7300    10.0560    24.8320   -10.6170 
  136.6250     2.2590    63.6830     8.9060     8.6850     9.6470    24.7620   -10.5830 
  136.7500     2.2500    66.3650     9.0690     8.8210     9.4240    24.7900   -10.5720 
  136.8750     2.2360    70.3350     9.3640     9.1180     9.3310    24.8210   -10.5940 
  137.0000     2.2190    71.0570     9.7190     9.5230     9.5670    24.8070   -10.6800 
  137.1250     2.2050    65.3610    10.0260     9.9430    10.5890    24.8160   -10.7900 
  137.2500     2.1970    57.6660    10.2030    10.2720    11.5000    24.8270   -10.8370 
  137.3750     2.1940    54.0160    10.2140    10.4470    11.8130    24.8130   -10.8350 
  137.5000     2.1960    55.2270    10.0790    10.4520    11.7110    24.8340   -10.8270 
  137.6250     2.1980    57.2100     9.8520    10.3050    11.3660    24.8750   -10.7930 
  137.7500     2.1970    58.9550     9.6010    10.0730    10.7940    24.8360   -10.7090 
  137.8750     2.1950    60.3530     9.3200     9.7560    10.0960    24.7480   -10.5590 
  138.0000     2.1970    61.0240     8.9390     9.3030     9.5060    24.7140   -10.3640 
  138.1250     2.2120    61.9500     8.3340     8.6090     9.3170    24.7590   -10.1440 
  138.2500     2.2420    65.8710     7.5140     7.7000     8.9940    24.8260    -9.9050 
  138.3750     2.2810    71.1920     6.5660     6.6700     8.1510    24.9370    -9.6580 
  138.5000     2.3170    73.8860     5.6580     5.6800     6.9090    25.0230    -9.4390 
  138.6250     2.3330    75.1560     5.0510     4.9580     5.8770    25.0400    -9.2960 
  138.7500     2.3290    80.1060     4.8710     4.6020     5.3210    25.0550    -9.2390 
  138.8750     2.3160    86.1520     5.2160     4.6890     5.2660    25.0390    -9.2650 
  139.0000     2.3070    85.6500     6.1460     5.2830     5.8840    24.9290    -9.3250 
  139.1250     2.3180    78.4090     7.7560     6.5280     7.2710    24.7690    -9.4530 
  139.2500     2.3410    71.6990     9.8030     8.2980     9.3370    24.6090    -9.6740 
  139.3750     2.3600    65.6920    11.9960    10.4150    11.8190    24.4710    -9.9590 
  139.5000     2.3560    57.8490    13.9350    12.5480    14.5340    24.3810   -10.2570 
  139.6250     2.3180    51.2020    15.0930    14.1470    16.7810    24.3720   -10.5250 
  139.7500     2.2710    48.6390    15.4160    14.9470    18.8460    24.3740   -10.7650 
  139.8750     2.2390    48.4210    15.0630    14.9560    18.0720    24.3880   -11.0050 
