~V
VERS. 2.00: Ver 2.00
~W
STRT.M 58.0000:
STOP.M 277.0000:
STEP.M 0.1250:
NULL. -999.2500:
UWI. F10219:
~C
DEPT.M :
SP.MV :
DEN.GM/CC :
GR.API :
RML.OHMM :
RI. :
RXO.OHMM :
CALI.CM :
~A
# ...
  249.2500    -7.0200     2.3670    55.4290     8.1590     7.0610     5.2840    25.0530 
  249.3750    -6.7450     2.3770    53.9640     8.2900     7.2200     5.3460    25.0370 
  249.5000    -6.5390     2.3850    52.7400     8.3900     7.3560     5.4390    25.0440 
  249.6250    -6.4100     2.3920    52.6470     8.4340     7.4390     5.5750    25.0680 
  249.7500    -6.3470     2.3940    53.2690     8.4030     7.4530     5.7040    25.0940 
  249.8750    -6.3600     2.3940    54.0250     8.3070     7.3980     5.7770    25.1110 
  250.0000    -6.4530     2.3920    54.2120     8.1850     7.2930     5.8220    25.1130 
  250.1250    -6.5840     2.3900    53.8880     8.0540     7.1650     5.8860    25.0910 
  250.2500    -6.7410     2.3880    53.6920     7.9340     7.0510     5.9830    25.0420 
  250.3750    -6.9010     2.3870    54.3720     7.8360     6.9880     6.1150    24.9990 
  250.5000    -7.0580     2.3870    56.1460     7.7730     6.9940     6.2950    25.0080 
  250.6250    -7.2470     2.3890    58.4850     7.7670     7.0690     6.5570    25.0670 
  250.7500    -7.5000     2.3930    60.6620     7.8610     7.1980     6.8820    25.1120 
  250.8750    -7.7520     2.3980    62.7980     8.0480     7.3530     7.2080    25.1150 
  251.0000    -7.9600     2.4010    64.4260     8.2430     7.5010     7.4940    25.1020 
  251.1250    -8.1520     2.4010    63.6790     8.3900     7.6220     7.7130    25.0840 
  251.2500    -8.3320     2.4000    60.5490     8.4850     7.6980     7.9770    25.1130 
  251.3750    -8.5030     2.4020    58.1440     8.5370     7.7290     8.5250    25.2010 
  251.5000    -8.6620     2.4050    58.4100     8.5630     7.7260     9.4730    25.2660 
  251.6250    -8.7780     2.4070    59.6930     8.5800     7.7050    10.7110    25.2530 
  251.7500    -8.8240     2.4100    60.9950     8.6120     7.6880    11.8390    25.1910 
  251.8750    -8.8210     2.4140    63.1090     8.6900     7.7020    12.3620    25.1690 
  252.0000    -8.8110     2.4210    65.2970     8.8320     7.7630    12.3780    25.2330 
  252.1250    -8.7780     2.4270    65.5010     9.0430     7.8800    12.4130    25.3120 
  252.2500    -8.7090     2.4290    63.6080     9.3090     8.0530    12.7990    25.3410 
  252.3750    -8.5920     2.4260    62.2870     9.5990     8.2680    13.3230    25.3490 
  252.5000    -8.4030     2.4200    63.0360     9.8760     8.4930    14.0500    25.3290 
  252.6250    -8.1440     2.4110    64.2830    10.1220     8.7080    15.4190    25.2190 
  252.7500    -7.8550     2.4020    64.3570    10.3410     8.9030    17.3990    24.9850 
  252.8750    -7.5790     2.4040    63.4590    10.5560     9.0880    19.6010    24.7800 
  253.0000    -7.3440     2.4190    62.7450    10.7940     9.2850    20.3870    24.7790 
  253.1250    -7.1640     2.4420    62.8150    11.0600     9.5080    18.6710    24.9080 
  253.2500    -7.0180     2.4620    64.3260    11.3300     9.7530    16.8890    25.0170 
  253.3750    -6.9030     2.4740    67.2830    11.5600     9.9900    16.7090    25.0960 
  253.5000    -6.8540     2.4840    69.3010    11.7190    10.1850    16.6010    25.1840 
  253.6250    -6.8610     2.4950    68.2720    11.8020    10.3160    16.0050    25.2230 
  253.7500    -6.8970     2.5050    65.7530    11.8380    10.3880    14.9100    25.2770 
  253.8750    -6.9500     2.5140    64.6760    11.8780    10.4300    13.4070    25.3680 
  254.0000    -7.0010     2.5240    65.2110    11.9660    10.4860    11.5440    25.4010 
  254.1250    -7.0500     2.5280    65.5910    12.1100    10.5800     9.7680    25.3260 
  254.2500    -7.1290     2.5160    65.1380    12.2810    10.7070     8.7050    25.1370 
  254.3750    -7.2530     2.4860    64.4860    12.4140    10.8310     8.6410    24.9840 
  254.5000    -7.4040     2.4550    64.4290    12.4450    10.9000     9.1770    25.0130 
  254.6250    -7.5800     2.4350    65.3310    12.3410    10.8750    10.1390    25.1040 
  254.7500    -7.7750     2.4300    66.8100    12.1150    10.7420    11.3350    25.1440 
  254.8750    -7.9740     2.4380    68.1640    11.8380    10.5320    12.3880    25.1440 
  255.0000    -8.1580     2.4460    68.4400    11.6110    10.3180    12.7470    25.1340 
  255.1250    -8.3060     2.4490    66.6650    11.5060    10.1680    12.1260    25.1240 
  255.2500    -8.3850     2.4470    64.0890    11.5670    10.1400    10.9560    25.1370 
  255.3750    -8.3500     2.4460    63.3760    11.7830    10.2560     9.9530    25.1880 
  255.5000    -8.2110     2.4480    65.1510    12.0890    10.4820     9.2810    25.2490 
  255.6250    -8.0070     2.4520    67.6990    12.4340    10.7770     8.8120    25.2850 
  255.7500    -7.7560     2.4570    68.9360    12.7730    11.0920     8.6630    25.2860 
  255.8750    -7.4600     2.4660    68.5440    13.0770    11.3870     8.7610    25.2930 
  256.0000    -7.1280     2.4780    67.3980    13.3400    11.6400     8.9350    25.3490 
  256.1250    -6.8020     2.4880    66.5120    13.5590    11.8450     9.1740    25.4160 
  256.2500    -6.5560     2.4930    66.0500    13.7250    11.9990     9.5280    25.4860 
  256.3750    -6.4280     2.4970    65.7170    13.8250    12.1000     9.9490    25.5580 
  256.5000    -6.3680     2.5030    65.8010    13.8550    12.1500    10.2530    25.6220 
  256.6250    -6.3530     2.5080    66.2090    13.8100    12.1440    10.2840    25.5910 
  256.7500    -6.3880     2.5070    65.8520    13.6870    12.0690    10.1170    25.4500 
  256.8750    -6.4620     2.5000    64.6090    13.4890    11.9200     9.9480    25.3010 
  257.0000    -6.5780     2.4950    63.6440    13.2370    11.7090     9.9170    25.2740 
  257.1250    -6.7320     2.4940    62.9800    12.9510    11.4510    10.0290    25.4030 
  257.2500    -6.9050     2.4990    62.7270    12.6650    11.1800    10.0330    25.5180 
  257.3750    -7.0940     2.5040    63.4720    12.4200    10.9350     9.7390    25.5310 
  257.5000    -7.3300     2.5060    64.7970    12.2360    10.7420     9.2220    25.4360 
  257.6250    -7.6090     2.5040    65.5840    12.1080    10.6030     8.5880    25.2310 
  257.7500    -7.9070     2.5000    65.6200    11.9940    10.4920     8.0410    24.9800 
  257.8750    -8.1990     2.4960    65.6550    11.8360    10.3600     7.7330    24.8610 
  258.0000    -8.4750     2.4900    65.4090    11.5960    10.1690     7.6360    24.9420 
  258.1250    -8.7240     2.4780    64.2120    11.2750     9.9080     7.7370    25.1230 
  258.2500    -8.8910     2.4660    62.8340    10.9280     9.6080     8.1770    25.2630 
  258.3750    -8.9270     2.4580    62.3650    10.6400     9.3350     9.2150    25.2990 
  258.5000    -8.8280     2.4580    62.5380    10.4810     9.1520    10.9560    25.2700 
  258.6250    -8.6000     2.4660    62.6670    10.4710     9.0890    13.2350    25.1960 
  258.7500    -8.2880     2.4740    62.5100    10.5800     9.1430    15.4640    25.1350 
  258.8750    -7.9460     2.4820    62.3820    10.7270     9.2630    16.5260    25.1080 
  259.0000    -7.5700     2.4910    62.2920    10.8200     9.3720    15.9830    25.1260 
  259.1250    -7.1500     2.4990    62.3310    10.8030     9.4120    14.4960    25.1880 
  259.2500    -6.7530     2.4960    62.6170    10.6530     9.3460    12.2770    25.2460 
  259.3750    -6.4380     2.4810    62.2600    10.3960     9.1760     9.5860    25.2420 
  259.5000    -6.2000     2.4670    61.2340    10.0940     8.9420     7.7250    25.2150 
  259.6250    -6.0560     2.4610    61.0440     9.7900     8.6770     6.8390    25.1860 
  259.7500    -6.0260     2.4580    62.1220     9.5200     8.4160     6.6760    25.1320 
  259.8750    -6.0990     2.4480    62.7160     9.3030     8.1800     6.8160    25.0810 
  260.0000    -6.2120     2.4300    61.6570     9.1380     7.9800     6.9050    25.0240 
  260.1250    -6.3590     2.4080    60.2810     9.0210     7.8250     6.8430    24.9870 
  260.2500    -6.5220     2.3890    59.4450     8.9480     7.7200     6.7430    25.0110 
  260.3750    -6.6910     2.3790    58.2210     8.9120     7.6660     6.6760    25.0310 
