~V
VERS. 2.00: Ver 2.00
~W
STRT.M 47.0000:
STOP.M 270.0000:
STEP.M 0.1250:
NULL. -999.2500:
UWI. F10221:
~C
DEPT.M :
SP.MV :
GR.API :
RML.OHMM :
RI. :
RXO.OHMM :
CALI.CM :
DEN.GM/CC :
~A
# ...
  249.5000    -7.8250    66.0500    27.5550    24.6480    27.0560    24.9460     2.2490 
  249.6250    -7.6810    63.3390    27.3620    24.4640    26.2250    24.9760     2.2480 
  249.7500    -7.5520    61.6590    27.0540    24.0860    25.2140    25.0520     2.2430 
  249.8750    -7.4160    62.0390    26.7100    23.6030    25.0150    25.1640     2.2400 
  250.0000    -7.2830    60.8640    26.3450    23.0910    25.3990    25.1690     2.2440 
  250.1250    -7.1780    58.3300    25.9460    22.6050    25.1380    25.1010     2.2510 
  250.2500    -7.0820    58.9320    25.5380    22.1870    24.4620    25.0500     2.2570 
  250.3750    -6.9700    61.5070    25.2530    21.9150    24.3710    25.0500     2.2640 
  250.5000    -6.8650    63.0270    25.4900    22.0330    24.9700    25.0820     2.2790 
  250.6250    -6.7660    64.6020    26.6240    22.7850    26.1890    25.1090     2.3040 
  250.7500    -6.6940    66.1340    28.9720    24.4460    27.3770    25.1290     2.3410 
  250.8750    -6.6470    64.0560    32.5450    27.1620    29.4780    25.1080     2.3970 
  251.0000    -6.5730    58.0960    36.7500    30.7550    38.1560    25.0130     2.4720 
  251.1250    -6.4760    54.0120    39.9380    33.9580    59.3660    24.8850     2.5480 
  251.2500    -6.3640    52.1720    40.4140    35.1340    75.7460    24.7210     2.6020 
  251.3750    -6.2810    49.4940    37.3730    33.1900    69.7370    24.5840     2.6130 
  251.5000    -6.2260    48.8990    31.5850    28.5370    56.1300    24.5490     2.5750 
  251.6250    -6.1400    53.2180    25.5300    23.4150    51.0560    24.6450     2.5220 
  251.7500    -6.0780    59.9370    20.3890    18.8920    37.8810    24.7310     2.4790 
  251.8750    -6.0420    63.6300    16.4960    15.2930    20.9500    24.7890     2.4530 
  252.0000    -6.0150    62.2000    13.8180    12.6640    13.3520    24.8220     2.4340 
  252.1250    -5.9910    58.4690    11.8290    10.6680    10.1050    24.8450     2.4150 
  252.2500    -6.0440    54.7280    10.3390     9.1870     7.7000    24.8340     2.4030 
  252.3750    -6.1030    53.5830     9.2820     8.1610     6.2670    24.8140     2.4010 
  252.5000    -6.1400    58.2490     8.7210     7.6120     5.9530    24.7480     2.4030 
  252.6250    -6.2500    64.6310     8.5560     7.4120     6.3200    24.6070     2.4040 
  252.7500    -6.3690    67.9750     8.7060     7.4790     7.0760    24.4780     2.4060 
  252.8750    -6.4510    68.4300     9.0450     7.7090     8.2520    24.4300     2.4090 
  253.0000    -6.5670    70.2150     9.4220     7.9900     9.0250    24.4500     2.4110 
  253.1250    -6.7140    72.3750     9.7160     8.2270     8.8810    24.4750     2.4100 
  253.2500    -6.8150    71.1590     9.8920     8.3910     8.1560    24.4540     2.4050 
  253.3750    -6.8790    68.2690     9.9580     8.4830     7.8660    24.3730     2.3990 
  253.5000    -6.9380    69.3730     9.9510     8.5170     8.6150    24.4100     2.3980 
  253.6250    -6.9370    71.8000     9.9440     8.5260     9.4980    24.4170     2.4030 
  253.7500    -6.8890    71.4620     9.9740     8.5210    10.1420    24.4510     2.4090 
  253.8750    -6.8360    66.3910    10.0480     8.4970    10.6460    24.5870     2.4150 
  254.0000    -6.7610    61.7950    10.1390     8.4370    10.8510    24.6770     2.4180 
  254.1250    -6.6620    61.6610    10.2100     8.3470    11.0600    24.7200     2.4210 
  254.2500    -6.5720    63.7330    10.2420     8.2430    11.2800    24.7720     2.4180 
  254.3750    -6.4880    66.5400    10.2380     8.1450    10.7210    24.7970     2.4100 
  254.5000    -6.3860    71.1460    10.2100     8.0690    10.5760    24.7020     2.4020 
  254.6250    -6.2810    74.9550    10.1740     8.0060    10.3360    24.5540     2.4010 
  254.7500    -6.1980    74.7130    10.1240     7.9420     9.9620    24.4700     2.4040 
  254.8750    -6.1280    69.5750    10.0600     7.8670     9.6260    24.4320     2.4070 
  255.0000    -6.0680    62.9310     9.9980     7.7830     9.7430    24.4040     2.4040 
  255.1250    -6.0030    59.6370     9.9650     7.7080     9.8520    24.3590     2.4010 
  255.2500    -5.9140    61.1680     9.9790     7.6650     9.7710    24.3070     2.3990 
  255.3750    -5.8470    65.9180    10.0460     7.6710     9.2910    24.3000     2.3980 
  255.5000    -5.8210    67.5280    10.1630     7.7370     9.1420    24.3380     2.3970 
  255.6250    -5.8070    65.9000    10.3010     7.8340     9.2750    24.3650     2.3980 
  255.7500    -5.7850    64.5230    10.4340     7.9370     9.3660    24.3750     2.4020 
  255.8750    -5.7740    64.3040    10.5550     8.0330     9.3030    24.3850     2.4090 
  256.0000    -5.7370    64.1590    10.6750     8.1600     9.1320    24.4650     2.4190 
  256.1250    -5.6920    62.9600    10.8200     8.1550     8.6510    24.5650     2.4320 
  256.2500    -5.6870    61.6330    11.0030     8.1280     8.2160    24.6400     2.4450 
  256.3750    -5.6640    61.7670    11.2060     8.1600     8.5700    24.6920     2.4590 
  256.5000    -5.5830    63.1580    11.3810     8.2050     9.8170    24.7070     2.4720 
  256.6250    -5.5300    64.9480    11.4890     8.2390    11.9800    24.6950     2.4800 
  256.7500    -5.4900    65.6840    11.5090     8.2840    14.2850    24.6630     2.4810 
  256.8750    -5.4440    64.8190    11.4470     8.3270    15.2450    24.6430     2.4780 
  257.0000    -5.4370    62.6610    11.3290     8.3400    13.4030    24.6340     2.4730 
  257.1250    -5.4500    62.6970    11.2120     8.3370    10.4390    24.6270     2.4700 
  257.2500    -5.4410    64.9070    11.1280     8.3340     8.8540    24.6230     2.4670 
  257.3750    -5.4630    66.1930    11.0870     8.3520     8.3970    24.6300     2.4630 
  257.5000    -5.5360    63.0430    11.0860     8.5260     8.4510    24.6310     2.4600 
  257.6250    -5.5970    59.3690    11.0970     8.5480     8.3600    24.6300     2.4600 
  257.7500    -5.6900    59.6100    11.1100     8.5650     8.2230    24.6340     2.4630 
  257.8750    -5.7740    63.4890    11.1260     8.5730     8.3390    24.6400     2.4680 
  258.0000    -5.8430    66.0590    11.1440     8.5770     8.7920    24.6410     2.4720 
  258.1250    -5.9020    64.2850    11.1610     8.5880     9.2120    24.6530     2.4710 
  258.2500    -5.9480    61.1090    11.1760     8.6070     9.2580    24.6860     2.4620 
  258.3750    -5.9880    60.6090    11.1930     8.6310     9.0620    24.7110     2.4470 
  258.5000    -6.0170    63.0280    11.2230     8.6570     8.8400    24.7160     2.4360 
  258.6250    -6.0300    65.0140    11.2670     8.6790     8.6620    24.7070     2.4310 
  258.7500    -6.0070    65.1460    11.3070     8.6920     8.5250    24.6950     2.4360 
  258.8750    -6.0120    64.6040    11.3200     8.6890     8.4070    24.7040     2.4500 
  259.0000    -6.0520    63.1670    11.3140     8.6780     8.3700    24.7110     2.4670 
  259.1250    -6.0730    61.9150    11.3480     8.6910     8.7480    24.7140     2.4810 
  259.2500    -6.1170    61.9150    11.4820     8.7610     9.2040    24.6980     2.4840 
  259.3750    -6.1710    61.9150    11.7560     8.9160     9.3620    24.6450     2.4780 
  259.5000    -6.2040    61.9150    12.1700     9.1730     9.0080    24.5870     2.4720 
  259.6250    -6.2230    61.9150    12.6140     9.4840     8.6170    24.5570     2.4760 
  259.7500    -6.2500    61.9150    12.9900     9.7890     8.7520    24.6130     2.4860 
  259.8750    -6.2620    61.9150    13.2190    10.0250     9.2770    24.7250     2.4950 
  260.0000    -6.2810    61.9150    13.2300    10.1120     9.1070    24.8140     2.4920 
  260.1250    -6.3050    61.9150    13.0680    10.0600     8.1670    24.7930     2.4780 
  260.2500    -6.2840    61.9150    12.7870     9.9020     8.3740    24.6790     2.4560 
  260.3750    -6.2130    61.9150    12.4640     9.6910     9.3400    24.5460     2.4380 
  260.5000    -6.1690    61.9150    12.1910     9.4920     9.5610    24.5330     2.4310 
  260.6250    -6.1610    61.9150    12.0420     9.3690     8.4170    24.6320     2.4280 
