~V
VERS. 2.00: Ver 2.00
~W
STRT.M 63.0000:
STOP.M 280.0000:
STEP.M 0.1250:
NULL. -999.2500:
UWI. F10220:
~C
DEPT.M :
SP.MV :
DEN.GM/CC :
GR.API :
RML.OHMM :
RI. :
RXO.OHMM :
CALI.CM :
~A
# ...
  198.0000   -27.6860     2.2000    65.3890    42.7860    39.6060    37.9080    25.9080 
  198.1250   -28.1280     2.1970    65.9000    37.6060    33.6280    29.3890    26.2310 
  198.2500   -28.5690     2.1950    65.2820    38.4260    32.7070    24.7320    26.4320 
  198.3750   -28.9970     2.1940    65.0720    43.9010    35.8920    28.5170    26.4960 
  198.5000   -29.4300     2.1970    64.7190    53.5130    43.1360    42.3450    26.4880 
  198.6250   -29.8910     2.2060    62.9590    66.1240    53.9600    58.7940    26.4890 
  198.7500   -30.3320     2.2120    62.5330    78.6180    66.1420    65.3740    26.4780 
  198.8750   -30.7050     2.2070    64.4440    86.5030    75.1720    64.8780    26.3240 
  199.0000   -30.9820     2.1920    65.0680    87.3500    78.0770    65.4040    26.0200 
  199.1250   -31.1710     2.1780    63.1350    82.2810    75.0130    66.4490    25.8100 
  199.2500   -31.2590     2.1790    62.6290    74.6500    68.4690    56.7390    25.7370 
  199.3750   -31.2900     2.1940    65.9890    67.7200    61.7950    45.9700    25.6840 
  199.5000   -31.2600     2.2160    68.3820    62.6250    56.3190    43.1210    25.5970 
  199.6250   -31.1760     2.2330    67.2560    59.7900    52.5990    44.2750    25.5240 
  199.7500   -31.0960     2.2380    67.1700    59.8360    51.2400    43.9620    25.5690 
  199.8750   -31.0530     2.2390    69.1290    62.6010    52.1660    42.0580    25.6320 
  200.0000   -31.0740     2.2370    69.5940    68.3660    55.6690    43.5330    25.6690 
  200.1250   -31.1380     2.2290    66.5340    77.3020    61.9950    53.1660    25.6950 
  200.2500   -31.2260     2.2170    63.0710    89.3990    71.3370    72.0880    25.7190 
  200.3750   -31.3420     2.2080    61.4210   102.4620    81.9470    84.1280    25.7370 
  200.5000   -31.4900     2.2100    60.1830   113.7230    91.6090    89.9040    25.7220 
  200.6250   -31.6680     2.2180    58.3600   120.3490    97.9250    98.7510    25.7030 
  200.7500   -31.8190     2.2260    55.7250   120.4650    98.9430   100.8790    25.7040 
  200.8750   -31.9120     2.2250    55.4320   116.7520    96.3810    94.1290    25.7250 
  201.0000   -31.9450     2.2180    58.2600   111.2470    91.8580    85.0240    25.7510 
  201.1250   -31.9470     2.2110    61.6730   105.0760    86.5170    80.9730    25.7670 
  201.2500   -31.9380     2.2080    61.1860    98.5580    80.8380    79.9490    25.7670 
  201.3750   -31.9190     2.2090    60.6660    92.0340    75.1710    77.6530    25.7580 
  201.5000   -31.8820     2.2130    65.2580    86.0150    69.8820    72.3440    25.7360 
  201.6250   -31.8180     2.2160    71.5480    81.1570    65.4470    62.0690    25.7100 
  201.7500   -31.7600     2.2200    72.7490    78.3670    62.6240    54.2170    25.6960 
  201.8750   -31.7170     2.2260    68.3580    77.4910    61.4480    52.3080    25.6750 
  202.0000   -31.6650     2.2320    63.4850    78.1100    61.7590    55.8080    25.6320 
  202.1250   -31.5790     2.2370    61.9160    79.4010    63.0400    59.0760    25.5550 
  202.2500   -31.4670     2.2370    64.0630    80.1910    64.4030    59.5090    25.4240 
  202.3750   -31.3190     2.2360    68.1480    79.9790    65.0720    59.2500    25.3380 
  202.5000   -31.1150     2.2410    72.4930    79.2290    65.0430    59.3900    25.3260 
  202.6250   -30.8570     2.2560    75.5710    78.9070    64.9490    58.8400    25.3560 
  202.7500   -30.5580     2.2890    73.2390    79.2510    65.2950    55.6610    25.3380 
  202.8750   -30.2520     2.3400    67.9290    78.0770    64.7980    51.5840    25.2000 
  203.0000   -29.9650     2.4140    64.3520    72.1230    60.8510    50.8850    24.8560 
  203.1250   -29.7270     2.5020    65.8560    59.6650    51.5090    54.3660    24.3780 
  203.2500   -29.5510     2.5610    69.8100    43.4710    38.2940    49.4330    23.9900 
  203.3750   -29.4360     2.5570    72.7390    29.5100    26.3570    29.8020    23.9110 
  203.5000   -29.4220     2.5000    76.1120    19.9620    17.8820    14.6390    23.9760 
  203.6250   -29.5000     2.4290    81.9040    14.5170    12.8040     8.0430    24.1420 
  203.7500   -29.6120     2.3740    90.2040    12.3120    10.4450     6.8290    24.3480 
  203.8750   -29.7190     2.3390    95.4760    11.8230     9.5420     6.9790    24.5360 
  204.0000   -29.8210     2.3190    94.9160    12.5160     9.6950     7.8660    24.6950 
  204.1250   -29.8830     2.3120    90.1700    14.0830    10.6880     9.3630    24.7400 
  204.2500   -29.8710     2.3270    85.9160    16.1360    12.4510    11.2390    24.6130 
  204.3750   -29.8180     2.3630    83.9660    17.8550    14.7210    12.4290    24.4310 
  204.5000   -29.7020     2.4220    82.9690    19.7720    17.3820    13.3260    24.3780 
  204.6250   -29.5460     2.4990    82.5850    21.8210    20.2100    15.3310    24.3290 
  204.7500   -29.3990     2.5660    80.6790    23.1350    22.3480    20.4750    24.2010 
  204.8750   -29.2860     2.5930    77.5080    23.3230    22.6320    25.0140    24.0040 
  205.0000   -29.1960     2.5720    76.6760    20.6270    20.3990    25.2410    23.8810 
  205.1250   -29.1360     2.5200    80.2330    16.2200    16.3450    19.5330    23.8080 
  205.2500   -29.1020     2.4560    82.6420    11.9280    12.2140    12.4980    23.8490 
  205.3750   -29.0560     2.4060    83.0940     8.8840     9.1250     7.9530    23.9270 
  205.5000   -29.0240     2.3810    87.2730     7.2010     7.2190     6.0610    23.9580 
  205.6250   -29.0130     2.3770    96.5790     6.6690     6.3460     5.3810    23.8660 
  205.7500   -29.0260     2.3840   102.7120     7.2060     6.4760     5.5380    23.7630 
  205.8750   -29.0700     2.3920   101.8300     8.4320     7.3260     6.3050    23.6830 
  206.0000   -29.1280     2.3980    96.4900     9.9920     8.6750     7.7160    23.6030 
  206.1250   -29.2000     2.3940    89.7920    11.2660    10.0420    10.1500    23.4670 
  206.2500   -29.2950     2.3540    84.2860    11.2240    10.4440    13.2620    23.2190 
  206.3750   -29.4040     2.2770    82.6150     9.8120     9.5680    13.5770    23.0000 
  206.5000   -29.4910     2.1990    82.4170     7.7090     7.8690    10.3160    22.8870 
  206.6250   -29.5170     2.1600    79.1560     5.8000     6.1120     6.3320    22.8600 
  206.7500   -29.4750     2.1750    73.1140     4.6390     4.8620     4.0570    22.8150 
  206.8750   -29.3820     2.2120    71.4740     4.0560     4.1150     3.2590    22.6660 
  207.0000   -29.2560     2.2430    74.5210     3.8650     3.7680     3.1090    22.3810 
  207.1250   -29.1000     2.2550    78.3550     3.9000     3.6950     3.2130    22.1610 
  207.2500   -28.9310     2.2570    81.2590     4.0430     3.7880     3.4600    22.2220 
  207.3750   -28.7460     2.2570    85.1270     4.2090     3.9400     3.7920    22.4240 
  207.5000   -28.5470     2.2560    87.6420     4.3950     4.1280     3.9370    22.5340 
  207.6250   -28.3420     2.2430    86.9040     4.6220     4.3580     3.7190    22.5980 
  207.7500   -28.1010     2.2110    84.7770     4.9060     4.6420     3.7310    22.7870 
  207.8750   -27.8320     2.1600    83.6540     5.2090     4.9470     3.9560    23.2280 
  208.0000   -27.5400     2.0920    82.6520     5.4770     5.2240     4.3330    23.9140 
  208.1250   -27.2060     2.0290    80.5620     5.6570     5.4140     4.7310    24.7730 
  208.2500   -26.7570     2.0160    78.1530     5.6980     5.4490     5.1760    25.3340 
  208.3750   -26.1830     2.0510    75.2290     5.6380     5.3590     5.3030    25.2540 
  208.5000   -25.4900     2.1100    72.5410     5.5350     5.1930     4.9640    24.9080 
  208.6250   -24.7020     2.1660    74.1790     5.4500     5.0160     4.7740    24.6200 
  208.7500   -23.8560     2.2130    81.1530     5.4370     4.8890     4.7060    24.3800 
  208.8750   -22.9830     2.2550    85.6390     5.4840     4.8180     4.8260    24.3320 
  209.0000   -22.1280     2.2830    83.3130     5.5620     4.7870     4.9340    24.4040 
  209.1250   -21.3440     2.2950    77.9510     5.6500     4.7760     4.9790    24.4610 
