~V
VERS. 2.00: Ver 2.00
~W
STRT.M 53.0000:
STOP.M 296.0000:
STEP.M 0.1250:
NULL. -999.2500:
UWI. F10258:
~C
DEPT.M :
GR.API :
RML.OHMM :
RI. :
RXO.OHMM :
CALI.CM :
DEN.GM/CC :
SP.MV :
~A
# ...
  244.2500    90.7710     6.3360     5.0610     7.4090    25.6290     2.3750   -14.9130 
  244.3750    92.0320     7.0520     5.5370     7.1690    25.6170     2.3590   -14.8200 
  244.5000    95.8530     7.8230     6.1650     7.2920    25.5920     2.3420   -14.7440 
  244.6250    97.2920     8.4270     6.7930     7.9120    25.5740     2.3300   -14.6790 
  244.7500    94.9080     8.7640     7.2600     8.6660    25.5630     2.3240   -14.6390 
  244.8750    91.7110     8.8300     7.4990     9.1610    25.5600     2.3300   -14.6420 
  245.0000    90.4320     8.7110     7.5430     9.3840    25.5690     2.3470   -14.7060 
  245.1250    91.5950     8.5550     7.4910     9.7610    25.6130     2.3710   -14.8280 
  245.2500    93.0240     8.5000     7.4730     9.9780    25.6770     2.3930   -14.9820 
  245.3750    93.2260     8.6110     7.5580    10.3080    25.7140     2.4100   -15.1460 
  245.5000    91.3990     8.8920     7.7680    10.4900    25.7130     2.4220   -15.3040 
  245.6250    89.0540     9.3020     8.0780    10.7350    25.6670     2.4300   -15.4590 
  245.7500    88.8850     9.7490     8.4150    11.1820    25.6660     2.4360   -15.5890 
  245.8750    89.3010    10.1980     8.7550    11.7350    25.6760     2.4360   -15.6830 
  246.0000    88.6840    10.6410     9.1020    11.1200    25.6670     2.4300   -15.7420 
  246.1250    86.1270    11.0660     9.4670    11.2850    25.6780     2.4180   -15.7950 
  246.2500    83.4290    11.4310     9.8320    12.6020    25.6880     2.4070   -15.8530 
  246.3750    83.0680    11.6660    10.1550    15.0570    25.6680     2.3990   -15.9150 
  246.5000    85.8280    11.7020    10.3570    15.5220    25.6450     2.3920   -15.9760 
  246.6250    88.3400    11.5030    10.3280    13.6590    25.6140     2.3820   -16.0380 
  246.7500    88.7670    11.2010    10.1420    12.4340    25.5560     2.3690   -16.1100 
  246.8750    88.7240    10.9180     9.9150    12.4420    25.4850     2.3630   -16.1830 
  247.0000    89.5810    10.7360     9.7410    12.3870    25.4370     2.3740   -16.2360 
  247.1250    89.5290    10.6460     9.6400    10.9330    25.4090     2.4090   -16.2260 
  247.2500    88.7860    10.5260     9.5230    11.3220    25.3980     2.4530   -16.1700 
  247.3750    89.0990    10.2780     9.2920    13.2400    25.3830     2.4860   -16.0880 
  247.5000    89.9350     9.8700     8.8980    12.8660    25.3840     2.4950   -15.9930 
  247.6250    90.1350     9.3600     8.3920     9.5660    25.3830     2.4760   -15.8930 
  247.7500    89.7350     8.8860     7.9160     8.2860    25.3820     2.4470   -15.8070 
  247.8750    89.3620     8.5320     7.5520     8.1850    25.3650     2.4230   -15.7300 
  248.0000    89.3700     8.3240     7.3410     8.4380    25.3230     2.4090   -15.6720 
  248.1250    90.4770     8.2550     7.3100     8.3400    25.2950     2.4080   -15.6740 
  248.2500    91.2710     8.2570     7.3800     8.3260    25.2660     2.4120   -15.7300 
  248.3750    90.4690     8.2880     7.4790     8.0800    25.2580     2.4190   -15.8230 
  248.5000    89.1090     8.3190     7.5590     7.7040    25.2710     2.4240   -15.9340 
  248.6250    88.8420     8.3260     7.6050     7.6240    25.3280     2.4260   -16.0560 
  248.7500    89.5360     8.3030     7.6250     7.7380    25.3680     2.4260   -16.1710 
  248.8750    90.8010     8.2570     7.6230     8.1230    25.3880     2.4250   -16.2720 
  249.0000    90.4820     8.2060     7.6070     8.7240    25.4030     2.4230   -16.3490 
  249.1250    86.6680     8.1700     7.5780     9.1530    25.4260     2.4180   -16.3820 
  249.2500    83.0800     8.1450     7.5400     9.2350    25.4410     2.4090   -16.3940 
  249.3750    82.4460     8.1200     7.4920     9.2800    25.4490     2.3960   -16.4040 
  249.5000    81.5970     8.0860     7.4400     9.2460    25.4520     2.3810   -16.4220 
  249.6250    78.6450     8.0460     7.3900     9.2410    25.4490     2.3650   -16.4380 
  249.7500    77.3730     8.0070     7.3470     9.2550    25.4430     2.3540   -16.4590 
  249.8750    78.7930     7.9700     7.3140     9.4750    25.4360     2.3480   -16.4820 
  250.0000    80.4880     7.9300     7.2910     9.7380    25.4310     2.3500   -16.5080 
  250.1250    82.4300     7.8840     7.2820     9.8280    25.4330     2.3610   -16.5180 
  250.2500    85.1830     7.8390     7.2840     9.7390    25.4450     2.3770   -16.4970 
  250.3750    86.4340     7.8030     7.2970     9.6860    25.4510     2.3920   -16.4430 
  250.5000    84.6410     7.7820     7.3200     9.7090    25.4520     2.4010   -16.3670 
  250.6250    81.6800     7.7620     7.3520     9.6730    25.4540     2.4010   -16.2730 
  250.7500    81.8580     7.7230     7.3860     9.5250    25.4660     2.3980   -16.1620 
  250.8750    85.5660     7.6530     7.4160     9.5020    25.4920     2.3950   -16.0640 
  251.0000    89.3620     7.5540     7.4340     9.5200    25.5110     2.3970   -15.9890 
  251.1250    88.0710     7.4440     7.4320     9.4520    25.5140     2.4040   -15.9440 
  251.2500    84.5540     7.3370     7.4060     9.2970    25.5120     2.4120   -15.9340 
  251.3750    83.1570     7.2360     7.3600     9.2180    25.5140     2.4210   -15.9650 
  251.5000    83.9290     7.1380     7.2970     9.1960    25.5170     2.4270   -16.0300 
  251.6250    84.2380     7.0400     7.2250     9.1120    25.5170     2.4310   -16.1160 
  251.7500    84.1050     6.9480     7.1510     8.8430    25.5150     2.4340   -16.2190 
  251.8750    83.5760     6.8650     7.0770     8.6740    25.5120     2.4370   -16.3180 
  252.0000    82.7500     6.7900     7.0020     8.6440    25.5140     2.4410   -16.4050 
  252.1250    83.7050     6.7080     6.9100     8.6660    25.5140     2.4440   -16.4760 
  252.2500    86.6610     6.6010     6.7910     8.4120    25.5150     2.4470   -16.5400 
  252.3750    89.2270     6.4510     6.6310     8.1960    25.5140     2.4480   -16.6100 
  252.5000    89.4450     6.2540     6.4130     8.0980    25.5100     2.4470   -16.7210 
  252.6250    90.2890     6.0440     6.1350     7.9740    25.5110     2.4450   -16.9090 
  252.7500    95.1820     5.9340     5.8870     7.9040    25.5170     2.4380   -17.1690 
  252.8750   102.6330     6.0970     5.8040     7.8060    25.5200     2.4200   -17.5000 
  253.0000   109.6900     6.7420     6.0610     7.7410    25.5210     2.3860   -17.9000 
  253.1250   111.0820     8.3950     7.0270     8.2190    25.5260     2.3340   -18.3790 
  253.2500   106.1480    11.4480     8.9910    11.0450    25.5380     2.2750   -18.8990 
  253.3750    97.3550    16.9510    12.3960    18.8000    25.5560     2.2210   -19.4190 
  253.5000    88.0860    23.5720    17.6180    27.4410    25.5690     2.1840   -19.8830 
  253.6250    82.5740    30.7850    24.7270    31.2650    25.5830     2.1740   -20.2490 
  253.7500    80.1770    37.6470    32.1880    32.5450    25.6110     2.1790   -20.5140 
  253.8750    80.9090    43.3860    38.5470    35.6720    25.6570     2.1920   -20.6690 
  254.0000    82.8120    47.6790    43.1900    41.8970    25.7060     2.2020   -20.7190 
  254.1250    81.5270    50.6130    46.3220    50.8540    25.7430     2.2060   -20.6710 
  254.2500    76.5600    52.7530    48.5830    59.2460    25.7610     2.2080   -20.5600 
  254.3750    71.4550    54.2010    49.9430    62.7200    25.7660     2.2130   -20.4170 
  254.5000    70.5120    55.0280    50.4080    59.6550    25.7610     2.2230   -20.2890 
  254.6250    72.6620    55.4970    50.3450    52.0780    25.7440     2.2340   -20.2120 
  254.7500    73.5490    56.0560    50.4690    49.3870    25.7310     2.2420   -20.1840 
  254.8750    72.5610    56.7540    51.0370    52.7570    25.7440     2.2420   -20.1990 
  255.0000    72.0210    57.1760    51.7500    60.3420    25.7610     2.2370   -20.2590 
  255.1250    73.7820    56.3530    51.6100    66.5720    25.7670     2.2290   -20.3440 
  255.2500    75.7880    53.9730    49.9920    64.4580    25.7670     2.2250   -20.4320 
  255.3750    76.0910    50.2950    46.9200    56.2400    25.7670     2.2280   -20.5030 
