~V
VERS. 2.00: Ver 2.00
~W
STRT.M 53.0000:
STOP.M 276.0000:
STEP.M 0.1250:
NULL. -999.2500:
UWI. F10245:
~C
DEPT.M :
GR.API :
RML.OHMM :
RI. :
RXO.OHMM :
CALI.CM :
DEN.GM/CC :
SP.MV :
~A
# ...
   98.0000    82.2020    22.0460    18.2660    22.5120    23.6730     2.6310    -6.3800 
   98.1250    75.8480    20.6430    17.6500    23.1250    23.6010     2.5790    -6.6320 
   98.2500    69.4190    18.0920    15.9220    22.3170    23.5100     2.4990    -6.9760 
   98.3750    62.7600    15.2320    13.7200    19.3570    23.3540     2.4130    -7.3790 
   98.5000    59.8530    12.7630    11.6530    14.9630    23.1150     2.3360    -7.7800 
   98.6250    64.3320    11.1230    10.1330    11.8040    22.8930     2.2820    -8.1690 
   98.7500    69.1110    10.1490     9.1190    10.1850    22.7730     2.2480    -8.5800 
   98.8750    69.9820     9.6720     8.5290     9.3670    22.7220     2.2300    -8.9820 
   99.0000    67.7500     9.5030     8.2450     8.9290    22.7050     2.2210    -9.3260 
   99.1250    63.9240     9.4800     8.1640     8.7650    22.7020     2.2180    -9.6010 
   99.2500    59.7640     9.4630     8.1480     8.5990    22.6930     2.2150    -9.8190 
   99.3750    56.3350     9.4130     8.1420     8.4770    22.6640     2.2120   -10.0080 
   99.5000    55.4610     9.3360     8.1280     8.4050    22.6180     2.2070   -10.1830 
   99.6250    56.4520     9.2570     8.1080     8.2660    22.5730     2.2000   -10.4050 
   99.7500    56.4750     9.1960     8.0900     8.1160    22.5600     2.1960   -10.6690 
   99.8750    55.1710     9.1550     8.0760     8.0410    22.5940     2.1940   -10.9340 
  100.0000    53.8800     9.1260     8.0610     8.0880    22.7450     2.1930   -11.1920 
  100.1250    52.8650     9.0930     8.0300     8.3060    23.0830     2.1900   -11.4130 
  100.2500    52.1030     9.0430     7.9780     8.5690    23.4330     2.1820   -11.5900 
  100.3750    53.5960     8.9730     7.9030     8.7950    23.5670     2.1720   -11.7590 
  100.5000    58.3740     8.8910     7.8120     8.8960    23.4650     2.1600   -11.9270 
  100.6250    60.2720     8.8120     7.7190     8.8790    23.3820     2.1500   -12.0420 
  100.7500    57.1660     8.7540     7.6400     8.8670    23.5820     2.1470   -12.0530 
  100.8750    52.8550     8.7260     7.5860     8.8630    23.8620     2.1500   -11.9820 
  101.0000    51.9010     8.7280     7.5610     8.8640    23.9960     2.1580   -11.8810 
  101.1250    54.7670     8.7530     7.5640     8.8910    23.9610     2.1680   -11.7320 
  101.2500    58.8420     8.7820     7.5800     8.9440    23.8820     2.1750   -11.5700 
  101.3750    61.3660     8.8010     7.5940     8.9300    23.8020     2.1760   -11.4280 
  101.5000    60.2810     8.7990     7.5970     8.8080    23.7560     2.1750   -11.3090 
  101.6250    56.7360     8.7740     7.5820     8.6710    23.7130     2.1740   -11.2200 
  101.7500    55.5480     8.7380     7.5570     8.5520    23.6080     2.1770   -11.1730 
  101.8750    58.1650     8.7070     7.5310     8.4290    23.4160     2.1830   -11.2040 
  102.0000    61.3320     8.6910     7.5140     8.2490    23.1490     2.1870   -11.2810 
  102.1250    61.5260     8.6980     7.5120     8.1150    22.9370     2.1850   -11.4450 
  102.2500    59.5520     8.7190     7.5210     8.1160    22.9070     2.1790   -11.6610 
  102.3750    57.0880     8.7380     7.5330     8.1900    23.1520     2.1690   -11.8490 
  102.5000    55.8500     8.7390     7.5370     8.3310    23.6020     2.1600   -12.0100 
  102.6250    55.5550     8.7090     7.5210     8.5560    23.9220     2.1530   -12.1550 
  102.7500    55.4140     8.6610     7.4890     8.9520    24.0660     2.1480   -12.2700 
  102.8750    53.8850     8.6180     7.4570     9.3290    24.0830     2.1460   -12.3490 
  103.0000    51.0070     8.6120     7.4510     9.1050    24.0470     2.1470   -12.3840 
  103.1250    50.2920     8.6870     7.5030     8.9210    23.9920     2.1560   -12.3730 
  103.2500    53.4150     8.8370     7.6180     8.9350    23.9240     2.1710   -12.3000 
  103.3750    58.2630     9.0430     7.7860     9.1260    23.8780     2.1890   -12.2000 
  103.5000    61.1870     9.2690     7.9810     9.3770    23.8930     2.2050   -12.0880 
  103.6250    61.0680     9.4620     8.1640     9.5730    23.9410     2.2130   -11.9490 
  103.7500    61.5330     9.5870     8.3040     9.7310    23.9570     2.2150   -11.8380 
  103.8750    62.3700     9.6320     8.3860     9.7890    23.9400     2.2130   -11.7370 
  104.0000    61.2440     9.5990     8.4060     9.7690    23.9020     2.2130   -11.6750 
  104.1250    58.7520     9.4920     8.3640     9.7740    23.8630     2.2140   -11.5820 
  104.2500    57.1080     9.3380     8.2820     9.5480    23.8340     2.2170   -11.4930 
  104.3750    56.3630     9.1520     8.1730     9.2790    23.8360     2.2170   -11.3990 
  104.5000    55.0050     8.9490     8.0500     9.1420    23.8790     2.2140   -11.3050 
  104.6250    54.2030     8.7460     7.9280     9.5100    23.9730     2.2050   -11.2370 
  104.7500    55.5660     8.5620     7.8200    10.1860    24.1280     2.1890   -11.1350 
  104.8750    58.3930     8.4080     7.7350    10.5150    24.3450     2.1670   -10.9830 
  105.0000    60.2700     8.2930     7.6760    10.2710    24.5270     2.1430   -10.7210 
  105.1250    60.1230     8.2280     7.6500     9.7150    24.5900     2.1240   -10.4000 
  105.2500    60.2790     8.1970     7.6400     9.3930    24.5830     2.1190    -9.9960 
  105.3750    61.6300     8.1710     7.6220     9.2280    24.5080     2.1300    -9.5560 
  105.5000    63.6070     8.1010     7.5540     9.2040    24.3320     2.1530    -9.0630 
  105.6250    64.6960     7.9040     7.3680     8.9400    24.0320     2.1820    -8.4460 
  105.7500    64.5930     7.5600     7.0490     8.5860    23.7840     2.2100    -7.7650 
  105.8750    64.8000     7.0840     6.6060     8.2210    23.7450     2.2350    -7.0600 
  106.0000    65.4980     6.5370     6.0930     7.7530    24.0020     2.2590    -6.3990 
  106.1250    67.6260     6.0380     5.6090     7.0610    24.3670     2.2790    -5.9080 
  106.2500    70.4110     5.7110     5.2540     6.5160    24.5920     2.2900    -5.6430 
  106.3750    73.1750     5.6770     5.1190     6.3000    24.6450     2.2860    -5.5930 
  106.5000    73.3660     6.0550     5.2900     6.3430    24.5650     2.2740    -5.7230 
  106.6250    69.1530     7.0380     5.9290     6.7830    24.3860     2.2700    -6.0200 
  106.7500    64.9080     8.5270     7.0070     8.1050    24.2020     2.2920    -6.4420 
  106.8750    62.5550    10.3300     8.4370    10.6750    24.1870     2.3430    -6.9870 
  107.0000    60.8670    12.0730     9.9770    14.4370    24.3390     2.4040    -7.6670 
  107.1250    58.1910    13.1240    11.1390    20.2710    24.4430     2.4280    -8.3710 
  107.2500    56.6930    13.1860    11.5540    27.7630    24.4240     2.3970    -9.0750 
  107.3750    57.2590    12.2790    11.1000    26.7730    24.2750     2.3290    -9.7190 
  107.5000    59.3400    10.8150    10.0370    16.9300    24.0740     2.2570   -10.2690 
  107.6250    61.2300     9.4440     8.8810    11.7050    23.9830     2.2070   -10.7640 
  107.7500    61.9000     8.5460     8.0150     9.8620    23.9460     2.1800   -11.2100 
  107.8750    61.8340     8.1610     7.5190     9.2680    23.8950     2.1700   -11.6200 
  108.0000    61.5570     8.1590     7.3420     8.9850    23.8090     2.1680   -11.9500 
  108.1250    60.1400     8.3610     7.3950     8.9510    23.7280     2.1700   -12.1670 
  108.2500    57.6800     8.5710     7.5200     9.0710    23.6890     2.1720   -12.2650 
  108.3750    56.4270     8.7090     7.6410     9.2040    23.6790     2.1730   -12.2350 
  108.5000    58.5060     8.7520     7.7140     9.2980    23.6770     2.1740   -12.1410 
  108.6250    61.9800     8.7080     7.7170     9.3260    23.6660     2.1750   -12.0460 
  108.7500    63.8940     8.6290     7.6780     9.1680    23.6430     2.1750   -11.9410 
  108.8750    63.5070     8.5580     7.6210     9.0610    23.6190     2.1760   -11.8270 
  109.0000    61.3570     8.5230     7.5700     9.0050    23.6080     2.1750   -11.7040 
  109.1250    57.2900     8.5440     7.5430     9.0010    23.6070     2.1710   -11.5480 
