~V
VERS. 2.00: Ver 2.00
~W
STRT.M 54.0000:
STOP.M 277.0000:
STEP.M 0.1250:
NULL. -999.2500:
UWI. F10247:
~C
DEPT.M :
GR.API :
RML.OHMM :
RI. :
RXO.OHMM :
CALI.CM :
DEN.GM/CC :
SP.MV :
~A
# ...
  166.5000    75.8600    12.7410    10.6620    10.6870    24.0660     2.4130   -20.5800 
  166.6250    73.2190    12.8570    10.8100    10.7610    24.1960     2.3960   -20.5030 
  166.7500    75.9320    13.2810    11.1300    11.6930    24.5380     2.3630   -20.4350 
  166.8750    78.7920    13.9900    11.6300    13.3430    24.8040     2.3270   -20.3880 
  167.0000    78.3110    14.8390    12.2500    14.7580    24.8870     2.3030   -20.3600 
  167.1250    76.7890    15.5960    12.8540    15.1680    24.8520     2.2970   -20.3650 
  167.2500    77.9180    15.9960    13.2510    16.0170    24.7900     2.3100   -20.3700 
  167.3750    80.3690    16.0900    13.4220    16.6050    24.6950     2.3280   -20.3840 
  167.5000    81.9130    16.0720    13.4640    15.3840    24.5920     2.3410   -20.4120 
  167.6250    80.8790    16.1870    13.5370    14.2430    24.5180     2.3430   -20.4770 
  167.7500    76.8690    16.6450    13.8270    14.1800    24.4760     2.3330   -20.5700 
  167.8750    73.3070    17.3710    14.3660    16.0790    24.5380     2.3230   -20.6640 
  168.0000    73.9750    18.2070    15.1090    18.8220    24.6360     2.3160   -20.7760 
  168.1250    76.6370    18.9470    15.9300    19.6520    24.6840     2.3130   -20.8880 
  168.2500    75.1330    19.4020    16.6420    21.0020    24.6720     2.3130   -21.0210 
  168.3750    73.6990    19.7060    17.2210    21.5530    24.6730     2.3150   -21.1600 
  168.5000    76.6460    20.1030    17.8020    22.0490    24.7030     2.3180   -21.3180 
  168.6250    81.2500    20.7630    18.5510    22.8760    24.7230     2.3220   -21.4570 
  168.7500    81.1020    21.6070    19.5060    20.8900    24.7200     2.3240   -21.6170 
  168.8750    78.8390    22.1520    20.2980    22.2240    24.6880     2.3260   -21.7820 
  169.0000    78.1470    21.8490    20.3840    24.5750    24.6560     2.3320   -21.9470 
  169.1250    78.4090    20.3580    19.3240    25.2670    24.6400     2.3440   -22.1130 
  169.2500    79.7150    17.7820    17.0940    20.8270    24.6410     2.3620   -22.2960 
  169.3750    83.8010    15.0800    14.6040    14.9930    24.6420     2.3790   -22.5010 
  169.5000    89.3580    12.9840    12.5350    11.4850    24.6410     2.3890   -22.7250 
  169.6250    92.7910    11.9620    11.2870    10.3860    24.6390     2.3880   -22.9880 
  169.7500    90.8220    12.5550    11.2390    10.5910    24.6280     2.3710   -23.2770 
  169.8750    86.3720    14.8750    12.4610    12.2550    24.5980     2.3450   -23.5960 
  170.0000    82.5270    19.3090    15.3400    17.5900    24.5680     2.3140   -23.9520 
  170.1250    78.8970    26.2030    20.3880    30.2300    24.5630     2.2810   -24.3390 
  170.2500    74.0770    36.0280    28.5340    39.0500    24.6070     2.2520   -24.7630 
  170.3750    68.8580    47.5330    39.0970    55.0660    24.6940     2.2350   -25.1970 
  170.5000    66.4100    58.7740    50.4720    86.4420    24.7820     2.2320   -25.6400 
  170.6250    66.2420    67.2490    59.9980    86.4800    24.8060     2.2410   -26.0740 
  170.7500    65.4390    71.3340    65.3040    63.7940    24.7540     2.2590   -26.5070 
  170.8750    64.3340    73.7330    68.2030    65.5810    24.6760     2.2720   -26.9270 
  171.0000    63.7460    77.5210    71.2760    70.6470    24.6260     2.2700   -27.3190 
  171.1250    63.4120    85.6470    77.3420    61.1920    24.5800     2.2540   -27.7000 
  171.2500    59.2500   102.3040    90.7740    58.1440    24.5390     2.2290   -28.0210 
  171.3750    55.1150   128.4260   113.0040    82.6530    24.5080     2.2030   -28.3570 
  171.5000    55.2770   164.1610   144.0030   114.2070    24.5070     2.1850   -28.6800 
  171.6250    58.0720   206.5110   180.5810   115.0990    24.5630     2.1780   -28.9900 
  171.7500    58.6110   246.4460   214.7490   107.8770    24.6470     2.1830   -29.2510 
  171.8750    57.7420   275.1030   239.4120   132.6300    24.6920     2.1920   -29.4940 
  172.0000    57.0770   292.1470   254.0480   165.6000    24.6730     2.2000   -29.6960 
  172.1250    56.4420   304.4560   263.8650   163.3580    24.6380     2.1990   -29.8650 
  172.2500    55.1020   318.7930   274.7210   150.8020    24.5980     2.1850   -30.0120 
  172.3750    54.5340   334.4670   286.9300   140.3800    24.5830     2.1650   -30.1070 
  172.5000    55.6190   347.4030   297.6640   124.7410    24.5730     2.1510   -30.1610 
  172.6250    58.3450   353.0080   303.5460   103.8450    24.5860     2.1510   -30.1600 
  172.7500    59.7810   346.9190   300.8550    88.1940    24.6160     2.1690   -30.1340 
  172.8750    58.5400   333.0800   291.6150    85.0040    24.5920     2.1920   -30.0720 
  173.0000    56.0480   315.9810   278.8210    91.0410    24.5450     2.2090   -29.9880 
  173.1250    54.5970   298.7990   265.0360    95.7620    24.5460     2.2140   -29.8810 
  173.2500    54.2560   282.9070   251.4820    96.4270    24.6500     2.2090   -29.7170 
  173.3750    53.2780   268.6770   238.7790    96.8520    24.7710     2.2030   -29.5440 
  173.5000    50.9280   256.9590   227.8690   105.3490    24.8220     2.1990   -29.3380 
  173.6250    49.4160   248.8310   219.9980   109.3390    24.8300     2.1960   -29.1450 
  173.7500    52.5750   246.3170   217.2380   106.4680    24.8310     2.1900   -28.9240 
  173.8750    56.0720   249.1260   219.4480   111.2050    24.8300     2.1780   -28.7430 
  174.0000    55.9230   256.3400   225.8210   145.5980    24.8290     2.1620   -28.5850 
  174.1250    54.8060   265.7850   234.4040   189.6210    24.8290     2.1460   -28.4570 
  174.2500    56.3240   273.8590   242.1290   201.8780    24.8310     2.1400   -28.3600 
  174.3750    58.0480   277.8260   246.4240   212.6720    24.8290     2.1400   -28.2720 
  174.5000    57.3630   277.3430   246.5360   216.8580    24.8230     2.1450   -28.2250 
  174.6250    55.3240   274.3810   243.7570   206.7770    24.8270     2.1470   -28.2150 
  174.7500    54.0250   272.3100   240.8830   194.2840    24.8320     2.1420   -28.2250 
  174.8750    54.3120   273.3510   240.3240   185.0270    24.8290     2.1340   -28.2160 
  175.0000    56.0120   278.5230   243.3570   191.0350    24.8070     2.1260   -28.1890 
  175.1250    58.3580   287.7930   250.4440   209.6070    24.7670     2.1270   -28.1560 
  175.2500    59.3080   297.8440   259.6520   223.0930    24.7510     2.1350   -28.1280 
  175.3750    58.1870   300.0390   263.8170   238.9000    24.7620     2.1430   -28.1240 
  175.5000    56.3500   286.3690   255.3930   287.7910    24.7970     2.1440   -28.1060 
  175.6250    56.7220   256.7030   232.1790   346.3120    24.8350     2.1400   -28.0790 
  175.7500    59.4360   221.5450   200.9620   290.8750    24.9130     2.1350   -28.0490 
  175.8750    61.1200   193.5020   173.8450   188.1390    24.9720     2.1350   -28.0250 
  176.0000    60.6610   177.2950   156.5230   118.5070    24.8420     2.1420   -28.0150 
  176.1250    59.6540   173.0830   150.3380    98.3830    24.5720     2.1500   -27.9780 
  176.2500    60.0300   178.0730   153.7330   137.9120    24.4180     2.1560   -27.9280 
  176.3750    61.8730   183.3350   158.9460   180.1070    24.4120     2.1600   -27.8170 
  176.5000    62.6520   181.3960   159.3230   185.4860    24.3690     2.1650   -27.7060 
  176.6250    60.3370   168.8660   150.9670   156.2670    24.2560     2.1760   -27.5710 
  176.7500    56.7030   149.5280   135.3450   106.9300    24.1180     2.1890   -27.4690 
  176.8750    54.7860   132.4490   120.0270    72.2000    24.0200     2.1960   -27.3340 
  177.0000    55.1130   121.6540   109.2930    60.4250    23.9500     2.1900   -27.2120 
  177.1250    56.3010   117.4330   104.3090    62.3400    23.9310     2.1730   -27.0970 
  177.2500    57.8690   118.4870   104.4930    71.3910    23.9720     2.1530   -27.0350 
  177.3750    60.0430   121.7320   107.1690    74.0430    23.9990     2.1430   -27.0190 
  177.5000    62.5700   125.6060   110.9390    75.7720    23.9810     2.1450   -27.0250 
  177.6250    64.8500   128.8920   114.6170    83.0460    23.9280     2.1530   -27.0500 
