~V
VERS. 2.00: Ver 2.00
~W
STRT.M 56.0000:
STOP.M 275.0000:
STEP.M 0.1250:
NULL. -999.2500:
UWI. F10253:
~C
DEPT.M :
GR.API :
RML.OHMM :
RI. :
RXO.OHMM :
CALI.CM :
DEN.GM/CC :
SP.MV :
~A
# ...
  236.0000    87.8880     9.4580     8.3660     9.5710    23.4090     2.3820    -5.3920 
  236.1250    83.9030     9.5550     8.4610     9.7890    23.4500     2.3960    -5.3120 
  236.2500    82.8210     9.4300     8.3550     9.4830    23.5340     2.4020    -5.2680 
  236.3750    85.7190     9.0830     8.0270     8.8120    23.6080     2.3950    -5.2400 
  236.5000    89.6600     8.6640     7.6030     7.9850    23.6460     2.3820    -5.2090 
  236.6250    92.1880     8.3410     7.2160     7.4290    23.6030     2.3710    -5.2010 
  236.7500    93.0960     8.3180     7.0220     7.1120    23.4890     2.3640    -5.2290 
  236.8750    92.4570     8.9800     7.2900     7.3990    23.3780     2.3580    -5.2920 
  237.0000    87.7720    10.5870     8.2020     8.3100    23.3330     2.3480    -5.3830 
  237.1250    79.1440    13.4270    10.0550    10.1580    23.3210     2.3310    -5.4920 
  237.2500    70.2080    17.9570    13.2530    14.1740    23.2970     2.3070    -5.6220 
  237.3750    65.3950    24.8460    18.6650    22.2750    23.2330     2.2790    -5.7820 
  237.5000    62.4000    33.8240    26.3810    34.8810    23.0980     2.2550    -5.9590 
  237.6250    59.8020    44.7660    36.3110    51.2900    22.8890     2.2370    -6.1600 
  237.7500    57.2100    56.8610    47.7410    70.3420    22.7110     2.2260    -6.3880 
  237.8750    55.4950    68.2730    59.1280    93.6620    22.6980     2.2190    -6.5900 
  238.0000    55.2880    77.7770    68.8310   115.5830    22.7960     2.2100    -6.7530 
  238.1250    57.1270    85.0070    76.1940   135.8200    22.9440     2.1940    -6.8700 
  238.2500    60.1620    90.3700    81.4930   147.0590    23.1360     2.1730    -6.9400 
  238.3750    61.6420    94.4230    85.2580   128.8330    23.3660     2.1560    -6.9490 
  238.5000    61.1290    97.9030    88.3460   106.4480    23.6140     2.1500    -6.9020 
  238.6250    59.2090   101.0730    91.1520   103.3560    23.7910     2.1590    -6.8240 
  238.7500    56.9420   103.9090    93.8170   114.5860    23.8670     2.1780    -6.7050 
  238.8750    55.9340   105.8750    96.0340   125.3770    23.8880     2.1980    -6.5830 
  239.0000    56.2580   106.5520    97.4040   126.7240    23.8630     2.2100    -6.4810 
  239.1250    56.3450   105.6420    97.5790   123.4610    23.8310     2.2110    -6.4160 
  239.2500    54.2570   103.2310    96.4850   120.2090    23.8070     2.2070    -6.3730 
  239.3750    50.4890    99.6780    94.2490   116.0520    23.7970     2.2040    -6.3800 
  239.5000    49.3180    95.6980    91.4290   112.0350    23.7970     2.2060    -6.4380 
  239.6250    51.7360    91.5940    88.2770   108.9990    23.7970     2.2130    -6.5110 
  239.7500    54.9840    87.4950    84.9310   103.5220    23.7960     2.2220    -6.6010 
  239.8750    55.8510    83.1810    81.2530    94.5200    23.7950     2.2300    -6.6780 
  240.0000    55.8230    78.4090    76.7940    87.9550    23.7940     2.2340    -6.7340 
  240.1250    55.0670    72.5930    70.9290    86.0860    23.7930     2.2320    -6.7620 
  240.2500    53.8560    65.6240    63.3610    87.5060    23.7960     2.2250    -6.7690 
  240.3750    53.7060    58.0170    54.6880    84.6450    23.7990     2.2220    -6.7290 
  240.5000    55.5430    51.2260    46.7920    70.8020    23.7980     2.2310    -6.6520 
  240.6250    56.9560    44.7070    41.1170    51.0210    23.7890     2.2530    -6.5560 
  240.7500    58.9150    41.6280    38.3270    36.2300    23.7700     2.2800    -6.4610 
  240.8750    63.4280    41.9460    38.5630    33.2410    23.7410     2.2980    -6.3810 
  241.0000    66.4560    43.7390    40.3160    35.9890    23.7210     2.2960    -6.3040 
  241.1250    65.0200    45.3730    42.2200    41.3130    23.6890     2.2780    -6.2360 
  241.2500    60.7320    45.3430    42.8520    46.6720    23.6090     2.2570    -6.1650 
  241.3750    56.8400    42.4090    40.7980    47.6310    23.4850     2.2460    -6.0860 
  241.5000    54.7340    37.5510    36.6940    40.6220    23.2880     2.2470    -6.0170 
  241.6250    53.4430    32.1630    31.7920    28.4150    23.0510     2.2540    -5.9470 
  241.7500    52.9520    27.5170    27.3630    20.7670    22.8750     2.2610    -5.8810 
  241.8750    54.1170    24.4520    24.2670    18.9370    22.8100     2.2680    -5.8160 
  242.0000    56.3770    22.7000    22.3420    18.4380    22.8160     2.2800    -5.7570 
  242.1250    57.9420    22.0200    21.4080    18.3680    22.9050     2.3080    -5.7120 
  242.2500    57.7600    22.1860    21.2830    19.0170    23.0810     2.3500    -5.6820 
  242.3750    56.6240    23.1890    21.9650    20.8010    23.2870     2.3960    -5.6890 
  242.5000    55.3840    24.9200    23.3300    23.3160    23.4450     2.4230    -5.7240 
  242.6250    54.1360    27.4850    25.4560    25.3810    23.5760     2.4170    -5.7940 
  242.7500    54.6090    31.0380    28.4740    25.7150    23.7080     2.3780    -5.8870 
  242.8750    57.9830    35.9210    32.7120    28.5760    23.8550     2.3230    -5.9820 
  243.0000    60.8980    41.9210    38.0310    34.2240    23.9560     2.2720    -6.0770 
  243.1250    59.8680    48.7260    44.2120    41.7020    24.0030     2.2350    -6.1640 
  243.2500    54.1890    55.6860    50.7040    49.7370    24.0290     2.2150    -6.2620 
  243.3750    49.0050    61.5240    56.3430    59.3610    24.0630     2.2060    -6.3820 
  243.5000    47.5620    65.1860    60.0480    69.4230    24.0990     2.2030    -6.4990 
  243.6250    50.2560    65.9090    61.0410    80.0830    24.1110     2.2020    -6.6060 
  243.7500    54.9640    63.5240    59.1240    88.6940    24.0960     2.2030    -6.7040 
  243.8750    59.0510    58.3420    54.5560    88.2160    24.0630     2.2130    -6.7860 
  244.0000    61.1890    52.1930    49.0420    74.1630    24.0320     2.2290    -6.8890 
  244.1250    60.8270    46.5220    43.9310    56.7930    23.9930     2.2480    -7.0420 
  244.2500    59.3700    42.3960    40.2240    44.7550    23.9490     2.2650    -7.1900 
  244.3750    59.4860    40.4670    38.5670    40.1030    23.9320     2.2710    -7.3220 
  244.5000    60.5230    39.9590    38.3270    39.4620    23.9270     2.2670    -7.4440 
  244.6250    60.3310    40.0470    38.8140    41.8880    23.9270     2.2570    -7.5440 
  244.7500    58.2870    39.8380    39.2000    46.1950    23.9230     2.2460    -7.6140 
  244.8750    58.2530    38.4530    38.5410    47.4110    23.9190     2.2450    -7.6770 
  245.0000    61.1920    35.9270    36.6730    42.6330    23.9110     2.2540    -7.7190 
  245.1250    64.4160    32.6500    33.8570    35.9170    23.8930     2.2720    -7.7150 
  245.2500    66.7040    29.1970    30.6340    30.8810    23.8650     2.2930    -7.6780 
  245.3750    69.1710    26.1110    27.5560    27.9140    23.8490     2.3050    -7.5900 
  245.5000    72.4000    23.5590    24.8520    25.0450    23.8530     2.3050    -7.4630 
  245.6250    74.8990    21.5640    22.5680    22.3090    23.8490     2.2990    -7.3120 
  245.7500    74.9840    20.0680    20.7100    19.9190    23.8290     2.2970    -7.1500 
  245.8750    71.7120    19.1330    19.3840    18.2340    23.7730     2.3150    -6.9580 
  246.0000    67.1770    18.7390    18.6100    17.1210    23.6830     2.3550    -6.7360 
  246.1250    65.8380    18.7550    18.5420    16.9710    23.5610     2.4060    -6.4770 
  246.2500    68.5080    19.7580    19.3750    18.2800    23.4010     2.4480    -6.2370 
  246.3750    68.9700    22.4530    21.5290    20.9650    23.2920     2.4550    -6.0440 
  246.5000    64.4620    26.5610    24.9790    26.4240    23.3330     2.4260    -5.9030 
  246.6250    60.1120    31.8820    29.6690    34.4340    23.4730     2.3770    -5.8030 
  246.7500    60.9570    37.9220    35.2290    42.0090    23.5540     2.3300    -5.7580 
  246.8750    66.1780    43.8040    40.8800    43.3830    23.4720     2.3010    -5.7860 
  247.0000    70.3900    48.8110    45.7700    36.1330    23.3450     2.2850    -5.8660 
  247.1250    71.3640    52.8320    49.5860    30.2460    23.3130     2.2770    -5.9970 
