~V
VERS. 2.00: Ver 2.00
~W
STRT.M 57.0000:
STOP.M 281.0000:
STEP.M 0.1250:
NULL. -999.2500:
UWI. F10238:
~C
DEPT.M :
GR.API :
RML.OHMM :
RI. :
RXO.OHMM :
CALI.CM :
DEN.GM/CC :
SP.MV :
~A
# ...
  113.2500    92.7920     6.9110     4.8340     5.3210    24.0470     2.3090   -12.2140 
  113.3750    91.7530     7.4120     5.1040     5.6570    23.9860     2.3060   -12.4780 
  113.5000    90.4640     8.0920     5.5130     6.4290    23.9430     2.3000   -12.8260 
  113.6250    88.9230     8.7870     5.9760     7.2670    23.9150     2.2880   -13.2370 
  113.7500    87.4450     9.3000     6.3720     7.7850    23.8800     2.2670   -13.7160 
  113.8750    84.9290     9.5140     6.6040     7.8670    23.8430     2.2440   -14.2680 
  114.0000    80.8900     9.4950     6.6730     7.7040    23.8150     2.2250   -14.8600 
  114.1250    77.2000     9.3790     6.6420     7.6310    23.7860     2.2130   -15.4870 
  114.2500    75.7600     9.3080     6.5970     7.7890    23.7600     2.2060   -16.1170 
  114.3750    75.5630     9.3550     6.5960     8.0090    23.7500     2.2020   -16.7270 
  114.5000    74.1920     9.5070     6.6490     8.1450    23.7360     2.1930   -17.2950 
  114.6250    72.4740     9.7270     6.7460     8.2150    23.7320     2.1790   -17.8280 
  114.7500    72.4520     9.9730     6.8670     8.2920    23.7580     2.1610   -18.3090 
  114.8750    74.3700    10.2050     6.9890     8.3550    23.7810     2.1410   -18.7170 
  115.0000    75.7340    10.3900     7.0950     8.3670    23.7550     2.1250   -19.0540 
  115.1250    74.6830    10.5040     7.1700     8.3960    23.6910     2.1160   -19.3120 
  115.2500    73.5020    10.5270     7.2040     8.3770    23.6170     2.1130   -19.5010 
  115.3750    74.9470    10.4740     7.1960     8.2150    23.5390     2.1150   -19.6330 
  115.5000    75.9720    10.3940     7.1590     8.0450    23.4480     2.1170   -19.7280 
  115.6250    73.0180    10.3260     7.1040     7.9890    23.3400     2.1180   -19.8000 
  115.7500    67.9610    10.2920     7.0400     7.9500    23.2140     2.1190   -19.8490 
  115.8750    66.2060    10.2810     6.9710     7.8770    23.1200     2.1190   -19.8870 
  116.0000    68.5240    10.2670     6.9000     8.0480    23.0670     2.1190   -19.9230 
  116.1250    71.3980    10.2410     6.8340     8.4730    22.9620     2.1210   -19.9550 
  116.2500    73.1410    10.2180     6.7860     8.8660    22.8390     2.1240   -19.9930 
  116.3750    74.3870    10.2270     6.7690     9.1130    22.7330     2.1260   -20.0530 
  116.5000    74.2230    10.2730     6.7830     9.2830    22.6420     2.1250   -20.1490 
  116.6250    71.8010    10.3450     6.8260     8.9240    22.5710     2.1160   -20.2680 
  116.7500    68.9350    10.4320     6.8940     8.2800    22.5800     2.1030   -20.4240 
  116.8750    68.5070    10.5400     6.9840     8.1030    22.7410     2.0890   -20.6100 
  117.0000    69.6100    10.6840     7.0980     8.2380    23.0500     2.0790   -20.8320 
  117.1250    68.7740    10.8810     7.2370     8.4340    23.4050     2.0780   -21.0890 
  117.2500    66.4750    11.1320     7.4020     8.6470    23.6450     2.0850   -21.3630 
  117.3750    65.3020    11.4090     7.5840     8.9680    23.6900     2.0980   -21.6360 
  117.5000    64.5310    11.6650     7.7590     9.3000    23.6220     2.1120   -21.8890 
  117.6250    63.0920    11.8540     7.9020     9.4810    23.5240     2.1230   -22.1200 
  117.7500    63.0300    11.9360     7.9860     9.4490    23.4320     2.1260   -22.3190 
  117.8750    65.7010    11.9070     8.0030     9.4050    23.3520     2.1220   -22.4790 
  118.0000    67.4730    11.8050     7.9730     9.4630    23.2850     2.1140   -22.5970 
  118.1250    66.6990    11.6750     7.9210     9.4490    23.2510     2.1050   -22.6710 
  118.2500    66.2740    11.5620     7.8740     9.3170    23.2600     2.0970   -22.7090 
  118.3750    67.3100    11.4890     7.8530     9.1770    23.2940     2.0910   -22.7060 
  118.5000    67.4480    11.4520     7.8610     9.0930    23.3200     2.0890   -22.6660 
  118.6250    66.7820    11.4450     7.8940     9.0220    23.3260     2.0900   -22.5840 
  118.7500    66.8840    11.4750     7.9530     8.9140    23.3260     2.0960   -22.4610 
  118.8750    67.7290    11.5510     8.0420     8.8530    23.3330     2.1060   -22.2880 
  119.0000    68.7710    11.6710     8.1620     8.9380    23.3530     2.1170   -22.0670 
  119.1250    69.4340    11.8150     8.3090     9.2390    23.3880     2.1240   -21.8110 
  119.2500    68.0650    11.9410     8.4640     9.7930    23.4330     2.1260   -21.5140 
  119.3750    64.9670    11.9970     8.5970    10.2640    23.4920     2.1220   -21.1790 
  119.5000    63.2600    11.9710     8.6880    10.1920    23.5410     2.1160   -20.8000 
  119.6250    63.5640    11.8940     8.7430     9.7520    23.4910     2.1140   -20.3820 
  119.7500    63.7640    11.8370     8.7940     9.3890    23.2860     2.1180   -19.9040 
  119.8750    63.3180    11.8530     8.8700     9.3500    23.0290     2.1310   -19.3650 
  120.0000    63.4670    11.9150     8.9660     9.6110    22.8530     2.1540   -18.7720 
  120.1250    65.1590    11.9410     9.0350    10.2060    22.7740     2.1840   -18.1300 
  120.2500    68.4560    11.8030     8.9970    10.6820    22.7480     2.2130   -17.4490 
  120.3750    70.5460    11.3940     8.7750    10.3200    22.8100     2.2330   -16.7480 
  120.5000    69.1630    10.7210     8.3610     9.1990    23.0680     2.2480   -16.0630 
  120.6250    68.5590     9.8770     7.8010     8.2240    23.5040     2.2620   -15.4320 
  120.7500    74.4170     9.0470     7.2080     7.9560    23.8790     2.2750   -14.8960 
  120.8750    84.0760     8.4260     6.7190     7.8670    24.0540     2.2820   -14.4870 
  121.0000    88.8180     8.1270     6.4270     7.2680    24.1530     2.2740   -14.1980 
  121.1250    85.4990     8.1890     6.3810     6.8390    24.2150     2.2520   -14.0310 
  121.2500    76.9840     8.6040     6.6010     7.4510    24.1640     2.2260   -13.9840 
  121.3750    68.0820     9.2800     7.0540     8.7060    23.9790     2.2040   -14.0440 
  121.5000    63.7330    10.0570     7.6420     9.5570    23.7920     2.1830   -14.1450 
  121.6250    65.8380    10.8510     8.2930     9.7700    23.7270     2.1610   -14.2310 
  121.7500    69.3490    11.6920     8.9870    10.2320    23.7490     2.1440   -14.2620 
  121.8750    67.8330    12.6970     9.7620    11.0000    23.7120     2.1510   -14.1940 
  122.0000    62.2540    13.9090    10.6560    11.3360    23.5710     2.2020   -14.0160 
  122.1250    57.3840    15.2060    11.6190    11.8530    23.4260     2.2930   -13.7020 
  122.2500    54.7640    16.2900    12.4760    13.8190    23.4170     2.3910   -13.2450 
  122.3750    52.7520    16.9330    13.0480    16.5840    23.5700     2.4550   -12.6640 
  122.5000    51.2640    17.2960    13.3780    16.8760    23.7380     2.4810   -12.0370 
  122.6250    51.3130    17.8590    13.7180    14.2470    23.8560     2.4930   -11.4030 
  122.7500    52.3750    19.3490    14.5150    12.9700    23.9980     2.5210   -10.7940 
  122.8750    52.7940    22.3370    16.2140    16.5810    24.1980     2.5670   -10.2480 
  123.0000    51.0460    26.8510    19.0310    24.1210    24.3600     2.6060    -9.7860 
  123.1250    47.9400    32.5850    22.9930    31.0120    24.4080     2.6210    -9.4310 
  123.2500    45.1740    38.6520    27.6890    34.2240    24.3690     2.6140    -9.1890 
  123.3750    43.3940    43.8060    32.1910    35.6270    24.3210     2.6030    -9.0480 
  123.5000    42.2170    47.2800    35.6020    36.7000    24.3030     2.6050    -8.9670 
  123.6250    41.7340    49.1210    37.6860    37.8340    24.3070     2.6170    -8.9210 
  123.7500    41.6940    49.7250    38.6420    41.4530    24.3210     2.6240    -8.9070 
  123.8750    41.4810    49.4390    38.7780    45.5620    24.3460     2.6130    -8.9020 
  124.0000    41.8930    48.6220    38.4280    45.5940    24.3900     2.5880    -8.8910 
  124.1250    43.1830    47.6530    37.8540    43.1300    24.4400     2.5590    -8.8760 
  124.2500    43.5180    47.0370    37.3780    41.4930    24.4710     2.5450    -8.8580 
  124.3750    42.3130    47.1520    37.2750    41.4610    24.4790     2.5540    -8.8330 
