~V
VERS. 2.00: Ver 2.00
~W
STRT.M 50.0000:
STOP.M 273.0000:
STEP.M 0.1250:
NULL. -999.2500:
UWI. F10249:
~C
DEPT.M :
DEN.GM/CC :
GR.API :
RML.OHMM :
RI. :
RXO.OHMM :
CALI.CM :
SP.MV :
~A
# ...
  173.7500     2.2370    72.4780   116.7280   116.4430   103.5890    25.9180   -26.8240 
  173.8750     2.2440    68.9350   117.1170   116.5280    84.5510    25.9100   -26.6240 
  174.0000     2.2360    66.5510   121.7120   122.5280    89.2470    25.8980   -26.4910 
  174.1250     2.2190    67.6070   126.4690   130.8550   137.5980    25.8860   -26.3190 
  174.2500     2.2050    67.9300   126.5000   134.5240   186.7940    25.9010   -26.1350 
  174.3750     2.2060    66.8330   119.7200   129.1950   182.8850    25.9190   -25.9650 
  174.5000     2.2230    67.5860   107.6290   115.8660   144.2580    25.9410   -25.7920 
  174.6250     2.2470    72.3310    94.6660   100.3390    97.9180    25.9440   -25.6350 
  174.7500     2.2620    75.0060    84.8040    88.0850    63.4220    25.9680   -25.4690 
  174.8750     2.2600    73.5120    79.0850    80.4930    52.9460    26.0240   -25.2500 
  175.0000     2.2420    70.4760    76.9560    76.9300    66.3960    26.0940   -25.0240 
  175.1250     2.2160    69.0130    77.6360    76.3470    85.7420    26.1470   -24.8660 
  175.2500     2.1960    69.0350    79.9400    77.3170    84.6330    26.1580   -24.7360 
  175.3750     2.1870    69.8290    83.8200    79.6420    66.5480    26.1420   -24.5720 
  175.5000     2.1910    70.9690    89.7600    83.7230    62.6640    26.1060   -24.3900 
  175.6250     2.2040    71.2660    99.1940    91.1170    89.9660    26.0690   -24.2480 
  175.7500     2.2140    72.4470   112.4400   102.5630   125.9970    26.0200   -24.1010 
  175.8750     2.2160    74.0820   129.4570   118.4910   138.0860    25.9650   -23.9290 
  176.0000     2.2060    73.2130   148.8300   137.8870   128.5190    25.8840   -23.7550 
  176.1250     2.1900    68.9490   166.4490   156.8700   147.7340    25.7600   -23.5410 
  176.2500     2.1770    65.5600   177.3470   169.7120   179.0990    25.6260   -23.3010 
  176.3750     2.1710    63.7570   177.8960   172.0820   172.0340    25.5060   -23.1140 
  176.5000     2.1750    61.1400   167.3790   162.7060   134.6360    25.3620   -22.9420 
  176.6250     2.1890    57.8210   147.9630   143.4240   111.9900    25.2630   -22.6730 
  176.7500     2.2130    57.4840   126.4380   121.6690    92.4900    25.0780   -22.4440 
  176.8750     2.2420    60.0650   106.7460   101.8030    74.8730    24.7070   -22.2920 
  177.0000     2.2680    61.5500    90.7640    85.7740    66.0040    24.4030   -22.0920 
  177.1250     2.2750    60.4320    79.1840    74.2300    53.3920    24.4480   -21.8650 
  177.2500     2.2640    61.4710    70.6430    65.8000    42.7590    24.7570   -21.7080 
  177.3750     2.2420    66.1110    64.5410    59.8100    44.4350    25.0890   -21.5890 
  177.5000     2.2210    71.1210    60.5120    55.7660    48.1400    25.2800   -21.4630 
  177.6250     2.2110    71.2260    58.6410    53.7480    45.2050    25.3070   -21.3670 
  177.7500     2.2120    69.3050    58.3890    53.3130    42.4170    25.3200   -21.2510 
  177.8750     2.2220    70.6410    59.4300    54.1550    45.2390    25.3280   -21.1250 
  178.0000     2.2360    76.7550    61.3370    55.8750    49.9000    25.2900   -21.0510 
  178.1250     2.2530    81.4150    63.6260    58.0470    53.6910    25.2480   -21.0240 
  178.2500     2.2680    80.1800    65.7600    60.0730    55.7990    25.2280   -20.9620 
  178.3750     2.2760    76.2140    67.4680    61.5630    58.7940    25.1880   -20.8670 
  178.5000     2.2770    73.3590    68.6900    62.3860    63.9880    25.1200   -20.8100 
  178.6250     2.2740    71.3220    69.5310    62.6340    65.7630    25.0370   -20.7790 
  178.7500     2.2710    69.1560    70.3300    62.6860    64.5210    24.9540   -20.7590 
  178.8750     2.2700    67.7500    71.3580    62.8190    62.6910    24.8610   -20.7430 
  179.0000     2.2710    67.4810    72.8760    63.3100    61.2810    24.7330   -20.7270 
  179.1250     2.2690    67.8540    75.2100    64.5340    61.5900    24.4960   -20.6570 
  179.2500     2.2640    69.0900    78.2810    66.5110    64.6250    24.1260   -20.5780 
  179.3750     2.2590    71.4250    81.9100    69.1520    69.0350    23.7220   -20.5320 
  179.5000     2.2540    74.3950    85.7420    72.1980    74.0020    23.6470   -20.4600 
  179.6250     2.2500    76.5990    89.1040    75.1970    79.8230    24.0810   -20.3810 
  179.7500     2.2450    76.0710    91.2740    77.5660    82.6040    24.6780   -20.3430 
  179.8750     2.2390    72.1260    91.4570    78.5900    82.9500    25.0970   -20.3140 
  180.0000     2.2340    68.1520    89.0050    77.5030    81.0000    25.2710   -20.2380 
  180.1250     2.2360    67.9890    83.4100    73.5010    80.3540    25.2940   -20.1940 
  180.2500     2.2440    69.6370    76.0280    67.6130    80.0250    25.2530   -20.2320 
  180.3750     2.2560    68.9230    68.2880    61.1410    76.1170    25.1600   -20.2560 
  180.5000     2.2670    66.1840    61.6470    55.5200    62.2770    25.0640   -20.2450 
  180.6250     2.2700    67.2510    57.4950    52.2360    45.9870    25.0120   -20.2490 
  180.7500     2.2640    72.7780    55.5770    51.2680    39.8130    24.9970   -20.2800 
  180.8750     2.2540    76.6380    55.2290    52.1430    39.1490    25.0050   -20.3290 
  181.0000     2.2460    74.3980    55.3870    53.8650    41.0620    25.0120   -20.4030 
  181.1250     2.2480    70.3480    54.7260    54.8690    44.3220    24.9890   -20.4570 
  181.2500     2.2590    70.3110    52.6640    54.1180    47.5280    24.9870   -20.4730 
  181.3750     2.2740    72.4880    49.2350    51.4380    46.7700    25.0050   -20.5130 
  181.5000     2.2890    74.3660    44.8730    47.3390    39.1160    24.9900   -20.6130 
  181.6250     2.3020    75.4700    40.0760    42.4510    30.2910    24.9530   -20.7240 
  181.7500     2.3130    76.4040    35.3000    37.3100    24.1840    24.8730   -20.7940 
  181.8750     2.3250    76.8860    30.8340    32.1990    19.8540    24.7050   -20.8490 
  182.0000     2.3410    77.0300    27.0900    27.5950    17.7640    24.5120   -20.9360 
  182.1250     2.3590    78.6630    25.0040    24.3720    16.6950    24.3390   -21.0590 
  182.2500     2.3720    82.5500    25.2310    22.9260    15.0730    24.2030   -21.1520 
  182.3750     2.3700    85.0830    28.6830    23.8510    13.6240    24.1110   -21.2320 
  182.5000     2.3510    81.8390    36.3560    28.1800    14.0490    24.0670   -21.3170 
  182.6250     2.3150    73.3760    50.1220    38.5670    27.2280    24.0490   -21.4050 
  182.7500     2.2770    67.2660    69.1730    55.7370    72.9190    24.0660   -21.5010 
  182.8750     2.2480    65.0560    91.5090    79.0280   162.2150    24.1130   -21.6360 
  183.0000     2.2330    64.6440   112.7970   103.7790   190.8640    24.1860   -21.7680 
  183.1250     2.2320    64.9170   126.4620   120.2290   185.0080    24.2330   -21.8660 
  183.2500     2.2370    65.5700   131.6350   125.6130   175.6430    24.2980   -22.0310 
  183.3750     2.2390    66.4720   130.9560   123.5590   142.6920    24.4590   -22.2160 
  183.5000     2.2340    67.9880   128.8130   119.4520   113.0560    24.7920   -22.3460 
  183.6250     2.2230    69.4450   129.4120   117.3630   108.9550    25.2060   -22.4820 
  183.7500     2.2090    68.4570   134.0190   118.7640   114.0830    25.4370   -22.6570 
  183.8750     2.1970    65.3930   142.7080   124.2470   123.0530    25.4940   -22.8170 
  184.0000     2.1870    64.5580   154.5440   133.4930   134.0780    25.4610   -22.9800 
  184.1250     2.1820    67.3010   167.1920   145.0880   184.0690    25.4470   -23.1550 
  184.2500     2.1800    68.6620   177.2360   155.7540   237.2070    25.4500   -23.2820 
  184.3750     2.1810    65.7820   182.3080   162.8440   247.9170    25.4580   -23.4040 
  184.5000     2.1860    61.9490   181.6990   165.0220   213.1570    25.4790   -23.5900 
  184.6250     2.1890    62.2980   176.1370   162.4290   175.9250    25.5260   -23.7870 
  184.7500     2.1890    63.6970   168.6870   157.7960   165.0280    25.5650   -23.9290 
  184.8750     2.1840    62.7290   160.8510   152.6130   159.2970    25.5800   -24.0440 
