~V
VERS. 2.00: Ver 2.00
~W
STRT.M 50.0000:
STOP.M 271.0000:
STEP.M 0.1250:
NULL. -999.2500:
UWI. F10251:
~C
DEPT.M :
DEN.GM/CC :
GR.API :
RML.OHMM :
RI. :
RXO.OHMM :
CALI.CM :
SP.MV :
~A
# ...
   61.2500     2.3010    80.4200     8.3160     6.2080     7.9850    23.4280   -10.0040 
   61.3750     2.2960    84.7660     8.3070     6.3320     7.8620    23.5800   -10.0950 
   61.5000     2.3000    93.4580     8.0060     6.2040     7.5220    23.7610   -10.0430 
   61.6250     2.3160    94.7910     7.5280     5.8840     6.9190    23.9640    -9.9600 
   61.7500     2.3310    94.2890     7.0290     5.5060     6.5670    24.0870    -9.9840 
   61.8750     2.3360    98.4160     6.5860     5.1360     6.4500    24.1300   -10.0720 
   62.0000     2.3270   103.4760     6.2440     4.8180     6.4690    24.1190   -10.1760 
   62.1250     2.3110   102.9120     6.0620     4.6070     6.3810    24.0950   -10.3540 
   62.2500     2.2980   100.2830     6.0540     4.5280     6.1300    24.0140   -10.7090 
   62.3750     2.2850    97.9890     6.2600     4.6100     5.9480    23.8940   -11.2430 
   62.5000     2.2650    93.4620     6.7050     4.8780     6.1030    23.7320   -11.9010 
   62.6250     2.2320    86.5670     7.4040     5.3700     6.9290    23.5810   -12.5920 
   62.7500     2.1970    80.9970     8.1920     5.9900     8.2680    23.4650   -13.2010 
   62.8750     2.1780    77.8200     8.8640     6.6000     9.1630    23.4290   -13.6490 
   63.0000     2.1810    77.0570     9.2060     7.0140     9.5650    23.4590   -13.9080 
   63.1250     2.2060    77.2860     9.0600     7.0410     9.5920    23.5410   -13.9290 
   63.2500     2.2370    79.7690     8.6250     6.7760     9.0570    23.6820   -13.7270 
   63.3750     2.2660    86.9360     8.1190     6.3730     7.8730    23.8050   -13.3650 
   63.5000     2.2850    95.7200     7.7190     5.9900     7.1740    23.8180   -12.9360 
   63.6250     2.2900    97.5770     7.5140     5.7260     7.2710    23.7130   -12.3820 
   63.7500     2.2960    95.0150     7.4050     5.5490     7.7290    23.6720   -11.7240 
   63.8750     2.3110    94.7640     7.2930     5.4090     7.7560    23.7440   -11.1570 
   64.0000     2.3320    96.6690     7.1250     5.2630     7.6500    23.8160   -10.7680 
   64.1250     2.3510    96.1010     6.9420     5.1120     6.9170    23.9020   -10.4620 
   64.2500     2.3680    95.3530     6.8390     5.0010     6.3430    24.0120   -10.1870 
   64.3750     2.3810    98.6380     6.8550     4.9570     6.1230    24.1050    -9.9940 
   64.5000     2.3910   103.2230     6.9470     4.9730     6.5320    24.1320    -9.8320 
   64.6250     2.3940   103.3570     7.0070     5.0030     7.3760    24.1080    -9.7620 
   64.7500     2.3850   101.8540     6.9760     5.0060     7.2760    24.1040    -9.8560 
   64.8750     2.3650   102.8420     6.9030     4.9860     6.4290    24.1170   -10.0190 
   65.0000     2.3350   106.1150     6.9090     4.9920     5.9100    24.1070   -10.2090 
   65.1250     2.3000   104.6480     7.1750     5.1180     6.0960    24.0580   -10.5660 
   65.2500     2.2620    96.9810     7.7250     5.4040     6.4650    23.9150   -11.0630 
   65.3750     2.2280    90.7890     8.4880     5.8430     7.0010    23.6980   -11.5600 
   65.5000     2.2040    90.5720     9.2710     6.3530     7.3800    23.4850   -12.0450 
   65.6250     2.1970    89.8670     9.6990     6.7200     8.1330    23.3450   -12.5110 
   65.7500     2.2100    83.6690     9.5530     6.7470     8.3150    23.3040   -12.8310 
   65.8750     2.2410    78.4790     8.8590     6.3860     7.9500    23.3470   -12.9960 
   66.0000     2.2820    81.5390     7.9500     5.7960     7.2850    23.5100   -13.1360 
   66.1250     2.3170    92.3160     7.3770     5.3000     6.4630    23.7630   -13.2450 
   66.2500     2.3380   100.6880     7.4210     5.1200     6.0580    23.9710   -13.2570 
   66.3750     2.3480   100.6670     8.1570     5.3430     6.7430    24.0530   -13.2740 
   66.5000     2.3540    92.5260     9.4740     5.9630     9.3140    24.0130   -13.4520 
   66.6250     2.3430    83.8900    10.9700     6.8420    14.1340    23.8070   -13.8080 
   66.7500     2.3030    79.3800    11.9860     7.5960    13.5360    23.5300   -14.2720 
   66.8750     2.2480    77.4330    12.1550     7.9350    10.6990    23.3480   -14.8730 
   67.0000     2.2080    75.9500    11.5890     7.8050     9.1150    23.2990   -15.5440 
   67.1250     2.1980    74.2170    10.7860     7.4100     8.5890    23.3350   -16.2250 
   67.2500     2.1960    72.7900    10.2350     7.0690     8.5000    23.3660   -16.9220 
   67.3750     2.1890    73.2570    10.0510     6.9080     8.8150    23.4000   -17.5640 
   67.5000     2.1740    74.0770    10.1350     6.9260     9.1200    23.4410   -18.0200 
   67.6250     2.1610    71.1680    10.3080     7.0430     9.2830    23.4340   -18.2690 
   67.7500     2.1550    67.3780    10.4530     7.1600     9.1470    23.3750   -18.4620 
   67.8750     2.1550    67.1460    10.5610     7.2410     9.0150    23.2740   -18.5590 
   68.0000     2.1620    70.7700    10.6510     7.2820     9.0920    23.1730   -18.5130 
   68.1250     2.1740    74.6260    10.7350     7.2950     9.2270    23.1070   -18.3390 
   68.2500     2.1860    78.0910    10.8150     7.3020     9.2940    23.0780   -18.1030 
   68.3750     2.1930    80.2350    10.8880     7.3190     9.4130    23.0720   -17.8310 
   68.5000     2.1920    78.1730    10.9480     7.3430     9.5700    23.0550   -17.5170 
   68.6250     2.1860    72.5950    10.9540     7.3430     9.6110    23.0240   -17.1610 
   68.7500     2.1850    70.5570    10.8680     7.2830     9.4890    22.9800   -16.7990 
   68.8750     2.1930    72.9070    10.6630     7.1440     9.2800    22.9670   -16.4690 
   69.0000     2.2120    76.2720    10.3420     6.9260     9.0870    23.0360   -16.1540 
   69.1250     2.2370    79.3430     9.9440     6.6540     8.5250    23.1280   -15.8320 
   69.2500     2.2620    83.1330     9.5610     6.3900     7.9600    23.1630   -15.5830 
   69.3750     2.2780    86.4520     9.2710     6.1810     7.9960    23.1020   -15.4760 
   69.5000     2.2840    86.0780     9.1370     6.0640     8.4980    22.9920   -15.5060 
   69.6250     2.2820    81.9650     9.2410     6.0920     8.7380    22.8870   -15.5880 
   69.7500     2.2770    77.8510     9.5680     6.2640     9.0140    22.8100   -15.7000 
   69.8750     2.2750    75.2880    10.0840     6.5770     8.8680    22.8100   -15.9460 
   70.0000     2.2800    73.6480    10.7190     7.0040     8.8590    22.8240   -16.3400 
   70.1250     2.3030    71.6320    11.3440     7.4830     9.8160    22.8620   -16.7860 
   70.2500     2.3380    68.7820    11.8130     7.9030    12.7610    22.9690   -17.1510 
   70.3750     2.3630    64.7330    12.0230     8.1720    17.2670    23.0950   -17.4530 
   70.5000     2.3440    61.2410    11.9320     8.2380    16.9730    23.1360   -17.7730 
   70.6250     2.2730    62.1950    11.5770     8.0940    12.6240    23.0810   -18.0780 
   70.7500     2.2060    65.6130    11.1390     7.8510    10.4210    23.0070   -18.3030 
   70.8750     2.1720    68.5840    10.7340     7.5900     9.6540    22.9780   -18.4560 
   71.0000     2.1620    69.2520    10.4320     7.3660     9.3360    22.9740   -18.5280 
   71.1250     2.1610    68.9590    10.2700     7.2170     9.1640    22.9770   -18.5370 
   71.2500     2.1630    69.8480    10.2110     7.1320     9.2120    23.0080   -18.5160 
   71.3750     2.1690    72.5150    10.2220     7.0990     9.4450    23.1090   -18.4160 
   71.5000     2.1780    74.0550    10.2660     7.0990     9.7710    23.2750   -18.2030 
   71.6250     2.1920    73.1240    10.2930     7.1160    10.5000    23.4410   -18.0180 
   71.7500     2.2040    72.2050    10.2590     7.1260    11.0830    23.5480   -17.8850 
   71.8750     2.2060    72.1480    10.1500     7.1150    10.7020    23.5640   -17.6970 
   72.0000     2.1950    72.9320    10.0010     7.0860    10.1440    23.4970   -17.4940 
   72.1250     2.1810    73.3890     9.9050     7.0740     9.7930    23.4170   -17.3880 
   72.2500     2.1740    71.9150     9.9250     7.1150     9.7850    23.3940   -17.3860 
   72.3750     2.1710    68.7200    10.0770     7.2320    10.0320    23.4330   -17.4350 
