~V
VERS. 2.00: Ver 2.00
~W
STRT.M 56.0000:
STOP.M 270.0000:
STEP.M 0.1250:
NULL. -999.2500:
UWI. F10225:
~C
DEPT.M :
SP.MV :
DEN.GM/CC :
GR.API :
RML.OHMM :
RI. :
RXO.OHMM :
CALI.CM :
~A
# ...
   67.2500   -31.8540     2.2060    65.4890     8.0710     6.7910    10.0430    26.8180 
   67.3750   -31.5360     2.2380    70.8690     7.6330     6.3530     8.1230    26.6760 
   67.5000   -31.3010     2.2430    72.9300     7.5970     6.2030     7.2710    26.4180 
   67.6250   -31.2080     2.2190    69.9530     8.0530     6.4200     7.6610    26.0880 
   67.7500   -31.2280     2.1860    63.5590     8.8450     6.9260     9.3580    25.7510 
   67.8750   -31.3850     2.1620    56.1850     9.7300     7.5820    11.5280    25.4550 
   68.0000   -31.6460     2.1510    50.2200    10.4380     8.2130    13.1000    25.2370 
   68.1250   -31.9760     2.1470    48.8660    10.7310     8.6060    12.9860    25.1900 
   68.2500   -32.3390     2.1490    51.4830    10.6860     8.7210    12.3780    25.2780 
   68.3750   -32.6950     2.1540    53.8280    10.5120     8.6440    12.1940    25.4100 
   68.5000   -33.0270     2.1610    52.4270    10.3890     8.5050    12.3890    25.4960 
   68.6250   -33.3160     2.1670    48.9740    10.3930     8.4070    12.6690    25.5210 
   68.7500   -33.5990     2.1710    47.2280    10.4500     8.3570    12.8860    25.5100 
   68.8750   -33.8480     2.1770    47.5620    10.4630     8.3120    13.2310    25.4850 
   69.0000   -34.0580     2.1870    48.5370    10.3870     8.2290    13.4940    25.4730 
   69.1250   -34.2700     2.1940    50.1310    10.2490     8.1060    13.2990    25.4910 
   69.2500   -34.4920     2.1950    52.2720    10.1320     7.9880    12.4720    25.5320 
   69.3750   -34.7160     2.1900    53.3070    10.1010     7.9210    11.6300    25.5510 
   69.5000   -34.9380     2.1770    52.9350    10.1730     7.9190    11.5570    25.5120 
   69.6250   -35.1620     2.1620    53.6870    10.3080     7.9680    12.2900    25.4370 
   69.7500   -35.3630     2.1510    55.5080    10.4280     8.0200    12.7820    25.3560 
   69.8750   -35.5430     2.1450    55.9840    10.4810     8.0480    12.8900    25.3060 
   70.0000   -35.7090     2.1390    54.4890    10.4660     8.0480    12.6650    25.3160 
   70.1250   -35.8420     2.1370    52.8640    10.4300     8.0390    13.0560    25.3630 
   70.2500   -35.9400     2.1450    52.4900    10.4250     8.0400    13.3950    25.3680 
   70.3750   -36.0130     2.1580    52.6690    10.4670     8.0560    13.2740    25.2680 
   70.5000   -36.0570     2.1710    53.3400    10.5320     8.0800    12.8940    25.0910 
   70.6250   -36.0420     2.1770    54.3830    10.5700     8.1000    12.7480    25.0400 
   70.7500   -35.9950     2.1780    54.2000    10.5600     8.1100    12.9260    25.0590 
   70.8750   -35.9650     2.1740    52.4610    10.5100     8.1020    13.2670    25.0630 
   71.0000   -35.9480     2.1640    49.4790    10.4450     8.0780    13.6970    25.0730 
   71.1250   -35.9380     2.1440    45.9170    10.3900     8.0350    14.0050    25.1830 
   71.2500   -35.9280     2.1220    43.4930    10.3500     7.9790    14.0190    25.3770 
   71.3750   -35.9140     2.1090    43.0510    10.3090     7.9180    14.0550    25.5510 
   71.5000   -35.9030     2.1100    43.8120    10.2500     7.8510    14.2730    25.6340 
   71.6250   -35.9060     2.1220    44.1010    10.1510     7.7620    14.3890    25.6300 
   71.7500   -35.9100     2.1340    44.2750    10.0130     7.6440    14.1900    25.6470 
   71.8750   -35.9040     2.1380    44.9440     9.8540     7.5040    13.7580    25.7380 
   72.0000   -35.9010     2.1370    46.4170     9.7060     7.3640    13.1860    25.8330 
   72.1250   -35.9030     2.1360    48.6030     9.6150     7.2600    12.6540    25.8630 
   72.2500   -35.9270     2.1370    50.0480     9.5990     7.2100    12.3830    25.8910 
   72.3750   -35.9890     2.1360    49.4310     9.6480     7.2120    12.4900    25.9480 
   72.5000   -36.0700     2.1310    47.5800     9.7310     7.2490    12.6410    26.0160 
   72.6250   -36.1720     2.1240    45.9910     9.8100     7.3070    12.7790    26.0880 
   72.7500   -36.3130     2.1190    45.8250     9.8760     7.3710    13.1720    26.1750 
   72.8750   -36.4570     2.1200    46.9920     9.9540     7.4360    13.6370    26.3040 
   73.0000   -36.5720     2.1250    48.1800    10.0790     7.5140    13.6710    26.4960 
   73.1250   -36.6630     2.1350    47.9180    10.2720     7.6210    13.5080    26.6600 
   73.2500   -36.7150     2.1520    47.1220    10.4980     7.7510    13.7300    26.7520 
   73.3750   -36.7010     2.1810    46.6480    10.6890     7.8770    15.1630    26.7780 
   73.5000   -36.6380     2.2100    46.1630    10.7730     7.9540    18.0580    26.7380 
   73.6250   -36.5500     2.2060    46.0420    10.6760     7.9180    20.3670    26.6100 
   73.7500   -36.4530     2.1710    45.9470    10.4290     7.7740    17.9100    26.4430 
   73.8750   -36.3540     2.1330    45.9390    10.1160     7.5670    14.9380    26.3220 
   74.0000   -36.2490     2.1160    46.5650     9.8370     7.3630    13.6020    26.2700 
   74.1250   -36.1380     2.1240    48.0800     9.7070     7.2320    13.4830    26.2470 
   74.2500   -36.0460     2.1410    49.1370     9.7530     7.1990    13.7610    26.2260 
   74.3750   -36.0100     2.1570    48.3970     9.9360     7.2520    14.1580    26.1980 
   74.5000   -36.0140     2.1730    45.8930    10.1690     7.3540    14.6330    26.1690 
   74.6250   -36.0050     2.1870    43.3460    10.3360     7.4570    16.4770    26.1320 
   74.7500   -35.9550     2.1920    43.1810    10.3680     7.5190    19.2660    26.0950 
   74.8750   -35.8660     2.1810    46.6450    10.2580     7.5200    19.1050    26.0400 
   75.0000   -35.7620     2.1620    50.7010    10.0590     7.4630    16.7740    25.9540 
   75.1250   -35.6550     2.1460    50.7930     9.8650     7.3740    14.8000    25.8550 
   75.2500   -35.5360     2.1370    48.1750     9.7390     7.2880    13.7140    25.7800 
   75.3750   -35.3620     2.1350    46.8720     9.6930     7.2290    13.0930    25.7370 
   75.5000   -35.1110     2.1370    48.4890     9.7080     7.2040    12.8320    25.7040 
   75.6250   -34.8230     2.1380    50.2370     9.7580     7.2120    12.9570    25.6760 
   75.7500   -34.5350     2.1320    50.5470     9.8330     7.2460    13.0050    25.6560 
   75.8750   -34.2290     2.1160    50.2280     9.9490     7.3110    12.8270    25.6470 
   76.0000   -33.8720     2.0940    49.3370    10.1100     7.4060    12.6180    25.7040 
   76.1250   -33.4210     2.0760    47.7720    10.2520     7.5020    12.4210    25.9520 
   76.2500   -32.8640     2.0670    47.3380    10.2600     7.5300    12.4640    26.4250 
   76.3750   -32.2150     2.0740    50.0790    10.0360     7.4210    12.7500    26.9560 
   76.5000   -31.5270     2.1020    54.5080     9.5660     7.1520    12.4830    27.3050 
   76.6250   -30.8490     2.1520    58.0830     8.9520     6.7700    10.8890    27.1860 
   76.7500   -30.1730     2.1990    60.7170     8.3980     6.3990     9.2360    26.6350 
   76.8750   -29.5110     2.2200    62.2120     8.0650     6.1490     8.8300    25.9240 
   77.0000   -28.8740     2.2150    61.2410     8.0140     6.0760     9.7480    25.3730 
   77.1250   -28.2790     2.2010    59.1430     8.2390     6.2090    11.2240    25.1110 
   77.2500   -27.7480     2.1900    59.6700     8.6250     6.4940    13.2380    24.9980 
   77.3750   -27.2930     2.1830    62.5760     9.0810     6.8690    15.7450    24.9310 
   77.5000   -26.8790     2.1780    65.2660     9.5370     7.2740    16.8110    24.8740 
   77.6250   -26.4110     2.1760    66.6670     9.8920     7.6100    16.9700    24.7880 
   77.7500   -25.8650     2.1770    67.3380    10.0310     7.7660    14.8940    24.6790 
   77.8750   -25.2760     2.1840    67.5710     9.8380     7.6420    13.8670    24.5520 
   78.0000   -24.6660     2.2050    69.1310     9.2550     7.1940    13.2970    24.5040 
   78.1250   -24.0510     2.2470    74.1980     8.3220     6.4580    11.5290    24.7290 
   78.2500   -23.4610     2.2960    80.9870     7.2700     5.6170     8.6440    25.1400 
   78.3750   -22.9560     2.3360    86.7400     6.3410     4.8480     6.4720    25.4610 
