~V
VERS. 2.00: Ver 2.00
~W
STRT.M 50.0000:
STOP.M 270.0000:
STEP.M 0.1250:
NULL. -999.2500:
UWI. F10223:
~C
DEPT.M :
GR.API :
RML.OHMM :
RI. :
RXO.OHMM :
CALI.CM :
DEN.GM/CC :
SP.MV :
~A
# ...
  151.2500   105.9870     5.4040     4.5380     5.7020    23.2810     2.3600   -20.0380 
  151.3750   100.8100     5.1510     4.3700     4.9390    23.2420     2.3510   -20.0700 
  151.5000    93.5160     4.9340     4.2020     4.5300    23.1530     2.3530   -20.1250 
  151.6250    91.2530     4.8610     4.1150     4.7890    22.8920     2.3640   -20.2190 
  151.7500    93.4220     4.9490     4.1370     5.1950    22.4780     2.3750   -20.3400 
  151.8750    93.6050     5.2010     4.2810     5.5180    22.1630     2.3840   -20.4800 
  152.0000    90.1410     5.6080     4.5450     5.3980    22.0280     2.3900   -20.6470 
  152.1250    86.3190     6.1700     4.9320     5.9850    22.0470     2.3940   -20.8070 
  152.2500    81.7930     6.8160     5.3980     7.5760    22.0640     2.3970   -20.9480 
  152.3750    77.5860     7.4610     5.9020     9.9120    22.0620     2.3980   -21.0750 
  152.5000    77.9660     7.9950     6.3730    10.2310    22.0820     2.3940   -21.1690 
  152.6250    83.7320     8.3020     6.7140     9.8450    22.1960     2.3840   -21.2240 
  152.7500    89.2960     8.4490     6.9360     9.1390    22.3720     2.3670   -21.2660 
  152.8750    92.1390     8.5580     7.1060     9.1620    22.5090     2.3500   -21.2990 
  153.0000    91.7750     8.7520     7.3180     9.3780    22.5540     2.3360   -21.3320 
  153.1250    86.7080     9.1510     7.6810     9.5820    22.4610     2.3270   -21.4180 
  153.2500    80.6060     9.7630     8.2210    10.2180    22.3210     2.3210   -21.5230 
  153.3750    80.5390    10.5940     8.9440    11.8220    22.3420     2.3220   -21.6130 
  153.5000    84.4430    11.6310     9.8440    13.2330    22.6220     2.3300   -21.7010 
  153.6250    82.6090    12.8130    10.9060    14.7120    23.0470     2.3380   -21.7850 
  153.7500    76.6520    13.8380    11.9290    16.5830    23.2590     2.3400   -21.8400 
  153.8750    74.1830    14.2770    12.5640    18.4970    23.5040     2.3350   -21.8730 
  154.0000    78.6390    13.7390    12.4200    18.6920    23.8540     2.3220   -21.8880 
  154.1250    85.7600    12.0570    11.2340    17.4870    24.0340     2.3020   -21.8830 
  154.2500    89.0100     9.8960     9.5340    14.1510    24.0340     2.2860   -21.8800 
  154.3750    90.7220     7.8390     7.8110     9.7150    23.9850     2.2840   -21.9100 
  154.5000    95.0410     6.2720     6.4060     6.7210    23.9800     2.2920   -21.9650 
  154.6250    99.9950     5.3800     5.5120     5.6670    24.0070     2.3010   -22.0420 
  154.7500   100.5110     4.9550     5.0210     5.4510    24.0140     2.3060   -22.1400 
  154.8750    98.2730     4.8690     4.8640     5.3600    24.0070     2.3100   -22.2480 
  155.0000    97.0350     5.0190     4.9700     5.3140    23.9870     2.3140   -22.3590 
  155.1250    96.2960     5.3450     5.3030     5.4540    23.9810     2.3190   -22.4370 
  155.2500    96.1590     5.7690     5.7690     5.8990    23.9890     2.3250   -22.5100 
  155.3750    97.0160     6.2460     6.3140     6.5060    24.0050     2.3310   -22.5730 
  155.5000    96.0260     6.7130     6.8760     7.2120    24.0180     2.3350   -22.6370 
  155.6250    90.9340     7.0870     7.3650     7.5700    24.0340     2.3360   -22.7030 
  155.7500    86.7880     7.3450     7.7230     7.8550    24.0570     2.3320   -22.7880 
  155.8750    86.3990     7.4890     7.9170     7.9620    24.0710     2.3260   -22.9000 
  156.0000    90.2000     7.5370     7.9460     7.8670    24.1010     2.3210   -23.0250 
  156.1250    95.3660     7.4830     7.8080     7.6810    24.1260     2.3180   -23.1800 
  156.2500    98.0780     7.3110     7.5400     7.5690    24.0500     2.3160   -23.3140 
  156.3750    96.5290     6.9880     7.1470     7.4810    23.9220     2.3140   -23.4240 
  156.5000    93.7940     6.5390     6.6640     7.4010    23.7970     2.3080   -23.5350 
  156.6250    92.9400     6.1600     6.2290     7.3500    23.6560     2.3020   -23.6440 
  156.7500    91.7820     6.1660     6.0540     7.6420    23.5450     2.2960   -23.7410 
  156.8750    87.8650     6.9400     6.3750     8.2120    23.5010     2.2900   -23.8340 
  157.0000    81.7900     8.9500     7.4990    10.4190    23.4290     2.2790   -23.9410 
  157.1250    74.4510    13.1110    10.1980    17.2890    23.1610     2.2650   -24.0780 
  157.2500    66.7900    19.6870    15.0390    31.6980    22.5810     2.2680   -24.2760 
  157.3750    60.0770    28.8110    22.7290    44.3060    22.2560     2.2930   -24.5060 
  157.5000    55.8160    39.5320    33.1410    46.4440    22.4080     2.3190   -24.7570 
  157.6250    56.3370    48.4600    43.4420    48.4020    23.0380     2.3060   -25.0090 
  157.7500    58.9700    52.9180    49.7720    51.0400    23.7330     2.2660   -25.2440 
  157.8750    60.8140    53.5420    51.8110    53.1920    24.2450     2.2320   -25.4510 
  158.0000    60.7040    52.8490    51.7700    53.1000    24.4820     2.2140   -25.6210 
  158.1250    60.7340    52.7280    51.6210    52.2060    24.5250     2.2100   -25.7390 
  158.2500    63.3410    53.2670    51.8760    53.5260    24.5210     2.2100   -25.8210 
  158.3750    66.6990    54.0590    52.3760    54.4990    24.5150     2.2130   -25.8840 
  158.5000    68.2440    54.6500    52.8300    54.0850    24.5230     2.2160   -25.9230 
  158.6250    67.4120    54.4940    52.7820    53.7580    24.5240     2.2200   -25.9530 
  158.7500    65.9860    53.5010    52.0620    53.6200    24.5120     2.2230   -26.0110 
  158.8750    65.7660    51.8080    50.7210    53.7390    24.4910     2.2240   -26.1050 
  159.0000    66.8680    49.7720    49.0310    53.1100    24.4710     2.2230   -26.2200 
  159.1250    64.6450    47.8690    47.3880    49.2300    24.4380     2.2210   -26.3400 
  159.2500    60.1840    46.3840    46.0560    44.1880    24.3960     2.2180   -26.4260 
  159.3750    57.3260    45.3530    45.0990    42.4030    24.3740     2.2170   -26.4890 
  159.5000    58.9900    44.6020    44.4050    44.2700    24.3860     2.2180   -26.5410 
  159.6250    61.6650    43.8260    43.7280    44.8630    24.4000     2.2230   -26.5950 
  159.7500    61.3360    42.8300    42.8660    44.5700    24.4400     2.2280   -26.6280 
  159.8750    59.3650    41.6540    41.8120    42.8750    24.4880     2.2300   -26.6430 
  160.0000    58.6760    40.5420    40.7470    40.0150    24.5050     2.2290   -26.6540 
  160.1250    60.8490    39.9450    40.0760    38.9690    24.4760     2.2270   -26.6870 
  160.2500    62.1810    39.9920    39.9950    39.4280    24.4250     2.2250   -26.7440 
  160.3750    59.8180    40.5510    40.4570    40.8630    24.3810     2.2210   -26.8020 
  160.5000    55.7490    41.2470    41.1430    42.5580    24.3830     2.2170   -26.8650 
  160.6250    54.0830    41.5370    41.5230    44.6880    24.4390     2.2170   -26.9030 
  160.7500    56.5360    41.1930    41.3000    45.5640    24.5140     2.2200   -26.9100 
  160.8750    61.3140    40.2610    40.4670    43.5930    24.5700     2.2240   -26.8800 
  161.0000    66.4100    38.9950    39.2370    39.9090    24.5980     2.2310   -26.8200 
  161.1250    69.7240    37.7650    37.9350    37.3560    24.5320     2.2360   -26.7380 
  161.2500    69.9440    36.8110    36.8180    37.4960    24.5530     2.2380   -26.6570 
  161.3750    67.1200    36.1610    35.9450    37.2020    24.6180     2.2370   -26.6030 
  161.5000    63.2290    35.6760    35.2350    36.9000    24.6510     2.2410   -26.5550 
  161.6250    62.7500    35.0600    34.4620    35.6950    24.6090     2.2510   -26.5100 
  161.7500    65.3420    34.1150    33.4310    35.3600    24.6250     2.2600   -26.4890 
  161.8750    66.3400    32.8440    32.1130    34.7440    24.6380     2.2660   -26.4830 
  162.0000    64.9910    31.4370    30.6500    32.5680    24.6240     2.2680   -26.4730 
  162.1250    64.9500    30.2390    29.3330    30.0940    24.6360     2.2680   -26.4340 
  162.2500    66.6190    29.4870    28.3910    29.1730    24.6580     2.2690   -26.3710 
  162.3750    68.4310    29.3030    27.9450    29.1660    24.6240     2.2730   -26.2890 
