~V
VERS. 2.00: Ver 2.00
~W
STRT.M 50.0000:
STOP.M 270.0000:
STEP.M 0.1250:
NULL. -999.2500:
UWI. F10223:
~C
DEPT.M :
GR.API :
RML.OHMM :
RI. :
RXO.OHMM :
CALI.CM :
DEN.GM/CC :
SP.MV :
~A
# ...
  106.2500    68.3290     8.9050     7.5380     9.5560    20.7950     2.2270   -27.8400 
  106.3750    74.4430     8.6720     7.3310     9.3140    20.5570     2.2420   -27.6070 
  106.5000    75.9660     8.3980     7.0780     8.7530    20.4410     2.2600   -27.4050 
  106.6250    72.1880     8.1350     6.8230     8.0230    20.4450     2.2760   -27.2690 
  106.7500    69.3580     7.9580     6.6250     7.4700    20.6350     2.2890   -27.2020 
  106.8750    69.6750     7.9250     6.5250     7.3670    21.0500     2.2940   -27.1860 
  107.0000    70.1560     8.0520     6.5350     7.7110    21.4280     2.2840   -27.1950 
  107.1250    65.8160     8.3060     6.6550     8.3590    21.6360     2.2600   -27.2030 
  107.2500    61.7360     8.5700     6.8190     8.8170    21.6880     2.2370   -27.1910 
  107.3750    63.7530     8.7640     6.9710     8.8350    21.6830     2.2190   -27.1550 
  107.5000    68.0860     8.8520     7.0650     8.5750    21.6320     2.2050   -27.0950 
  107.6250    67.2700     8.8480     7.0830     8.4240    21.5550     2.1950   -26.9920 
  107.7500    64.6860     8.8280     7.0680     8.5030    21.5190     2.1920   -26.8520 
  107.8750    64.6360     8.8330     7.0570     8.6910    21.5200     2.1940   -26.7080 
  108.0000    66.1560     8.8720     7.0730     9.0100    21.5610     2.1970   -26.5670 
  108.1250    66.1080     8.9310     7.1110     9.3920    21.6680     2.2000   -26.4120 
  108.2500    64.7410     8.9840     7.1500     9.7290    21.7880     2.2030   -26.2700 
  108.3750    62.3190     9.0300     7.1820     9.7550    21.8790     2.2060   -26.1230 
  108.5000    59.6890     9.0800     7.2120     9.4780    21.9340     2.2080   -25.9480 
  108.6250    60.1910     9.1500     7.2540     9.1790    21.9390     2.2060   -25.7550 
  108.7500    64.6490     9.2230     7.3030     9.0030    21.9360     2.2050   -25.5160 
  108.8750    70.0200     9.2600     7.3460     8.8710    21.9330     2.2060   -25.2230 
  109.0000    71.6530     9.2350     7.3670     8.7520    21.9260     2.2080   -24.8960 
  109.1250    68.4650     9.1720     7.3750     9.0020    21.8340     2.2110   -24.5700 
  109.2500    65.3940     9.1790     7.4160     9.4620    21.6880     2.2140   -24.2350 
  109.3750    64.8680     9.3520     7.5400     9.7110    21.5970     2.2190   -23.9000 
  109.5000    65.5660     9.7010     7.7630     9.7730    21.6420     2.2250   -23.5810 
  109.6250    65.9830    10.0660     8.0160    10.0390    21.7220     2.2380   -23.2810 
  109.7500    66.8520    10.1560     8.1220    10.7990    21.7040     2.2590   -22.9910 
  109.8750    70.2590     9.7480     7.9140    11.6380    21.6590     2.2890   -22.6910 
  110.0000    77.2580     8.8270     7.3370    10.7000    21.7180     2.3230   -22.3700 
  110.1250    86.8800     7.6420     6.5100     8.1260    22.0190     2.3430   -22.0320 
  110.2500    95.6450     6.6170     5.7280     5.9690    22.5230     2.3450   -21.7120 
  110.3750   102.2390     5.9600     5.1590     5.0430    23.0670     2.3380   -21.4340 
  110.5000   105.3210     5.7060     4.8640     4.9020    23.3300     2.3300   -21.2010 
  110.6250   105.8590     5.7790     4.8420     5.1900    23.2090     2.3220   -21.0250 
  110.7500   106.1100     5.9470     4.9540     5.4760    23.0530     2.3150   -20.9190 
  110.8750   105.9410     6.0720     5.0960     5.5540    23.1340     2.3120   -20.9090 
  111.0000   104.1360     6.0900     5.2010     5.6420    23.3520     2.3150   -20.9790 
  111.1250   103.1120     5.9950     5.2250     5.6020    23.4660     2.3240   -21.0850 
  111.2500   103.8240     5.8490     5.1860     5.6810    23.4830     2.3320   -21.2040 
  111.3750   105.7400     5.6850     5.0970     5.8830    23.4890     2.3430   -21.3130 
  111.5000   109.5840     5.5160     4.9790     6.2040    23.5140     2.3580   -21.4040 
  111.6250   114.3260     5.3630     4.8580     5.7730    23.5050     2.3740   -21.4730 
  111.7500   116.6150     5.2560     4.7660     5.2690    23.4720     2.3810   -21.5310 
  111.8750   117.0240     5.2280     4.7230     5.0860    23.4120     2.3770   -21.5830 
  112.0000   117.6190     5.2910     4.7340     5.1580    23.3020     2.3690   -21.6510 
  112.1250   114.0020     5.4370     4.8000     5.3390    23.3620     2.3610   -21.7680 
  112.2500   106.7210     5.6000     4.8860     5.3730    23.4040     2.3550   -21.9190 
  112.3750   103.0200     5.7180     4.9520     5.3550    23.3630     2.3520   -22.1010 
  112.5000   104.2970     5.7380     4.9490     5.4050    23.2960     2.3560   -22.3140 
  112.6250   105.2210     5.6050     4.8300     5.2830    23.2680     2.3620   -22.5360 
  112.7500   105.4780     5.3600     4.6180     5.0870    23.2560     2.3670   -22.7700 
  112.8750   107.1820     5.0560     4.3580     4.9200    23.2290     2.3750   -22.9820 
  113.0000   109.9410     4.7700     4.1050     4.8170    23.1920     2.3870   -23.1780 
  113.1250   112.6310     4.6410     3.9500     4.8390    23.1550     2.3930   -23.3740 
  113.2500   112.5860     4.7880     3.9650     4.9430    23.1010     2.3900   -23.5830 
  113.3750   107.1930     5.3200     4.2250     5.1250    22.9940     2.3840   -23.8190 
  113.5000    97.6720     6.2770     4.7810     5.5470    22.9410     2.3770   -24.0850 
  113.6250    88.7140     7.6050     5.6570     6.6670    22.9860     2.3690   -24.3910 
  113.7500    82.0930     8.9420     6.6500     8.5340    22.9930     2.3660   -24.7340 
  113.8750    78.9110     9.9000     7.4950    10.7090    22.8550     2.3760   -25.1180 
  114.0000    79.2420    10.1900     7.9280    10.8340    22.5470     2.3920   -25.4980 
  114.1250    79.5560     9.7840     7.8290     9.3160    22.2990     2.3830   -25.8460 
  114.2500    78.3620     9.1870     7.5030     8.1770    22.2400     2.3380   -26.1500 
  114.3750    77.1120     8.7350     7.1790     7.9850    22.0780     2.2800   -26.4090 
  114.5000    77.1950     8.5770     6.9920     8.2620    21.8220     2.2350   -26.6130 
  114.6250    79.5210     8.6890     6.9770     8.6530    21.6330     2.2140   -26.7620 
  114.7500    82.4220     8.8610     7.0340     8.9680    21.5700     2.2060   -26.8650 
  114.8750    81.7600     8.9650     7.0790     9.1810    21.5440     2.2050   -26.9310 
  115.0000    75.6790     8.9570     7.0690     9.0070    21.5170     2.2060   -26.9950 
  115.1250    69.7150     8.8720     6.9980     8.7850    21.4900     2.2070   -27.0670 
  115.2500    69.6490     8.7920     6.9160     8.6680    21.4600     2.2060   -27.1370 
  115.3750    73.7840     8.7580     6.8600     8.6110    21.4390     2.2070   -27.1970 
  115.5000    75.5520     8.7840     6.8540     8.6020    21.4190     2.2100   -27.2360 
  115.6250    75.0060     8.8640     6.9050     8.7490    21.3960     2.2140   -27.2360 
  115.7500    75.4730     8.9650     6.9830     9.0420    21.3860     2.2150   -27.2140 
  115.8750    74.9500     9.0660     7.0630     9.2790    21.3750     2.2110   -27.1870 
  116.0000    71.7910     9.1550     7.1320     9.3180    21.3630     2.2020   -27.1420 
  116.1250    68.3480     9.2120     7.1880     9.3460    21.3670     2.1960   -27.0790 
  116.2500    68.8190     9.2300     7.2300     9.3760    21.3910     2.1950   -27.0250 
  116.3750    72.7200     9.2070     7.2520     9.4420    21.4090     2.1960   -26.9620 
  116.5000    76.1780     9.1450     7.2480     9.5960    21.4040     2.1970   -26.8890 
  116.6250    74.1720     9.0440     7.2170     9.6670    21.3740     2.1950   -26.8200 
  116.7500    68.7480     8.9270     7.1740     9.6160    21.3550     2.1940   -26.7260 
  116.8750    65.7000     8.8220     7.1360     9.4820    21.3380     2.1950   -26.6000 
  117.0000    66.1680     8.7530     7.1160     9.3730    21.3150     2.1940   -26.4170 
  117.1250    64.9840     8.7350     7.1200     9.3610    21.3020     2.1880   -26.1840 
  117.2500    60.9480     8.7420     7.1400     9.3750    21.2620     2.1810   -25.9030 
  117.3750    58.3100     8.7400     7.1620     9.3580    21.1350     2.1770   -25.5940 
