~V
VERS. 2.00: Ver 2.00
~W
STRT.M 50.0000:
STOP.M 281.0000:
STEP.M 0.1250:
NULL. -999.2500:
UWI. F10222:
~C
DEPT.M :
GR.API :
RML.OHMM :
RI. :
RXO.OHMM :
CALI.CM :
DEN.GM/CC :
SP.MV :
~A
# ...
  185.0000    59.5100   194.1180   168.2890   134.7790    24.9270     2.2070   -45.8560 
  185.1250    62.5030   177.6470   156.3170   156.2610    25.7280     2.1990   -45.5250 
  185.2500    65.7300   158.3100   141.0710   139.6140    26.3170     2.1960   -45.1490 
  185.3750    67.1460   139.8150   125.5610    99.8810    26.5990     2.1980   -44.6900 
  185.5000    66.1660   124.3740   112.0840    71.0090    26.6390     2.2020   -44.2160 
  185.6250    61.9480   107.5830   101.9670    68.1670    26.6300     2.2080   -43.6700 
  185.7500    59.0040    99.2460    94.2260    77.8230    26.6740     2.2140   -43.1130 
  185.8750    60.6430    92.6420    88.1270    75.8110    26.7670     2.2210   -42.5090 
  186.0000    65.9090    87.2410    83.1550    65.5390    26.8240     2.2290   -41.8810 
  186.1250    69.6060    82.9750    79.1570    63.2110    26.8670     2.2380   -41.2390 
  186.2500    68.1820    79.7180    75.9390    64.8760    26.8390     2.2470   -40.5940 
  186.3750    64.4530    77.5160    73.5520    66.4750    26.6550     2.2590   -39.9900 
  186.5000    63.4890    76.2620    71.9560    66.1660    26.5120     2.2700   -39.3560 
  186.6250    66.5470    75.9640    71.1760    64.4530    26.5070     2.2760   -38.7720 
  186.7500    70.6870    76.7740    71.3270    65.8510    26.5520     2.2760   -38.2190 
  186.8750    71.7220    79.3380    72.9800    67.3520    26.6310     2.2710   -37.7250 
  187.0000    68.8480    84.3330    76.7640    69.1400    26.6750     2.2640   -37.2650 
  187.1250    63.8890    92.6040    83.5390    77.0600    26.7040     2.2560   -36.8840 
  187.2500    61.5520   103.2920    92.6760    93.5110    26.5440     2.2450   -36.5250 
  187.3750    64.1220   115.2000   103.1770   104.6870    26.0250     2.2280   -36.1930 
  187.5000    66.1200   126.5290   113.4210   104.8770    25.3350     2.2090   -35.9180 
  187.6250    63.1630   134.7100   121.1250    93.2970    24.9140     2.1950   -35.6310 
  187.7500    61.9300   138.2430   125.0250    81.4190    24.8020     2.1900   -35.3670 
  187.8750    65.8620   135.0760   123.4310    73.3900    24.9090     2.1920   -35.0630 
  188.0000    69.7470   123.4370   114.5700    70.4120    25.2020     2.1950   -34.7730 
  188.1250    66.3040   103.3180    97.5930    72.5250    25.5490     2.1950   -34.4150 
  188.2500    58.7440    81.0060    77.7100    73.1240    25.7080     2.1930   -34.0850 
  188.3750    52.2330    66.1360    59.5470    58.0770    25.7200     2.1840   -33.7590 
  188.5000    52.0920    51.8250    45.9580    34.1800    25.6110     2.1730   -33.4510 
  188.6250    60.7120    42.2220    38.1150    21.6470    25.4040     2.1750   -33.2270 
  188.7500    70.1330    37.1290    34.0430    17.8300    25.0770     2.1980   -33.0310 
  188.8750    75.2990    35.1470    32.5690    16.8350    24.7380     2.2340   -32.9080 
  189.0000    77.5930    34.9090    32.6710    20.0830    24.4600     2.2700   -32.8070 
  189.1250    78.5850    35.0170    33.2620    24.9730    24.2760     2.2910   -32.8250 
  189.2500    78.5280    34.3110    33.1320    27.9390    24.1710     2.3000   -32.8600 
  189.3750    78.2480    32.3940    31.6930    25.4490    24.2440     2.3040   -32.9390 
  189.5000    78.2730    29.4320    29.0250    19.8120    24.5790     2.3170   -33.0470 
  189.6250    79.7840    25.8600    25.6000    16.9380    24.9980     2.3390   -33.1360 
  189.7500    83.1620    22.2780    22.1020    15.8670    25.2020     2.3590   -33.2400 
  189.8750    88.9870    19.0410    18.9030    14.6160    24.9620     2.3720   -33.3540 
  190.0000    96.0550    16.4590    16.2830    12.8080    24.5080     2.3840   -33.5130 
  190.1250    98.2910    15.0380    14.6360    11.4120    24.1300     2.4000   -33.6460 
  190.2500    96.0970    14.9850    14.0290    10.7450    23.7900     2.4140   -33.8100 
  190.3750    91.3980    16.7310    14.6790    10.9530    23.4070     2.4170   -33.9790 
  190.5000    87.6300    20.7700    16.9280    11.9340    23.0380     2.4020   -34.1750 
  190.6250    84.0120    27.5460    21.7150    14.1580    22.8480     2.3680   -34.3670 
  190.7500    81.3260    34.6580    29.1550    17.5250    22.9290     2.3290   -34.5630 
  190.8750    79.9110    43.5280    38.8510    20.3850    23.1900     2.3030   -34.7590 
  191.0000    75.2340    52.4180    48.9040    21.9740    23.3970     2.2990   -34.9030 
  191.1250    68.4290    57.7040    55.7000    21.6420    23.2660     2.3020   -35.0520 
  191.2500    66.2700    59.5920    58.4350    20.0340    22.8780     2.2890   -35.1520 
  191.3750    68.5850    59.5730    58.4550    18.0920    22.5120     2.2630   -35.2510 
  191.5000    70.4880    59.0860    57.4430    16.6320    22.2930     2.2420   -35.3020 
  191.6250    72.3600    58.0910    55.7060    16.1310    22.2000     2.2390   -35.3590 
  191.7500    77.5180    55.4830    52.4840    16.2800    22.1560     2.2430   -35.4070 
  191.8750    83.9250    50.5500    47.2540    16.4990    22.1420     2.2480   -35.4370 
  192.0000    87.3480    43.9010    40.7370    15.9940    22.1510     2.2520   -35.5000 
  192.1250    84.5100    37.6370    34.8540    14.2390    22.1090     2.2570   -35.5100 
  192.2500    78.7050    33.8060    30.9870    12.1210    21.9620     2.2680   -35.5870 
  192.3750    75.2180    33.6080    29.7820    10.8100    21.7070     2.2820   -35.7010 
  192.5000    76.5960    37.7340    31.7340    10.6890    21.4140     2.2920   -35.7960 
  192.6250    77.4250    47.3920    38.3420    11.7780    21.1860     2.2870   -35.9350 
  192.7500    73.8570    61.7020    49.7940    13.0440    21.1010     2.2680   -36.0470 
  192.8750    68.4400    79.3030    65.6750    13.9300    21.1330     2.2460   -36.1730 
  193.0000    64.8460    96.6280    82.9870    14.0680    21.1820     2.2320   -36.2800 
  193.1250    64.0620   106.5710    94.8980    13.8050    21.2120     2.2290   -36.3620 
  193.2500    65.0670   106.6180    98.0920    13.9340    21.2640     2.2320   -36.4100 
  193.3750    67.2120    98.5760    93.4080    15.0540    21.5000     2.2380   -36.4210 
  193.5000    67.3460    86.6040    84.1060    17.1470    21.9870     2.2430   -36.4290 
  193.6250    64.3080    75.5350    73.7450    19.4440    22.5290     2.2470   -36.3780 
  193.7500    63.1040    68.0630    64.7260    20.7540    22.9000     2.2510   -36.3300 
  193.8750    65.5100    60.2110    57.6450    22.7620    23.1890     2.2560   -36.2450 
  194.0000    68.6710    54.3180    52.2120    28.0420    23.6940     2.2620   -36.1810 
  194.1250    70.3350    49.4940    47.7260    37.5880    24.5820     2.2680   -36.1130 
  194.2500    72.5500    44.7750    43.3320    43.0490    25.5290     2.2740   -36.0630 
  194.3750    75.5260    40.0000    38.8820    41.6620    26.1570     2.2820   -36.0090 
  194.5000    76.9870    35.5030    34.6810    34.9920    26.4210     2.2980   -35.9580 
  194.6250    75.5260    32.0480    31.3580    29.5770    26.4490     2.3220   -35.9480 
  194.7500    73.0350    29.8210    29.0370    24.9620    26.4920     2.3450   -35.9560 
  194.8750    71.4950    28.7070    27.6390    23.1460    26.5190     2.3590   -36.0100 
  195.0000    71.7700    28.4300    26.9740    24.0260    26.5790     2.3660   -36.0450 
  195.1250    72.7040    29.0130    27.0680    27.7780    26.6430     2.3750   -36.1130 
  195.2500    72.9080    30.8410    28.0800    30.1610    26.6190     2.3900   -36.1410 
  195.3750    71.4310    35.0970    30.8140    28.4600    26.5200     2.4140   -36.1920 
  195.5000    67.9050    43.6700    37.0780    31.2210    26.4500     2.4400   -36.2250 
  195.6250    63.6830    61.0160    52.2010    57.0110    26.5830     2.4280   -36.2190 
  195.7500    59.9260    88.3260    81.0300   123.3830    26.8590     2.3570   -36.1920 
  195.8750    56.5360   133.0230   129.1870   219.0510    27.1180     2.2700   -36.0970 
  196.0000    53.8950   202.8760   196.8040   267.6500    27.2870     2.2170   -35.9710 
  196.1250    52.1890   282.8350   262.6630   272.8820    27.3020     2.1970   -35.7500 
