~V
VERS. 2.00: Ver 2.00
~W
STRT.M 53.0000:
STOP.M 296.0000:
STEP.M 0.1250:
NULL. -999.2500:
UWI. F10258:
~C
DEPT.M :
GR.API :
RML.OHMM :
RI. :
RXO.OHMM :
CALI.CM :
DEN.GM/CC :
SP.MV :
~A
# ...
   64.2500    87.7660     7.7970     6.4940     7.8130    25.5820     2.2070   -21.9700 
   64.3750    88.9120     8.0210     6.7050     7.3520    25.5820     2.1990   -22.1990 
   64.5000    88.2260     8.4460     7.1030     7.7940    25.4270     2.1890   -22.4340 
   64.6250    85.4850     9.0250     7.6930     8.7910    25.2800     2.1810   -22.6590 
   64.7500    85.5690     9.5780     8.3460     9.3990    25.2360     2.1760   -22.8390 
   64.8750    87.7390     9.9230     8.8940     9.6830    25.2750     2.1790   -22.9430 
   65.0000    87.7880     9.9130     9.1430     9.8460    25.3710     2.1900   -22.9480 
   65.1250    84.3760     9.4260     8.8820     9.8550    25.5190     2.2130   -22.8270 
   65.2500    84.6360     8.6010     8.2170     9.1690    25.7150     2.2400   -22.6130 
   65.3750    89.6560     7.5690     7.2810     7.6660    25.9380     2.2650   -22.3010 
   65.5000    94.4940     6.4780     6.2350     6.6420    26.1100     2.2810   -21.9020 
   65.6250    96.9730     5.5450     5.2670     6.0300    26.1990     2.2880   -21.4260 
   65.7500    99.8790     4.9640     4.5420     5.3470    26.2440     2.2960   -20.9250 
   65.8750   104.5030     4.9240     4.1920     4.7080    26.2400     2.3200   -20.4490 
   66.0000   106.1660     5.5930     4.3240     4.5920    26.2030     2.3680   -20.0350 
   66.1250   101.1210     7.2070     5.1530     6.2720    26.1080     2.4370   -19.7420 
   66.2500    92.3560     9.5130     6.6750    12.2620    25.9530     2.4980   -19.5990 
   66.3750    82.9730    12.0380     8.7990    27.5560    25.8140     2.5230   -19.6360 
   66.5000    78.0520    13.9860    10.9980    43.0810    25.7360     2.4950   -19.8430 
   66.6250    79.1440    14.3550    12.0480    35.4010    25.6500     2.4180   -20.2190 
   66.7500    80.5890    13.3590    11.6610    21.0900    25.4970     2.3270   -20.7010 
   66.8750    79.4760    11.6930    10.4470    13.4910    25.4130     2.2500   -21.2410 
   67.0000    78.4270    10.1640     9.1860    10.3140    25.4440     2.1990   -21.8260 
   67.1250    80.1960     9.3400     8.3750     9.6700    25.5310     2.1750   -22.4470 
   67.2500    83.4180     9.0890     7.9840     9.7520    25.5940     2.1630   -23.0540 
   67.3750    87.9500     9.1950     7.9070     9.9180    25.5830     2.1580   -23.6280 
   67.5000    92.2360     9.4590     8.0230    10.0760    25.5480     2.1580   -24.1510 
   67.6250    91.1270     9.7480     8.2410    10.0160    25.5150     2.1630   -24.5790 
   67.7500    85.1650    10.0010     8.4730    10.0930    25.4900     2.1690   -24.9400 
   67.8750    78.7550    10.2020     8.6810    10.4500    25.4800     2.1710   -25.2360 
   68.0000    75.3280    10.3400     8.8380    10.7380    25.4880     2.1680   -25.4590 
   68.1250    75.3780    10.3960     8.9160    10.7070    25.5080     2.1620   -25.5950 
   68.2500    76.5660    10.3800     8.9230    10.5260    25.5120     2.1570   -25.6870 
   68.3750    76.8940    10.3050     8.8630    10.4450    25.4700     2.1530   -25.7520 
   68.5000    75.9230    10.1950     8.7500    10.3990    25.3970     2.1490   -25.7900 
   68.6250    75.0900    10.0860     8.6110    10.3490    25.3610     2.1440   -25.8080 
   68.7500    74.0150    10.0040     8.4820    10.0360    25.3590     2.1420   -25.8070 
   68.8750    72.7300     9.9600     8.3830     9.5690    25.3740     2.1440   -25.8050 
   69.0000    71.7790     9.9510     8.3200     9.3160    25.4030     2.1470   -25.7990 
   69.1250    72.4140     9.9700     8.2960     9.4570    25.4140     2.1470   -25.7660 
   69.2500    72.8680    10.0000     8.2950     9.5680    25.4170     2.1380   -25.7080 
   69.3750    71.8390    10.0270     8.3040     9.5150    25.4140     2.1230   -25.6350 
   69.5000    71.8370    10.0480     8.3150     9.5510    25.4130     2.1100   -25.5710 
   69.6250    74.7330    10.0570     8.3220     9.3940    25.3860     2.1080   -25.5510 
   69.7500    79.0100    10.0540     8.3240     9.2240    25.2960     2.1180   -25.5770 
   69.8750    79.6230    10.0360     8.3150     9.0550    25.1470     2.1370   -25.6150 
   70.0000    75.2630     9.9980     8.2890     9.0230    25.0160     2.1560   -25.6480 
   70.1250    70.3480     9.9380     8.2420     9.0590    24.9750     2.1670   -25.6850 
   70.2500    69.8880     9.8700     8.1850     9.2140    24.9760     2.1650   -25.7040 
   70.3750    71.8870     9.8090     8.1330     9.0940    24.9910     2.1520   -25.7170 
   70.5000    72.8670     9.7750     8.1010     8.6580    25.0130     2.1350   -25.7460 
   70.6250    71.8610     9.7860     8.1060     8.5930    25.0220     2.1200   -25.7650 
   70.7500    69.8670     9.8270     8.1380     8.5900    25.0200     2.1130   -25.7680 
   70.8750    67.4850     9.8700     8.1770     8.5480    25.0250     2.1140   -25.7710 
   71.0000    64.9090     9.8830     8.1970     8.6200    25.0710     2.1190   -25.7690 
   71.1250    64.4130     9.8320     8.1630     8.8440    25.1190     2.1260   -25.7420 
   71.2500    65.6570     9.7420     8.0810     9.1140    25.1060     2.1330   -25.6750 
   71.3750    68.7470     9.6560     7.9820     9.0080    25.0480     2.1400   -25.5560 
   71.5000    73.5390     9.6270     7.9120     8.7150    25.0110     2.1460   -25.3830 
   71.6250    76.0700     9.7030     7.9210     8.4380    25.0890     2.1470   -25.1940 
   71.7500    74.5950     9.8560     8.0010     8.3430    25.2270     2.1430   -25.0100 
   71.8750    71.3170    10.0370     8.1250     8.5410    25.2530     2.1360   -24.8340 
   72.0000    69.5720    10.1890     8.2510     8.8260    25.0720     2.1300   -24.6880 
   72.1250    70.3750    10.2520     8.3270     8.8110    24.8560     2.1260   -24.5790 
   72.2500    72.2330    10.2350     8.3430     8.8380    24.7450     2.1210   -24.4990 
   72.3750    74.4300    10.1690     8.3130     9.0150    24.7050     2.1180   -24.4290 
   72.5000    75.8530    10.1000     8.2640     9.0930    24.7160     2.1180   -24.3430 
   72.6250    76.1280    10.0730     8.2290     9.0470    24.7290     2.1260   -24.2370 
   72.7500    76.0620    10.0990     8.2260     9.0070    24.7180     2.1380   -24.1310 
   72.8750    75.7250    10.1740     8.2580     9.0080    24.7060     2.1500   -24.0460 
   73.0000    75.0320    10.2790     8.3190     9.0270    24.6950     2.1580   -23.9870 
   73.1250    76.4720    10.3890     8.4000     9.1790    24.6900     2.1600   -23.9670 
   73.2500    77.7050    10.4700     8.4740     9.2590    24.6980     2.1620   -23.9710 
   73.3750    76.0730    10.4880     8.5140     9.2580    24.7070     2.1650   -23.9860 
   73.5000    74.5660    10.4210     8.4920     9.2260    24.7110     2.1680   -24.0230 
   73.6250    77.1730    10.2590     8.3900     9.2270    24.7070     2.1670   -24.0670 
   73.7500    82.5870    10.0510     8.2400     9.0550    24.6820     2.1600   -24.1000 
   73.8750    86.3010     9.8410     8.0800     8.7020    24.6280     2.1500   -24.1130 
   74.0000    85.8770     9.6700     7.9440     8.9200    24.5790     2.1380   -24.0790 
   74.1250    81.2630     9.5680     7.8610     9.2790    24.5220     2.1310   -24.0090 
   74.2500    75.6120     9.5180     7.8210     9.4260    24.4490     2.1290   -23.9410 
   74.3750    71.1510     9.5060     7.8110     9.1850    24.4070     2.1330   -23.8730 
   74.5000    68.4850     9.5150     7.8150     8.7770    24.4260     2.1390   -23.8060 
   74.6250    66.0020     9.5420     7.8310     8.5840    24.5050     2.1460   -23.7420 
   74.7500    63.0800     9.5790     7.8610     8.6580    24.5600     2.1530   -23.7070 
   74.8750    61.0990     9.6250     7.9030     8.8030    24.6020     2.1590   -23.7290 
   75.0000    61.7590     9.6690     7.9500     8.9620    24.6810     2.1650   -23.8140 
   75.1250    63.3920     9.6940     7.9810     9.0610    24.8220     2.1680   -23.9460 
   75.2500    61.4080     9.6890     7.9830     9.0330    24.9590     2.1670   -24.0970 
   75.3750    58.6780     9.6490     7.9460     8.8460    25.0490     2.1620   -24.2620 
