~V
VERS. 2.00: Ver 2.00
~W
STRT.M 40.0000:
STOP.M 276.0000:
STEP.M 0.1250:
NULL. -999.2500:
UWI. F10236:
~C
DEPT.M :
SP.MV :
GR.API :
RML.OHMM :
RI. :
RXO.OHMM :
CALI.CM :
DEN.GM/CC :
~A
# ...
  208.7500   -15.0040    74.9160    23.4500    17.7540    21.7530    23.9510     2.5200 
  208.8750   -14.2080    74.8960    21.9690    16.9700    25.9840    24.2600     2.5290 
  209.0000   -13.4050    76.9910    18.1720    14.4600    24.6960    24.4600     2.5310 
  209.1250   -12.5890    79.4660    13.5550    11.1870    15.5310    24.9480     2.5220 
  209.2500   -11.8010    78.7800     9.8380     8.3850     8.2670    25.7550     2.4880 
  209.3750   -11.0680    72.8980     7.4980     6.4290     5.5620    26.4480     2.4260 
  209.5000   -10.4110    64.9170     6.3890     5.2940     5.0760    26.4720     2.3630 
  209.6250    -9.8440    63.8710     6.2390     4.8870     5.3170    25.7750     2.3400 
  209.7500    -9.3780    70.4680     6.5030     4.8770     5.4730    25.2220     2.3450 
  209.8750    -9.0080    78.3260     6.8690     5.0700     5.3930    24.9780     2.3440 
  210.0000    -8.7230    82.4390     7.1210     5.2970     5.2750    24.9190     2.3240 
  210.1250    -8.5690    82.6080     7.1550     5.4380     5.4080    24.8710     2.3150 
  210.2500    -8.4960    83.5370     7.0620     5.4850     5.6530    24.8270     2.3360 
  210.3750    -8.4650    86.8960     6.9110     5.4540     5.8820    24.7800     2.3720 
  210.5000    -8.4520    87.8140     6.7380     5.3590     6.0010    24.7400     2.3950 
  210.6250    -8.4420    80.9270     6.5770     5.2240     5.9910    24.7430     2.3950 
  210.7500    -8.4320    74.1430     6.4680     5.0980     5.8140    24.7460     2.3860 
  210.8750    -8.4180    72.8550     6.4510     5.0250     5.6760    24.7100     2.3730 
  211.0000    -8.4180    73.9010     6.5470     5.0320     5.6860    24.6820     2.3610 
  211.1250    -8.4050    74.4310     6.7380     5.1160     5.9950    24.6930     2.3620 
  211.2500    -8.3830    78.6860     6.9370     5.2180     6.1890    24.6740     2.3770 
  211.3750    -8.3840    85.5880     7.0740     5.2910     6.3410    24.6650     2.3940 
  211.5000    -8.4030    87.9430     7.1110     5.3050     6.3120    24.6620     2.4060 
  211.6250    -8.4250    83.3080     7.0530     5.2550     6.0990    24.6460     2.4100 
  211.7500    -8.4500    81.0080     6.9800     5.1890     5.9870    24.6800     2.4100 
  211.8750    -8.4850    84.5610     6.9480     5.1470     6.2220    24.6990     2.4060 
  212.0000    -8.5100    89.4680     6.9960     5.1640     6.4720    24.6840     2.3990 
  212.1250    -8.5400    90.1050     7.1830     5.2900     6.6850    24.6350     2.3900 
  212.2500    -8.5760    86.8000     7.5350     5.5420     6.9770    24.5890     2.3820 
  212.3750    -8.6070    81.6320     8.1210     5.9660     7.3800    24.5740     2.3740 
  212.5000    -8.6470    77.1890     9.0200     6.6190     8.0610    24.5120     2.3670 
  212.6250    -8.7080    75.9060    10.3260     7.5940     9.4280    24.4040     2.3640 
  212.7500    -8.7770    75.8400    11.8570     8.8010    11.0280    24.3840     2.3650 
  212.8750    -8.8280    75.6590    13.3220    10.0630    12.6870    24.4520     2.3700 
  213.0000    -8.8760    76.5160    14.3050    11.0750    14.3730    24.5010     2.3740 
  213.1250    -8.9200    78.9580    14.2860    11.3830    14.4860    24.5030     2.3780 
  213.2500    -8.9510    80.6800    13.4110    10.9950    13.2150    24.5450     2.3820 
  213.3750    -8.9550    80.4190    12.0500    10.1390    11.6820    24.5610     2.3850 
  213.5000    -8.9220    79.5800    10.6780     9.1650    10.3310    24.5620     2.3850 
  213.6250    -8.8570    81.6550     9.7180     8.4030     9.4150    24.5670     2.3820 
  213.7500    -8.7830    84.7590     9.2130     7.9440     8.4290    24.5620     2.3800 
  213.8750    -8.7180    84.6440     9.0800     7.7700     8.3450    24.5580     2.3780 
  214.0000    -8.6440    79.3040     9.1410     7.7860     8.9700    24.5700     2.3770 
  214.1250    -8.5790    75.6520     9.1670     7.8460     9.6630    24.6030     2.3790 
  214.2500    -8.5120    78.3400     9.0170     7.8120     8.9860    24.6050     2.3840 
  214.3750    -8.4530    83.5070     8.6790     7.6380     8.1160    24.6020     2.3870 
  214.5000    -8.4280    85.4310     8.2210     7.3460     7.5180    24.6150     2.3850 
  214.6250    -8.4330    84.8670     7.7490     6.9960     7.3290    24.6220     2.3830 
  214.7500    -8.4440    84.8870     7.3380     6.6580     7.0010    24.6400     2.3820 
  214.8750    -8.4700    85.6870     7.0080     6.3600     6.6780    24.6770     2.3800 
  215.0000    -8.5100    86.9840     6.7550     6.1150     6.4000    24.6480     2.3760 
  215.1250    -8.5640    86.9210     6.6020     5.9480     6.3820    24.5900     2.3730 
  215.2500    -8.6370    83.6890     6.5760     5.8780     6.4590    24.5340     2.3750 
  215.3750    -8.7320    78.6720     6.7600     5.9570     6.5350    24.5070     2.3780 
  215.5000    -8.8310    77.3220     7.2540     6.2580     6.9730    24.5110     2.3790 
  215.6250    -8.9380    80.9520     8.1990     6.9100     8.0010    24.5150     2.3750 
  215.7500    -9.0580    82.1120     9.5240     7.9080     9.3350    24.5300     2.3680 
  215.8750    -9.1910    77.8500    11.1660     9.2430    11.6110    24.5700     2.3580 
  216.0000    -9.3280    71.2250    13.0740    10.8810    16.2450    24.6090     2.3460 
  216.1250    -9.4620    69.5930    15.4100    12.8860    18.2470    24.6080     2.3320 
  216.2500    -9.5890    71.8020    18.5540    15.4410    17.6080    24.6010     2.3170 
  216.3750    -9.7210    72.8780    23.2100    19.0870    18.9230    24.6120     2.3060 
  216.5000    -9.8440    69.8980    30.1490    24.6060    26.3520    24.6300     2.2940 
  216.6250    -9.9540    65.1360    40.1590    33.0460    48.5930    24.6600     2.2780 
  216.7500   -10.0560    62.5320    51.6260    43.3190    70.6200    24.7140     2.2630 
  216.8750   -10.1440    61.6190    61.4230    52.8970    81.8260    24.7360     2.2590 
  217.0000   -10.2130    60.1640    65.8300    58.4050    76.4330    24.7350     2.2620 
  217.1250   -10.2580    57.4100    63.5930    57.9090    56.0730    24.7310     2.2650 
  217.2500   -10.2730    56.4210    59.7720    55.0790    40.2630    24.7160     2.2700 
  217.3750   -10.2640    58.0740    57.8080    52.9850    37.7570    24.6960     2.2820 
  217.5000   -10.2470    59.4310    59.1630    53.3490    43.0450    24.6560     2.3010 
  217.6250   -10.2430    60.6520    64.4310    57.1210    46.2590    24.6370     2.3110 
  217.7500   -10.2330    62.4760    72.3070    63.4310    51.3530    24.7040     2.3080 
  217.8750   -10.2320    63.1990    81.5470    71.3230    58.4870    24.9310     2.2960 
  218.0000   -10.2620    61.7540    90.5950    79.4420    62.2150    25.2280     2.2780 
  218.1250   -10.3220    59.2330    98.0590    86.4630    64.8280    25.2700     2.2520 
  218.2500   -10.4370    58.3400   104.1900    92.3770    66.7070    25.1260     2.2280 
  218.3750   -10.5850    58.5700   109.5750    97.6270    62.5890    24.9930     2.2110 
  218.5000   -10.7780    60.3450   114.7160   102.6620    57.1850    24.9410     2.1980 
  218.6250   -10.9780    63.7530   119.6000   107.5700    58.8090    24.9200     2.1870 
  218.7500   -11.2030    66.0840   123.7330   111.9940    67.0080    24.8590     2.1800 
  218.8750   -11.4240    64.9220   126.5750   115.4000    75.8500    24.7780     2.1770 
  219.0000   -11.6480    60.9750   127.8350   117.3400    78.0190    24.7130     2.1790 
  219.1250   -11.8730    58.3370   127.2600   117.3000    74.8810    24.6350     2.1810 
  219.2500   -12.0890    57.9030   125.3910   115.6920    74.4160    24.6160     2.1860 
  219.3750   -12.3000    58.3430   122.5970   112.8990    76.9320    24.6520     2.1940 
  219.5000   -12.4990    59.1890   119.2470   109.3680    82.1380    24.6640     2.2020 
  219.6250   -12.6890    61.9840   115.7540   105.5470    77.9330    24.6580     2.2080 
  219.7500   -12.8790    64.6470   112.7290   102.0820    69.9020    24.6410     2.2150 
  219.8750   -13.0740    64.4390   110.7680    99.5930    61.4790    24.6270     2.2250 
