~V
VERS. 2.00: Ver 2.00
~W
STRT.M 60.0000:
STOP.M 276.0000:
STEP.M 0.1250:
NULL. -999.2500:
UWI. F10216:
~C
DEPT.M :
DEN.GM/CC :
GR.API :
RML.OHMM :
RI. :
RXO.OHMM :
CALI.CM :
SP.MV :
~A
# ...
  206.2500     2.4840    72.8440    10.7890     8.7310     8.8990    24.3180   -16.1400 
  206.3750     2.4720    75.3560     9.5170     7.6660     8.7710    24.3350   -16.0260 
  206.5000     2.4520    78.5440     9.0170     7.1150     9.4440    24.3320   -16.0010 
  206.6250     2.4160    80.2230     9.3420     7.1680     9.2800    24.3420   -16.0290 
  206.7500     2.3790    77.8270    10.3580     7.7390     9.0310    24.4020   -16.0970 
  206.8750     2.3520    72.2460    12.0670     8.8400     9.9490    24.5030   -16.1370 
  207.0000     2.3470    66.7060    14.3440    10.4430    11.5190    24.6300   -16.1500 
  207.1250     2.3630    63.6600    16.6450    12.3250    15.6070    24.6370   -16.0430 
  207.2500     2.3810    62.2920    17.9600    13.7670    36.9180    24.5520   -15.8400 
  207.3750     2.3920    61.9560    17.4780    13.9940   144.6720    24.4600   -15.5370 
  207.5000     2.3950    63.3020    15.2170    12.7530   221.6090    24.4000   -15.1150 
  207.6250     2.4000    66.9790    12.1710    10.6020    61.2910    24.4010   -14.6320 
  207.7500     2.4120    70.0890     9.5970     8.5570    19.5860    24.4420   -14.1070 
  207.8750     2.4270    71.3020     7.8980     7.0170     8.3290    24.4270   -13.6310 
  208.0000     2.4350    73.3330     7.0240     6.0530     6.0560    24.3720   -13.1960 
  208.1250     2.4270    76.7810     6.8150     5.6400     6.4620    24.3410   -12.8680 
  208.2500     2.4090    78.9830     6.9120     5.5480     6.7020    24.3400   -12.6450 
  208.3750     2.3890    78.8700     7.1170     5.6420     6.9130    24.3440   -12.4990 
  208.5000     2.3710    78.6580     7.3010     5.8100     7.1440    24.3750   -12.4540 
  208.6250     2.3610    78.9990     7.4740     6.0140     7.2130    24.4120   -12.4670 
  208.7500     2.3570    79.1820     7.7860     6.3040     7.3830    24.4560   -12.5350 
  208.8750     2.3590    80.1150     8.3680     6.7610     7.9250    24.4920   -12.6160 
  209.0000     2.3630    80.3770     9.2600     7.4380     8.5940    24.4660   -12.7130 
  209.1250     2.3680    77.2310    10.3780     8.3330    10.1620    24.3500   -12.8360 
  209.2500     2.3700    72.5240    11.3990     9.2380    13.7360    24.2060   -12.9520 
  209.3750     2.3700    70.5250    12.0030     9.8880    15.3100    24.0760   -13.0780 
  209.5000     2.3690    72.1760    12.0170    10.0760    12.8430    23.9890   -13.1980 
  209.6250     2.3690    73.1530    11.5410     9.7850     9.9390    23.9970   -13.3310 
  209.7500     2.3700    71.8790    11.0270     9.3530     9.2410    24.0060   -13.4950 
  209.8750     2.3710    70.8570    10.7570     9.0070     9.2560    24.0160   -13.6590 
  210.0000     2.3730    72.8450    10.8520     8.8750     9.8580    23.9180   -13.8660 
  210.1250     2.3770    77.8010    11.2760     8.9850    10.6500    23.8620   -14.0610 
  210.2500     2.3820    81.8950    11.7480     9.1760    11.1510    23.8550   -14.2790 
  210.3750     2.3870    84.2280    12.0720     9.3150    11.3250    23.9440   -14.5170 
  210.5000     2.3880    84.3710    12.1830     9.3390    11.6320    24.1270   -14.7600 
  210.6250     2.3820    81.7770    12.2300     9.3150    12.4520    24.2410   -15.0350 
  210.7500     2.3740    77.7410    12.5770     9.4570    13.1730    24.3110   -15.2770 
  210.8750     2.3720    75.1040    13.6510    10.0220    13.5850    24.3140   -15.5420 
  211.0000     2.3820    75.6960    15.9370    11.3160    14.8870    24.3050   -15.7880 
  211.1250     2.3980    75.1220    20.3710    14.0100    20.0850    24.3410   -16.0210 
  211.2500     2.4000    70.6620    27.2140    18.5170    31.3820    24.3700   -16.2530 
  211.3750     2.3800    65.3830    36.5780    25.2850    53.2490    24.3620   -16.4770 
  211.5000     2.3420    63.1140    47.7290    34.1870    73.8440    24.3510   -16.7000 
  211.6250     2.3040    63.1170    58.2700    43.6900    82.9960    24.3310   -16.9060 
  211.7500     2.2780    61.2350    65.4890    51.1170    91.6070    24.2880   -17.0890 
  211.8750     2.2640    57.6310    68.3830    55.0500   102.1530    24.1940   -17.2600 
  212.0000     2.2550    56.5360    67.8800    55.7550   102.7170    24.0570   -17.4360 
  212.1250     2.2480    59.7970    65.7790    54.4310    93.4500    24.0290   -17.6060 
  212.2500     2.2450    63.6250    63.8340    52.7370    84.1350    23.9990   -17.7700 
  212.3750     2.2470    64.5670    62.7500    51.4240    72.7460    23.9520   -17.9290 
  212.5000     2.2530    62.0020    62.8890    50.9370    60.5610    23.9320   -18.0850 
  212.6250     2.2590    59.5910    64.6570    51.7400    58.7610    23.9380   -18.2190 
  212.7500     2.2620    58.3830    67.8570    53.7970    59.0290    23.9380   -18.4010 
  212.8750     2.2560    59.0760    72.4440    57.1440    67.9250    23.8820   -18.5740 
  213.0000     2.2430    61.0670    78.3040    61.7150    77.0600    23.8030   -18.7410 
  213.1250     2.2250    61.6340    85.3400    67.4410    79.3900    23.7580   -18.9340 
  213.2500     2.2100    61.8480    92.9160    73.7470    83.6550    23.7910   -19.1030 
  213.3750     2.2020    62.0630   100.4960    80.1760    90.3400    23.8350   -19.2810 
  213.5000     2.2020    61.9440   107.6390    86.3360    94.9080    23.8480   -19.4220 
  213.6250     2.2050    61.5220   114.1480    92.0140    99.4720    23.8860   -19.5540 
  213.7500     2.2050    62.2410   120.4050    97.4460   105.2750    23.9940   -19.6760 
  213.8750     2.2020    64.2590   126.7640   102.8990   116.5330    24.1390   -19.7720 
  214.0000     2.1960    63.2840   133.3450   108.5340   125.5650    24.2100   -19.8460 
  214.1250     2.1890    57.9490   139.6320   114.1220   133.2300    24.1850   -19.8920 
  214.2500     2.1830    53.6320   144.6950   118.9870   138.0060    24.1360   -19.9330 
  214.3750     2.1760    53.4810   147.7270   122.4170   139.2680    24.0770   -19.9590 
  214.5000     2.1680    56.0280   148.4180   124.0020   134.6420    24.0120   -19.9710 
  214.6250     2.1610    56.9370   146.8850   123.6230   130.0420    23.9280   -20.0020 
  214.7500     2.1550    56.8430   144.2880   122.1670   128.6800    23.8940   -20.0150 
  214.8750     2.1530    57.7750   141.2610   120.2000   128.0360    23.9360   -20.0230 
  215.0000     2.1550    58.8520   138.1720   118.1250   126.1610    24.0410   -20.0340 
  215.1250     2.1580    58.0980   135.1890   116.2080   122.7020    24.1390   -20.0370 
  215.2500     2.1600    56.9740   132.3030   114.4990   120.5340    24.1490   -20.0600 
  215.3750     2.1630    56.6780   129.4230   112.9390   117.9670    24.0730   -20.0660 
  215.5000     2.1660    56.1540   126.4020   111.3860   114.1240    23.9830   -20.1100 
  215.6250     2.1670    55.3160   123.0600   109.6030   113.3960    23.9500   -20.1250 
  215.7500     2.1660    56.2550   119.4270   107.4880   114.7930    23.9170   -20.1180 
  215.8750     2.1620    59.0130   115.6160   105.0490   116.9740    23.8870   -20.1430 
  216.0000     2.1570    62.6640   111.7630   102.3730   115.2990    23.8690   -20.1320 
  216.1250     2.1520    65.4970   107.8060    99.4210   110.8860    23.9050   -20.1370 
  216.2500     2.1460    66.0190   103.4670    96.0230   106.0020    23.9540   -20.1060 
  216.3750     2.1410    64.5930    98.5480    91.9900   102.6180    23.9630   -20.0510 
  216.5000     2.1370    63.2850    93.2760    87.4620    97.4500    23.9240   -19.9940 
  216.6250     2.1480    64.0650    88.7120    83.2920    93.4780    23.8460   -19.9320 
  216.7500     2.1810    63.4130    86.1130    80.6550    84.5960    23.7440   -19.8860 
  216.8750     2.2310    59.5930    86.6380    80.6440    77.6190    23.7040   -19.8250 
  217.0000     2.2780    54.1410    91.1790    84.1730    79.2770    23.7630   -19.7770 
  217.1250     2.2930    50.5600   100.5200    92.2350    92.1890    23.8430   -19.7410 
  217.2500     2.2720    51.1410   112.1230   102.7990   111.5880    23.9430   -19.7110 
  217.3750     2.2330    55.2180   122.0280   112.4230   127.0350    24.0890   -19.6950 
