~V
VERS. 2.00: Ver 2.00
~W
STRT.M 49.0000:
STOP.M 279.0000:
STEP.M 0.1250:
NULL. -999.2500:
UWI. F10243:
~C
DEPT.M :
GR.API :
RML.OHMM :
RI. :
RXO.OHMM :
CALI.CM :
DEN.GM/CC :
SP.MV :
~A
# ...
  150.2500    66.6090    19.4510    17.9290    13.2450    24.9300     2.4910   -14.7630 
  150.3750    62.6210    18.5660    17.2370    14.8570    24.9610     2.4830   -14.6790 
  150.5000    62.3040    17.1720    15.9550    16.8350    24.9760     2.4780   -14.6490 
  150.6250    63.9200    15.7600    14.5710    16.5370    24.9800     2.4720   -14.6700 
  150.7500    65.1060    14.6200    13.3930    14.8330    24.9850     2.4660   -14.7040 
  150.8750    65.3990    13.8660    12.5710    14.2780    25.0060     2.4630   -14.7110 
  151.0000    63.7390    13.4920    12.1410    13.8390    25.0710     2.4640   -14.7300 
  151.1250    60.6670    13.2650    11.8900    13.4610    25.1010     2.4720   -14.7960 
  151.2500    59.9790    13.0020    11.6370    13.3910    25.1090     2.4850   -14.8520 
  151.3750    62.5110    12.5750    11.2460    13.5190    25.1090     2.5000   -14.8550 
  151.5000    64.7540    11.9560    10.6850    12.6660    25.1090     2.5120   -14.7810 
  151.6250    63.7960    11.2990    10.1000    11.0410    25.1090     2.5200   -14.6480 
  151.7500    60.2920    10.7550     9.6360    10.1600    25.1090     2.5260   -14.5000 
  151.8750    57.7630    10.4390     9.3920     9.8760    25.1090     2.5320   -14.3650 
  152.0000    58.5380    10.4510     9.4560    10.0020    25.1090     2.5420   -14.2560 
  152.1250    60.7600    10.7120     9.7590    10.9750    25.1090     2.5540   -14.2050 
  152.2500    61.9840    11.1310    10.2300    12.4190    25.1140     2.5670   -14.2000 
  152.3750    60.9810    11.5950    10.7760    14.0050    25.1290     2.5810   -14.2200 
  152.5000    59.0160    11.9880    11.3090    13.9350    25.1600     2.5930   -14.2710 
  152.6250    57.5690    12.2390    11.7780    13.5620    25.1730     2.6000   -14.3960 
  152.7500    58.1900    12.2490    12.1140    13.0810    25.1690     2.6000   -14.6020 
  152.8750    61.3050    11.8690    12.1630    12.7650    25.1430     2.5920   -14.8430 
  153.0000    64.5190    10.9020    11.6220    12.6490    25.0960     2.5720   -15.0250 
  153.1250    67.7620     9.5280    10.5100    11.9510    25.0530     2.5380   -15.1320 
  153.2500    73.6640     8.0100     9.0250     9.9060    25.0190     2.4910   -15.2060 
  153.3750    82.6460     6.6350     7.4910     7.0940    24.9590     2.4340   -15.3020 
  153.5000    89.9690     5.6340     6.2470     5.0330    24.8410     2.3780   -15.3900 
  153.6250    92.0940     4.9720     5.3670     4.3160    24.6930     2.3350   -15.3900 
  153.7500    91.8640     4.5950     4.8290     4.2570    24.5860     2.3090   -15.3190 
  153.8750    93.4670     4.4480     4.5790     4.3950    24.5670     2.2940   -15.2700 
  154.0000    97.2120     4.5240     4.6040     4.5390    24.6370     2.2880   -15.3130 
  154.1250    98.9870     4.7740     4.8310     4.6180    24.7360     2.2910   -15.3680 
  154.2500    97.0240     5.1800     5.2370     4.7600    24.8130     2.3060   -15.3990 
  154.3750    92.8680     5.6950     5.7750     5.3750    24.8340     2.3390   -15.3520 
  154.5000    88.7690     6.2300     6.3430     6.9550    24.7560     2.3870   -15.2690 
  154.6250    85.7660     6.6930     6.8240     8.3650    24.7050     2.4320   -15.1950 
  154.7500    84.0480     7.0840     7.1990     8.6020    24.7520     2.4560   -15.0690 
  154.8750    82.7840     7.5030     7.5650     7.8960    24.8200     2.4480   -14.8430 
  155.0000    81.5030     8.1830     8.1730     7.6740    24.8600     2.4080   -14.5770 
  155.1250    81.4930     9.2980     9.2160     9.8520    24.9270     2.3570   -14.3150 
  155.2500    82.4750    10.9750    10.8070    14.8310    25.1020     2.3100   -14.0660 
  155.3750    83.5040    13.1890    12.8880    18.2260    25.3110     2.2740   -13.9060 
  155.5000    82.0860    15.6260    15.1250    19.2650    25.3820     2.2530   -13.8180 
  155.6250    77.7860    17.7190    16.9610    19.9720    25.3560     2.2430   -13.7210 
  155.7500    72.8130    19.1820    18.1270    20.2940    25.2750     2.2420   -13.6510 
  155.8750    71.3780    20.1310    18.7800    20.9810    25.1540     2.2460   -13.6550 
  156.0000    74.8680    21.0490    19.4120    21.7620    25.0780     2.2520   -13.7210 
  156.1250    77.5660    22.4180    20.4360    21.8630    25.0860     2.2530   -13.8490 
  156.2500    76.1720    24.4870    22.0420    21.9560    25.2460     2.2480   -14.0070 
  156.3750    72.8240    27.3790    24.3440    23.8060    25.4850     2.2420   -14.1070 
  156.5000    72.1460    31.2580    27.5080    29.9480    25.7330     2.2370   -14.0900 
  156.6250    73.7200    35.9180    31.3510    37.9640    25.9660     2.2350   -14.0470 
  156.7500    74.3720    41.2920    35.8130    43.6770    26.1420     2.2320   -14.0660 
  156.8750    72.7220    47.3910    40.9500    42.1310    26.2810     2.2250   -14.1260 
  157.0000    71.1410    54.4570    47.0440    42.5580    26.3440     2.2160   -14.1420 
  157.1250    70.8230    62.3460    53.9510    48.2000    26.3620     2.2090   -14.1260 
  157.2500    70.0900    70.6310    61.2870    60.4190    26.3510     2.2090   -14.1390 
  157.3750    67.5950    78.3190    68.2050    79.9950    26.3370     2.2140   -14.2200 
  157.5000    64.6910    83.6800    73.1520    93.8430    26.3050     2.2240   -14.3620 
  157.6250    64.5650    86.4250    75.7280    85.3540    26.2460     2.2320   -14.4750 
  157.7500    67.1750    87.2580    76.5370    75.4820    26.1910     2.2380   -14.5170 
  157.8750    69.0740    87.6380    76.9400    73.2680    26.1650     2.2400   -14.5470 
  158.0000    67.5490    89.2700    78.5010    73.4140    26.1580     2.2350   -14.5280 
  158.1250    65.3140    92.5900    81.6690    73.1130    26.1530     2.2260   -14.4060 
  158.2500    65.5580    97.1580    86.1520    77.4180    26.1560     2.2170   -14.2410 
  158.3750    67.4820   101.8650    90.9820    90.5820    26.1830     2.2100   -14.0950 
  158.5000    67.9820   105.0330    94.6310   100.3950    26.2380     2.2080   -13.9830 
  158.6250    65.8890   105.8630    96.4190    99.5300    26.2380     2.2090   -13.9340 
  158.7500    63.1050   103.8230    96.0450    91.9630    26.1920     2.2080   -13.9750 
  158.8750    62.8220    98.8610    93.2070    83.1360    26.1390     2.2030   -14.0250 
  159.0000    65.1270    92.1570    87.3430    81.8070    26.0820     2.1970   -14.1100 
  159.1250    66.8440    85.5640    79.7410    82.0350    26.0190     2.1940   -14.2770 
  159.2500    67.5920    79.6630    72.0700    79.4690    25.9400     2.1980   -14.5000 
  159.3750    68.8300    74.9840    66.2120    66.2010    25.8160     2.2080   -14.7550 
  159.5000    69.8160    73.6390    64.5080    52.4830    25.6750     2.2170   -15.0390 
  159.6250    68.0880    76.8520    67.3630    55.5100    25.6360     2.2200   -15.2890 
  159.7500    64.4690    84.5100    74.6050    74.7580    25.6910     2.2190   -15.3930 
  159.8750    62.1570    94.6440    84.5900   100.6240    25.7170     2.2190   -15.4020 
  160.0000    62.6100   101.9210    92.9580   111.5260    25.6630     2.2260   -15.4290 
  160.1250    64.7810   101.5700    95.0190   101.1950    25.5900     2.2350   -15.5090 
  160.2500    66.7610    92.6140    89.0170    85.8750    25.5420     2.2400   -15.5610 
  160.3750    69.3770    78.2380    77.0670    64.9050    25.4710     2.2400   -15.5340 
  160.5000    73.0180    63.7680    63.6220    50.6610    25.3230     2.2400   -15.4240 
  160.6250    74.1960    52.5250    52.3750    39.5970    25.1210     2.2470   -15.3140 
  160.7500    73.1020    45.1220    44.4880    33.8910    24.9540     2.2640   -15.2980 
  160.8750    73.3060    41.2440    40.1390    31.3240    24.8520     2.2820   -15.2830 
  161.0000    76.3070    40.7970    39.6000    29.6760    24.8050     2.2900   -15.1650 
  161.1250    76.9750    42.4510    41.6560    31.3940    24.7880     2.2830   -15.0030 
  161.2500    74.8080    44.7630    45.0290    42.9660    24.7850     2.2650   -14.8030 
  161.3750    73.1130    45.6900    47.6270    62.2800    24.7850     2.2450   -14.5350 
