~V
VERS. 2.00: Ver 2.00
~W
STRT.M 48.0000:
STOP.M 276.0000:
STEP.M 0.1250:
NULL. -999.2500:
UWI. F10244:
~C
DEPT.M :
GR.API :
RML.OHMM :
RI. :
RXO.OHMM :
CALI.CM :
DEN.GM/CC :
SP.MV :
~A
# ...
  171.7500    61.6920   124.9310   129.7350   147.4730    24.9730     2.1560    -7.5170 
  171.8750    65.3540   111.6010   114.2730   131.1560    24.6550     2.1660    -7.5110 
  172.0000    66.9000   102.7060   103.2710   105.5390    24.8240     2.1780    -7.4970 
  172.1250    65.4750    98.6110    97.5080    76.6010    25.1070     2.1910    -7.5070 
  172.2500    63.7360    99.5790    97.5670    66.2950    25.1650     2.2010    -7.5250 
  172.3750    63.6960   107.0870   104.9900    80.6850    25.0090     2.2030    -7.5170 
  172.5000    64.2160   121.0220   119.0900    99.8470    24.8950     2.1990    -7.5210 
  172.6250    64.6650   141.7420   139.7750   129.6460    24.9440     2.1880    -7.5560 
  172.7500    64.2560   167.6560   165.5160   187.1490    25.1190     2.1760    -7.5820 
  172.8750    62.8250   192.0220   190.5080   216.3270    25.2930     2.1690    -7.5960 
  173.0000    60.8900   205.6860   205.6170   226.3530    25.4130     2.1700    -7.6180 
  173.1250    59.8020   203.6480   204.8230   247.1780    25.4340     2.1800    -7.5980 
  173.2500    60.1890   187.7170   189.1090   254.7100    25.4050     2.1960    -7.5900 
  173.3750    61.7870   164.9540   165.5050   187.4750    25.3660     2.2160    -7.5740 
  173.5000    63.9720   143.7790   143.2160   122.4680    25.3360     2.2370    -7.5740 
  173.6250    65.8090   127.0520   125.5610    95.1460    25.2920     2.2570    -7.5010 
  173.7500    66.0700   115.0640   112.9550    94.9520    25.2750     2.2740    -7.4210 
  173.8750    66.5660   107.6040   105.1200    94.6460    25.2960     2.2830    -7.3340 
  174.0000    68.5620   103.1280   100.5500    87.4320    25.2920     2.2820    -7.2560 
  174.1250    70.8630   101.0300    98.8290    81.6210    25.2600     2.2680    -7.1830 
  174.2500    72.4840   100.7190    99.4320    89.1550    25.1500     2.2420    -7.0580 
  174.3750    74.6900   101.3200   101.6170   108.9670    25.0490     2.2120    -6.9370 
  174.5000    76.9410   101.1860   103.6680   138.3830    24.9610     2.1910    -6.7800 
  174.6250    76.8760    98.9250   103.8560   155.6570    24.9390     2.1860    -6.6830 
  174.7500    73.4730    93.9270   100.8390   138.9930    24.9620     2.1950    -6.5830 
  174.8750    69.4830    86.7990    94.5390    86.0660    24.9000     2.2110    -6.4700 
  175.0000    68.0860    79.6610    87.4900    60.2270    24.8340     2.2230    -6.3610 
  175.1250    70.0560    73.6830    81.3630    51.7910    24.8910     2.2280    -6.2520 
  175.2500    71.5720    68.9930    76.7360    47.6850    24.9900     2.2320    -6.1720 
  175.3750    68.9640    64.7440    72.8740    59.6790    25.0060     2.2490    -6.0970 
  175.5000    66.7420    59.8740    68.1440    66.3170    25.0620     2.2830    -6.0430 
  175.6250    67.9780    54.2780    61.9410    56.4850    25.1200     2.3290    -5.9890 
  175.7500    70.8340    48.7070    55.0260    40.4860    25.1030     2.3720    -5.9380 
  175.8750    71.3680    44.6710    49.3830    34.5450    24.9350     2.3920    -5.9160 
  176.0000    70.3110    43.0190    46.4590    30.8340    24.8420     2.3830    -5.8820 
  176.1250    69.6570    44.4960    47.4990    32.2150    24.9080     2.3480    -5.8360 
  176.2500    68.6080    50.0760    53.9310    45.7980    25.0740     2.2970    -5.8010 
  176.3750    65.7940    62.8840    69.1510    69.1000    25.2090     2.2440    -5.7870 
  176.5000    62.5380    85.6190    94.8250   100.2050    25.3030     2.2030    -5.8010 
  176.6250    61.0180   122.9910   134.0920   147.1730    25.3870     2.1830    -5.8090 
  176.7500    60.6180   179.6870   189.6070   276.7810    25.4300     2.1820    -5.8660 
  176.8750    57.4340   261.7710   264.3470   418.3420    25.3780     2.1930    -5.9000 
  177.0000    53.5150   362.1890   351.4940   531.2830    25.3040     2.1980    -5.9460 
  177.1250    52.8520   468.0320   442.8760   600.1560    25.2030     2.1920    -6.0350 
  177.2500    55.5540   551.6520   523.2660   594.2600    25.1700     2.1740    -6.1240 
  177.3750    57.1900   561.7330   556.7290   483.7390    25.2320     2.1580    -6.1960 
  177.5000    56.1420   493.4110   521.6030   404.3860    25.2780     2.1520    -6.2480 
  177.6250    55.1480   375.8290   423.4290   337.5830    25.2300     2.1600    -6.3310 
  177.7500    56.4470   257.0990   302.9590   214.8170    25.1790     2.1780    -6.4220 
  177.8750    59.2980   176.5980   207.4780   139.5250    25.2570     2.1990    -6.5220 
  178.0000    62.0950   129.5830   145.3760   144.0370    25.3790     2.2140    -6.5990 
  178.1250    64.6070   104.8380   110.4800   183.7060    25.4040     2.2220    -6.6570 
  178.2500    67.5560    93.7620    94.5700   221.9160    25.3220     2.2200    -6.6960 
  178.3750    69.3730    92.5390    92.4170   142.9580    25.2590     2.2120    -6.7780 
  178.5000    68.9900    96.3620    96.8310   126.0590    25.2030     2.2050    -6.8490 
  178.6250    66.6730   102.0830   103.7870   124.5140    25.1700     2.2050    -6.9010 
  178.7500    63.5490   106.2670   109.2660   125.6660    25.1580     2.2150    -6.8890 
  178.8750    63.2310   105.7540   109.3760   113.8520    25.1580     2.2330    -6.9010 
  179.0000    67.0040   101.6450   105.1510    98.7470    25.1550     2.2510    -6.9130 
  179.1250    71.8370    96.1970    99.1960    89.6020    25.1370     2.2630    -6.9250 
  179.2500    73.7700    91.5360    94.0130    80.0800    25.0790     2.2700    -6.9370 
  179.3750    71.2390    88.7830    90.9460    69.4320    24.9880     2.2730    -6.9350 
  179.5000    67.9980    87.1370    89.1130    64.3060    24.9050     2.2750    -6.9170 
  179.6250    65.1630    85.6960    87.4690    63.3200    24.8870     2.2770    -6.8810 
  179.7500    63.3620    83.7790    85.2150    62.5850    24.8940     2.2780    -6.8570 
  179.8750    64.4600    81.2040    82.1260    53.4610    24.8000     2.2750    -6.8100 
  180.0000    67.6300    78.6060    78.9210    41.8830    24.6780     2.2690    -6.7760 
  180.1250    71.1530    76.6850    76.3590    32.7730    24.7320     2.2610    -6.7120 
  180.2500    73.5410    76.0140    75.0510    33.2670    24.7500     2.2540    -6.6880 
  180.3750    73.6370    77.1160    75.5160    37.8220    25.1400     2.2490    -6.6310 
  180.5000    72.5220    79.5990    77.2960    41.0940    25.3870     2.2470    -6.6150 
  180.6250    70.9970    83.0730    79.9220    46.6810    25.4870     2.2460    -6.6170 
  180.7500    69.2520    87.0570    82.8630    50.5310    25.4730     2.2480    -6.6470 
  180.8750    68.7170    91.1050    85.6460    49.3230    25.4580     2.2520    -6.6590 
  181.0000    70.5140    94.9980    88.1410    45.2010    25.4760     2.2590    -6.6550 
  181.1250    73.4690    98.7790    90.4650    42.9170    25.4740     2.2670    -6.6940 
  181.2500    75.5670   102.6000    92.8370    46.7210    25.4300     2.2730    -6.6960 
  181.3750    75.6400   106.6440    95.4870    50.3800    25.3810     2.2750    -6.7180 
  181.5000    74.8370   110.9040    98.3970    54.3420    25.3360     2.2710    -6.6790 
  181.6250    75.3870   115.2860   101.4740    61.5240    25.2960     2.2630    -6.6170 
  181.7500    77.5230   119.6320   104.5950    69.7980    25.2570     2.2520    -6.5340 
  181.8750    77.6410   123.6500   107.5850    75.1420    25.2110     2.2400    -6.5060 
  182.0000    74.5540   127.0020   110.2020    76.4860    25.1960     2.2310    -6.4700 
  182.1250    70.8910   129.1070   112.0380    78.4480    25.1740     2.2260    -6.4160 
  182.2500    69.0810   129.1490   112.5010    81.9750    25.1590     2.2270    -6.3730 
  182.3750    68.2750   125.8460   110.4210    88.4280    25.1540     2.2300    -6.3610 
  182.5000    68.4800   119.7180   105.8070    95.2330    25.1560     2.2300    -6.3850 
  182.6250    71.1720   111.7750    99.3220    91.2080    25.1530     2.2240    -6.4040 
  182.7500    75.9950   103.4390    92.2350    80.4790    25.1490     2.2150    -6.4060 
  182.8750    81.0790    96.0990    85.8900    78.2700    25.1660     2.2100    -6.3850 
