~V
VERS. 2.00: Ver 2.00
~W
STRT.M 60.0000:
STOP.M 271.0000:
STEP.M 0.1250:
NULL. -999.2500:
UWI. F10237:
~C
DEPT.M :
GR.API :
RML.OHMM :
RI. :
RXO.OHMM :
CALI.CM :
DEN.GM/CC :
SP.MV :
~A
# ...
   71.2500    68.7910     7.7520     6.4830     6.3430    22.5760     2.1450   -18.4030 
   71.3750    70.9560     7.8080     6.5180     6.2860    22.5720     2.1630   -18.5850 
   71.5000    73.6330     7.9480     6.6170     6.2010    22.6240     2.1800   -18.7080 
   71.6250    73.8880     8.2380     6.8130     6.2590    22.6360     2.1910   -18.7510 
   71.7500    71.9880     8.6530     7.1080     6.5380    22.5960     2.1930   -18.8260 
   71.8750    69.0030     9.1300     7.4910     7.0180    22.5700     2.1880   -18.9480 
   72.0000    64.8150     9.5710     7.9140     7.3670    22.5090     2.1840   -19.0620 
   72.1250    61.4580     9.8410     8.2700     7.2890    22.2540     2.1840   -19.1440 
   72.2500    59.4100     9.8950     8.4610     7.1190    21.8550     2.1820   -19.2160 
   72.3750    59.5990     9.7460     8.4390     7.1450    21.6540     2.1760   -19.2950 
   72.5000    61.7970     9.4680     8.2350     7.4170    21.7950     2.1660   -19.3610 
   72.6250    61.9250     9.1700     7.9400     7.4470    22.0440     2.1550   -19.4010 
   72.7500    59.4930     8.9330     7.6620     7.3110    22.1420     2.1490   -19.3910 
   72.8750    57.5210     8.7700     7.4470     7.1550    22.0930     2.1520   -19.3950 
   73.0000    58.1260     8.6710     7.3090     7.0790    21.9910     2.1600   -19.4220 
   73.1250    58.4740     8.6350     7.2500     7.0300    21.8860     2.1640   -19.4090 
   73.2500    57.5730     8.6580     7.2330     6.9000    21.6310     2.1610   -19.3560 
   73.3750    56.9690     8.7350     7.2300     6.6940    21.3130     2.1550   -19.2950 
   73.5000    59.0280     8.8400     7.2220     6.6620    21.0930     2.1540   -19.3080 
   73.6250    63.6140     8.9080     7.1960     6.9640    21.1930     2.1570   -19.3650 
   73.7500    66.7900     8.9030     7.1590     7.3290    21.4910     2.1620   -19.3800 
   73.8750    64.9820     8.8380     7.1230     7.5000    21.7470     2.1690   -19.4020 
   74.0000    58.5330     8.7540     7.0960     7.5290    21.8460     2.1780   -19.4880 
   74.1250    54.7820     8.7010     7.0730     7.5930    21.7060     2.1880   -19.5810 
   74.2500    53.6300     8.6780     7.0420     7.6910    21.4170     2.1970   -19.6470 
   74.3750    52.3240     8.6580     7.0000     7.8170    21.0670     2.2030   -19.6920 
   74.5000    52.4180     8.6170     6.9560     7.9550    20.8550     2.2050   -19.7320 
   74.6250    56.4140     8.5460     6.9280     7.9970    21.0390     2.1990   -19.8090 
   74.7500    59.9740     8.4780     6.9270     7.8320    21.4020     2.1910   -19.8630 
   74.8750    58.9650     8.4450     6.9440     7.7150    21.8190     2.1860   -19.8210 
   75.0000    56.1520     8.4540     6.9540     7.6620    22.2820     2.1860   -19.7200 
   75.1250    55.4560     8.4600     6.9360     7.6830    22.6130     2.1880   -19.6520 
   75.2500    53.8420     8.4100     6.8910     7.6710    22.7660     2.1880   -19.6030 
   75.3750    52.5950     8.2790     6.8220     7.6080    22.8110     2.1860   -19.5070 
   75.5000    55.0340     8.0790     6.7310     7.4060    22.8680     2.1830   -19.3320 
   75.6250    62.0150     7.8710     6.6260     7.0100    23.0050     2.1780   -19.1270 
   75.7500    67.0030     7.7210     6.5270     6.6950    23.1110     2.1670   -18.9640 
   75.8750    67.8570     7.6600     6.4530     6.7880    23.0250     2.1560   -18.7870 
   76.0000    64.5770     7.6730     6.4110     7.0060    22.7530     2.1490   -18.5410 
   76.1250    59.6000     7.7260     6.4010     7.0980    22.4400     2.1480   -18.2610 
   76.2500    55.8460     7.7700     6.4070     7.0120    22.4080     2.1490   -17.9990 
   76.3750    56.7000     7.7760     6.4230     6.9240    22.5750     2.1520   -17.7790 
   76.5000    61.4440     7.7480     6.4450     6.8760    22.7360     2.1560   -17.5400 
   76.6250    65.7430     7.7180     6.4550     6.9070    22.7640     2.1630   -17.2030 
   76.7500    68.3070     7.7140     6.4500     6.9290    22.7540     2.1730   -16.8330 
   76.8750    69.5420     7.7730     6.4640     6.8860    22.7560     2.1830   -16.5260 
   77.0000    70.1620     7.9560     6.5790     6.8780    22.7420     2.1960   -16.2460 
   77.1250    69.2660     8.3600     6.9270     7.0270    22.7440     2.2100   -15.8900 
   77.2500    67.6010     8.9540     7.5150     7.4050    22.7610     2.2270   -15.4290 
   77.3750    65.9720     9.6350     8.2610     8.3470    22.7630     2.2500   -14.9200 
   77.5000    65.0730    10.2020     8.9760    10.2330    22.7150     2.2750   -14.4570 
   77.6250    67.0360    10.3110     9.3220    11.5200    22.6720     2.2870   -14.0470 
   77.7500    71.0620     9.8820     9.1610    10.1120    22.6680     2.2870   -13.5900 
   77.8750    74.4050     9.0260     8.5700     7.9600    22.7050     2.2910   -13.0790 
   78.0000    76.5910     7.9880     7.8720     6.7610    22.7750     2.3120   -12.5860 
   78.1250    80.8950     7.0150     7.3130     6.3350    22.9210     2.3410   -12.1270 
   78.2500    88.3420     6.1970     6.8110     5.9110    23.0340     2.3650   -11.7010 
   78.3750    97.2030     5.5160     6.1940     4.9470    23.1150     2.3800   -11.3220 
   78.5000   105.6630     4.9480     5.3930     3.9830    23.1770     2.3830   -11.0170 
   78.6250   109.9840     4.5340     4.5910     3.5490    23.2050     2.3750   -10.7970 
   78.7500   111.8740     4.3180     4.0220     3.4800    23.1940     2.3680   -10.6720 
   78.8750   113.7580     4.3650     3.7870     3.5900    23.1880     2.3720   -10.6580 
   79.0000   113.3660     4.7210     3.9020     3.8490    23.2450     2.3860   -10.7390 
   79.1250   104.4080     5.4440     4.3680     4.4020    23.2720     2.4040   -10.9880 
   79.2500    91.4190     6.4150     5.0700     5.6500    23.2260     2.4100   -11.3740 
   79.3750    82.0390     7.4620     5.9030     8.0830    23.1640     2.3930   -11.8220 
   79.5000    77.3510     8.3390     6.6860     9.1150    23.1100     2.3510   -12.2650 
   79.6250    73.8700     8.7700     7.1910     8.0870    23.0740     2.3000   -12.7930 
   79.7500    70.6830     8.8480     7.4280     6.9440    23.0650     2.2630   -13.3850 
   79.8750    68.2470     8.7970     7.5250     6.5020    23.0730     2.2430   -13.9080 
   80.0000    67.4840     8.8760     7.6600     6.6250    23.0480     2.2340   -14.3580 
   80.1250    65.4280     9.2890     8.0050     7.1740    22.8980     2.2270   -14.7720 
   80.2500    62.8500     9.9550     8.5360     7.7660    22.6690     2.2140   -15.1480 
   80.3750    61.1660    10.7140     9.1330     7.9640    22.6510     2.1930   -15.4700 
   80.5000    59.1150    11.3400     9.6140     7.7400    22.6660     2.1640   -15.7100 
   80.6250    57.1300    11.5250     9.7380     7.5990    22.7330     2.1320   -15.8210 
   80.7500    56.2340    11.2460     9.4940     7.2090    22.8490     2.1070   -15.9000 
   80.8750    57.5590    10.6300     8.9900     6.9120    22.9620     2.0960   -15.9800 
   81.0000    57.2350     9.9150     8.4160     6.8920    23.0200     2.0960   -15.9900 
   81.1250    52.8450     9.3600     7.9610     7.0830    23.0310     2.1030   -15.8700 
   81.2500    49.4240     9.0400     7.6810     7.2040    23.0190     2.1120   -15.7230 
   81.3750    49.9540     8.9290     7.5640     7.2750    22.9910     2.1220   -15.6380 
   81.5000    54.2270     8.9560     7.5570     7.3360    22.9700     2.1340   -15.5660 
   81.6250    56.8890     9.0640     7.6060     7.3960    22.9630     2.1430   -15.4160 
   81.7500    57.1280     9.2090     7.6630     7.4610    22.9630     2.1490   -15.2440 
   81.8750    58.2240     9.3580     7.7110     7.4800    22.9630     2.1540   -15.0990 
   82.0000    60.1960     9.4700     7.7370     7.4140    22.9680     2.1580   -14.9770 
   82.1250    60.7100     9.4970     7.7370     7.3390    22.9860     2.1610   -14.8540 
   82.2500    59.2460     9.4620     7.7360     7.3150    23.0120     2.1630   -14.6960 
   82.3750    57.4740     9.4140     7.7530     7.3890    23.0230     2.1650   -14.4890 
