~V
VERS. 2.00: Ver 2.00
~W
STRT.M 56.0000:
STOP.M 275.0000:
STEP.M 0.1250:
NULL. -999.2500:
UWI. F10253:
~C
DEPT.M :
GR.API :
RML.OHMM :
RI. :
RXO.OHMM :
CALI.CM :
DEN.GM/CC :
SP.MV :
~A
# ...
  202.2500    48.5720   121.5880   122.1520   127.8810    24.5420     2.2310   -16.1210 
  202.3750    48.7480   107.8570   109.6050   116.3860    24.5290     2.2310   -15.8150 
  202.5000    49.6670    88.1850    90.3800   110.7550    24.4870     2.2410   -15.5490 
  202.6250    50.2030    65.6670    67.5170   106.8490    24.3980     2.2660   -15.2820 
  202.7500    51.8140    44.7930    45.9620    90.9980    24.2210     2.3040   -15.0250 
  202.8750    57.6800    29.9090    30.7200    59.0880    23.9290     2.3450   -14.7730 
  203.0000    64.9020    20.4410    21.1820    27.5180    23.7400     2.3760   -14.5380 
  203.1250    70.5820    15.0600    15.7700    13.5320    23.8190     2.3910   -14.3270 
  203.2500    73.6690    12.3030    12.9000     9.8470    24.0370     2.3910   -14.1310 
  203.3750    76.2420    11.1720    11.5840     9.2640    24.1540     2.3820   -13.9470 
  203.5000    79.1670    10.6950    10.9350     9.0990    24.2170     2.3680   -13.7870 
  203.6250    80.4120    10.5350    10.6530     8.7290    24.2670     2.3470   -13.6510 
  203.7500    79.7300    10.5600    10.5950     8.2100    24.2980     2.3210   -13.5110 
  203.8750    79.4260    10.8580    10.8030     8.0960    24.3000     2.2990   -13.3900 
  204.0000    79.4110    11.5540    11.3550     8.6920    24.2580     2.2870   -13.2960 
  204.1250    76.9690    12.8350    12.4020    10.2590    24.1780     2.2870   -13.2340 
  204.2500    72.4700    14.9240    14.1190    12.8290    24.0460     2.2940   -13.2030 
  204.3750    72.3330    18.2960    16.9020    16.3410    23.8770     2.2980   -13.1790 
  204.5000    75.0890    22.9930    20.8070    21.3560    23.8160     2.2930   -13.1340 
  204.6250    73.5660    28.8760    25.7570    28.5150    23.9020     2.2810   -13.1070 
  204.7500    64.8880    35.1610    31.1160    38.6250    24.0950     2.2760   -13.1020 
  204.8750    53.8410    39.8160    35.1630    54.5480    24.2180     2.3010   -13.0720 
  205.0000    47.5410    41.0280    36.2430    68.0610    24.2540     2.3600   -13.0120 
  205.1250    46.5670    37.8310    33.3960    72.5820    24.1500     2.4370   -12.8970 
  205.2500    49.0970    30.9850    27.3220    66.7610    24.0040     2.5030   -12.7510 
  205.3750    55.5780    23.1150    20.5080    47.3240    23.9040     2.5220   -12.6160 
  205.5000    62.7960    16.8260    15.1200    24.6690    23.8570     2.5020   -12.5080 
  205.6250    68.4060    12.7050    11.5120    12.6470    23.8400     2.4680   -12.3960 
  205.7500    72.8660    10.3910     9.3530     8.5770    23.8230     2.4430   -12.3020 
  205.8750    76.3760     9.4350     8.3210     7.8450    23.7540     2.4390   -12.2660 
  206.0000    79.2570     9.1720     7.9090     7.9350    23.7230     2.4450   -12.2730 
  206.1250    79.5900     9.2710     7.9190     8.1660    23.7340     2.4480   -12.3440 
  206.2500    79.1840     9.5880     8.2120     8.4140    23.7640     2.4380   -12.4760 
  206.3750    81.3750     9.9530     8.7060     8.6300    23.8070     2.4090   -12.6450 
  206.5000    84.4730    10.2650     9.2770     8.7010    23.8810     2.3710   -12.8410 
  206.6250    85.6920    10.6640     9.8300     8.4940    24.0030     2.3380   -13.0600 
  206.7500    82.0690    11.1000    10.2580     7.9080    24.1380     2.3200   -13.2540 
  206.8750    76.7430    11.2330    10.4050     7.0410    24.2380     2.3250   -13.4030 
  207.0000    73.3170    11.0620    10.2550     6.4980    24.3780     2.3390   -13.5150 
  207.1250    70.8680    10.6420     9.8490     6.5540    24.4890     2.3520   -13.5950 
  207.2500    70.6670    10.1270     9.3160     7.0270    24.4530     2.3560   -13.6230 
  207.3750    71.8330     9.7940     8.8930     7.4950    24.2050     2.3560   -13.5970 
  207.5000    73.0080     9.8590     8.7670     7.9200    23.9050     2.3610   -13.5360 
  207.6250    73.4890    10.4490     9.0570     8.6740    23.6360     2.3710   -13.4670 
  207.7500    73.9550    11.5830     9.7970    10.1990    23.4370     2.3810   -13.4430 
  207.8750    71.7790    13.1610    10.9630    12.7830    23.4990     2.3850   -13.4360 
  208.0000    66.3140    14.7770    12.2630    15.8050    23.8480     2.3810   -13.4540 
  208.1250    62.6490    16.0490    13.3980    18.1360    24.2580     2.3740   -13.4810 
  208.2500    64.2190    16.6520    14.0700    19.3240    24.4580     2.3680   -13.5320 
  208.3750    67.0400    16.3380    13.9950    19.0580    24.5320     2.3630   -13.6420 
  208.5000    66.6450    15.4540    13.3840    17.5730    24.5760     2.3550   -13.7830 
  208.6250    63.1410    14.3800    12.5280    15.5580    24.6180     2.3450   -13.9340 
  208.7500    58.8550    13.5000    11.7480    13.9460    24.6720     2.3340   -14.0600 
  208.8750    56.0840    13.2270    11.3850    13.4430    24.7010     2.3280   -14.1580 
  209.0000    55.0920    13.7120    11.5760    14.0950    24.6640     2.3310   -14.2170 
  209.1250    55.9440    15.1470    12.4700    16.0190    24.5710     2.3440   -14.2110 
  209.2500    58.0650    17.6910    14.2100    19.3210    24.4580     2.3660   -14.1240 
  209.3750    59.7830    21.4540    16.9820    24.4730    24.3570     2.3940   -13.9030 
  209.5000    58.7270    25.6050    20.2550    30.7910    24.2600     2.4240   -13.5330 
  209.6250    56.2800    28.9400    23.1690    37.6270    24.1600     2.4530   -13.0440 
  209.7500    57.3260    30.0150    24.5660    43.9940    24.0620     2.4790   -12.4480 
  209.8750    62.3200    27.2230    22.9190    45.4970    23.9500     2.4990   -11.7590 
  210.0000    64.8330    21.7160    18.8520    40.9230    23.8490     2.5090   -10.9940 
  210.1250    62.8550    15.4970    13.9800    29.8950    23.7340     2.5050   -10.2010 
  210.2500    58.7840    10.4620     9.9090    16.4190    23.6110     2.4850    -9.4180 
  210.3750    57.6310     7.5940     7.4340     8.4460    23.4690     2.4560    -8.6550 
  210.5000    60.9580     6.1910     6.0830     5.6680    23.3470     2.4330    -7.9730 
  210.6250    67.7960     5.7090     5.5080     5.1060    23.2780     2.4230    -7.3770 
  210.7500    74.7020     5.7270     5.4260     5.1840    23.2790     2.4250    -6.8880 
  210.8750    79.0230     5.9690     5.6370     5.2920    23.3540     2.4280    -6.5040 
  211.0000    81.8490     6.2280     5.9200     5.3870    23.4810     2.4180    -6.2270 
  211.1250    82.2360     6.4240     6.1700     5.5110    23.6160     2.3900    -6.0410 
  211.2500    79.2590     6.5430     6.3360     5.7200    23.7250     2.3480    -5.9320 
  211.3750    74.1670     6.6260     6.4120     6.0290    23.8310     2.3060    -5.9300 
  211.5000    71.5030     6.6620     6.4530     6.2450    23.9570     2.2770    -5.9800 
  211.6250    73.1340     6.7160     6.4870     6.2030    24.0350     2.2660    -6.0750 
  211.7500    78.0260     6.8180     6.5570     6.1630    24.0030     2.2720    -6.1920 
  211.8750    79.8040     6.9730     6.6610     6.3950    23.8870     2.2860    -6.3620 
  212.0000    75.9310     7.1970     6.7960     6.8280    23.7520     2.2960    -6.5680 
  212.1250    71.3720     7.4650     6.9880     7.3200    23.6080     2.2990    -6.8120 
  212.2500    71.4920     7.7540     7.2040     7.8580    23.4810     2.2960    -7.0730 
  212.3750    71.8760     7.9920     7.4450     8.3800    23.4570     2.2920    -7.3230 
  212.5000    68.4780     8.3490     7.7210     8.8310    23.5300     2.2910    -7.5940 
  212.6250    65.5460     9.0540     8.0940     9.2570    23.6130     2.2950    -7.8780 
  212.7500    68.4600    10.4170     8.8520    10.1730    23.6750     2.3030    -8.1690 
  212.8750    71.1160    12.9190    10.3950    13.2930    23.7290     2.3130    -8.4610 
  213.0000    65.9590    16.5320    12.9610    19.0870    23.7600     2.3230    -8.7410 
  213.1250    57.2990    21.0740    16.5050    27.1100    23.7310     2.3290    -8.9940 
  213.2500    53.1090    26.0610    20.7410    36.1680    23.6490     2.3270    -9.2220 
  213.3750    54.8230    30.6800    25.0970    41.3880    23.5360     2.3160    -9.4440 
