~V
VERS. 2.00: Ver 2.00
~W
STRT.M 50.0000:
STOP.M 273.0000:
STEP.M 0.1250:
NULL. -999.2500:
UWI. F10249:
~C
DEPT.M :
DEN.GM/CC :
GR.API :
RML.OHMM :
RI. :
RXO.OHMM :
CALI.CM :
SP.MV :
~A
# ...
  218.7500     2.2150    71.8520    63.7430    64.2200    58.8110    23.7740   -13.5990 
  218.8750     2.1990    75.7660    62.4870    62.3870    61.8030    23.7780   -13.5940 
  219.0000     2.1880    76.2110    62.0510    61.2060    67.6860    23.7210   -13.6750 
  219.1250     2.1840    73.9000    63.1000    61.4610    67.9390    23.6670   -13.8020 
  219.2500     2.1850    71.6250    65.6630    63.3070    64.5290    23.6410   -13.9190 
  219.3750     2.1870    69.9030    69.6800    66.7980    67.1060    23.6540   -14.0180 
  219.5000     2.1880    68.7330    74.8210    71.7180    79.7810    23.6700   -14.1320 
  219.6250     2.1910    67.5260    80.4850    77.5590    92.5310    23.6760   -14.2490 
  219.7500     2.1930    66.4790    85.7350    83.3050    96.0770    23.6760   -14.3640 
  219.8750     2.1920    66.3160    89.7730    88.1200    94.1260    23.6720   -14.4870 
  220.0000     2.1850    66.2960    91.8600    91.1750    92.9570    23.6580   -14.6210 
  220.1250     2.1730    65.8010    90.9430    91.2450    91.0610    23.6210   -14.7520 
  220.2500     2.1630    65.6170    87.2640    88.3210    84.0030    23.5900   -14.8710 
  220.3750     2.1600    66.3140    81.2230    82.6190    71.9440    23.5850   -14.9810 
  220.5000     2.1660    67.6600    73.7500    74.9990    57.9290    23.6180   -15.0520 
  220.6250     2.1800    66.4930    66.2410    66.9300    45.5510    23.6370   -15.1220 
  220.7500     2.1960    64.0800    59.9570    59.9130    36.9020    23.6270   -15.2170 
  220.8750     2.2110    63.4130    55.5940    54.7170    32.2620    23.6130   -15.2930 
  221.0000     2.2190    65.0890    53.4750    51.6980    30.2130    23.5960   -15.3250 
  221.1250     2.2170    67.0210    54.0490    51.3440    29.6800    23.5500   -15.2920 
  221.2500     2.2080    66.8360    56.8000    53.2410    31.2060    23.4740   -15.2080 
  221.3750     2.1940    64.8170    61.4240    57.2390    38.3560    23.4890   -15.1380 
  221.5000     2.1820    63.1390    67.3670    62.9440    53.7260    23.8920   -15.1540 
  221.6250     2.1760    62.0530    73.6790    69.5600    71.8580    25.0000   -15.1970 
  221.7500     2.1730    60.8820    79.0980    75.6530    82.0470    25.9150   -15.1980 
  221.8750     2.1690    59.4920    82.6840    80.1130    82.0260    26.3410   -15.1380 
  222.0000     2.1610    59.0090    83.8700    82.2020    77.2850    26.3270   -15.0460 
  222.1250     2.1510    59.0190    82.2070    81.2810    74.6200    26.1880   -14.9900 
  222.2500     2.1440    59.5550    78.5700    78.1430    75.2100    26.2310   -15.0240 
  222.3750     2.1470    61.8390    73.6640    73.4450    76.8770    26.2890   -15.0860 
  222.5000     2.1600    65.8200    68.3180    68.0170    75.1730    26.2340   -15.1160 
  222.6250     2.1790    69.4460    63.5520    62.9020    65.9420    26.0970   -15.1160 
  222.7500     2.1950    70.8490    60.0340    58.8840    54.0960    25.9940   -15.0740 
  222.8750     2.2050    69.3180    58.1420    56.4170    45.8470    25.9480   -15.0280 
  223.0000     2.2080    65.9260    57.9640    55.6930    43.8290    25.9260   -14.9890 
  223.1250     2.2030    63.0790    59.4610    56.8880    46.2490    25.9650   -14.9280 
  223.2500     2.1840    62.2570    61.7680    59.2640    50.6720    26.0750   -14.8460 
  223.3750     2.1490    62.6600    64.1070    62.0570    58.5860    26.2500   -14.7630 
  223.5000     2.1030    63.4170    65.6730    64.2980    69.7990    26.4390   -14.6900 
  223.6250     2.0650    64.2670    65.6460    64.8330    77.2510    26.5850   -14.6020 
  223.7500     2.0520    64.6950    64.2810    63.6940    75.2770    26.5990   -14.5130 
  223.8750     2.0700    64.5100    62.1560    61.4350    65.9520    26.4920   -14.4290 
  224.0000     2.1110    64.8270    60.1020    58.9990    55.4540    26.3050   -14.3410 
  224.1250     2.1600    64.9510    59.0470    57.5110    47.5980    26.0540   -14.2670 
  224.2500     2.2060    64.2950    59.0970    57.2600    41.8120    25.8070   -14.1540 
  224.3750     2.2450    64.4710    59.9120    57.9880    39.3530    25.6640   -13.9560 
  224.5000     2.2730    64.8740    60.8230    58.9920    42.7100    25.6860   -13.6810 
  224.6250     2.2810    63.5270    60.9590    59.2300    50.4550    25.7730   -13.4490 
  224.7500     2.2740    61.4620    60.1140    58.3120    55.3540    25.7900   -13.2840 
  224.8750     2.2570    61.1370    58.5510    56.4400    54.1520    25.7870   -13.1340 
  225.0000     2.2400    62.1410    56.8710    54.2360    49.1490    25.7360   -12.9580 
  225.1250     2.2300    60.6280    55.9240    52.5660    46.1900    25.2730   -12.7230 
  225.2500     2.2240    57.0900    56.0980    51.9160    47.6200    24.3090   -12.4880 
  225.3750     2.2210    55.9810    57.5360    52.4730    52.0010    23.5650   -12.3480 
  225.5000     2.2190    60.0090    60.2010    54.1930    56.3660    23.9160   -12.3100 
  225.6250     2.2160    65.3050    64.1830    57.1110    59.3910    24.9680   -12.2620 
  225.7500     2.2100    64.4000    69.2370    61.0120    65.3540    25.5000   -12.1700 
  225.8750     2.2030    60.2480    75.3000    65.9050    76.3980    25.5870   -12.0550 
  226.0000     2.1930    59.5920    82.1450    71.6700    89.3050    25.5530   -11.9480 
  226.1250     2.1840    62.9390    89.1030    77.7700    99.1670    25.5200   -11.8830 
  226.2500     2.1760    64.5180    95.0860    83.0680   106.0570    25.4940   -11.8560 
  226.3750     2.1710    63.7210    99.2000    86.5440   110.7620    25.4650   -11.8480 
  226.5000     2.1690    62.9170   101.1080    87.7350   112.7030    25.4520   -11.8210 
  226.6250     2.1690    63.5410   101.2170    86.9480   112.1960    25.4680   -11.7720 
  226.7500     2.1690    64.2480   101.2320    85.8610   112.3560    25.5090   -11.7230 
  226.8750     2.1680    63.5630   102.5160    85.8230   113.5650    25.5500   -11.6780 
  227.0000     2.1690    61.4230   106.0260    87.8650   115.5460    25.5670   -11.6310 
  227.1250     2.1720    59.6250   112.3340    92.7970   119.0790    25.5470   -11.5800 
  227.2500     2.1750    60.1480   120.0940    99.5820   123.5210    25.5130   -11.5010 
  227.3750     2.1780    63.0640   127.5400   106.7860   127.0110    25.5390   -11.3500 
  227.5000     2.1790    65.2700   132.4930   112.4790   128.4780    25.6450   -11.1230 
  227.6250     2.1830    64.9350   132.2690   114.1390   129.0100    25.7070   -10.8690 
  227.7500     2.1890    64.0440   127.2370   111.5750   130.2940    25.6920   -10.6250 
  227.8750     2.1900    63.8070   118.7330   105.4880   131.9790    25.6910   -10.4230 
  228.0000     2.1780    63.8030   109.1110    97.6050   128.9210    25.6350   -10.2470 
  228.1250     2.1470    64.0430   101.6210    90.6550   113.4440    25.3320   -10.0120 
  228.2500     2.1270    65.5930    98.1720    86.9610    91.5380    24.9750    -9.7110 
  228.3750     2.1520    66.5790    99.1540    87.9670    74.0860    24.7960    -9.4040 
  228.5000     2.2450    65.0530   102.4180    93.2590    71.0370    24.8220    -9.1490 
  228.6250     2.3950    61.9260   101.3430    97.7370    93.1710    24.8830    -8.9280 
  228.7500     2.5450    60.1920    90.8570    92.7420   126.5240    24.8780    -8.6980 
  228.8750     2.6510    60.1240    71.3720    74.6410   140.4540    24.7980    -8.4110 
  229.0000     2.6940    61.0310    48.6380    50.2080   113.6850    24.6080    -8.0570 
  229.1250     2.6770    65.0450    30.2610    30.8480    62.8910    24.2860    -7.6810 
  229.2500     2.6340    72.9880    18.1910    18.8940    26.9140    23.9700    -7.3270 
  229.3750     2.5830    81.7720    11.4290    12.4420    12.4640    23.9550    -6.9780 
  229.5000     2.5350    87.8080     8.2720     9.2210     8.6990    24.3590    -6.6610 
  229.6250     2.4970    90.3430     7.3320     7.9130     8.0100    24.7160    -6.4020 
  229.7500     2.4700    91.4360     7.1330     7.4800     7.9630    24.8630    -6.1690 
  229.8750     2.4510    93.2580     7.2350     7.5410     7.9990    24.8860    -5.9740 
