~V
VERS. 2.00: Ver 2.00
~W
STRT.M 55.0000:
STOP.M 270.0000:
STEP.M 0.1250:
NULL. -999.2500:
UWI. F10235:
~C
DEPT.M :
GR.API :
RML.OHMM :
RI. :
RXO.OHMM :
CALI.CM :
DEN.GM/CC :
SP.MV :
~A
   55.0000  -999.2500  -999.2500  -999.2500  -999.2500  -999.2500  -999.2500   226.6430 
   55.1250  -999.2500  -999.2500  -999.2500  -999.2500  -999.2500  -999.2500   229.2890 
   55.2500  -999.2500  -999.2500  -999.2500  -999.2500  -999.2500  -999.2500   232.0200 
   55.3750  -999.2500  -999.2500  -999.2500  -999.2500  -999.2500  -999.2500   234.8310 
   55.5000  -999.2500  -999.2500  -999.2500  -999.2500  -999.2500  -999.2500   237.6720 
   55.6250  -999.2500  -999.2500  -999.2500  -999.2500  -999.2500  -999.2500   239.9320 
   55.7500  -999.2500  -999.2500  -999.2500  -999.2500  -999.2500  -999.2500   240.7040 
   55.8750  -999.2500  -999.2500  -999.2500  -999.2500  -999.2500  -999.2500   240.7490 
   56.0000  -999.2500  -999.2500  -999.2500  -999.2500  -999.2500  -999.2500   240.7490 
   56.1250  -999.2500  -999.2500  -999.2500  -999.2500  -999.2500  -999.2500   240.7490 
   56.2500  -999.2500  -999.2500  -999.2500  -999.2500  -999.2500  -999.2500   240.1810 
   56.3750  -999.2500  -999.2500  -999.2500  -999.2500  -999.2500  -999.2500   237.9320 
   56.5000  -999.2500  -999.2500  -999.2500  -999.2500  -999.2500  -999.2500   235.3070 
   56.6250  -999.2500  -999.2500  -999.2500  -999.2500  -999.2500  -999.2500   231.7380 
   56.7500  -999.2500  -999.2500  -999.2500  -999.2500  -999.2500  -999.2500   225.6550 
   56.8750  -999.2500  -999.2500  -999.2500  -999.2500  -999.2500  -999.2500   217.2230 
   57.0000  -999.2500  -999.2500  -999.2500  -999.2500  -999.2500  -999.2500   207.7820 
   57.1250  -999.2500  -999.2500  -999.2500  -999.2500  -999.2500  -999.2500   198.3100 
   57.2500  -999.2500  -999.2500  -999.2500  -999.2500  -999.2500  -999.2500   189.6070 
   57.3750  -999.2500  -999.2500  -999.2500  -999.2500  -999.2500  -999.2500   182.7230 
   57.5000  -999.2500  -999.2500  -999.2500  -999.2500  -999.2500  -999.2500   176.3710 
   57.6250  -999.2500  -999.2500  -999.2500  -999.2500  -999.2500  -999.2500   170.6500 
   57.7500  -999.2500  -999.2500  -999.2500  -999.2500  -999.2500     2.1160   164.9080 
   57.8750  -999.2500  -999.2500  -999.2500  -999.2500  -999.2500     2.1160   159.4490 
   58.0000  -999.2500  -999.2500  -999.2500  -999.2500  -999.2500     2.0430   156.5230 
   58.1250  -999.2500  -999.2500  -999.2500  -999.2500  -999.2500     1.9790   155.0510 
   58.2500  -999.2500  -999.2500  -999.2500  -999.2500  -999.2500     1.9540   152.1520 
   58.3750  -999.2500  -999.2500  -999.2500  -999.2500  -999.2500     1.9580   147.7030 
   58.5000  -999.2500  -999.2500  -999.2500  -999.2500  -999.2500     1.9750   141.6680 
   58.6250  -999.2500  -999.2500  -999.2500  -999.2500  -999.2500     1.9920   134.1550 
   58.7500  -999.2500  -999.2500  -999.2500  -999.2500  -999.2500     2.0080   127.2110 
   58.8750  -999.2500  -999.2500  -999.2500  -999.2500  -999.2500     2.0250   120.3660 
   59.0000  -999.2500  -999.2500  -999.2500  -999.2500  -999.2500     2.0480   110.1010 
   59.1250  -999.2500  -999.2500  -999.2500  -999.2500  -999.2500     2.0760    96.6170 
   59.2500  -999.2500  -999.2500  -999.2500  -999.2500  -999.2500     2.1050    83.3670 
   59.3750  -999.2500  -999.2500  -999.2500  -999.2500  -999.2500     2.1300    70.7410 
   59.5000  -999.2500  -999.2500  -999.2500  -999.2500  -999.2500     2.1470    58.8780 
   59.6250  -999.2500  -999.2500  -999.2500  -999.2500  -999.2500     2.1550    48.0960 
   59.7500  -999.2500  -999.2500  -999.2500  -999.2500  -999.2500     2.1540    38.6580 
   59.8750  -999.2500  -999.2500  -999.2500  -999.2500  -999.2500     2.1430    30.5320 
   60.0000    51.1520    21.6330     1.2250     2.1900    25.8650     2.1200    23.6410 
   60.1250    51.1520    21.6330     1.2250     2.1900    25.8650     2.0870    17.7720 
   60.2500    51.4700    18.7310     1.2170     2.3050    25.8730     2.0510    12.2380 
   60.3750    50.4330    17.3810     1.2070     2.4360    25.8710     2.0210     6.8610 
   60.5000    48.2390    17.2720     1.1940     2.5760    25.8720     2.0050     1.4760 
   60.6250    46.9330    17.8560     1.1820     2.5330    25.8730     2.0050    -4.1200 
   60.7500    45.4990    18.4190     1.1750     2.4000    25.8740     2.0140    -9.8620 
   60.8750    42.3910    18.6660     1.1780     2.2350    25.8740     2.0260   -15.5280 
   61.0000    40.2060    18.6390     1.1950     2.1550    25.8740     2.0390   -20.9180 
   61.1250    42.7300    18.5530     1.2140     2.1920    25.8770     2.0550   -25.7920 
   61.2500    46.5990    18.1920     1.2080     2.2050    25.8850     2.0810   -30.1360 
   61.3750    47.8120    16.7330     1.1360     2.2210    25.8970     2.1170   -33.9270 
   61.5000    46.3340    13.5450     0.9600     2.2540    25.9040     2.1610   -37.0480 
   61.6250    46.9360     9.1190     0.6900     2.3960    25.9120     2.2120   -39.2020 
   61.7500    51.2530     5.2120     0.4350     2.5350    25.9170     2.2830   -40.5060 
   61.8750    55.9500     2.6630     0.2520     2.2690    25.8830     2.3890   -40.9790 
   62.0000    58.6040     1.3790     0.1440     1.9730    25.7550     2.5250   -40.5990 
   62.1250    60.2000     0.9970     0.1070     2.4660    25.5350     2.6410   -39.2340 
   62.2500    61.8630     1.1350     0.1280     3.8020    25.5230     2.6740   -37.0510 
   62.3750    64.1260     1.8000     0.2290     5.5060    25.8830     2.5950   -34.1500 
   62.5000    67.7160     3.0980     0.4650     6.6370    26.5290     2.4220   -30.7670 
   62.6250    71.9660     5.1030     0.9730     6.7640    27.0490     2.2170   -27.0010 
   62.7500    72.6070     7.1990     1.7770     7.0250    27.4610     2.0440   -22.8730 
   62.8750    70.1490     8.6240     2.7600     6.8970    28.1100     1.9140   -18.4970 
   63.0000    72.1540     8.9490     3.6560     6.5330    29.7890     1.8120   -14.1760 
   63.1250    80.2020     8.4620     4.2900     6.2420    32.0800     1.7400   -10.3240 
   63.2500    84.8990     8.1150     4.8380     5.9990    33.4020     1.7220    -7.1050 
   63.3750    83.5470     8.3490     5.4520     6.0330    33.3500     1.7870    -4.5220 
   63.5000    81.7280     9.1430     6.1850     6.7110    31.7890     1.9330    -2.4340 
   63.6250    85.1320    10.0960     6.9200     9.0760    28.2790     2.1110    -0.8520 
   63.7500    89.6530    10.6560     7.3880    11.6240    25.9170     2.2490     0.1640 
   63.8750    93.5830    10.5860     7.4140    10.0630    24.9620     2.3140     0.5070 
   64.0000    96.0770    10.0350     7.0930     8.0130    24.6830     2.3150     0.2240 
   64.1250    98.3280     9.5190     6.8040     7.6870    24.4810     2.2870    -0.5120 
   64.2500   100.2350     9.5610     6.9020     8.3400    24.3130     2.2790    -1.3980 
   64.3750    98.0860    10.4810     7.5890     9.0200    24.2430     2.3090    -2.2890 
   64.5000    91.3090    12.3320     8.9150    10.3980    24.3710     2.3730    -3.0570 
   64.6250    84.5760    14.4890    10.5760    14.8490    24.6500     2.4420    -3.5390 
   64.7500    82.8070    15.6540    11.6340    21.9350    24.8550     2.4800    -3.7130 
   64.8750    86.8980    15.1210    11.3920    21.0610    24.9350     2.4760    -3.5400 
   65.0000    97.0600    13.1960     9.9930    11.1590    25.0040     2.4400    -3.0330 
   65.1250   110.5420    11.0010     8.2260     7.4070    25.1000     2.4050    -2.2710 
   65.2500   117.7510     9.4880     6.7680     6.2180    25.1540     2.3890    -1.4160 
   65.3750   116.2690     8.8600     5.8110     6.0270    25.1870     2.3910    -0.5930 
   65.5000   112.0970     8.9700     5.3530     6.1660    25.2190     2.3980     0.0740 
   65.6250   112.9820     9.5400     5.3310     6.3300    25.2340     2.3950     0.4440 
   65.7500   116.2310    10.1830     5.5080     6.2330    25.1830     2.3770     0.5060 
   65.8750   115.9290    10.7480     5.7600     6.2060    25.0530     2.3460     0.2030 
   66.0000   109.1270    11.2310     6.0430     6.6510    24.8030     2.3140    -0.5000 
   66.1250   101.0100    11.7760     6.4260     7.6380    24.5190     2.3020    -1.5740 
