~V
VERS. 2.00: Ver 2.00
~W
STRT.M 40.0000:
STOP.M 276.0000:
STEP.M 0.1250:
NULL. -999.2500:
UWI. F10236:
~C
DEPT.M :
SP.MV :
GR.API :
RML.OHMM :
RI. :
RXO.OHMM :
CALI.CM :
DEN.GM/CC :
~A
# ...
   62.5000   -10.2230    93.8980     7.2890     6.9650     8.8290    24.0030     2.2420 
   62.6250   -10.6580    90.3160     7.1430     6.8850     9.0060    24.0220     2.2350 
   62.7500   -11.1040    89.1780     6.8460     6.6070     9.1030    24.0830     2.2390 
   62.8750   -11.5140    90.4830     6.7490     6.3990     9.1620    24.1930     2.2550 
   63.0000   -11.9180    92.5220     7.1860     6.5710     8.8500    24.3590     2.2870 
   63.1250   -12.2890    92.3690     8.5150     7.4920     9.3430    24.5420     2.3420 
   63.2500   -12.6680    88.0030    10.6370     9.1290    13.9930    24.6150     2.4140 
   63.3750   -13.0750    80.6070    13.1690    11.2150    27.3420    24.5680     2.4860 
   63.5000   -13.5030    73.8930    15.1130    13.0100    35.9910    24.3440     2.5290 
   63.6250   -13.9470    71.8860    15.0030    13.3290    23.3210    24.0320     2.4890 
   63.7500   -14.3960    71.9140    13.3960    12.3270    13.3650    23.8020     2.3810 
   63.8750   -14.8410    71.2680    11.4610    10.7750    11.0270    23.7330     2.2610 
   64.0000   -15.2830    71.2560    10.0050     9.3830    10.7990    23.7780     2.1790 
   64.1250   -15.6350    73.9370     9.3080     8.5180    10.8250    23.7470     2.1510 
   64.2500   -15.9080    75.7460     9.0570     8.0340    10.7600    23.6280     2.1460 
   64.3750   -16.0340    76.1720     9.0170     7.7730    10.5030    23.5190     2.1490 
   64.5000   -16.0750    78.2000     9.0300     7.6120    10.0350    23.4580     2.1580 
   64.6250   -15.9980    81.2860     9.0460     7.5000     9.7030    23.4280     2.1740 
   64.7500   -15.8790    82.4810     9.0660     7.4220     9.6390    23.3960     2.1910 
   64.8750   -15.7360    80.3110     9.0860     7.3730     9.7040    23.3610     2.2020 
   65.0000   -15.5540    77.0400     9.0880     7.3430     9.8070    23.3570     2.2090 
   65.1250   -15.4230    76.0500     9.0520     7.3160     9.9290    23.3720     2.2130 
   65.2500   -15.2880    77.0350     8.9920     7.2770     9.9250    23.3540     2.2160 
   65.3750   -15.2080    78.9450     8.9420     7.2370     9.8000    23.3360     2.2180 
   65.5000   -15.1250    79.7130     8.9470     7.2200     9.7340    23.3500     2.2200 
   65.6250   -15.1250    79.2420     9.0380     7.2560     9.9130    23.3870     2.2220 
   65.7500   -15.0940    78.4040     9.1770     7.3280    10.1610    23.3830     2.2200 
   65.8750   -15.0630    78.2170     9.3180     7.4000    10.2410    23.3470     2.2140 
   66.0000   -15.0680    77.9850     9.4070     7.4280    10.1450    23.3350     2.2070 
   66.1250   -15.0300    76.0960     9.3770     7.3670    10.1120    23.3580     2.2070 
   66.2500   -14.9700    74.1520     9.2330     7.2270    10.1100    23.3580     2.2070 
   66.3750   -14.8680    75.2060     9.0170     7.0400    10.1180    23.3430     2.1970 
   66.5000   -14.7730    79.0130     8.7880     6.8480    10.0310    23.3120     2.1840 
   66.6250   -14.6160    82.0690     8.6210     6.6930     9.9010    23.3080     2.1820 
   66.7500   -14.4950    83.5870     8.5450     6.5980     9.7700    23.3300     2.1880 
   66.8750   -14.3780    85.1550     8.5590     6.5700     9.8970    23.3520     2.1930 
   67.0000   -14.2530    86.5050     8.6460     6.6090    10.0170    23.3460     2.1920 
   67.1250   -14.1710    83.3000     8.7980     6.7170    10.0980    23.3240     2.1870 
   67.2500   -14.1480    76.6090     8.9890     6.8720    10.3420    23.3380     2.1830 
   67.3750   -14.1790    72.0440     9.1980     7.0550    10.7210    23.3560     2.1810 
   67.5000   -14.2380    73.4270     9.3960     7.2440    11.1280    23.3510     2.1790 
   67.6250   -14.3400    76.8530     9.5580     7.4110    11.3010    23.3270     2.1800 
   67.7500   -14.4420    76.1810     9.6860     7.5400    11.3670    23.3450     2.1840 
   67.8750   -14.5350    72.7790     9.7930     7.6250    11.3960    23.3720     2.1900 
   68.0000   -14.6580    70.7110     9.8970     7.6740    11.5130    23.3780     2.1960 
   68.1250   -14.7640    71.2370    10.0190     7.7080    11.5960    23.3640     2.2000 
   68.2500   -14.8860    71.6220    10.1710     7.7660    11.6180    23.3650     2.2050 
   68.3750   -14.9800    72.3970    10.3590     7.8650    11.6430    23.3680     2.2100 
   68.5000   -15.0460    74.4110    10.5630     7.9930    11.6360    23.3590     2.2120 
   68.6250   -15.0690    75.9720    10.7130     8.1030    11.4960    23.3580     2.2070 
   68.7500   -15.0730    75.8100    10.7330     8.1440    11.2820    23.3680     2.2000 
   68.8750   -15.0540    75.4090    10.5780     8.0900    11.1890    23.3740     2.1940 
   69.0000   -14.9770    77.0040    10.2660     7.9450    11.0820    23.3670     2.1900 
   69.1250   -14.9100    77.2050     9.8910     7.7460    10.8400    23.3730     2.1920 
   69.2500   -14.7900    74.4290     9.5670     7.5490    10.4740    23.3870     2.1970 
   69.3750   -14.6890    70.8180     9.3350     7.3770    10.1600    23.3860     2.2040 
   69.5000   -14.5910    70.2440     9.1810     7.2400    10.0490    23.3670     2.2090 
   69.6250   -14.5050    72.1660     9.0730     7.1450    10.3420    23.3910     2.2110 
   69.7500   -14.4280    74.2380     8.9820     7.0820    10.4900    23.4580     2.2140 
   69.8750   -14.3510    77.4580     8.9230     7.0530    10.3680    23.5100     2.2210 
   70.0000   -14.3020    81.1120     8.9270     7.0640    10.2750    23.5110     2.2290 
   70.1250   -14.2760    80.2880     9.0230     7.1240    10.4040    23.5170     2.2270 
   70.2500   -14.2890    74.7470     9.1730     7.2120    10.7090    23.5420     2.2190 
   70.3750   -14.3390    69.3140     9.3390     7.3080    10.8090    23.5440     2.2100 
   70.5000   -14.4100    69.1020     9.4870     7.3880    10.8000    23.5310     2.2030 
   70.6250   -14.5440    71.8980     9.5970     7.4270    10.8350    23.5620     2.1950 
   70.7500   -14.7290    71.4780     9.6660     7.4230    10.7500    23.6350     2.1870 
   70.8750   -14.9470    67.7290     9.6740     7.3780    10.6100    23.7040     2.1820 
   71.0000   -15.2080    66.1920     9.5800     7.2810    10.5760    23.7690     2.1770 
   71.1250   -15.4510    69.6130     9.3130     7.1050    10.6320    23.8870     2.1710 
   71.2500   -15.6920    73.4320     8.9470     6.8850    10.7310    24.0130     2.1670 
   71.3750   -15.8960    74.5340     8.6960     6.7290    10.8750    24.1040     2.1750 
   71.5000   -16.1090    73.9640     8.9240     6.8280    11.0660    24.1960     2.1970 
   71.6250   -16.2340    71.5830    10.2850     7.5690    11.4910    24.3500     2.2340 
   71.7500   -16.3370    68.5670    12.9820     9.1700    13.3560    24.5390     2.2860 
   71.8750   -16.4220    67.1710    16.9650    11.7940    19.2360    24.6990     2.3610 
   72.0000   -16.4730    67.3870    21.4620    15.2080    33.3740    24.7810     2.4550 
   72.1250   -16.5460    68.1690    24.1330    17.9510    52.9800    24.7750     2.5300 
   72.2500   -16.6400    68.1780    23.3010    18.2690    57.9990    24.5920     2.5330 
   72.3750   -16.7710    66.8230    19.5370    16.1110    36.1200    24.1990     2.4530 
   72.5000   -16.8800    65.2570    15.0680    12.9940    17.7110    23.8520     2.3350 
   72.6250   -17.0670    65.5330    11.8820    10.4170    12.7480    23.7370     2.2400 
   72.7500   -17.2150    67.5650    10.1040     8.6910    11.0040    23.7040     2.1870 
   72.8750   -17.3620    68.6970     9.3870     7.7060    10.5600    23.6510     2.1660 
   73.0000   -17.5130    67.6910     9.3070     7.2660    10.4260    23.6100     2.1580 
   73.1250   -17.6360    66.0510     9.5130     7.2030    10.3290    23.5710     2.1530 
   73.2500   -17.7440    65.0030     9.7100     7.2670    10.1930    23.5130     2.1510 
   73.3750   -17.8290    65.0400     9.8170     7.3550    10.1770    23.4480     2.1540 
   73.5000   -17.9440    65.3410     9.8620     7.4350    10.3680    23.4030     2.1640 
   73.6250   -18.0030    63.2730     9.9390     7.5330    10.6580    23.3840     2.1790 
