~V
VERS. 2.00: Ver 2.00
~W
STRT.M 57.0000:
STOP.M 281.0000:
STEP.M 0.1250:
NULL. -999.2500:
UWI. F10238:
~C
DEPT.M :
GR.API :
RML.OHMM :
RI. :
RXO.OHMM :
CALI.CM :
DEN.GM/CC :
SP.MV :
~A
   57.0000  -999.2500  -999.2500  -999.2500  -999.2500  -999.2500  -999.2500    -2.8290 
   57.1250  -999.2500  -999.2500  -999.2500  -999.2500  -999.2500  -999.2500    -3.2930 
   57.2500  -999.2500  -999.2500  -999.2500  -999.2500  -999.2500  -999.2500    -3.9380 
   57.3750    51.2170     1.4410     0.2070     1.4310    25.3180  -999.2500    -4.6930 
   57.5000    51.2170     1.4410     0.2070     1.4310    25.3180     1.8190    -5.4930 
   57.6250    51.2170     1.4410     0.2070     1.4310    25.3180     1.8190    -6.2660 
   57.7500    51.5720     1.3290     0.2070     1.4310    25.3160     1.8170    -6.8960 
   57.8750    51.8680     1.0950     0.2080     1.4330    25.3150     1.8140    -7.2820 
   58.0000    50.9800     0.9620     0.2100     1.4380    25.3160     1.8120    -7.4600 
   58.1250    49.7210     0.9000     0.2140     1.4340    25.3150     1.8170    -7.5200 
   58.2500    48.5930     0.8890     0.2170     1.4190    25.3140     1.8320    -7.5470 
   58.3750    47.3840     0.9120     0.2200     1.3940    25.3170     1.8530    -7.5820 
   58.5000    45.7980     0.9460     0.2230     1.3610    25.3170     1.8730    -7.6010 
   58.6250    44.3040     0.9730     0.2280     1.3180    25.3150     1.8890    -7.5760 
   58.7500    44.5450     0.9750     0.2360     1.2700    25.3100     1.9040    -7.4630 
   58.8750    46.8490     0.9580     0.2450     1.2190    25.2920     1.9210    -7.2250 
   59.0000    49.2850     0.9480     0.2530     1.1770    25.2650     1.9380    -6.8270 
   59.1250    49.9630     0.9550     0.2570     1.2060    25.2520     1.9550    -6.2740 
   59.2500    48.6380     0.9710     0.2550     1.4000    25.2800     1.9690    -5.6010 
   59.3750    47.0160     0.9700     0.2410     1.7150    25.3290     1.9890    -4.8270 
   59.5000    46.6780     0.9070     0.2130     1.8560    25.3430     2.0350    -3.9490 
   59.6250    47.7980     0.7490     0.1710     1.6330    25.2970     2.1230    -2.9250 
   59.7500    49.1920     0.5300     0.1240     1.2420    25.1500     2.2610    -1.6540 
   59.8750    49.6390     0.3380     0.0830     0.9760    24.8510     2.4300    -0.0390 
   60.0000    49.6530     0.2260     0.0600     0.9120    24.4300     2.5750     1.8750 
   60.1250    50.8040     0.2120     0.0610     1.0660    24.0350     2.6410     3.9250 
   60.2500    53.7510     0.3410     0.1150     1.7040    23.7830     2.6040     5.7550 
   60.3750    58.6510     0.7080     0.2850     3.3300    23.5960     2.4910     6.9780 
   60.5000    64.8150     1.4450     0.6700     5.8560    23.3900     2.3570     7.4740 
   60.6250    70.4500     2.6950     1.4050     8.1100    23.2340     2.2440     7.3010 
   60.7500    74.6380     4.3330     2.5590     8.9670    23.2710     2.1750     6.5000 
   60.8750    77.1930     5.7020     3.8910     8.6820    23.4640     2.1510     5.0820 
   61.0000    78.5870     6.2000     4.9290     8.2390    23.6530     2.1490     3.1750 
   61.1250    79.7550     6.0280     5.4680     7.8920    23.7680     2.1580     0.9710 
   61.2500    82.4280     5.7140     5.6090     7.5300    23.8210     2.1760    -1.1710 
   61.3750    87.8060     5.5280     5.5630     6.8220    23.8880     2.2070    -2.8590 
   61.5000    94.3530     5.5030     5.5140     5.9070    24.0290     2.2450    -3.9880 
   61.6250    98.9700     5.6660     5.5730     5.4400    24.1860     2.2740    -4.7300 
   61.7500    96.8900     6.0620     5.8370     5.5810    24.2450     2.2770    -5.3040 
   61.8750    87.2820     6.6740     6.3220     6.2640    24.1850     2.2520    -5.8610 
   62.0000    77.7030     7.3790     6.9210     7.1110    24.0500     2.2150    -6.4720 
   62.1250    74.4690     8.0170     7.4710     7.8000    23.9040     2.1820    -7.1450 
   62.2500    76.5820     8.4020     7.7720     8.0390    23.8130     2.1620    -7.8530 
   62.3750    78.7680     8.4580     7.7400     7.7880    23.7910     2.1580    -8.5970 
   62.5000    79.1920     8.3200     7.4960     7.6460    23.7870     2.1640    -9.3810 
   62.6250    78.7040     8.1710     7.2190     7.8250    23.7970     2.1720   -10.1730 
   62.7500    78.1800     8.1850     7.0900     7.8430    23.8140     2.1730   -10.9320 
   62.8750    78.1440     8.4490     7.2080     7.4720    23.8380     2.1700   -11.6220 
   63.0000    77.5520     8.9110     7.5420     7.8170    23.8630     2.1840   -12.2480 
   63.1250    74.2950     9.4490     7.9990     9.8570    23.8690     2.2290   -12.8330 
   63.2500    68.9940     9.8510     8.4020    12.6630    23.8340     2.2880   -13.3930 
   63.3750    66.3930     9.9200     8.5580    13.0720    23.7650     2.3210   -13.9300 
   63.5000    69.0570     9.6520     8.4050    10.5600    23.6920     2.3060   -14.4370 
   63.6250    74.1760     9.1900     8.0170     8.9800    23.6420     2.2580   -14.8680 
   63.7500    76.7770     8.7530     7.5650     8.2860    23.5970     2.2070   -15.1990 
   63.8750    75.1530     8.5250     7.2250     7.7780    23.5590     2.1740   -15.4550 
   64.0000    71.9560     8.5630     7.0880     7.4570    23.5670     2.1570   -15.6790 
   64.1250    68.6910     8.8370     7.1580     7.6030    23.6380     2.1480   -15.8890 
   64.2500    65.4680     9.2610     7.3800     8.1710    23.7470     2.1490   -16.0890 
   64.3750    63.6800     9.7170     7.6670     9.2380    23.8260     2.1590   -16.2810 
   64.5000    65.0590    10.0970     7.9230    10.1850    23.8620     2.1690   -16.4670 
   64.6250    68.2010    10.3340     8.0880    10.0090    23.8840     2.1700   -16.6770 
   64.7500    69.9510    10.4210     8.1320     9.1340    23.8980     2.1600   -16.9280 
   64.8750    69.0080    10.4100     8.0780     8.5970    23.8870     2.1440   -17.1870 
   65.0000    66.2310    10.3690     7.9810     8.3670    23.8610     2.1330   -17.4040 
   65.1250    63.4490    10.3280     7.8800     8.2440    23.8420     2.1290   -17.5490 
   65.2500    62.7520    10.2870     7.7960     8.1650    23.8450     2.1330   -17.6390 
   65.3750    63.9800    10.2310     7.7250     8.0920    23.8650     2.1420   -17.7090 
   65.5000    65.2680    10.1500     7.6430     7.9500    23.8850     2.1580   -17.7860 
   65.6250    65.5260    10.0780     7.5510     7.8340    23.9040     2.1790   -17.8740 
   65.7500    65.3800    10.1150     7.5040     7.9780    23.9210     2.2040   -17.9750 
   65.8750    65.6450    10.3740     7.5860     8.3360    23.9420     2.2230   -18.1160 
   66.0000    65.8100    10.8780     7.8470     8.6310    23.9720     2.2300   -18.3060 
   66.1250    66.3600    11.5610     8.2750     8.8630    23.9770     2.2210   -18.5420 
   66.2500    68.2940    12.2240     8.7650     9.0260    23.8610     2.1960   -18.8220 
   66.3750    70.7370    12.5980     9.1330     8.9920    23.6610     2.1600   -19.1380 
   66.5000    70.5620    12.5230     9.2300     8.8490    23.5660     2.1220   -19.4730 
   66.6250    66.5830    12.0470     9.0300     8.6930    23.5670     2.0930   -19.8130 
   66.7500    62.9710    11.4050     8.6380     8.7010    23.5510     2.0800   -20.1320 
   66.8750    63.0530    10.8760     8.2230     8.8080    23.5070     2.0850   -20.3890 
   67.0000    64.5970    10.5940     7.9130     8.7810    23.4460     2.0980   -20.5810 
   67.1250    65.1120    10.5370     7.7410     8.5910    23.3900     2.1090   -20.7400 
   67.2500    64.6250    10.5870     7.6800     8.4020    23.3360     2.1160   -20.8600 
   67.3750    64.4890    10.6200     7.6650     8.3610    23.2620     2.1200   -20.9430 
   67.5000    64.5160    10.5850     7.6360     8.4530    23.1790     2.1270   -21.0160 
   67.6250    63.8630    10.4970     7.5730     8.6570    23.1780     2.1330   -21.0900 
   67.7500    62.9410    10.3910     7.4780     8.8170    23.3150     2.1310   -21.1900 
   67.8750    62.5510    10.2920     7.3640     8.8080    23.5250     2.1180   -21.3200 
   68.0000    63.2100    10.2130     7.2590     8.7640    23.6940     2.0960   -21.4680 
   68.1250    63.9290    10.1590     7.1820     8.8070    23.7990     2.0760   -21.6090 
