~V
VERS. 2.00: Ver 2.00
~W
STRT.M 63.0000:
STOP.M 280.0000:
STEP.M 0.1250:
NULL. -999.2500:
UWI. F10220:
~C
DEPT.M :
SP.MV :
DEN.GM/CC :
GR.API :
RML.OHMM :
RI. :
RXO.OHMM :
CALI.CM :
~A
# ...
  175.5000   -20.9600     2.2120    63.7360    71.3990    66.1220    56.2040    25.3870 
  175.6250   -21.3000     2.2180    62.8770    75.5840    69.3620    57.7630    25.3420 
  175.7500   -21.6750     2.2250    64.4060    81.4690    74.0620    60.6690    25.3700 
  175.8750   -22.0570     2.2290    69.0610    88.9940    80.1590    64.9780    25.4190 
  176.0000   -22.4470     2.2270    72.8280    98.3220    87.7680    69.9490    25.4180 
  176.1250   -22.8370     2.2200    73.5590   109.6770    97.0360    79.5280    25.3790 
  176.2500   -23.1980     2.2140    73.1330   123.7700   108.5020    87.9220    25.3140 
  176.3750   -23.5380     2.2110    72.4520   140.3480   121.9680    96.3330    25.2440 
  176.5000   -23.8600     2.2100    68.3460   159.0510   137.1990   107.1470    25.1690 
  176.6250   -24.1360     2.2070    63.2060   178.8220   153.4700   121.7930    25.1080 
  176.7500   -24.3340     2.2020    62.6100   197.4140   169.2310   140.8490    25.0850 
  176.8750   -24.4340     2.1980    64.6310   212.6930   182.8490   157.2310    25.0650 
  177.0000   -24.4290     2.1950    64.3910   223.3080   193.2220   166.7630    25.0340 
  177.1250   -24.3420     2.1950    60.4460   228.7520   199.8250   171.6850    25.0110 
  177.2500   -24.2000     2.1960    57.2600   228.0120   201.6720   188.7080    24.9840 
  177.3750   -24.0300     2.1960    57.7320   222.3190   199.3100   212.7900    24.9160 
  177.5000   -23.8510     2.1940    60.3670   213.1340   193.4360   231.8730    24.7580 
  177.6250   -23.6940     2.1940    63.6650   202.8390   185.7630   213.0490    24.4940 
  177.7500   -23.5730     2.1990    65.4790   193.8120   178.4940   156.0480    24.1560 
  177.8750   -23.5010     2.2080    66.0650   186.0180   172.3120   108.8770    23.8290 
  178.0000   -23.4570     2.2160    64.7020   177.7340   166.0870    85.7340    23.6390 
  178.1250   -23.4180     2.2190    61.3450   166.7530   157.8000    78.0300    23.5730 
  178.2500   -23.3800     2.2180    60.0730   151.8720   145.6390    70.0940    23.5950 
  178.3750   -23.3780     2.2230    61.2510   136.0050   131.5330    62.1060    23.7090 
  178.5000   -23.3580     2.2330    62.9360   122.5620   118.3870    59.8680    23.9460 
  178.6250   -23.2950     2.2430    63.2730   114.4130   109.0910    63.0130    24.3480 
  178.7500   -23.2150     2.2420    63.4300   114.4520   106.8080    76.2770    24.8820 
  178.8750   -23.1260     2.2330    64.5140   121.8990   111.4320    98.1750    25.3640 
  179.0000   -23.0470     2.2180    64.0940   136.2190   122.7510   123.2920    25.6660 
  179.1250   -22.9880     2.2040    61.1470   156.0410   139.6250   141.4710    25.7860 
  179.2500   -22.9420     2.1930    57.5320   178.6740   159.8360   168.1300    25.7780 
  179.3750   -22.8530     2.1860    55.7220   198.8700   178.7850   194.9070    25.7650 
  179.5000   -22.7370     2.1830    55.2340   211.6100   192.1580   204.3710    25.6960 
  179.6250   -22.6090     2.1840    55.3980   213.1190   196.3300   194.5860    25.5270 
  179.7500   -22.4510     2.1880    58.9440   201.6470   188.6700   185.6410    25.3160 
  179.8750   -22.2720     2.1940    63.3370   183.9380   174.1700   181.4040    25.3670 
  180.0000   -22.0840     2.2020    65.3160   165.8250   157.9150   170.1720    25.5470 
  180.1250   -21.9050     2.2130    64.4420   151.5060   144.3480   138.9140    25.6680 
  180.2500   -21.7460     2.2220    62.3890   142.8400   136.2330   110.7140    25.6950 
  180.3750   -21.6060     2.2240    59.7980   136.9330   131.5320    97.7270    25.6840 
  180.5000   -21.5110     2.2190    56.1390   130.6140   127.3790    90.1000    25.5990 
  180.6250   -21.4460     2.2120    54.0590   121.0330   120.7130    82.6330    25.3150 
  180.7500   -21.4050     2.2110    55.5570   107.9470   109.1420    74.3230    24.7260 
  180.8750   -21.3880     2.2180    57.4720    95.3080    94.7550    58.9310    24.1260 
  181.0000   -21.3890     2.2310    59.1910    80.1080    80.5060    44.9310    23.7950 
  181.1250   -21.3840     2.2450    62.4590    68.5530    68.8260    38.9360    23.8370 
  181.2500   -21.3780     2.2520    67.0970    61.5600    61.1540    37.9600    24.1190 
  181.3750   -21.3770     2.2550    70.6980    57.6170    56.4360    38.3490    24.3580 
  181.5000   -21.3820     2.2540    71.7690    55.8540    53.8920    40.4240    24.4670 
  181.6250   -21.4070     2.2520    71.4050    55.8030    52.9500    44.5130    24.5220 
  181.7500   -21.4980     2.2520    69.5190    58.0550    53.8820    46.6280    24.6840 
  181.8750   -21.6290     2.2540    68.0150    63.1340    57.0350    45.2180    24.9930 
  182.0000   -21.7880     2.2540    68.2530    71.8320    63.1470    45.4610    25.3140 
  182.1250   -21.9610     2.2470    68.5340    80.4650    72.7260    52.2430    25.5860 
  182.2500   -22.1240     2.2290    66.3830    95.7560    85.6990    74.3560    25.6980 
  182.3750   -22.2510     2.2120    62.3980   110.5490    98.9080   108.1660    25.7480 
  182.5000   -22.3130     2.2040    60.5890   120.3110   108.3680   119.3440    25.7490 
  182.6250   -22.2900     2.2080    62.0060   121.8460   110.9550    99.9090    25.7260 
  182.7500   -22.1180     2.2210    63.6370   115.6430   106.2500    84.9780    25.7120 
  182.8750   -21.8500     2.2350    63.7060   107.5160    98.9710    75.3880    25.7110 
  183.0000   -21.5030     2.2440    63.2770   100.3040    91.8700    69.3970    25.7160 
  183.1250   -21.0980     2.2470    61.9370    94.5000    85.8340    70.2910    25.7350 
  183.2500   -20.6630     2.2440    59.7390    89.1720    80.2880    75.7800    25.7580 
  183.3750   -20.2430     2.2420    59.1290    83.5280    74.4520    71.1790    25.7720 
  183.5000   -19.8780     2.2420    61.5460    77.9760    68.5430    59.0040    25.7790 
  183.6250   -19.5770     2.2470    63.3860    73.5870    63.3860    49.2450    25.7870 
  183.7500   -19.3600     2.2510    61.6750    72.2060    60.4200    45.6690    25.7770 
  183.8750   -19.2070     2.2480    59.6310    74.7270    60.4050    48.6950    25.7780 
  184.0000   -19.1000     2.2400    59.4990    82.2090    64.2230    55.0240    25.7830 
  184.1250   -19.0270     2.2310    59.5960    95.7490    72.7920    60.6620    25.7810 
  184.2500   -18.9870     2.2190    56.8130   118.0730    88.3530    74.4400    25.7960 
  184.3750   -18.9740     2.1990    53.7870   149.3310   110.9980   113.4100    25.8340 
  184.5000   -18.9750     2.1770    53.3770   189.5050   140.4450   200.8760    25.8740 
  184.6250   -19.0070     2.1610    54.9280   235.1130   173.7520   290.5220    25.9020 
  184.7500   -19.0860     2.1600    54.7620   273.7720   202.3400   302.5390    25.9080 
  184.8750   -19.1740     2.1640    52.9450   291.0870   216.9440   287.0550    25.9150 
  185.0000   -19.2580     2.1700    52.9270   280.3150   212.6040   280.3530    25.9250 
  185.1250   -19.3290     2.1760    55.7240   246.7020   191.2870   265.8980    25.9490 
  185.2500   -19.3580     2.1830    58.5840   202.9510   160.0020   232.3160    26.0100 
  185.3750   -19.3320     2.1930    59.0560   162.3510   128.8560   182.6630    26.0700 
  185.5000   -19.2600     2.2050    58.5110   129.7040   102.4800   128.0610    26.0730 
  185.6250   -19.1510     2.2210    58.7150   105.8870    82.6300    83.3310    25.9800 
  185.7500   -19.0030     2.2420    58.9570    90.7410    69.9290    60.7580    25.8260 
  185.8750   -18.8420     2.2590    57.7500    81.0300    61.9450    55.5620    25.7300 
  186.0000   -18.6770     2.2670    56.0840    75.1400    57.3630    57.3710    25.7000 
  186.1250   -18.5210     2.2710    57.6450    71.7670    55.1100    53.6610    25.6910 
  186.2500   -18.4120     2.2770    62.6540    70.0980    54.5420    50.3100    25.6690 
  186.3750   -18.3400     2.2800    65.4020    69.2610    54.7900    52.9700    25.6360 
  186.5000   -18.2820     2.2730    63.7170    68.9490    55.4990    56.9570    25.6160 
  186.6250   -18.1960     2.2550    60.8940    68.7090    56.3140    57.4080    25.6100 
