~V
VERS. 2.00: Ver 2.00
~W
STRT.M 63.0000:
STOP.M 280.0000:
STEP.M 0.1250:
NULL. -999.2500:
UWI. F10220:
~C
DEPT.M :
SP.MV :
DEN.GM/CC :
GR.API :
RML.OHMM :
RI. :
RXO.OHMM :
CALI.CM :
~A
# ...
  186.7500   -18.0750     2.2440    60.2240    67.0190    56.1740    52.7080    25.6100 
  186.8750   -17.9150     2.2450    60.4880    61.9510    53.3520    49.0460    25.6100 
  187.0000   -17.7180     2.2520    61.6390    52.2640    46.3040    47.9420    25.6110 
  187.1250   -17.4990     2.2650    65.7370    39.1360    35.6710    40.9280    25.6150 
  187.2500   -17.2700     2.2850    73.7680    26.5390    24.9450    28.9950    25.6230 
  187.3750   -17.0990     2.3110    85.4740    17.3380    16.8740    17.4140    25.6320 
  187.5000   -17.0330     2.3420    99.0040    11.7970    11.7500     9.4510    25.6470 
  187.6250   -17.1320     2.3690   110.9740     9.0410     8.9310     6.1230    25.6790 
  187.7500   -17.4500     2.3850   114.3610     8.2510     7.8740     5.9580    25.7760 
  187.8750   -17.9370     2.3840   107.9270     8.4090     7.8000     6.7330    25.9580 
  188.0000   -18.5650     2.3640    98.1070     9.1110     8.4130     7.4160    26.1910 
  188.1250   -19.2850     2.3320    93.5310    10.0030     9.4150     7.7370    26.4210 
  188.2500   -20.0510     2.3040    97.4450    10.6980    10.4060     7.6420    26.5500 
  188.3750   -20.7650     2.2940   101.1720    11.0580    11.0820     7.5730    26.6310 
  188.5000   -21.3640     2.2990    99.2170    11.1740    11.4120     7.7100    26.6580 
  188.6250   -21.8230     2.3090    93.1790    11.2070    11.5260     8.1680    26.6390 
  188.7500   -22.1160     2.3150    87.0730    11.2680    11.5370     8.8210    26.6090 
  188.8750   -22.3040     2.3150    82.7820    11.3810    11.4940     9.3720    26.6400 
  189.0000   -22.4290     2.3050    81.8490    11.5740    11.4030     9.7810    26.7460 
  189.1250   -22.5240     2.2900    83.7400    11.9070    11.3020     9.8900    26.7870 
  189.2500   -22.5950     2.2840    84.7430    12.4740    11.2710    10.0080    26.5330 
  189.3750   -22.6510     2.2900    83.2910    13.2510    11.3490    10.0300    26.0970 
  189.5000   -22.7120     2.3010    79.5230    14.2200    11.5550    11.2670    25.7480 
  189.6250   -22.7790     2.3100    77.8860    15.4370    11.9280    13.8880    25.5310 
  189.7500   -22.8420     2.3190    81.1970    17.2350    12.6480    16.2720    25.4140 
  189.8750   -22.8790     2.3280    86.1200    19.9890    13.8990    15.8840    25.4220 
  190.0000   -22.8970     2.3330    89.4600    24.2130    15.9730    16.6570    25.4870 
  190.1250   -22.9120     2.3240    87.8700    30.3440    19.2260    21.0270    25.4720 
  190.2500   -22.9330     2.3010    83.0100    32.3540    24.2330    32.3120    25.4460 
  190.3750   -22.9900     2.2750    78.9810    40.6340    30.6840    42.4760    25.4400 
  190.5000   -23.0800     2.2540    76.5900    49.2500    37.9870    47.8270    25.4770 
  190.6250   -23.1730     2.2390    73.2710    57.3250    45.2570    50.0460    25.6040 
  190.7500   -23.2410     2.2300    67.0550    64.4510    51.7770    50.6900    25.7800 
  190.8750   -23.3030     2.2260    64.5350    71.2680    57.8510    51.8910    25.8360 
  191.0000   -23.3290     2.2260    68.3340    78.0620    63.8120    57.2050    25.7490 
  191.1250   -23.2810     2.2250    73.0270    84.1530    69.3500    75.8160    25.6450 
  191.2500   -23.1540     2.2230    71.9190    87.3000    72.8480    90.4570    25.5850 
  191.3750   -22.9570     2.2240    68.8380    86.8050    73.4770    86.6570    25.5120 
  191.5000   -22.7190     2.2310    68.6840    83.5860    71.5780    72.8940    25.4360 
  191.6250   -22.4680     2.2390    70.6090    79.6940    68.5650    62.2840    25.3910 
  191.7500   -22.2130     2.2430    69.6190    77.3740    66.3110    55.9870    25.3810 
  191.8750   -21.9550     2.2420    68.2960    77.2350    65.7340    53.6460    25.4070 
  192.0000   -21.7430     2.2380    69.8340    79.0210    66.8850    56.6340    25.4950 
  192.1250   -21.5880     2.2320    72.2970    81.9400    69.2420    63.2560    25.6210 
  192.2500   -21.5090     2.2240    73.3240    85.0320    72.0190    67.8690    25.7090 
  192.3750   -21.4960     2.2170    72.0960    87.7710    74.5910    70.0110    25.7450 
  192.5000   -21.5290     2.2150    69.2450    90.3420    76.9550    67.5590    25.7460 
  192.6250   -21.5990     2.2130    65.9260    93.3130    79.4830    64.4390    25.7540 
  192.7500   -21.6900     2.2120    64.0800    97.4960    82.8290    67.0460    25.7600 
  192.8750   -21.7630     2.2110    62.7710   102.9320    87.1770    75.3280    25.7640 
  193.0000   -21.7810     2.2130    61.6350   109.2800    92.3920    86.9660    25.7620 
  193.1250   -21.7750     2.2140    62.3780   115.8600    98.0180    91.8090    25.7560 
  193.2500   -21.7470     2.2140    65.5560   121.9690   103.5450    87.2750    25.7400 
  193.3750   -21.7010     2.2120    68.1700   127.6550   109.0100    88.0750    25.7250 
  193.5000   -21.6500     2.2090    68.5690   133.0880   114.7280   101.6450    25.7130 
  193.6250   -21.5780     2.2050    65.1570   137.7500   120.5190   118.6310    25.7050 
  193.7500   -21.5170     2.2050    60.0870   139.4550   124.8510   122.2630    25.7150 
  193.8750   -21.5070     2.2050    57.6650   136.8660   126.2390   134.9100    25.7390 
  194.0000   -21.5580     2.2040    58.1140   129.5940   123.7930   171.4600    25.7570 
  194.1250   -21.6500     2.2090    59.9140   118.3410   117.4210   181.4100    25.7620 
  194.2500   -21.7670     2.2250    62.1610   103.8610   107.0220   132.0010    25.7450 
  194.3750   -21.9060     2.2470    64.3900    87.3730    93.4890    94.8390    25.6880 
  194.5000   -22.0630     2.2690    66.5770    69.4960    77.0760    81.7650    25.5820 
  194.6250   -22.2350     2.2890    69.3910    51.6210    59.0760    68.5840    25.4510 
  194.7500   -22.4010     2.3070    73.4360    43.5880    42.6040    48.0270    25.4480 
  194.8750   -22.5700     2.3230    78.2140    29.6330    29.7340    29.9500    25.5700 
  195.0000   -22.7620     2.3390    83.3740    20.1980    20.8330    18.8550    25.7370 
  195.1250   -22.9780     2.3560    89.9460    14.5300    15.2800    11.4120    25.8570 
  195.2500   -23.2540     2.3680    95.9080    11.8670    12.4520     9.0220    25.8980 
  195.3750   -23.5670     2.3710    99.5660    10.8060    11.1390     8.3580    25.9140 
  195.5000   -23.8700     2.3660   101.0680    10.8300    10.9130     8.4300    25.9080 
  195.6250   -24.1790     2.3560   102.0450    11.6070    11.5010     8.7710    25.8680 
  195.7500   -24.4570     2.3440   102.0350    12.8310    12.6810     9.8110    25.8520 
  195.8750   -24.6580     2.3360    96.9670    13.9610    13.9190    11.4090    25.8360 
  196.0000   -24.7720     2.3340    90.9240    14.5610    14.7150    12.9950    25.7950 
  196.1250   -24.8010     2.3340    88.5250    14.4090    14.7190    14.2690    25.7840 
  196.2500   -24.7530     2.3300    88.1190    13.7370    13.9890    12.7570    25.8240 
  196.3750   -24.6600     2.3210    86.3910    13.4110    13.3000    10.6170    25.8950 
  196.5000   -24.5570     2.3050    85.7900    14.2910    13.3400     9.9870    25.9250 
  196.6250   -24.4390     2.2810    86.3090    17.2660    14.7900    11.4650    25.8810 
  196.7500   -24.3640     2.2560    81.1770    23.9460    19.0060    17.3420    25.6210 
  196.8750   -24.3930     2.2400    72.7780    34.8830    26.8280    31.6790    25.2410 
  197.0000   -24.5320     2.2340    67.9080    50.5660    39.1840    54.3280    24.9330 
  197.1250   -24.7680     2.2370    67.1590    69.9960    55.7280    74.7610    24.7400 
  197.2500   -25.0890     2.2380    65.7860    88.3940    72.7510    81.1140    24.6280 
  197.3750   -25.4660     2.2320    62.6130    98.8920    84.0480    90.5250    24.6460 
  197.5000   -25.8840     2.2190    61.1330    97.5850    85.8110   104.8120    24.8000 
  197.6250   -26.3230     2.2100    60.9830    85.7330    78.0020   102.9130    25.0200 
  197.7500   -26.7820     2.2070    61.8560    68.7010    63.9340    75.4460    25.2090 
  197.8750   -27.2410     2.2040    63.5450    53.4120    50.0640    49.8420    25.5230 
