~V
VERS. 2.00: Ver 2.00
~W
STRT.M 47.0000:
STOP.M 270.0000:
STEP.M 0.1250:
NULL. -999.2500:
UWI. F10221:
~C
DEPT.M :
SP.MV :
GR.API :
RML.OHMM :
RI. :
RXO.OHMM :
CALI.CM :
DEN.GM/CC :
~A
# ...
  159.5000   -21.8950    64.0010    28.1580    27.1030    24.3570    24.2440     2.2160 
  159.6250   -21.9970    65.8760    26.3670    25.7890    23.0150    24.2410     2.2270 
  159.7500   -22.1080    68.2680    24.0070    23.8260    21.3840    24.1960     2.2390 
  159.8750   -22.2170    70.5910    21.5860    21.6720    20.5840    24.0940     2.2540 
  160.0000   -22.3390    70.8770    19.7200    19.8830    19.6400    23.9780     2.2680 
  160.1250   -22.4640    70.5790    18.6450    18.7320    17.5390    24.0050     2.2760 
  160.2500   -22.5800    71.4440    18.4340    18.3400    15.3160    24.0870     2.2750 
  160.3750   -22.7290    72.1200    19.0350    18.7200    14.6050    24.1660     2.2690 
  160.5000   -22.9110    69.3200    20.3930    19.9000    15.0970    24.2060     2.2610 
  160.6250   -23.0930    67.0580    22.1390    21.5720    16.3400    24.2230     2.2550 
  160.7500   -23.2600    69.3220    23.9890    23.4750    17.9080    24.2250     2.2500 
  160.8750   -23.4620    74.3910    25.6980    25.3340    19.3050    24.2250     2.2500 
  161.0000   -23.7010    76.2180    27.0970    26.9210    20.2180    24.2270     2.2530 
  161.1250   -23.9530    73.0560    28.2990    28.2640    21.0550    24.2280     2.2560 
  161.2500   -24.2000    68.6660    29.4770    29.4650    22.1510    24.2280     2.2600 
  161.3750   -24.4630    65.2490    30.8140    30.6710    23.3310    24.2200     2.2620 
  161.5000   -24.6980    60.1310    32.5260    32.0750    24.0240    24.2020     2.2600 
  161.6250   -24.9240    56.4190    34.6420    33.7690    24.9720    24.1790     2.2550 
  161.7500   -25.1490    57.2860    37.1730    35.8090    26.9310    24.1720     2.2470 
  161.8750   -25.3660    61.7810    40.1100    38.2170    28.9410    24.1770     2.2390 
  162.0000   -25.5030    64.2910    43.4870    41.0590    30.1160    24.1800     2.2310 
  162.1250   -25.6100    64.4680    47.2080    44.2540    31.8810    24.1790     2.2240 
  162.2500   -25.7170    64.4870    51.2120    47.7730    32.9070    24.1330     2.2190 
  162.3750   -25.7690    62.8850    55.3760    51.5510    34.3730    24.0010     2.2170 
  162.5000   -25.7900    59.2710    59.5230    55.4320    35.8300    23.8020     2.2180 
  162.6250   -25.7960    57.9840    63.5190    59.2100    37.5430    23.7100     2.2210 
  162.7500   -25.7930    61.1870    67.3400    62.7720    40.2110    23.7030     2.2260 
  162.8750   -25.7380    66.8090    71.0210    66.0770    41.7970    23.7280     2.2290 
  163.0000   -25.6680    68.9080    74.6090    69.1480    42.1190    23.8350     2.2290 
  163.1250   -25.5920    66.8580    78.1450    72.1320    43.9030    23.9490     2.2250 
  163.2500   -25.5070    63.9040    81.5670    75.0310    47.1260    24.0400     2.2200 
  163.3750   -25.4150    63.3120    84.6800    77.6600    46.9300    24.1240     2.2150 
  163.5000   -25.3590    64.1070    87.0690    79.5980    40.7980    24.1490     2.2130 
  163.6250   -25.2930    62.3680    88.5790    80.7140    33.2110    24.0920     2.2180 
  163.7500   -25.2140    57.7950    89.1880    81.0280    28.4650    23.9490     2.2280 
  163.8750   -25.1280    54.4830    89.0600    80.7370    25.7360    23.7450     2.2400 
  164.0000   -25.0370    56.6670    88.2530    79.9630    25.6160    23.4810     2.2520 
  164.1250   -24.9080    60.6570    86.7950    78.7240    26.0640    22.8510     2.2630 
  164.2500   -24.7660    61.2990    84.4280    76.8360    27.0710    22.4700     2.2690 
  164.3750   -24.6280    59.0040    80.8800    74.1590    29.7320    22.6380     2.2690 
  164.5000   -24.4410    60.2900    76.0020    70.6000    33.7430    23.0470     2.2640 
  164.6250   -24.2400    65.3650    70.5640    66.6100    37.1000    23.5660     2.2580 
  164.7500   -24.0200    68.2390    65.3300    62.6640    40.6730    24.0290     2.2530 
  164.8750   -23.7850    65.0290    60.7590    59.0920    43.0440    24.3800     2.2490 
  165.0000   -23.5050    60.1980    57.2030    55.4260    42.2130    24.5780     2.2490 
  165.1250   -23.2240    61.9330    54.0310    50.1880    39.8030    24.5340     2.2500 
  165.2500   -22.9200    68.0760    49.0870    42.3080    38.2480    24.4280     2.2530 
  165.3750   -22.5950    72.3010    40.3090    32.5150    36.5180    24.4520     2.2590 
  165.5000   -22.2590    72.1640    28.7250    23.3630    30.4400    24.5040     2.2700 
  165.6250   -21.9570    73.2960    18.8390    16.4140    19.2810    24.3570     2.2870 
  165.7500   -21.6780    77.6330    12.3830    11.7690    10.1930    24.0210     2.3080 
  165.8750   -21.4480    82.1760     8.8850     8.9450     6.4800    23.6740     2.3280 
  166.0000   -21.2660    84.7950     7.4540     7.5280     5.8200    23.2730     2.3390 
  166.1250   -21.1300    87.2680     6.9150     6.8600     5.8820    22.8630     2.3410 
  166.2500   -21.0270    90.4520     6.8150     6.6650     5.9140    22.5760     2.3390 
  166.3750   -20.9660    95.4760     6.9370     6.7560     5.9030    22.5380     2.3360 
  166.5000   -20.9520   100.8880     7.2410     7.0520     5.9570    22.6140     2.3340 
  166.6250   -20.9500   102.9770     7.7440     7.5190     6.1290    22.6440     2.3310 
  166.7500   -20.9760   100.0080     8.5170     8.1990     6.4270    22.4460     2.3290 
  166.8750   -20.9780    92.7700     9.5800     9.1160     7.0410    22.0710     2.3290 
  167.0000   -21.0010    84.5860    10.8180    10.2290     8.1970    21.9890     2.3340 
  167.1250   -21.0140    78.1250    11.7080    11.3090     9.4750    22.3550     2.3400 
  167.2500   -21.0280    74.5580    11.9230    12.1290    10.0800    22.8240     2.3390 
  167.3750   -21.0330    74.0890    12.2910    12.5590    10.4770    23.2310     2.3320 
  167.5000   -21.0480    76.2470    12.5470    12.6240    11.3730    23.4050     2.3250 
  167.6250   -21.0510    78.8230    12.7860    12.5940    10.9630    23.4520     2.3200 
  167.7500   -21.0360    79.4510    13.1600    12.6470    10.2840    23.5070     2.3150 
  167.8750   -21.0450    78.3280    13.7040    12.8500    10.7180    23.5650     2.3060 
  168.0000   -21.0680    79.6020    14.3230    13.1510    12.5920    23.5480     2.2920 
  168.1250   -21.1000    81.6000    14.8570    13.4150    13.1540    23.6000     2.2800 
  168.2500   -21.1360    81.5490    15.2390    13.5820    12.9300    23.6760     2.2710 
  168.3750   -21.1730    79.9080    15.4850    13.6550    12.6760    23.7020     2.2700 
  168.5000   -21.2100    79.2230    15.7180    13.7190    12.5720    23.6970     2.2730 
  168.6250   -21.2520    77.1010    16.0800    13.8960    12.5030    23.7010     2.2780 
  168.7500   -21.3040    73.5990    16.6050    14.2370    12.7570    23.7150     2.2820 
  168.8750   -21.3680    73.2090    17.2200    14.7020    13.3800    23.7090     2.2880 
  169.0000   -21.4220    75.3160    17.7670    15.1770    13.9030    23.6860     2.2940 
  169.1250   -21.4780    76.3740    18.1470    15.5560    14.0480    23.6580     2.2970 
  169.2500   -21.5390    77.4040    18.3340    15.7930    13.9680    23.6650     2.2930 
  169.3750   -21.6190    77.4990    18.3730    15.8980    14.0290    23.7170     2.2810 
  169.5000   -21.6920    75.9740    18.3510    15.9160    14.1490    23.7270     2.2700 
  169.6250   -21.7860    73.8530    18.3650    15.9240    14.2900    23.6920     2.2640 
  169.7500   -21.8810    73.9230    18.4440    15.9610    14.2650    23.6440     2.2630 
  169.8750   -21.9540    75.7430    18.5730    16.0480    14.1750    23.6000     2.2620 
  170.0000   -22.0090    75.9590    18.7190    16.1970    14.0810    23.5780     2.2570 
  170.1250   -22.0670    73.1910    18.8380    16.3710    14.1630    23.5930     2.2500 
  170.2500   -22.1300    68.5250    18.8910    16.5170    14.3560    23.5840     2.2410 
  170.3750   -22.1980    66.2750    18.8310    16.5790    14.4720    23.4380     2.2340 
  170.5000   -22.2610    70.1710    18.5900    16.4940    14.3350    23.2820     2.2330 
  170.6250   -22.3200    73.9240    18.1780    16.2730    14.0410    23.1740     2.2360 
