~V
VERS. 2.00: Ver 2.00
~W
STRT.M 55.0000:
STOP.M 274.0000:
STEP.M 0.1250:
NULL. -999.2500:
UWI. F10255:
~C
DEPT.M :
GR.API :
RML.OHMM :
RI. :
RXO.OHMM :
CALI.CM :
DEN.GM/CC :
SP.MV :
~A
# ...
  201.2500    52.8870   283.1030   247.8900   234.5950    25.7900     2.2100   -24.6390 
  201.3750    54.6920   256.3780   225.7560   194.6790    25.7740     2.2150   -24.1360 
  201.5000    54.4740   232.5370   206.0510   169.8560    25.7620     2.2120   -23.6260 
  201.6250    50.7670   214.8100   192.2850   173.1720    25.7870     2.2010   -23.0950 
  201.7500    47.5080   200.1540   182.2640   187.4700    25.8260     2.1860   -22.4850 
  201.8750    46.6690   184.1660   172.7890   199.0150    25.8370     2.1810   -21.8200 
  202.0000    48.0660   161.8350   160.0500   194.4580    25.8260     2.2060   -21.1730 
  202.1250    50.1770   129.6000   138.7770   184.6990    25.8120     2.2790   -20.5350 
  202.2500    50.8180    93.6140   109.3380   149.0480    25.7290     2.3760   -19.8660 
  202.3750    50.5760    61.5270    76.8880   101.5930    25.4380     2.4630   -19.1840 
  202.5000    51.5680    38.4390    48.9580    57.6530    24.8740     2.5110   -18.5110 
  202.6250    55.3320    25.3290    30.9050    35.9110    24.4610     2.5130   -17.8400 
  202.7500    59.4700    17.5310    20.1130    19.8370    24.2510     2.5010   -17.2390 
  202.8750    62.0470    12.9860    14.1650    11.2650    24.2070     2.5020   -16.7610 
  203.0000    62.5630    10.5890    11.0840     8.1580    24.2750     2.5260   -16.3750 
  203.1250    61.6990     9.6210     9.7250     8.0620    24.3460     2.5610   -16.0170 
  203.2500    61.5870     9.1420     9.0740     8.3380    24.2560     2.5850   -15.6950 
  203.3750    62.3310     8.8470     8.7380     7.9930    24.0980     2.5870   -15.4960 
  203.5000    64.3110     8.5770     8.4640     7.3010    23.9870     2.5670   -15.4230 
  203.6250    70.2980     8.2900     8.1590     7.4470    23.9360     2.5340   -15.4520 
  203.7500    76.8320     8.0660     7.8970     7.1290    24.0180     2.5020   -15.4660 
  203.8750    78.7350     7.9890     7.7760     6.7170    24.2910     2.4770   -15.4930 
  204.0000    77.1480     8.0960     7.8330     6.9110    24.5900     2.4590   -15.6120 
  204.1250    77.5660     8.3850     8.0490     7.6510    24.7360     2.4440   -15.8460 
  204.2500    79.4590     8.7610     8.3150     8.7460    24.8250     2.4330   -16.1250 
  204.3750    81.1920     9.1560     8.5650     9.5130    24.9710     2.4280   -16.3900 
  204.5000    82.5240     9.5270     8.7620     9.5530    25.2610     2.4320   -16.6800 
  204.6250    82.3930     9.8650     8.9080     9.2020    25.4000     2.4420   -17.0310 
  204.7500    80.6570    10.2030     9.0540     9.6020    25.3890     2.4500   -17.4160 
  204.8750    79.4700    10.5610     9.2330    10.6900    25.3290     2.4520   -17.7960 
  205.0000    79.8240    10.9350     9.4440    11.3820    25.2940     2.4460   -18.1630 
  205.1250    78.0780    11.3000     9.6670    11.2440    25.2870     2.4370   -18.5070 
  205.2500    74.2540    11.6430     9.8810    11.2710    25.3170     2.4280   -18.8140 
  205.3750    71.7040    11.9700    10.0840    11.4960    25.3320     2.4200   -19.1110 
  205.5000    70.7900    12.2870    10.2740    11.5550    25.3210     2.4140   -19.3840 
  205.6250    69.6640    12.5520    10.4250    11.7420    25.3400     2.4140   -19.5990 
  205.7500    67.5400    12.6930    10.4900    12.1370    25.3970     2.4220   -19.7810 
  205.8750    67.1120    12.6320    10.4110    12.2650    25.4560     2.4350   -19.9030 
  206.0000    69.7580    12.3410    10.1530    11.8990    25.4650     2.4450   -19.8970 
  206.1250    73.9940    11.8550     9.7210    10.9840    25.4110     2.4390   -19.7700 
  206.2500    78.0500    11.3410     9.2390     9.7610    25.3430     2.4200   -19.6310 
  206.3750    81.1570    10.9290     8.8250     9.2260    25.3680     2.4010   -19.4970 
  206.5000    82.7910    10.7240     8.5770     8.9880    25.5720     2.3930   -19.3350 
  206.6250    82.1850    10.8240     8.5940     8.9080    25.9380     2.4040   -19.1460 
  206.7500    79.9530    11.1720     8.8320     9.4570    26.1250     2.4200   -18.9810 
  206.8750    77.8600    11.6860     9.2250    10.3170    25.8410     2.4330   -18.8990 
  207.0000    76.6080    12.2260     9.6560    10.8540    25.4740     2.4370   -18.9330 
  207.1250    76.1480    12.5930     9.9530    10.6240    25.3610     2.4320   -19.0410 
  207.2500    75.0320    12.6990    10.0340    10.4810    25.4260     2.4160   -19.1490 
  207.3750    71.6340    12.5540     9.8980    10.3080    25.5180     2.3870   -19.2480 
  207.5000    66.6170    12.2630     9.6270    10.1110    25.6350     2.3510   -19.3410 
  207.6250    63.5120    12.0050     9.3770     9.9590    25.7790     2.3270   -19.3720 
  207.7500    62.8930    11.9610     9.3070     9.9940    25.9930     2.3330   -19.3050 
  207.8750    64.0570    12.2860     9.5580    10.2860    26.2200     2.3730   -19.1280 
  208.0000    65.4530    13.1510    10.2830    10.8990    26.1960     2.4350   -18.8530 
  208.1250    66.7090    14.9500    11.8240    12.6340    25.8210     2.4990   -18.4990 
  208.2500    66.9190    17.8360    14.3320    15.4680    25.3970     2.5510   -18.0720 
  208.3750    64.9240    21.6440    17.8790    19.7650    25.1330     2.5920   -17.5530 
  208.5000    62.1140    25.1300    21.9030    27.1040    25.0060     2.6250   -16.9860 
  208.6250    61.6070    25.5630    24.1170    35.5840    24.9300     2.6380   -16.4440 
  208.7500    63.1250    22.4560    22.7190    42.5600    24.9160     2.6200   -15.9390 
  208.8750    63.6690    17.2920    18.3430    41.0860    24.9020     2.5700   -15.4430 
  209.0000    62.3760    12.3340    13.3140    26.8630    24.8240     2.5040   -14.9410 
  209.1250    63.1170     9.1470     9.5830    13.4220    24.7680     2.4490   -14.4050 
  209.2500    68.8660     7.3600     7.2580     6.6840    24.8190     2.4210   -13.8760 
  209.3750    76.4930     6.5440     6.0490     5.1540    24.9360     2.4170   -13.3970 
  209.5000    82.2320     6.3960     5.6380     5.2260    24.9690     2.4280   -12.9390 
  209.6250    83.8330     6.7290     5.8220     5.5720    24.9340     2.4430   -12.4610 
  209.7500    82.9270     7.2000     6.2390     5.9560    24.9100     2.4560   -12.0170 
  209.8750    81.3910     7.5770     6.6520     5.9750    24.7830     2.4660   -11.6420 
  210.0000    79.3760     7.7310     6.9130     5.7610    24.3920     2.4700   -11.3400 
  210.1250    78.8600     7.6590     6.9720     5.6980    23.8330     2.4650   -11.1770 
  210.2500    80.2300     7.5200     6.9300     5.7670    23.4500     2.4480   -11.1170 
  210.3750    81.4700     7.4130     6.8590     5.9140    23.2800     2.4210   -11.1080 
  210.5000    81.3070     7.3870     6.8120     6.2300    23.2740     2.3880   -11.1320 
  210.6250    79.7010     7.4690     6.8170     6.1380    23.5320     2.3580   -11.1840 
  210.7500    78.2740     7.6290     6.8640     6.1840    23.9310     2.3410   -11.2270 
  210.8750    76.8760     7.8560     6.9530     6.6350    24.3050     2.3380   -11.2560 
  211.0000    74.9100     8.1540     7.0910     7.5000    24.5340     2.3450   -11.2850 
  211.1250    73.0290     8.5640     7.3160     8.3510    24.6870     2.3530   -11.3280 
  211.2500    71.0220     9.1130     7.6570     8.3570    24.7360     2.3560   -11.3520 
  211.3750    69.3100     9.8420     8.1550     9.4840    24.7470     2.3520   -11.3630 
  211.5000    68.0370    10.7820     8.8430    11.5430    24.8140     2.3450   -11.3640 
  211.6250    68.1020    11.9920     9.7840    12.9070    24.8560     2.3390   -11.3870 
  211.7500    68.5850    13.4470    10.9560    14.0660    24.8980     2.3370   -11.4500 
  211.8750    68.7640    15.1610    12.3760    15.7090    24.9870     2.3400   -11.5400 
  212.0000    68.4400    17.1720    14.0600    17.6890    25.0690     2.3480   -11.6630 
  212.1250    67.6500    19.5850    16.0670    19.5260    25.0960     2.3620   -11.8040 
  212.2500    66.5420    22.2920    18.3030    21.7200    25.0760     2.3740   -11.9620 
  212.3750    65.7110    25.0450    20.5920    24.8120    25.0040     2.3800   -12.1350 
