~V
VERS. 2.00: Ver 2.00
~W
STRT.M 55.0000:
STOP.M 274.0000:
STEP.M 0.1250:
NULL. -999.2500:
UWI. F10255:
~C
DEPT.M :
GR.API :
RML.OHMM :
RI. :
RXO.OHMM :
CALI.CM :
DEN.GM/CC :
SP.MV :
~A
# ...
  145.0000    78.1410     7.2450     6.6800     6.7310    23.3270     2.3910    -3.9000 
  145.1250    80.5500     7.0290     6.5640     6.9700    23.3350     2.3750    -3.8980 
  145.2500    83.2380     6.7180     6.3210     6.7570    23.4400     2.3560    -3.8870 
  145.3750    86.7030     6.4240     6.0500     6.3890    23.5610     2.3400    -3.8310 
  145.5000    90.5980     6.2360     5.8430     6.2030    23.6350     2.3310    -3.7170 
  145.6250    92.5730     6.2440     5.7940     6.5620    23.7360     2.3310    -3.6590 
  145.7500    90.0210     6.4390     5.9270     7.2710    23.9160     2.3460    -3.6370 
  145.8750    82.7040     6.8030     6.2420     7.6510    24.1620     2.3790    -3.5700 
  146.0000    76.1200     7.2810     6.6840     7.2850    24.3990     2.4220    -3.4540 
  146.1250    74.4900     7.7450     7.1340     8.1010    24.4710     2.4530    -3.3640 
  146.2500    74.0630     8.0480     7.4500     9.9550    24.4640     2.4540    -3.3170 
  146.3750    73.2470     8.1120     7.5350    10.5500    24.4760     2.4210    -3.2920 
  146.5000    73.0300     7.9660     7.3950     8.3360    24.6020     2.3700    -3.2950 
  146.6250    73.6690     7.7700     7.1710     7.6080    24.7250     2.3320    -3.2820 
  146.7500    73.4820     7.7450     7.0880     7.9190    24.7730     2.3320    -3.2370 
  146.8750    70.5600     8.0580     7.3150     8.3590    24.7590     2.3740    -3.1930 
  147.0000    64.9510     8.8410     7.9850     8.6610    24.6980     2.4490    -3.1860 
  147.1250    58.4800    10.2670     9.2440    10.1510    24.5960     2.5300    -3.1980 
  147.2500    54.1950    12.1970    10.9420    12.5040    24.4880     2.5930    -3.1520 
  147.3750    51.3580    14.4200    12.8900    15.2780    24.3960     2.6300    -3.0880 
  147.5000    48.1600    16.5740    14.8030    16.9190    24.3250     2.6460    -3.0210 
  147.6250    45.1880    18.1290    16.2420    17.6800    24.2880     2.6540    -2.9660 
  147.7500    44.6650    18.9520    17.0480    18.0720    24.3020     2.6610    -2.9990 
  147.8750    45.6180    19.1560    17.2730    19.1330    24.3780     2.6670    -3.0920 
  148.0000    44.7720    19.0350    17.1490    20.8970    24.4070     2.6690    -3.1550 
  148.1250    42.5990    18.9470    16.9780    20.2010    24.4040     2.6670    -3.1500 
  148.2500    42.6270    19.1270    17.0110    18.3240    24.4020     2.6640    -3.1890 
  148.3750    45.0010    19.6620    17.3800    17.3300    24.4160     2.6630    -3.3000 
  148.5000    46.7390    20.5100    18.1050    19.2780    24.4480     2.6660    -3.4170 
  148.6250    45.1630    21.4510    19.0480    21.2770    24.4640     2.6750    -3.4910 
  148.7500    42.6240    22.1280    19.8550    21.8250    24.4520     2.6840    -3.5030 
  148.8750    41.6360    22.3170    20.2530    21.2230    24.4040     2.6890    -3.5110 
  149.0000    44.1310    22.0000    20.1450    21.7660    24.3480     2.6870    -3.5520 
  149.1250    48.2430    21.3780    19.6650    21.1930    24.3690     2.6760    -3.5790 
  149.2500    47.6580    20.8030    19.1800    19.8210    24.3730     2.6610    -3.5790 
  149.3750    42.8360    20.4360    18.8650    18.7620    24.3290     2.6460    -3.5470 
  149.5000    38.7630    20.2930    18.7530    18.4310    24.2830     2.6370    -3.5330 
  149.6250    38.2580    20.2870    18.7840    20.2570    24.2860     2.6340    -3.5440 
  149.7500    38.1170    20.2580    18.8100    21.7430    24.3410     2.6330    -3.5790 
  149.8750    38.5300    20.1270    18.7450    20.4510    24.4070     2.6320    -3.6370 
  150.0000    40.4740    19.8980    18.5720    18.1600    24.4140     2.6310    -3.7170 
  150.1250    41.3810    19.6670    18.3760    17.4870    24.3410     2.6320    -3.8140 
  150.2500    40.8860    19.5710    18.2940    17.5390    24.2670     2.6340    -3.9150 
  150.3750    41.8610    19.6990    18.4160    17.3420    24.2350     2.6350    -4.0520 
  150.5000    45.1140    20.0690    18.7660    17.6930    24.2130     2.6330    -4.2110 
  150.6250    47.0510    20.6060    19.2720    19.2760    24.1880     2.6260    -4.3620 
  150.7500    46.9210    21.0830    19.7270    21.3940    24.1510     2.6150    -4.4950 
  150.8750    46.7470    21.2900    19.9430    22.4780    24.1000     2.6030    -4.5860 
  151.0000    47.4600    21.0920    19.7820    21.8000    24.0570     2.5900    -4.6630 
  151.1250    48.4180    20.4620    19.1890    19.9920    23.9930     2.5750    -4.7940 
  151.2500    48.9090    19.6720    18.4020    18.8030    23.9450     2.5600    -4.9520 
  151.3750    49.5250    18.9530    17.6370    18.4950    23.9900     2.5470    -5.0520 
  151.5000    50.4900    18.4700    17.0660    17.1990    24.1970     2.5410    -5.1020 
  151.6250    51.2460    18.3230    16.8070    16.6290    24.5690     2.5410    -5.1940 
  151.7500    51.1390    18.3890    16.7720    16.5770    24.6820     2.5430    -5.3250 
  151.8750    49.8710    18.5210    16.8470    17.0730    24.6400     2.5400    -5.4700 
  152.0000    47.0830    18.5600    16.8900    17.2510    24.6050     2.5330    -5.5780 
  152.1250    45.3780    18.3450    16.7410    16.8780    24.6560     2.5250    -5.6240 
  152.2500    47.5660    17.8990    16.3840    15.3520    24.7300     2.5200    -5.6760 
  152.3750    52.6270    17.3010    15.8720    14.3600    24.7770     2.5180    -5.7370 
  152.5000    56.9950    16.6520    15.2950    14.2500    24.8070     2.5150    -5.7860 
  152.6250    59.2810    16.0560    14.7510    14.0900    24.8540     2.5100    -5.8100 
  152.7500    60.1450    15.5600    14.2910    13.9160    24.8440     2.5050    -5.8500 
  152.8750    58.8760    15.1830    13.9310    13.4790    24.7000     2.5040    -5.8940 
  153.0000    56.3460    14.9260    13.6650    12.9280    24.4120     2.5070    -5.9320 
  153.1250    55.2740    14.7710    13.4820    13.0690    24.2360     2.5120    -6.0250 
  153.2500    56.3000    14.6280    13.3230    13.2820    24.1710     2.5170    -6.1180 
  153.3750    57.6540    14.4140    13.1180    13.3480    24.1360     2.5240    -6.2110 
  153.5000    57.5210    14.0750    12.8100    12.9070    24.0550     2.5330    -6.3040 
  153.6250    56.4030    13.6180    12.3770    12.5740    23.8590     2.5410    -6.3810 
  153.7500    55.7520    13.1560    11.9090    12.3350    23.7730     2.5410    -6.4630 
  153.8750    56.2370    12.7830    11.4890    11.8430    23.8540     2.5330    -6.5730 
  154.0000    56.8430    12.5620    11.1780    11.0570    24.1080     2.5210    -6.7070 
  154.1250    55.9560    12.5140    11.0110    11.2110    24.4010     2.5130    -6.8370 
  154.2500    54.2380    12.5620    10.9440    12.0780    24.5970     2.5160    -6.9790 
  154.3750    53.0670    12.6480    10.9410    12.2530    24.6520     2.5280    -7.1710 
  154.5000    52.7130    12.7450    10.9780    11.1150    24.6560     2.5430    -7.4270 
  154.6250    52.2830    12.8750    11.0730    10.7750    24.5930     2.5540    -7.7040 
  154.7500    51.7990    13.0650    11.2470    11.1750    24.5170     2.5620    -7.9460 
  154.8750    52.2750    13.3070    11.4990    12.0050    24.4780     2.5650    -8.1980 
  155.0000    52.7770    13.5420    11.7850    12.8670    24.4550     2.5650    -8.5080 
  155.1250    51.5940    13.6670    12.0140    13.5280    24.4130     2.5660    -8.8430 
  155.2500    51.4590    13.6620    12.1370    14.2780    24.3550     2.5710    -9.1730 
  155.3750    54.4630    13.5630    12.1670    14.1730    24.3080     2.5770    -9.4800 
  155.5000    56.9700    13.4050    12.1550    12.6980    24.2860     2.5770    -9.7830 
  155.6250    56.1280    13.0850    12.0720    11.6850    24.2830     2.5560   -10.0960 
  155.7500    56.1750    12.4200    11.7580    11.4240    24.2080     2.5120   -10.4060 
  155.8750    61.3410    11.2700    11.0160    11.7400    24.1770     2.4540   -10.6840 
  156.0000    69.1630     9.7070     9.7890    11.5280    24.3940     2.4000   -10.9250 
  156.1250    73.2600     8.0400     8.2480    10.2960    24.7180     2.3660   -11.1430 
