~V
VERS. 2.00: Ver 2.00
~W
STRT.M 48.0000:
STOP.M 276.0000:
STEP.M 0.1250:
NULL. -999.2500:
UWI. F10244:
~C
DEPT.M :
GR.API :
RML.OHMM :
RI. :
RXO.OHMM :
CALI.CM :
DEN.GM/CC :
SP.MV :
~A
# ...
  115.5000    72.5580    11.4300    10.5030    13.9980    23.2350     2.1840    -9.5960 
  115.6250    73.0390    10.7970     9.9890    10.8530    22.8170     2.1720    -9.8540 
  115.7500    72.1970    10.1140     9.3570     9.4360    22.6810     2.1620   -10.0550 
  115.8750    70.8390     9.6540     8.8730     9.0480    22.6450     2.1550   -10.2570 
  116.0000    69.2240     9.4210     8.5890     8.8410    22.6200     2.1520   -10.4420 
  116.1250    68.0950     9.3540     8.4730     8.7720    22.6030     2.1520   -10.7000 
  116.2500    67.5700     9.3790     8.4610     8.7840    22.5710     2.1520   -10.9330 
  116.3750    66.2090     9.4310     8.4880     8.8640    22.5300     2.1490   -11.1050 
  116.5000    63.8460     9.4650     8.5040     9.0180    22.5060     2.1440   -11.2680 
  116.6250    61.7940     9.4660     8.4940     9.4310    22.5660     2.1390   -11.4250 
  116.7500    62.0780     9.4340     8.4580     9.9160    22.6880     2.1340   -11.5780 
  116.8750    64.2300     9.3920     8.4080     9.8340    22.7860     2.1290   -11.7190 
  117.0000    65.1230     9.3660     8.3630     9.5520    22.8190     2.1240   -11.8760 
  117.1250    64.0430     9.3670     8.3330     9.2620    22.7580     2.1200   -11.9550 
  117.2500    61.3970     9.3850     8.3150     9.0390    22.6800     2.1200   -12.0130 
  117.3750    60.5480     9.3950     8.2980     8.8350    22.6410     2.1260   -12.0730 
  117.5000    63.2870     9.3810     8.2690     8.8220    22.6560     2.1330   -12.1380 
  117.6250    67.7220     9.3400     8.2210     9.0460    22.7060     2.1390   -12.1900 
  117.7500    70.5930     9.2820     8.1550     9.2100    22.7690     2.1420   -12.2060 
  117.8750    70.7620     9.2260     8.0860     9.3190    22.7780     2.1440   -12.2300 
  118.0000    71.4130     9.1920     8.0340     9.1940    22.8040     2.1480   -12.2510 
  118.1250    72.8600     9.1970     8.0160     9.3290    22.8890     2.1560   -12.3310 
  118.2500    73.4890     9.2480     8.0450     9.5540    23.0270     2.1650   -12.3670 
  118.3750    73.0070     9.3440     8.1270     9.6880    23.1420     2.1720   -12.4140 
  118.5000    71.3370     9.4610     8.2390     9.8200    23.2070     2.1740   -12.4120 
  118.6250    66.9070     9.5790     8.3570    10.0220    23.2380     2.1730   -12.3980 
  118.7500    61.2860     9.6860     8.4530    10.2020    23.2450     2.1730   -12.4080 
  118.8750    59.9040     9.7670     8.5010    10.3560    23.2580     2.1750   -12.3800 
  119.0000    62.2870     9.8190     8.5030    10.3210    23.3020     2.1760   -12.2950 
  119.1250    65.0750     9.8370     8.4630    10.2670    23.3480     2.1750   -12.1680 
  119.2500    67.3530     9.8170     8.3890    10.2070    23.3320     2.1720   -12.0290 
  119.3750    68.6600     9.7350     8.2780    10.1900    23.2420     2.1650   -11.8620 
  119.5000    68.3240     9.5650     8.1210    10.1300    23.1160     2.1550   -11.6710 
  119.6250    67.7030     9.2770     7.8960    10.1800    22.9890     2.1390   -11.4370 
  119.7500    67.7400     8.8990     7.6070    10.3800    22.8800     2.1260   -11.1270 
  119.8750    67.4570     8.5690     7.3550    10.7090    22.7700     2.1420   -10.7760 
  120.0000    65.9800     8.4920     7.3310    10.5580    22.6580     2.2050   -10.3810 
  120.1250    65.2370     8.8940     7.7710    10.5800    22.6230     2.3190    -9.9380 
  120.2500    65.8340    10.0560     8.9750    11.6320    22.8330     2.4650    -9.4910 
  120.3750    67.0840    12.5210    11.4930    17.1500    23.4020     2.6010    -8.9920 
  120.5000    68.7520    15.8200    15.1630    33.0770    24.0330     2.6890    -8.4240 
  120.6250    68.9660    18.4900    18.9830    53.8500    24.5270     2.7090    -7.8440 
  120.7500    66.1820    18.7400    20.7140    67.1550    24.7480     2.6650    -7.2680 
  120.8750    64.8390    15.8630    18.3060    54.9900    24.7610     2.5790    -6.7200 
  121.0000    69.5570    12.0950    14.1610    30.6780    24.7380     2.4920    -6.2160 
  121.1250    79.4380     9.0450    10.3930    13.5840    24.8080     2.4260    -5.7970 
  121.2500    89.5330     7.1880     7.8000     7.9780    24.9100     2.3840    -5.4070 
  121.3750    92.8260     6.3500     6.4340     7.1000    24.8880     2.3590    -5.0600 
  121.5000    89.5970     6.0270     5.7640     7.3480    24.7540     2.3380    -4.8140 
  121.6250    85.7910     5.9880     5.5250     7.1700    24.6290     2.3220    -4.5870 
  121.7500    87.7980     6.0300     5.4890     7.0260    24.6420     2.3170    -4.4320 
  121.8750    94.6150     5.9680     5.4500     6.6890    24.7830     2.3250    -4.2460 
  122.0000    99.2250     5.7660     5.3160     6.4880    24.9130     2.3410    -4.0730 
  122.1250   102.5120     5.4690     5.1050     6.2770    24.9720     2.3570    -3.8400 
  122.2500   107.8140     5.1430     4.8610     6.0140    24.9900     2.3700    -3.6500 
  122.3750   110.4620     4.8520     4.6250     5.8130    25.0070     2.3780    -3.5110 
  122.5000   107.3690     4.6490     4.4450     5.5540    24.9930     2.3790    -3.4080 
  122.6250   102.0090     4.5880     4.3810     5.3480    24.9500     2.3760    -3.3780 
  122.7500   100.9450     4.7230     4.4930     5.3990    24.9050     2.3770    -3.4080 
  122.8750   103.7030     5.1200     4.8500     5.6580    24.9450     2.3930    -3.4870 
  123.0000   100.5810     5.6830     5.3780     6.3690    24.9180     2.4180    -3.6180 
  123.1250    90.8470     6.2560     5.9580     7.9800    24.6840     2.4390    -3.8030 
  123.2500    81.4200     6.6220     6.3980    10.4580    24.3440     2.4400    -4.0210 
  123.3750    81.0850     6.5650     6.4540    10.7410    24.2080     2.4140    -4.2040 
  123.5000    86.2380     6.2020     6.1690     8.4570    24.4110     2.3760    -4.3630 
  123.6250    91.0190     5.7220     5.6930     6.5560    24.7630     2.3440    -4.5100 
  123.7500    93.9640     5.3050     5.2040     6.0360    24.9520     2.3300    -4.6250 
  123.8750    94.7930     5.0720     4.8480     5.8160    25.0060     2.3380    -4.7540 
  124.0000    94.9120     4.9940     4.6400     5.7720    25.0370     2.3560    -4.8430 
  124.1250    95.3100     5.0190     4.5540     5.7610    25.0100     2.3730    -4.9490 
  124.2500    96.9580     5.0810     4.5400     5.7630    24.9330     2.3810    -5.0280 
  124.3750    99.1110     5.1360     4.5540     5.9570    24.8660     2.3760    -5.1870 
  124.5000    98.4620     5.2130     4.6050     6.2810    24.8490     2.3720    -5.3900 
  124.6250    95.8580     5.4010     4.7750     6.7240    24.8550     2.3840    -5.6660 
  124.7500    93.6100     5.8220     5.1800     7.0130    24.8810     2.4160    -5.9380 
  124.8750    90.4680     6.6870     5.9950     7.3780    24.9260     2.4510    -6.2630 
  125.0000    83.8090     8.0120     7.2000     8.9230    24.8650     2.4580    -6.6670 
  125.1250    75.6280     9.6530     8.6880    13.6540    24.6090     2.4240    -7.1210 
  125.2500    71.3170    11.1820    10.1370    21.7390    24.2500     2.3580    -7.6780 
  125.3750    70.7130    11.9060    10.9290    18.0140    23.8440     2.2930    -8.2100 
  125.5000    70.1210    11.7630    10.9140    11.8820    23.4540     2.2550    -8.7620 
  125.6250    69.6090    11.0850    10.3380     9.7640    23.2280     2.2420    -9.2660 
  125.7500    71.7990    10.3470     9.6270     9.7100    23.1540     2.2420    -9.7730 
  125.8750    74.8080     9.9300     9.1700     9.7200    23.1440     2.2390   -10.2470 
  126.0000    74.0110     9.8330     9.0350     9.4230    23.1550     2.2290   -10.6590 
  126.1250    69.8360     9.9490     9.1410     9.2480    23.1880     2.2180   -11.0120 
  126.2500    66.7630    10.1190     9.3330     9.3360    23.2630     2.2100   -11.2800 
  126.3750    67.1420    10.1760     9.4290     9.4920    23.3120     2.2050   -11.4970 
  126.5000    67.8550    10.0670     9.3500     9.6370    23.2810     2.1990   -11.6830 
  126.6250    66.2350     9.8140     9.0980     9.7640    23.2180     2.1910   -11.8440 
