~V
VERS. 2.00: Ver 2.00
~W
STRT.M 47.0000:
STOP.M 270.0000:
STEP.M 0.1250:
NULL. -999.2500:
UWI. F10221:
~C
DEPT.M :
SP.MV :
GR.API :
RML.OHMM :
RI. :
RXO.OHMM :
CALI.CM :
DEN.GM/CC :
~A
# ...
  215.7500   -18.8520    62.8390    59.3030    50.2560    53.0780    26.0950     2.2250 
  215.8750   -19.2140    61.3180    69.4880    58.8890    55.7630    26.1570     2.2170 
  216.0000   -19.5710    62.8090    75.2470    63.7690    54.3770    26.1830     2.2090 
  216.1250   -19.8240    63.6600    78.5030    66.5280    49.5120    26.1250     2.2000 
  216.2500   -20.0180    62.0390    80.4530    68.1810    51.2770    25.9840     2.1920 
  216.3750   -20.1780    61.3190    81.3920    68.9760    60.3420    25.8540     2.1830 
  216.5000   -20.3250    63.3470    81.0750    68.7080    80.9900    25.9040     2.1740 
  216.6250   -20.4590    66.2660    79.7490    67.5840    79.8840    26.0700     2.1700 
  216.7500   -20.5290    67.0310    77.4250    65.6150    80.5480    26.2450     2.1810 
  216.8750   -20.5500    65.6480    74.2180    62.8970    73.5080    26.2740     2.2050 
  217.0000   -20.5350    63.6310    70.7740    59.9780    62.0110    26.0720     2.2300 
  217.1250   -20.5230    62.1930    68.0860    57.7000    54.7100    25.7000     2.2460 
  217.2500   -20.5150    62.2530    66.8300    56.6350    49.8980    25.1030     2.2530 
  217.3750   -20.5020    61.6540    67.4010    57.1190    44.2830    24.5040     2.2580 
  217.5000   -20.4670    58.6790    69.9250    59.2580    53.2170    24.3450     2.2620 
  217.6250   -20.4250    56.0690    73.2400    62.0680    63.5090    24.5570     2.2550 
  217.7500   -20.3290    55.0050    76.3360    64.6920    64.9720    25.0540     2.2290 
  217.8750   -20.2330    56.3360    78.5530    66.5700    59.3520    25.5800     2.2000 
  218.0000   -20.1250    59.6550    79.5360    67.4030    56.0550    25.8130     2.1910 
  218.1250   -20.0230    63.2170    79.7230    67.5620    54.1750    25.8110     2.1970 
  218.2500   -19.9110    64.6200    79.5100    67.3820    56.0400    25.7190     2.2040 
  218.3750   -19.7810    62.5800    79.0060    66.9540    64.5450    25.6650     2.2090 
  218.5000   -19.6470    60.5330    77.7770    65.9130    69.0770    25.6510     2.2120 
  218.6250   -19.4880    59.0330    75.8450    64.2760    64.4760    25.6210     2.2170 
  218.7500   -19.4030    58.1980    73.6540    62.4180    60.5480    25.5760     2.2230 
  218.8750   -19.3360    57.8490    71.7660    60.8190    63.0380    25.5330     2.2310 
  219.0000   -19.3110    59.3380    70.7720    59.9760    63.3400    25.5170     2.2360 
  219.1250   -19.2720    62.1880    70.8120    60.0100    59.3470    25.5270     2.2350 
  219.2500   -19.2500    64.3190    71.8900    60.9240    58.3190    25.5290     2.2290 
  219.3750   -19.2570    63.9620    73.8340    62.5710    60.0780    25.4830     2.2250 
  219.5000   -19.3160    62.8240    76.4910    64.8230    61.2130    25.3480     2.2300 
  219.6250   -19.4180    63.5990    79.4890    67.3640    62.2380    25.2320     2.2380 
  219.7500   -19.5020    64.5770    82.3140    69.7580    66.2680    25.0850     2.2420 
  219.8750   -19.5920    64.1170    83.9090    71.1090    75.4200    24.9460     2.2420 
  220.0000   -19.6640    64.3700    82.6700    70.0590    78.5650    24.9000     2.2430 
  220.1250   -19.7880    64.7680    78.9950    66.9450    75.6620    24.8940     2.2430 
  220.2500   -19.9340    63.1720    74.1980    62.8790    65.0370    24.8290     2.2360 
  220.3750   -20.1290    59.4370    70.1100    59.4160    49.7410    24.7500     2.2210 
  220.5000   -20.3000    58.0150    68.8850    58.3770    40.1650    24.8060     2.2050 
  220.6250   -20.4530    60.1810    70.7840    59.9860    44.5370    25.0040     2.1970 
  220.7500   -20.6050    63.9390    75.1120    63.6540    54.9940    25.2180     2.1990 
  220.8750   -20.7890    65.8780    80.1500    67.9230    59.9460    25.3360     2.2070 
  221.0000   -20.9840    62.5750    83.0150    70.3520    61.8010    25.3720     2.2180 
  221.1250   -21.1790    58.4850    82.2500    69.7040    67.9820    25.3230     2.2290 
  221.2500   -21.3740    57.5630    78.4080    66.4480    63.3520    25.2320     2.2370 
  221.3750   -21.5270    60.0820    73.5960    62.3690    59.2380    25.1490     2.2380 
  221.5000   -21.6830    62.7740    69.9350    59.2670    61.6740    25.1210     2.2320 
  221.6250   -21.8290    63.6150    66.8470    56.6500    63.3580    25.1140     2.2270 
  221.7500   -22.0080    63.4580    63.0080    53.3970    61.6680    25.1140     2.2250 
  221.8750   -22.1860    62.9790    58.4880    49.5660    59.0920    25.1140     2.2250 
  222.0000   -22.3720    62.6040    55.3860    46.9370    54.9220    25.1130     2.2260 
  222.1250   -22.5160    61.2580    55.7560    47.2510    53.4740    25.1080     2.2310 
  222.2500   -22.6230    59.1100    60.2380    51.0490    55.5350    25.1230     2.2350 
  222.3750   -22.7420    57.3340    67.6760    57.3530    60.9050    25.2110     2.2330 
  222.5000   -22.8710    58.0530    75.6040    64.0710    63.5620    25.3130     2.2260 
  222.6250   -23.0040    60.2080    81.9030    69.4090    61.5720    25.3540     2.2200 
  222.7500   -23.1320    60.1130    86.1660    73.0220    58.9430    25.3390     2.2170 
  222.8750   -23.2670    56.6720    88.5050    75.0040    63.5170    25.3100     2.2140 
  223.0000   -23.4330    53.5970    88.7880    75.2440    67.3340    25.3110     2.2050 
  223.1250   -23.6450    52.7060    88.3460    74.8690    72.0270    25.3030     2.1940 
  223.2500   -23.8940    54.0170    88.4000    74.9160    71.0450    25.1980     2.1900 
  223.3750   -24.1450    55.3240    90.0820    76.3410    59.1590    24.9830     2.1910 
  223.5000   -24.3670    56.4980    94.7530    80.2990    51.4260    24.8760     2.1760 
  223.6250   -24.5760    57.6370   102.0630    86.4940    61.2190    25.1160     2.1620 
  223.7500   -24.7300    57.2030   111.0340    94.0960    72.7800    25.2980     2.1870 
  223.8750   -24.7740    54.5430   119.9280   101.6340    73.1820    25.0920     2.2510 
  224.0000   -24.7270    54.0920   126.1790   106.9310    70.3670    24.7310     2.2970 
  224.1250   -24.6060    57.8210   128.9700   109.2970    73.9560    24.9080     2.2790 
  224.2500   -24.4030    60.8150   128.8850   109.2250    80.0710    25.4240     2.2250 
  224.3750   -24.1090    58.7610   127.4100   107.9750    81.2680    25.9630     2.1840 
  224.5000   -23.7470    55.0130   125.8550   106.6570    71.2620    26.4280     2.1680 
  224.6250   -23.3120    53.2520   124.6620   105.6460    60.5540    26.8190     2.1610 
  224.7500   -22.8040    53.3070   123.6950   104.8260    53.4500    27.0400     2.1540 
  224.8750   -22.2780    56.1420   122.5550   103.8600    53.1860    27.0400     2.1460 
  225.0000   -21.6750    61.6970   120.3040   101.9520    65.8460    26.8300     2.1460 
  225.1250   -21.0450    65.6230   116.1810    98.4590    79.2970    26.4750     2.1580 
  225.2500   -20.4060    66.4680   109.5360    92.8270    83.1450    26.1990     2.1730 
  225.3750   -19.7630    64.8460   100.2480    84.9560    81.8800    26.1320     2.1810 
  225.5000   -19.0990    63.3670    89.0750    75.4870    73.2770    25.9610     2.1910 
  225.6250   -18.4450    65.6080    77.2270    66.1590    55.6800    25.4490     2.2120 
  225.7500   -17.8360    69.8220    67.2970    58.1720    41.4800    25.5350     2.2410 
  225.8750   -17.2850    71.5740    60.9570    52.2850    36.0680    25.3550     2.2700 
  226.0000   -16.8090    68.4830    58.1260    49.2810    35.4740    25.1400     2.2970 
  226.1250   -16.3670    66.1590    58.6300    48.9710    36.2360    25.0330     2.3290 
  226.2500   -15.9610    67.1040    62.8290    51.6970    38.5970    24.9550     2.3660 
  226.3750   -15.5880    68.7260    70.9720    57.9150    46.2650    24.9090     2.4050 
  226.5000   -15.2330    67.0370    82.6240    67.7900    64.8620    24.9000     2.4410 
  226.6250   -14.8990    62.1750    93.2840    77.8440    87.7150    24.9000     2.4810 
  226.7500   -14.5920    56.6330    96.8010    82.9660   103.1710    24.8490     2.5250 
  226.8750   -14.2940    53.8580    89.4760    79.2340   133.3890    24.4970     2.5530 
