~V
VERS. 2.00: Ver 2.00
~W
STRT.M 58.0000:
STOP.M 273.0000:
STEP.M 0.1250:
NULL. -999.2500:
UWI. F10226:
~C
DEPT.M :
SP.MV :
DEN.GM/CC :
GR.API :
RML.OHMM :
RI. :
RXO.OHMM :
CALI.CM :
~A
# ...
  181.7500   -28.5240     2.1510    65.6090   101.4930    92.8250    84.8980    26.3880 
  181.8750   -28.3000     2.1300    63.7580    99.9630    91.6490    81.3100    26.3890 
  182.0000   -28.0130     2.1160    61.5550   101.1530    93.1620    91.3140    26.3680 
  182.1250   -27.6380     2.1270    60.6350   103.8690    96.2990   100.4240    26.3140 
  182.2500   -27.2860     2.1580    61.5110   106.7770    99.8260    98.2110    26.2210 
  182.3750   -27.0500     2.1890    63.0960   108.5980   102.4270    89.9460    26.1310 
  182.5000   -26.8640     2.1970    64.3890   108.6740   103.3460    89.7700    26.0660 
  182.6250   -26.6550     2.1880    65.8440   105.6430   101.2860    93.7550    26.0060 
  182.7500   -26.3940     2.1790    65.9970    97.5810    94.4070    92.6510    25.9030 
  182.8750   -26.1930     2.1890    65.4170    83.4640    81.5470    97.8040    25.7410 
  183.0000   -26.1130     2.2130    68.2470    67.3660    66.4700    95.8560    25.5740 
  183.1250   -26.0470     2.2310    75.1450    53.4720    53.1570    74.1980    25.4790 
  183.2500   -25.9200     2.2260    80.5300    44.4550    44.1720    38.9500    25.4140 
  183.3750   -25.8120     2.1960    78.0960    42.1380    41.1800    21.3450    25.3330 
  183.5000   -25.8360     2.1660    71.7320    45.5590    43.4280    19.8830    25.2120 
  183.6250   -25.9640     2.1500    67.1900    54.0820    50.6310    34.4090    25.1230 
  183.7500   -26.1110     2.1450    66.5740    66.4260    62.0140    65.5970    25.0870 
  183.8750   -26.1400     2.1380    67.7840    79.0490    74.6860    88.2250    25.0600 
  184.0000   -26.1520     2.1200    68.2770    86.5140    83.1570    84.5180    25.0410 
  184.1250   -26.2850     2.1030    67.6650    85.6710    83.7800    78.5350    25.0100 
  184.2500   -26.5010     2.1040    67.3940    77.9720    77.2960    77.8620    24.9620 
  184.3750   -26.6330     2.1330    68.5180    68.1460    67.8790    64.2900    24.9130 
  184.5000   -26.6700     2.1790    70.5030    60.2310    59.7230    47.8810    24.8400 
  184.6250   -26.7240     2.2240    72.0880    55.5630    54.3380    37.4680    24.7350 
  184.7500   -26.8610     2.2540    72.0730    54.1710    51.9000    29.6760    24.5890 
  184.8750   -27.0120     2.2580    71.6000    55.5400    52.0630    34.2790    24.4500 
  185.0000   -27.1300     2.2430    71.1290    58.0570    53.4470    46.0580    24.3790 
  185.1250   -27.2440     2.2180    69.3110    60.7100    55.1740    54.4020    24.3400 
  185.2500   -27.3470     2.1900    67.7390    63.0770    56.8320    51.3870    24.3200 
  185.3750   -27.4260     2.1740    70.0880    65.6560    58.7110    44.4890    24.3270 
  185.5000   -27.5130     2.1730    74.0480    69.5340    61.6140    45.0190    24.3790 
  185.6250   -27.6140     2.1840    73.7000    75.5890    66.2790    55.1860    24.4650 
  185.7500   -27.6910     2.2020    68.5290    84.0490    72.9520    64.5370    24.5240 
  185.8750   -27.7550     2.2160    64.4240    94.4270    81.8740    67.3590    24.5120 
  186.0000   -27.8170     2.2240    64.2140   105.1590    92.4530    68.6690    24.5380 
  186.1250   -27.8460     2.2310    66.4550   115.1320   100.6710    68.2480    24.7120 
  186.2500   -27.8330     2.2370    68.6850   123.8470   107.4980    70.5080    25.0430 
  186.3750   -27.8120     2.2420    69.3290   130.8940   112.8160    85.0120    25.3780 
  186.5000   -27.7820     2.2460    67.8290   135.6430   116.3280   102.0370    25.5860 
  186.6250   -27.7090     2.2480    65.6070   136.7430   117.0930   108.6820    25.6270 
  186.7500   -27.6080     2.2470    64.1770   133.5220   114.5500    99.7270    25.4940 
  186.8750   -27.4750     2.2450    63.5730   126.7620   109.1210    85.1040    25.2620 
  187.0000   -27.2990     2.2420    63.6970   119.4660   103.0720    77.2130    25.1530 
  187.1250   -27.1080     2.2400    64.0260   113.9090    98.2600    69.9920    25.1690 
  187.2500   -26.9750     2.2370    64.7550   111.4540    95.9230    63.6910    25.1910 
  187.3750   -26.8540     2.2350    65.6650   112.8490    96.8470    65.7080    25.1870 
  187.5000   -26.6630     2.2310    65.5300   116.5500    99.8830    76.5820    25.2630 
  187.6250   -26.4460     2.2280    65.1780   120.0330   103.1020    88.8830    25.4530 
  187.7500   -26.2420     2.2250    65.8820   119.4520   103.4580    96.5390    25.6560 
  187.8750   -26.0470     2.2250    66.7590   110.3230    97.0540   103.5920    25.7240 
  188.0000   -25.8180     2.2280    66.8940    95.1470    85.2490   103.5880    25.7190 
  188.1250   -25.5430     2.2330    67.0850    78.8030    71.7080    82.2920    25.7250 
  188.2500   -25.2270     2.2370    68.3900    65.5840    60.1510    44.7910    25.8690 
  188.3750   -24.8590     2.2380    71.1180    58.3370    53.3230    20.9160    26.2600 
  188.5000   -24.5090     2.2380    75.1440    56.0500    50.6940    17.4920    26.7490 
  188.6250   -24.1900     2.2390    78.8440    57.1210    51.0680    31.4130    27.1070 
  188.7500   -23.8830     2.2450    79.0830    59.3550    52.6930    60.2660    27.2380 
  188.8750   -23.6010     2.2550    76.6840    60.0330    53.3310    75.1230    27.0690 
  189.0000   -23.3420     2.2680    75.2350    58.0790    51.9180    55.1650    26.5580 
  189.1250   -23.1090     2.2840    75.3640    54.0600    48.7410    34.2760    25.7320 
  189.2500   -22.9040     2.3010    75.8820    49.4630    44.9190    24.5130    24.9670 
  189.3750   -22.7470     2.3160    75.2190    45.6770    41.6080    24.1280    24.5280 
  189.5000   -22.6260     2.3250    72.3640    42.8530    39.0690    27.7120    24.2660 
  189.6250   -22.5020     2.3260    69.9010    40.8110    37.2360    26.4510    24.0380 
  189.7500   -22.3680     2.3190    70.6420    39.6000    36.1620    19.2280    23.8180 
  189.8750   -22.2220     2.3070    73.5590    39.7390    36.2580    16.9920    23.7120 
  190.0000   -22.1210     2.3000    74.5540    41.2450    37.5200    20.4150    23.6820 
  190.1250   -22.0520     2.3030    74.1560    43.7240    39.6510    27.9610    23.6860 
  190.2500   -21.9780     2.3170    74.4320    46.0860    41.7770    37.1730    23.6860 
  190.3750   -21.9420     2.3360    74.1660    46.2670    42.1020    41.6370    23.6710 
  190.5000   -21.9330     2.3530    73.0910    43.5180    39.8340    37.4180    23.6370 
  190.6250   -21.9610     2.3580    74.4610    38.5260    35.5200    28.5320    23.5810 
  190.7500   -22.0110     2.3500    79.3510    32.9640    30.6190    20.6530    23.4870 
  190.8750   -22.0850     2.3350    82.1810    28.7130    26.7350    16.4810    23.4190 
  191.0000   -22.2000     2.3230    80.3710    26.3960    24.3920    15.5270    23.3620 
  191.1250   -22.3450     2.3170    79.0110    25.9870    23.6050    16.3590    23.2860 
  191.2500   -22.4690     2.3180    81.5400    27.1230    24.1670    17.1130    23.2160 
  191.3750   -22.5840     2.3200    82.5400    29.3410    25.8520    19.6320    23.1820 
  191.5000   -22.7630     2.3200    80.0750    31.8460    28.0380    23.8790    23.1550 
  191.6250   -22.9140     2.3150    78.0570    34.1070    30.2350    30.3960    23.1220 
  191.7500   -23.0200     2.3060    78.6970    35.8340    32.0970    28.8150    23.1090 
  191.8750   -23.2120     2.2920    76.7240    37.0410    33.5020    25.2660    23.1080 
  192.0000   -23.4180     2.2760    71.1630    38.1670    34.7330    24.2430    23.1030 
  192.1250   -23.5220     2.2580    67.0850    39.6030    36.0740    26.3030    23.0810 
  192.2500   -23.6020     2.2410    67.5930    41.5860    37.7230    30.6470    23.0610 
  192.3750   -23.7980     2.2320    71.0040    44.1040    39.6880    35.4080    23.0310 
  192.5000   -23.9720     2.2330    74.4290    46.5200    41.5140    37.9680    22.9760 
  192.6250   -24.0950     2.2460    77.0190    47.8820    42.4540    39.7530    22.9550 
  192.7500   -24.2370     2.2640    77.2830    47.2940    41.7580    41.8930    23.0950 
  192.8750   -24.4090     2.2800    76.0450    44.3670    39.1040    42.3290    23.3460 
