~V
VERS. 2.00: Ver 2.00
~W
STRT.M 53.0000:
STOP.M 267.0000:
STEP.M 0.1250:
NULL. -999.2500:
UWI. F10211:
~C
DEPT.M :
GR.API :
RML.OHMM :
RI. :
RXO.OHMM :
CALI.CM :
SP.MV :
DEN.GM/CC :
~A
# ...
   75.5000    61.1920     7.2660     5.7610    10.2330    29.5630   -30.2640     2.0050 
   75.6250    64.1140     7.1900     5.7050    10.5730    28.9980   -29.3280     2.0560 
   75.7500    68.0990     7.0630     5.6120    10.4420    28.8410   -28.5240     2.1140 
   75.8750    71.0120     6.8970     5.4850     9.6650    28.6660   -27.8670     2.1640 
   76.0000    73.1220     6.7340     5.3480     8.4980    28.3170   -27.4160     2.2070 
   76.1250    75.5570     6.6290     5.2400     7.6210    28.0100   -27.2050     2.2500 
   76.2500    77.6450     6.6190     5.1980     7.5210    27.8200   -27.2350     2.2850 
   76.3750    76.5530     6.7110     5.2380     8.1620    27.7440   -27.4590     2.2990 
   76.5000    72.9910     6.8850     5.3680     8.9660    27.7750   -27.8010     2.2840 
   76.6250    70.3890     7.0830     5.5500     9.8340    27.9280   -28.1430     2.2530 
   76.7500    68.4480     7.2590     5.7510    10.4360    28.2010   -28.4140     2.2140 
   76.8750    65.4620     7.3990     5.9540    10.9390    28.4780   -28.5320     2.1760 
   77.0000    62.1630     7.5220     6.1580    11.4630    28.5540   -28.3880     2.1500 
   77.1250    60.3430     7.6680     6.3740    11.7080    28.4280   -27.9600     2.1400 
   77.2500    59.5930     7.8550     6.6080    11.9270    28.1900   -27.2620     2.1410 
   77.3750    59.1940     8.0580     6.8380    12.3290    27.8740   -26.3380     2.1430 
   77.5000    60.2210     8.1610     6.9780    12.8170    27.7000   -25.1760     2.1480 
   77.6250    63.2180     8.0450     6.9300    12.7610    27.7360   -23.8600     2.1600 
   77.7500    68.5050     7.6580     6.6420    11.6360    27.7940   -22.4880     2.1760 
   77.8750    76.0590     7.0480     6.1420     9.5580    27.3800   -21.1790     2.1940 
   78.0000    85.0040     6.3550     5.5280     7.5030    26.4070   -20.0820     2.2280 
   78.1250    95.2730     5.7280     4.9280     5.9630    25.3700   -19.2540     2.2740 
   78.2500   105.5490     5.2340     4.4160     5.0920    24.5760   -18.7170     2.3180 
   78.3750   111.7900     4.8820     4.0170     4.8630    24.0920   -18.4840     2.3440 
   78.5000   110.7030     4.7210     3.7770     4.8480    23.8700   -18.6540     2.3510 
   78.6250   109.0430     4.8390     3.7480     4.7390    23.7860   -19.2290     2.3540 
   78.7500   111.7720     5.3570     4.0010     4.6980    23.7520   -20.1840     2.3580 
   78.8750   114.0820     6.3760     4.6060     5.0110    23.7400   -21.4700     2.3650 
   79.0000   105.3020     7.9640     5.6460     6.8430    23.7200   -23.0280     2.3800 
   79.1250    88.7610     9.8160     6.9920    12.4410    23.6690   -24.7440     2.4020 
   79.2500    73.9060    11.3690     8.3350    21.6460    23.6340   -26.5250     2.4090 
   79.3750    65.8850    12.0110     9.2350    24.7520    23.7620   -28.2870     2.3760 
   79.5000    62.8230    11.4870     9.3420    18.7520    24.2190   -29.9220     2.3010 
   79.6250    61.1660    10.4480     8.9340    15.5540    24.9070   -31.3590     2.2310 
   79.7500    60.0870     9.5150     8.3930    15.2810    25.6330   -32.5450     2.1890 
   79.8750    60.3950     8.9750     7.9740    15.5880    26.2440   -33.4590     2.1760 
   80.0000    62.0900     8.8360     7.7790    15.6030    26.6540   -34.0690     2.1800 
   80.1250    63.9310     8.8650     7.7200    15.3620    26.9030   -34.4420     2.1980 
   80.2500    65.1550     8.9080     7.7030    15.0720    27.0180   -34.6430     2.2210 
   80.3750    65.7770     8.9300     7.6790    14.8210    27.0540   -34.7350     2.2400 
   80.5000    65.8970     8.9580     7.6480    14.7940    27.0770   -34.7430     2.2430 
   80.6250    64.9340     9.0080     7.6240    14.6970    27.1900   -34.7140     2.2280 
   80.7500    62.7980     9.0600     7.6060    14.5170    27.5150   -34.6450     2.1980 
   80.8750    60.3830     9.0570     7.5670    14.3860    28.1280   -34.5060     2.1590 
   81.0000    58.8480     8.9480     7.4610    14.3430    28.8760   -34.2920     2.1280 
   81.1250    58.7350     8.8040     7.3190    14.1400    29.5830   -34.0200     2.1160 
   81.2500    59.9660     8.7530     7.2250    12.9330    29.9150   -33.7400     2.1190 
   81.3750    61.7860     8.9190     7.2700    10.5880    29.4870   -33.5060     2.1300 
   81.5000    63.0560     9.3920     7.5380     9.5630    28.2330   -33.3750     2.1570 
   81.6250    63.2190    10.0610     7.9790    12.9200    27.0430   -33.3040     2.2010 
   81.7500    62.3560    10.6960     8.4540    25.9810    26.4500   -33.2830     2.2220 
   81.8750    61.3580    11.0380     8.7730    37.3080    26.6290   -33.3050     2.1830 
   82.0000    61.9580    10.8920     8.7600    29.0030    27.3250   -33.3500     2.1170 
   82.1250    63.4750    10.4210     8.4850    19.3560    27.7500   -33.3820     2.0770 
   82.2500    64.2990     9.8780     8.1040    15.5670    28.2150   -33.3540     2.0640 
   82.3750    63.5280     9.4640     7.7710    14.7010    29.1170   -33.2110     2.0480 
   82.5000    62.2400     9.2730     7.5920    14.4750    30.3130   -32.9100     2.0310 
   82.6250    61.8920     9.2140     7.5360    14.4540    30.8760   -32.4810     2.0360 
   82.7500    62.4930     9.1920     7.5410    14.6570    31.0170   -31.9320     2.0620 
   82.8750    62.0420     9.1750     7.5700    14.5700    31.3430   -31.2890     2.0890 
   83.0000    58.8520     9.1780     7.6200    13.9020    31.7780   -30.5470     2.1040 
   83.1250    55.8000     9.2300     7.6960    12.7880    31.9580   -29.7090     2.1120 
   83.2500    54.8970     9.3400     7.7980    12.0870    32.0520   -28.7590     2.1090 
   83.3750    56.4840     9.4740     7.9040    12.8290    32.2560   -27.7100     2.0780 
   83.5000    59.5460     9.5340     7.9420    13.8670    32.7180   -26.5020     2.0190 
   83.6250    62.1490     9.4220     7.8380    13.8950    33.5850   -25.1820     1.9480 
   83.7500    63.1890     9.0860     7.5490    13.2980    34.6390   -23.7950     1.8830 
   83.8750    62.5090     8.5520     7.0920    12.2660    35.0230   -22.3930     1.8470 
   84.0000    63.9460     7.9120     6.5480    10.2600    33.5750   -21.0730     1.8790 
   84.1250    70.4040     7.3190     6.0380     8.1290    30.8650   -19.9070     1.9780 
   84.2500    79.4160     6.9220     5.6690     7.0990    28.6540   -18.9260     2.1050 
   84.3750    84.5870     6.8940     5.5480     7.2000    27.7050   -18.0790     2.2000 
   84.5000    81.7640     7.5660     5.8740     8.1530    27.6570   -17.4010     2.2160 
   84.6250    77.7920     9.1280     6.7990     9.3610    28.0570   -16.8270     2.2040 
   84.7500    77.2750    11.6630     8.4820    10.3370    28.4650   -16.3290     2.2310 
   84.8750    79.1550    14.9250    10.9480    11.0950    28.1870   -15.8940     2.3260 
   85.0000    80.5390    17.7910    13.6560    13.5400    27.0460   -15.4300     2.4590 
   85.1250    80.5750    18.7050    15.2720    23.8830    26.0030   -14.8820     2.5390 
   85.2500    79.9570    16.9930    14.8060    35.2800    25.4890   -14.2650     2.5140 
   85.3750    79.3200    13.6030    12.6220    27.9960    25.3810   -13.6690     2.4270 
   85.5000    80.7080    10.3530    10.0470    15.3340    25.4150   -13.1700     2.3500 
   85.6250    84.0230     8.1470     8.0080     8.9940    25.4520   -12.8080     2.3130 
   85.7500    86.7910     6.9830     6.7020     7.3240    25.4610   -12.5910     2.3070 
   85.8750    87.9860     6.5620     6.0200     7.2830    25.4230   -12.4990     2.3170 
   86.0000    91.1200     6.5960     5.8250     6.9360    25.3110   -12.5850     2.3320 
   86.1250    98.4050     6.7740     5.8710     6.2500    25.1880   -12.8470     2.3390 
   86.2500   104.9670     6.9040     5.9730     5.9100    25.1030   -13.2640     2.3320 
   86.3750   104.3130     6.8910     6.0070     5.9470    25.0500   -13.8110     2.3160 
   86.5000    98.1380     6.6890     5.8960     5.9670    24.9580   -14.4960     2.3020 
   86.6250    94.6560     6.3440     5.6530     5.7710    24.7140   -15.3210     2.2990 
