~V
VERS. 2.00: Ver 2.00
~W
STRT.M 50.0000:
STOP.M 281.0000:
STEP.M 0.1250:
NULL. -999.2500:
UWI. F10222:
~C
DEPT.M :
GR.API :
RML.OHMM :
RI. :
RXO.OHMM :
CALI.CM :
DEN.GM/CC :
SP.MV :
~A
# ...
  128.7500    47.4730    21.0040    19.5150    15.2660    24.5500     2.5490   -17.6020 
  128.8750    47.4860    21.0130    19.5440    15.6630    24.5460     2.5390   -17.6340 
  129.0000    47.8290    20.8960    19.4740    15.1740    24.4320     2.5440   -17.6360 
  129.1250    48.4580    20.7670    19.3750    13.8410    24.4040     2.5610   -17.6540 
  129.2500    49.7090    20.7820    19.3720    13.3630    24.4680     2.5690   -17.7080 
  129.3750    52.3700    20.9850    19.5120    14.3300    24.5360     2.5600   -17.7250 
  129.5000    54.6270    21.3000    19.7590    15.6120    24.5750     2.5410   -17.7240 
  129.6250    53.3170    21.5670    20.0080    16.8950    24.5610     2.5220   -17.7770 
  129.7500    50.0010    21.7040    20.1830    17.1530    24.4660     2.5110   -17.8140 
  129.8750    49.4090    21.7760    20.3040    16.4450    24.3720     2.5100   -17.8460 
  130.0000    54.4540    21.9430    20.4640    15.9290    24.3110     2.5130   -17.9220 
  130.1250    57.9570    22.3870    20.8090    16.0400    24.2450     2.5070   -17.9570 
  130.2500    53.9080    23.0360    21.3250    16.3070    24.2030     2.4900   -18.0080 
  130.3750    48.3230    23.6810    21.8820    16.9490    24.2800     2.4760   -18.0870 
  130.5000    47.9190    24.0430    22.2500    17.2870    24.4930     2.4680   -18.1320 
  130.6250    51.9620    23.8440    22.1420    16.5120    24.7540     2.4530   -18.1990 
  130.7500    54.0840    23.2360    21.6320    15.9780    25.0000     2.4320   -18.3010 
  130.8750    52.9260    22.4680    20.9190    15.8290    25.1260     2.4230   -18.3790 
  131.0000    50.7220    21.8070    20.2500    15.6920    25.1590     2.4340   -18.4330 
  131.1250    50.8430    21.5010    19.8810    15.5020    25.1610     2.4500   -18.5160 
  131.2500    53.4050    21.5510    19.8450    16.2050    25.1000     2.4530   -18.5440 
  131.3750    57.4070    21.9100    20.1160    17.0990    24.9580     2.4430   -18.5580 
  131.5000    62.0770    22.5040    20.6280    17.7150    24.8310     2.4280   -18.6310 
  131.6250    64.8190    23.2880    21.3270    18.5600    24.8230     2.4200   -18.6330 
  131.7500    62.9160    24.1530    22.1050    19.7100    24.7960     2.4180   -18.5950 
  131.8750    59.7810    24.9920    22.8620    20.0900    24.6550     2.4240   -18.5850 
  132.0000    59.1070    25.6640    23.4780    19.4360    24.4730     2.4370   -18.5540 
  132.1250    58.8960    25.9520    23.7670    19.0340    24.4150     2.4560   -18.5220 
  132.2500    56.7680    25.8050    23.6890    20.1750    24.3950     2.4630   -18.5180 
  132.3750    55.9570    25.2180    23.2340    20.8970    24.2810     2.4470   -18.4960 
  132.5000    57.6410    24.2710    22.4550    19.2280    24.1150     2.4220   -18.4640 
  132.6250    58.7820    23.1060    21.4590    17.9700    24.0840     2.4150   -18.4710 
  132.7500    59.4620    21.9570    20.4490    17.0430    24.2220     2.4320   -18.4620 
  132.8750    59.5330    20.9810    19.5600    16.0730    24.5380     2.4560   -18.4450 
  133.0000    58.4330    20.2990    18.8960    14.8070    24.8340     2.4630   -18.4610 
  133.1250    56.9360    20.0190    18.5560    14.5120    24.8950     2.4360   -18.4170 
  133.2500    56.2090    20.0290    18.4720    14.8540    24.8730     2.3950   -18.3790 
  133.3750    56.0690    20.2150    18.5770    15.2200    24.7870     2.3630   -18.3780 
  133.5000    56.3260    20.4330    18.7730    15.5050    24.6340     2.3590   -18.3410 
  133.6250    57.9020    20.5180    18.9320    15.9120    24.4230     2.3910   -18.3110 
  133.7500    58.4220    20.4550    18.9820    17.0400    24.3560     2.4340   -18.3110 
  133.8750    58.0690    20.3270    18.9360    18.0570    24.3690     2.4620   -18.2800 
  134.0000    58.8910    20.2600    18.8750    18.1560    24.4560     2.4640   -18.2640 
  134.1250    60.1790    20.3470    18.8770    17.9070    24.6540     2.4500   -18.2700 
  134.2500    58.4380    20.5170    18.9330    18.5440    25.1420     2.4350   -18.2440 
  134.3750    54.7720    20.6540    18.9820    19.5390    25.9490     2.4120   -18.2300 
  134.5000    54.3090    20.6390    18.9490    19.7980    26.6200     2.3770   -18.2360 
  134.6250    57.1920    20.3910    18.7630    18.7220    26.5670     2.3520   -18.2190 
  134.7500    58.2250    20.0120    18.4670    16.8110    26.1260     2.3610   -18.2250 
  134.8750    53.9040    19.6340    18.1420    15.7200    25.8820     2.3990   -18.2570 
  135.0000    47.4950    19.3740    17.8820    15.9460    25.9300     2.4350   -18.2440 
  135.1250    46.0490    19.2880    17.7480    16.1540    25.9270     2.4340   -18.2870 
  135.2500    48.9070    19.2830    17.6990    15.8680    25.3570     2.4190   -18.3670 
  135.3750    51.9230    19.2760    17.6860    15.7950    24.3070     2.4160   -18.4010 
  135.5000    52.1500    19.2290    17.6760    16.0680    23.3320     2.4340   -18.4600 
  135.6250    49.9020    19.1820    17.6910    16.3410    23.0780     2.4570   -18.5440 
  135.7500    47.6580    19.2060    17.7680    16.4560    23.2540     2.4680   -18.5920 
  135.8750    46.6550    19.3240    17.9200    16.2750    23.6010     2.4700   -18.6360 
  136.0000    47.5460    19.5170    18.1230    16.4560    23.8830     2.4720   -18.6880 
  136.1250    48.7540    19.7360    18.3370    17.2180    24.0050     2.4750   -18.6870 
  136.2500    48.5250    19.8850    18.5110    18.5040    24.1120     2.4730   -18.7010 
  136.3750    48.6100    19.8520    18.5690    19.1660    24.3580     2.4640   -18.7250 
  136.5000    51.7980    19.5420    18.4180    19.4720    24.7870     2.4480   -18.7090 
  136.6250    56.5200    18.8480    17.9310    19.2940    25.2210     2.4190   -18.6960 
  136.7500    57.4520    17.8610    17.1510    18.1310    25.4260     2.3830   -18.6920 
  136.8750    57.2040    16.7110    16.1880    15.6020    25.4660     2.3560   -18.6830 
  137.0000    59.7060    15.5910    15.2090    13.7350    25.6270     2.3500   -18.7170 
  137.1250    62.1510    14.7280    14.4070    12.8490    26.0870     2.3720   -18.7880 
  137.2500    60.2460    14.1920    13.8620    12.0370    26.4550     2.4040   -18.8070 
  137.3750    56.1740    14.0030    13.5990    11.3780    26.4160     2.4330   -18.8620 
  137.5000    56.1010    14.1040    13.5950    11.4020    26.0110     2.4520   -18.9570 
  137.6250    58.5080    14.3950    13.7950    12.1390    25.5160     2.4630   -19.0180 
  137.7500    59.6220    14.7250    14.0650    12.3430    25.1920     2.4680   -19.0930 
  137.8750    59.8890    15.0230    14.3280    12.3760    25.0460     2.4690   -19.1770 
  138.0000    59.6230    15.2540    14.5350    12.8180    25.1920     2.4690   -19.2220 
  138.1250    59.0550    15.4240    14.6700    13.2220    25.7510     2.4740   -19.2880 
  138.2500    57.5860    15.6320    14.8120    13.4660    26.5030     2.4840   -19.3700 
  138.3750    56.7230    16.0050    15.0620    13.8770    27.3440     2.4850   -19.4330 
  138.5000    58.5730    16.6370    15.5060    14.6980    27.9900     2.4680   -19.5240 
  138.6250    62.8230    17.5570    16.1940    16.3760    28.3510     2.4370   -19.6330 
  138.7500    67.6290    18.5480    16.9860    18.0380    28.3860     2.4120   -19.7260 
  138.8750    72.9580    19.3620    17.6960    21.8080    28.2530     2.4100   -19.8560 
  139.0000    78.9390    19.7760    18.1200    26.1910    28.1680     2.4260   -20.0080 
  139.1250    80.4850    19.6840    18.1130    22.6650    28.3070     2.4370   -20.1260 
  139.2500    77.0260    19.3770    17.8760    18.8990    28.3690     2.4350   -20.2720 
  139.3750    74.2090    19.1220    17.6160    18.3310    28.4200     2.4320   -20.4040 
  139.5000    75.8760    19.1070    17.5100    18.3020    28.6820     2.4360   -20.4740 
  139.6250    78.1150    19.4140    17.6870    19.2340    29.0780     2.4400   -20.5770 
  139.7500    79.0730    19.8490    18.0340    20.7980    29.4780     2.4350   -20.6710 
  139.8750    79.2750    20.2170    18.3770    20.8010    29.8440     2.4210   -20.7140 
