~V
VERS. 2.00: Ver 2.00
~W
STRT.M 30.0000:
STOP.M 271.0000:
STEP.M 0.1250:
NULL. -999.2500:
UWI. F10210:
~C
DEPT.M :
DEN.GM/CC :
GR.API :
RML.OHMM :
RI. :
RXO.OHMM :
CALI.CM :
SP.MV :
~A
# ...
   52.5000     1.8760    44.1020     2.3460     2.0240    15.3760    25.7810    75.2690 
   52.6250     1.8640    43.8620     2.3920     2.0670    13.3210    25.8070    76.0350 
   52.7500     1.8640    43.7000     2.4010     2.0750    12.8460    25.8070    76.7390 
   52.8750     1.8670    43.1000     2.3670     2.0440    12.4800    25.8130    77.3660 
   53.0000     1.8560    42.6790     2.3040     1.9840    11.5980    25.8100    77.9770 
   53.1250     1.8330    43.6650     2.2450     1.9280    10.0920    25.8000    78.7140 
   53.2500     1.8350    44.9500     2.2290     1.9140     8.8700    25.7920    79.6340 
   53.3750     1.8730    45.7520     2.2690     1.9510     7.7500    25.8130    80.6720 
   53.5000     1.9190    46.0430     2.3470     2.0240     6.4230    25.8250    81.7540 
   53.6250     1.9410    45.3760     2.4330     2.1060     5.3670    25.8100    82.8340 
   53.7500     1.9450    44.3180     2.5010     2.1700     5.3450    25.8050    83.8500 
   53.8750     1.9470    43.7620     2.5330     2.2000     6.4780    25.8150    84.8380 
   54.0000     1.9510    43.4030     2.5200     2.1880     8.6460    25.8220    85.7990 
   54.1250     1.9470    42.5850     2.4720     2.1430    10.3210    25.8260    86.6550 
   54.2500     1.9380    40.4970     2.4240     2.0970    14.3150    25.8170    87.3210 
   54.3750     1.9250    37.5100     2.3900     2.0650    36.6930    25.8120    87.8090 
   54.5000     1.9020    34.2850     2.3670     2.0440    99.3820    25.7890    88.1660 
   54.6250     1.8770    33.1120     2.3360     2.0150   101.8760    25.7680    88.4750 
   54.7500     1.8620    34.4480     2.2810     1.9620    30.1240    25.8310    88.8330 
   54.8750     1.8610    36.8220     2.2030     1.8880    11.4310    25.8390    89.2140 
   55.0000     1.8690    37.9830     2.1210     1.8120     8.2390    25.8170    89.6100 
   55.1250     1.8820    35.9590     2.0620     1.7560     8.7150    25.7760    90.0850 
   55.2500     1.8940    34.3180     2.0270     1.7230     7.2420    25.7590    90.7390 
   55.3750     1.8980    36.4460     2.0240     1.7190     5.2550    25.8130    91.5720 
   55.5000     1.8860    42.2560     2.0530     1.7470     3.5670    25.8190    92.4900 
   55.6250     1.8520    46.8120     2.1040     1.7950     3.4420    25.8100    93.3800 
   55.7500     1.8030    47.6000     2.1480     1.8370     4.8580    25.7960    94.1730 
   55.8750     1.7500    47.7640     2.1710     1.8590     7.0590    25.8300    94.8060 
   56.0000     1.7100    50.5080     2.1760     1.8630     8.6720    25.8330    95.2710 
   56.1250     1.7120    55.2410     2.1730     1.8610     9.4560    25.8340    95.5300 
   56.2500     1.7460    57.3630     2.1740     1.8610    11.7990    25.8030    95.5730 
   56.3750     1.7790    56.3590     2.1850     1.8720    18.3610    25.8100    95.3630 
   56.5000     1.7900    54.9720     2.2150     1.9000    30.7960    25.8030    94.9160 
   56.6250     1.7810    54.6130     2.2810     1.9620    23.9540    25.8080    94.2450 
   56.7500     1.7780    55.2410     2.3630     2.0400    12.3760    25.8160    93.4070 
   56.8750     1.7890    56.3070     2.4240     2.0970     9.6500    25.7970    92.5140 
   57.0000     1.8110    56.8640     2.4190     2.0920    10.5000    25.8030    91.6430 
   57.1250     1.8500    56.1870     2.3300     2.0080    13.0930    25.7850    90.9110 
   57.2500     1.9000    55.0160     2.2220     1.9070    13.7930    25.7860    90.3570 
   57.3750     1.9460    53.2120     2.1550     1.8430     8.4250    25.8110    89.9810 
   57.5000     1.9740    50.3900     2.1640     1.8520     5.6760    25.8140    89.7490 
   57.6250     1.9860    48.2860     2.2520     1.9350     7.0830    25.7890    89.5690 
   57.7500     1.9880    46.7170     2.3560     2.0330     8.6620    25.7930    89.3910 
   57.8750     1.9650    45.0760     2.4280     2.1000     8.6050    25.8090    89.2140 
   58.0000     1.9120    43.4320     2.4460     2.1180    10.5420    25.7720    89.0270 
   58.1250     1.8600    43.0530     2.4210     2.0940    15.8180    25.7780    88.7320 
   58.2500     1.8380    43.0740     2.3880     2.0630    49.1340    25.7760    88.3060 
   58.3750     1.8340    41.7130     2.3680     2.0440    64.2610    25.7630    87.7700 
   58.5000     1.8230    39.2750     2.3710     2.0470    24.4470    25.7600    87.1150 
   58.6250     1.8030    37.2550     2.4060     2.0800     7.6420    25.7990    86.3990 
   58.7500     1.7940    37.2750     2.4610     2.1320     5.6280    25.7810    85.7140 
   58.8750     1.8060    38.7110     2.5220     2.1890     4.5240    25.7690    85.0010 
   59.0000     1.8330    40.8570     2.5680     2.2330     5.7290    25.8140    84.2210 
   59.1250     1.8520    43.6890     2.5800     2.2440     8.0110    25.8030    83.4250 
   59.2500     1.8550    47.1830     2.5600     2.2260    10.7770    25.8160    82.6020 
   59.3750     1.8520    49.7740     2.5290     2.1970    12.7290    25.8230    81.7470 
   59.5000     1.8470    50.5480     2.5110     2.1790    11.6150    25.7820    80.8620 
   59.6250     1.8340    51.0380     2.5210     2.1880     8.5310    25.7810    79.9570 
   59.7500     1.8240    52.2960     2.5460     2.2120    13.6550    25.8030    79.0580 
   59.8750     1.8250    54.2020     2.5600     2.2250    31.2680    25.7850    78.2090 
   60.0000     1.8290    54.2640     2.5390     2.2050    63.4990    25.8020    77.3880 
   60.1250     1.8280    51.2730     2.4900     2.1590    56.9210    25.7840    76.4610 
   60.2500     1.8320    51.1450     2.4560     2.1270    33.0010    25.7770    75.3940 
   60.3750     1.8490    56.6080     2.4630     2.1340    12.2220    25.7930    74.1530 
   60.5000     1.8790    62.8850     2.5040     2.1720     6.6190    25.8200    72.7660 
   60.6250     1.9170    61.0750     2.5480     2.2140     6.4920    25.7610    71.1890 
   60.7500     1.9540    55.4930     2.5820     2.2460    10.4900    25.7690    69.4540 
   60.8750     1.9840    52.5580     2.6050     2.2680    16.4570    25.7840    67.6080 
   61.0000     2.0060    53.3130     2.6130     2.2750    22.2120    25.8400    65.6960 
   61.1250     2.0260    55.9030     2.5700     2.2350    10.6570    25.7540    63.7080 
   61.2500     2.0560    57.3940     2.4600     2.1310     6.9860    25.7330    61.6670 
   61.3750     2.1110    55.9690     2.2600     1.9430     8.6220    25.8190    59.5530 
   61.5000     2.1940    52.9110     1.9450     1.6460    19.6210    25.8120    57.3210 
   61.6250     2.2890    52.3280     1.4930     1.2190    30.9340    25.7550    54.8540 
   61.7500     2.3780    53.9350     1.0200     0.7730    13.0290    25.7720    52.0710 
   61.8750     2.4600    53.8090     0.6500     0.4250     4.4300    25.7860    48.7790 
   62.0000     2.5350    51.6860     0.4370     0.2230     2.4810    25.6610    44.8070 
   62.1250     2.5590    54.8810     0.3730     0.1640     2.0720    25.6800    39.9370 
   62.2500     2.4990    64.1050     0.4150     0.2020     2.9090    25.4840    34.3080 
   62.3750     2.3800    75.2920     0.5910     0.3690     4.2600    25.3670    27.9920 
   62.5000     2.2630    84.6130     0.9930     0.7470     6.3390    25.3290    21.2760 
   62.6250     2.1960    89.8350     1.8260     1.5340     8.2230    25.2980    14.4830 
   62.7500     2.1640    90.7420     3.0840     2.7200     8.9700    25.3600     7.8480 
   62.8750     2.1460    87.8100     4.5550     4.1060     9.3590    25.3930     1.5930 
   63.0000     2.1360    84.4790     5.8780     5.3540    10.3030    25.5330    -4.0490 
   63.1250     2.1340    82.0750     6.8240     6.2460    10.4740    25.6040    -8.7090 
   63.2500     2.1330    78.1700     7.5300     6.9120    10.6130    25.6430   -12.4570 
   63.3750     2.1270    74.0160     8.0770     7.4270    10.7160    25.6980   -15.2990 
   63.5000     2.1160    71.3050     8.4630     7.7920    11.0680    25.7120   -17.3870 
   63.6250     2.1000    68.9820     8.6060     7.9260    11.2520    25.7780   -18.8110 
