~V
VERS. 2.00: Ver 2.00
~W
STRT.M 58.0000:
STOP.M 273.0000:
STEP.M 0.1250:
NULL. -999.2500:
UWI. F10226:
~C
DEPT.M :
SP.MV :
DEN.GM/CC :
GR.API :
RML.OHMM :
RI. :
RXO.OHMM :
CALI.CM :
~A
# ...
  238.0000   -11.3950     2.2650    71.6670    18.7230    17.7010    20.8560    24.0080 
  238.1250   -11.4250     2.2780    70.3920    17.5190    16.7290    19.5640    24.0090 
  238.2500   -11.5040     2.2850    70.2600    16.0530    15.4410    17.1210    24.0010 
  238.3750   -11.6260     2.2850    73.6980    14.9230    14.3660    15.0820    23.9880 
  238.5000   -11.7260     2.2820    77.5950    14.3970    13.7570    13.9520    23.9690 
  238.6250   -11.7980     2.2770    77.6900    14.5370    13.6940    14.3690    23.9640 
  238.7500   -11.8490     2.2690    73.8610    15.2690    14.1620    15.9030    23.9810 
  238.8750   -11.8640     2.2580    69.2210    16.4530    15.1140    16.9280    23.9980 
  239.0000   -11.8230     2.2500    65.9840    17.7500    16.2820    17.2500    24.0050 
  239.1250   -11.7440     2.2460    63.3660    18.8820    17.4180    17.5650    24.0040 
  239.2500   -11.6470     2.2490    60.7840    19.6260    18.2880    18.9660    24.0000 
  239.3750   -11.5350     2.2550    59.4930    19.7910    18.6660    21.1030    24.0000 
  239.5000   -11.4450     2.2580    58.9250    19.5120    18.6160    20.8710    24.0020 
  239.6250   -11.4070     2.2580    57.8570    19.0040    18.2900    18.7560    24.0050 
  239.7500   -11.3900     2.2550    56.4040    18.5070    17.8910    17.2380    24.0050 
  239.8750   -11.3550     2.2540    56.8030    18.1970    17.5820    16.6910    24.0040 
  240.0000   -11.3460     2.2560    60.5430    18.0110    17.3520    16.7250    24.0050 
  240.1250   -11.4040     2.2620    66.0550    17.7770    17.0870    17.6020    24.0060 
  240.2500   -11.4690     2.2690    69.4200    17.3160    16.6520    19.0450    24.0000 
  240.3750   -11.4870     2.2790    67.3670    16.5180    15.9400    17.5570    23.9820 
  240.5000   -11.4920     2.2910    63.5250    15.5360    15.0580    15.0890    23.9640 
  240.6250   -11.4750     2.3040    62.2660    14.5650    14.1580    13.7540    23.9570 
  240.7500   -11.4410     2.3160    64.3200    13.8000    13.4020    13.5820    23.9320 
  240.8750   -11.3900     2.3240    68.5640    13.4570    12.9840    13.7550    23.8980 
  241.0000   -11.3010     2.3300    73.4130    13.5890    12.9630    13.1270    23.8670 
  241.1250   -11.1850     2.3320    76.4390    14.2300    13.3760    12.5570    23.8440 
  241.2500   -11.0680     2.3320    75.3510    15.2990    14.1920    14.1630    23.8120 
  241.3750   -10.9810     2.3320    71.2960    16.4980    15.2290    16.5690    23.7730 
  241.5000   -10.9060     2.3330    68.9740    17.3930    16.1280    17.6470    23.7240 
  241.6250   -10.8290     2.3360    68.4330    17.7570    16.6650    18.1510    23.7110 
  241.7500   -10.7820     2.3440    67.9140    17.7040    16.8610    18.0950    23.7440 
  241.8750   -10.8050     2.3610    68.9630    17.7910    17.0790    16.6570    23.7930 
  242.0000   -10.8900     2.3790    72.3630    18.6810    17.8220    16.2640    23.7550 
  242.1250   -10.9930     2.3940    76.7020    20.7890    19.4780    20.0170    23.6230 
  242.2500   -11.1270     2.3940    80.3390    24.0910    22.1850    24.2150    23.5310 
  242.3750   -11.3280     2.3750    83.1070    27.8480    25.5630    27.8250    23.4980 
  242.5000   -11.5170     2.3420    83.9150    30.5370    28.2990    31.2960    23.4970 
  242.6250   -11.7090     2.3040    82.2760    30.8890    29.0730    33.5160    23.4640 
  242.7500   -11.8760     2.2710    79.2840    28.6460    27.3950    31.9390    23.4000 
  242.8750   -12.0330     2.2500    77.1790    24.7860    24.0160    24.6650    23.2800 
  243.0000   -12.1850     2.2420    77.0120    21.0770    20.6220    18.0130    23.1700 
  243.1250   -12.3280     2.2480    78.8080    18.4190    18.0770    14.9160    23.1940 
  243.2500   -12.4750     2.2630    82.8360    17.1840    16.7110    13.2990    23.3240 
  243.3750   -12.6010     2.2850    88.6740    17.7320    16.8450    13.4880    23.4780 
  243.5000   -12.7280     2.3090    92.9930    19.7540    18.3300    17.2940    23.6840 
  243.6250   -12.8500     2.3300    92.8880    22.8710    21.0100    22.0550    23.8740 
  243.7500   -12.9890     2.3450    87.7060    26.4140    24.4370    24.8960    23.9540 
  243.8750   -13.1010     2.3460    82.9050    29.2680    27.6240    29.3400    23.9400 
  244.0000   -13.1940     2.3360    82.3560    30.6640    29.6090    32.5670    23.9150 
  244.1250   -13.2640     2.3140    85.3050    30.4580    30.0130    30.3270    23.9140 
  244.2500   -13.2800     2.2850    87.5480    29.1080    29.1210    26.8440    23.9770 
  244.3750   -13.3050     2.2600    85.4670    27.2150    27.4360    26.7850    24.0030 
  244.5000   -13.2800     2.2430    81.4620    25.1890    25.4380    25.7010    23.9770 
  244.6250   -13.1830     2.2380    77.3470    23.1580    23.3370    24.1430    23.9660 
  244.7500   -13.0590     2.2420    74.2440    21.2510    21.3240    23.4860    23.9770 
  244.8750   -12.9620     2.2460    73.5800    19.7580    19.7090    20.3510    23.9840 
  245.0000   -12.8760     2.2440    73.7850    18.9270    18.6970    17.5150    23.9710 
  245.1250   -12.7940     2.2360    73.6620    18.9630    18.4500    17.5280    23.9460 
  245.2500   -12.7590     2.2250    73.7730    19.8960    19.0220    19.9860    23.9310 
  245.3750   -12.7350     2.2160    75.3360    21.6240    20.4260    22.9440    23.9780 
  245.5000   -12.7730     2.2100    75.4700    23.6860    22.3100    24.9200    24.0680 
  245.6250   -12.8560     2.2100    72.3060    25.7000    24.3250    27.2240    24.1280 
  245.7500   -12.8770     2.2140    68.6420    27.3540    26.1200    29.1180    24.1530 
  245.8750   -12.8860     2.2240    69.2910    28.4330    27.3890    29.9900    24.1330 
  246.0000   -12.9350     2.2440    71.3230    29.0420    28.1670    30.8110    24.0770 
  246.1250   -12.9700     2.2760    69.9040    29.2820    28.5280    31.2750    23.9730 
  246.2500   -12.9640     2.3140    64.7800    29.2580    28.5740    31.9930    23.8280 
  246.3750   -12.9550     2.3440    62.5200    29.1140    28.4470    33.0290    23.7010 
  246.5000   -12.8920     2.3510    64.6820    29.0320    28.3390    33.0620    23.5940 
  246.6250   -12.8120     2.3320    68.4230    29.0860    28.3450    32.3640    23.5710 
  246.7500   -12.7880     2.2930    71.7260    29.2040    28.4290    36.2350    23.6660 
  246.8750   -12.7450     2.2550    74.4910    29.1470    28.3990    32.4950    23.7270 
  247.0000   -12.6290     2.2360    77.5400    28.6870    28.0420    31.8610    23.7350 
  247.1250   -12.5100     2.2470    78.9380    27.6990    27.2130    32.1400    23.7060 
  247.2500   -12.4040     2.2920    77.0070    26.2490    25.9330    30.4970    23.6550 
  247.3750   -12.2650     2.3670    72.5600    24.6760    24.4670    27.4240    23.5300 
  247.5000   -12.1770     2.4450    68.2900    23.4020    23.1980    24.6060    23.4520 
  247.6250   -12.1220     2.5030    67.8570    22.5860    22.2960    21.7050    23.3830 
  247.7500   -12.1040     2.5250    72.9920    22.1300    21.7140    20.6720    23.2590 
  247.8750   -12.1030     2.5060    79.0310    21.7430    21.2490    25.4290    23.1840 
  248.0000   -12.0610     2.4720    79.2680    21.1430    20.6740    29.8200    23.1880 
  248.1250   -11.9980     2.4450    74.8550    20.3300    19.9580    28.1450    23.3250 
  248.2500   -11.9820     2.4380    71.2130    19.6040    19.3080    22.8310    23.4910 
  248.3750   -12.0370     2.4570    71.0490    19.6250    19.2170    21.0880    23.6280 
  248.5000   -12.0870     2.4880    70.3310    20.6690    19.9520    25.5460    23.7130 
  248.6250   -12.0970     2.5160    68.0760    22.5650    21.4790    28.5880    23.7410 
  248.7500   -12.0580     2.5270    65.6790    24.5620    23.2670    27.1580    23.7730 
  248.8750   -12.0430     2.5060    64.0170    25.1100    23.9450    30.9640    23.8340 
  249.0000   -12.1200     2.4600    63.8510    23.4860    22.6530    35.7880    23.9090 
  249.1250   -12.2310     2.4040    63.6700    20.1260    19.6940    27.6680    23.8940 
