~V
VERS. 2.00: Ver 2.00
~W
STRT.M 53.0000:
STOP.M 276.0000:
STEP.M 0.1250:
NULL. -999.2500:
UWI. F10245:
~C
DEPT.M :
GR.API :
RML.OHMM :
RI. :
RXO.OHMM :
CALI.CM :
DEN.GM/CC :
SP.MV :
~A
# ...
  221.7500    53.0840   218.4360   203.3420   167.7310    24.4720     2.1400   -16.4060 
  221.8750    53.3430   214.9370   201.4980   181.1020    24.5180     2.1450   -16.1780 
  222.0000    52.9340   208.2090   196.6940   188.1870    24.5320     2.1480   -15.9920 
  222.1250    54.5090   197.3940   188.0600   180.1370    24.5300     2.1500   -15.8250 
  222.2500    55.5310   183.0960   176.0310   163.6430    24.5140     2.1540   -15.6790 
  222.3750    53.4900   166.1010   161.1340   149.3830    24.4750     2.1620   -15.5560 
  222.5000    51.1720   148.3020   144.8750   139.2230    24.4260     2.1750   -15.4270 
  222.6250    53.5270   133.3720   130.4350   129.3620    24.4120     2.1920   -15.3210 
  222.7500    57.5150   124.1170   120.7950   116.1560    24.3930     2.2090   -15.2570 
  222.8750    58.3200   122.3710   118.0950    98.7130    24.3860     2.2200   -15.2080 
  223.0000    56.5380   128.7990   123.3280    84.1730    24.3830     2.2220   -15.1490 
  223.1250    56.1010   143.4950   136.8640    82.3240    24.3810     2.2150   -15.1110 
  223.2500    54.7850   161.6970   154.1600    91.4300    24.3600     2.2050   -15.0800 
  223.3750    50.4140   178.0930   170.0730   104.5320    24.2820     2.1970   -15.0620 
  223.5000    46.4630   186.6530   178.7310   109.3740    24.1220     2.1920   -15.0780 
  223.6250    46.8770   180.7720   173.8110   100.4100    24.0030     2.1870   -15.0970 
  223.7500    48.5330   163.9430   158.3280    93.1140    23.8860     2.1840   -15.0850 
  223.8750    50.3010   142.4740   137.7360    76.3450    23.6880     2.1900   -15.0780 
  224.0000    52.9120   122.7070   117.9710    59.6710    23.3720     2.2100   -15.0310 
  224.1250    56.6240   108.5910   103.3350    50.9080    23.1190     2.2380   -14.9330 
  224.2500    57.8240    99.2030    93.4510    48.4660    22.9510     2.2590   -14.7550 
  224.3750    56.0930    93.5370    87.4050    50.5310    23.0180     2.2620   -14.5170 
  224.5000    54.5210    90.7350    84.2970    54.7330    23.4040     2.2490   -14.2460 
  224.6250    55.1550    90.5750    83.8530    62.0080    23.8440     2.2320   -13.9320 
  224.7500    55.8130    92.2340    85.2290    68.6760    24.1280     2.2310   -13.5760 
  224.8750    54.8290    95.1860    87.9160    74.5200    24.2250     2.2530   -13.2060 
  225.0000    52.4410    98.6290    91.1670    79.3590    24.2320     2.2980   -12.8690 
  225.1250    50.6150   101.1720    93.7020    88.2160    24.1740     2.3470   -12.5860 
  225.2500    50.4780   101.6190    94.3720   100.0500    24.0220     2.3740   -12.3450 
  225.3750    52.8010    99.1930    92.4110   105.1480    23.8350     2.3640   -12.1320 
  225.5000    56.4780    93.7210    87.5970    96.7340    23.8000     2.3240   -11.9250 
  225.6250    59.0120    85.3880    79.9900    91.4370    24.1190     2.2740   -11.7490 
  225.7500    59.6570    75.9300    71.1400    87.7840    24.5330     2.2370   -11.6030 
  225.8750    58.8180    66.8090    62.3920    83.2090    24.7840     2.2200   -11.4530 
  226.0000    58.3630    59.2580    54.9260    78.4100    24.8060     2.2190   -11.2930 
  226.1250    59.8880    54.5050    49.8930    72.9020    24.6590     2.2310   -11.1230 
  226.2500    61.6190    52.4700    47.2560    70.6510    24.4890     2.2430   -10.9890 
  226.3750    62.8120    52.9450    46.9490    68.9000    24.3420     2.2490   -10.9060 
  226.5000    63.9300    55.2250    48.6880    67.0240    24.1910     2.2460   -10.8860 
  226.6250    65.4490    58.9310    52.2040    65.4270    24.1150     2.2350   -10.8810 
  226.7500    66.8340    62.7770    56.5430    63.9120    24.0500     2.2240   -10.9000 
  226.8750    66.2150    66.1170    60.9770    68.2400    23.9410     2.2170   -10.9510 
  227.0000    62.5400    70.0280    64.8580    71.9090    23.8230     2.2160   -11.0170 
  227.1250    59.0900    73.2390    67.7540    70.6140    23.7120     2.2190   -11.0800 
  227.2500    57.8330    75.9600    70.0850    64.8830    23.6290     2.2210   -11.1100 
  227.3750    57.1530    78.8450    72.4150    61.1480    23.6000     2.2190   -11.0840 
  227.5000    55.6750    82.4110    75.2570    62.2440    23.6020     2.2170   -10.9950 
  227.6250    54.8930    86.6330    78.7410    67.2670    23.6270     2.2320   -10.8700 
  227.7500    55.4030    90.4310    82.0660    73.7720    23.7300     2.2690   -10.6850 
  227.8750    56.0920    92.5820    84.2140    82.4170    23.9700     2.3230   -10.4530 
  228.0000    56.3680    92.2010    84.3360    82.8700    24.2820     2.3840   -10.1920 
  228.1250    54.3740    88.8720    81.8060    76.3380    24.4280     2.4450    -9.9080 
  228.2500    50.7900    83.7140    77.3170    74.9590    24.3200     2.5020    -9.6340 
  228.3750    49.5000    76.9670    70.9820    73.8870    23.9840     2.5590    -9.3830 
  228.5000    53.4250    68.1110    62.4450    61.6730    23.6940     2.6120    -9.1500 
  228.6250    59.8480    56.1470    50.9870    52.2230    23.6460     2.6420    -8.9340 
  228.7500    62.9900    42.4760    38.1520    52.3750    23.7590     2.6300    -8.7240 
  228.8750    63.7010    29.4390    26.3080    54.5070    23.8430     2.5750    -8.5320 
  229.0000    65.7850    19.2660    17.4070    42.8460    23.8260     2.4990    -8.3410 
  229.1250    70.4510    13.2880    12.2460    19.6150    23.8120     2.4300    -8.1140 
  229.2500    73.4100    10.1530     9.4140    10.8810    23.9400     2.3870    -7.8720 
  229.3750    74.5690     8.8680     8.0910     8.1790    24.1250     2.3750    -7.6340 
  229.5000    75.2320     8.6200     7.6900     8.3900    24.2390     2.3830    -7.4090 
  229.6250    76.2170     8.8760     7.8620     8.8130    24.2640     2.3970    -7.1890 
  229.7500    79.1190     9.1900     8.2140     8.6660    24.2680     2.4060    -7.0170 
  229.8750    85.3920     9.3830     8.5480     8.4480    24.2660     2.4120    -6.8590 
  230.0000    93.3240     9.4060     8.7550     8.4580    24.2530     2.4190    -6.7220 
  230.1250    98.3050     9.2970     8.8080     8.5850    24.2090     2.4250    -6.6480 
  230.2500    99.1690     9.1650     8.7890     8.6570    24.1560     2.4320    -6.6220 
  230.3750    98.1360     9.0540     8.7430     8.5830    24.1470     2.4330    -6.6240 
  230.5000    95.2590     8.9810     8.6900     8.5240    24.1800     2.4240    -6.6570 
  230.6250    93.6930     8.9500     8.6350     8.5170    24.1900     2.4010    -6.7050 
  230.7500    95.4200     8.9450     8.5760     8.4950    24.1520     2.3710    -6.8110 
  230.8750    97.7470     8.9610     8.5150     8.3960    24.0180     2.3440    -6.9760 
  231.0000    96.1100     8.9980     8.4630     8.1290    23.7340     2.3270    -7.2030 
  231.1250    93.3570     9.0610     8.4400     7.8980    23.4430     2.3240    -7.4840 
  231.2500    93.7610     9.1410     8.4470     7.8390    23.2270     2.3290    -7.8080 
  231.3750    93.8020     9.2290     8.4770     7.8630    23.0990     2.3350    -8.1550 
  231.5000    92.3520     9.3120     8.5160     7.8600    23.0340     2.3430    -8.4930 
  231.6250    94.7670     9.3770     8.5480     7.7730    22.9920     2.3510    -8.8370 
  231.7500   100.1830     9.4270     8.5660     7.6910    22.9780     2.3600    -9.1440 
  231.8750   102.9980     9.4680     8.5670     7.7280    22.9800     2.3650    -9.4100 
  232.0000   102.9440     9.5110     8.5570     7.9440    23.0120     2.3660    -9.6240 
  232.1250   103.2950     9.5680     8.5400     8.2870    23.1290     2.3580    -9.7960 
  232.2500   102.4290     9.6510     8.5270     8.5290    23.3080     2.3410    -9.8940 
  232.3750    98.2140     9.7800     8.5350     8.6000    23.4550     2.3160    -9.9100 
  232.5000    92.5210     9.9820     8.5910     8.5500    23.4740     2.2910    -9.8830 
  232.6250    92.1400    10.2980     8.7350     8.5060    23.3350     2.2830    -9.8470 
  232.7500    95.2670    10.7110     8.9670     8.7980    23.1210     2.3000    -9.8290 
  232.8750    97.4030    11.2050     9.2770     9.4300    22.9110     2.3400    -9.8250 
