~V
VERS. 2.00: Ver 2.00
~W
STRT.M 55.0000:
STOP.M 276.0000:
STEP.M 0.1250:
NULL. -999.2500:
UWI. F10239:
~C
DEPT.M :
SP.MV :
DEN.GM/CC :
GR.API :
RML.OHMM :
RI. :
RXO.OHMM :
CALI.CM :
~A
# ...
  156.2500    -6.1900     2.3030    99.7340     4.7500     3.9200     4.2060    23.6440 
  156.3750    -6.2820     2.3040    99.8380     4.8170     3.9540     4.2210    23.6600 
  156.5000    -6.4490     2.3030    97.5110     5.0330     4.0890     4.3230    23.6440 
  156.6250    -6.6590     2.3000    95.3100     5.3800     4.3300     4.6270    23.6150 
  156.7500    -6.8760     2.2980    94.6800     5.7950     4.6520     5.0860    23.6090 
  156.8750    -7.0960     2.2970    93.4860     6.1670     4.9810     5.6460    23.6890 
  157.0000    -7.3340     2.2950    89.9020     6.4190     5.2500     6.4240    23.8280 
  157.1250    -7.5970     2.2900    86.7000     6.5270     5.4160     7.0070    23.9210 
  157.2500    -7.8860     2.2820    87.7110     6.5570     5.4940     6.6800    23.9450 
  157.3750    -8.1640     2.2720    90.1860     6.6510     5.5740     5.9540    23.9490 
  157.5000    -8.4120     2.2650    91.1640     6.9020     5.7290     5.9070    23.9630 
  157.6250    -8.6420     2.2610    89.9190     7.3360     6.0040     6.4330    24.0120 
  157.7500    -8.8690     2.2590    87.5010     7.9040     6.4030     7.3170    24.0630 
  157.8750    -9.1100     2.2590    84.1590     8.4700     6.8460     8.2300    24.0950 
  158.0000    -9.3660     2.2570    80.5150     8.9370     7.2560     8.7860    24.1030 
  158.1250    -9.6280     2.2510    79.4290     9.2870     7.5850     8.9920    24.1060 
  158.2500    -9.8460     2.2410    80.7920     9.6080     7.8740     9.2000    24.1150 
  158.3750   -10.0290     2.2280    80.4130    10.0830     8.2470     9.5620    24.1660 
  158.5000   -10.2110     2.2120    77.2680    10.8850     8.8510    10.2230    24.3220 
  158.6250   -10.4070     2.1960    74.5990    12.1650     9.8330    11.4940    24.6260 
  158.7500   -10.6170     2.1860    74.9030    14.0250    11.3230    13.6630    24.9920 
  158.8750   -10.8350     2.1850    75.5820    16.3530    13.2640    16.2140    25.2690 
  159.0000   -11.0410     2.1920    76.8280    19.0120    15.5680    19.4980    25.4360 
  159.1250   -11.2150     2.2040    77.8680    21.7640    18.0520    23.3480    25.5690 
  159.2500   -11.3920     2.2220    75.3970    24.2710    20.4380    25.7340    25.6440 
  159.3750   -11.6010     2.2420    69.2150    26.2350    22.4560    26.5640    25.6890 
  159.5000   -11.8380     2.2580    63.6420    27.4120    23.8810    28.2440    25.7220 
  159.6250   -12.0780     2.2620    62.6590    27.6100    24.4950    29.1050    25.7520 
  159.7500   -12.3060     2.2490    63.4060    26.8090    24.1850    27.7480    25.7790 
  159.8750   -12.5110     2.2280    62.2130    25.5100    23.3110    25.2040    25.7980 
  160.0000   -12.7020     2.2120    60.8950    24.2010    22.2680    22.2610    25.8080 
  160.1250   -12.9030     2.2050    62.4940    23.3400    21.4750    20.0080    25.8360 
  160.2500   -13.0970     2.2000    65.2920    23.2400    21.2650    19.5720    25.8830 
  160.3750   -13.2760     2.1950    66.1260    23.7710    21.6310    20.6600    25.9170 
  160.5000   -13.4330     2.1930    66.0400    24.6970    22.4410    22.4440    25.9100 
  160.6250   -13.5690     2.1960    66.9380    25.6990    23.4490    23.5250    25.9050 
  160.7500   -13.6840     2.2030    67.9400    26.4890    24.3810    22.3440    25.9200 
  160.8750   -13.7900     2.2110    67.6240    27.0520    25.1290    20.9020    25.9930 
  161.0000   -13.8960     2.2200    66.3680    27.5800    25.7960    21.0290    26.2920 
  161.1250   -14.0040     2.2310    64.5470    28.3770    26.6270    21.9570    26.9280 
  161.2500   -14.1250     2.2370    63.2210    29.7210    27.8990    23.4040    27.3710 
  161.3750   -14.2360     2.2300    62.9060    31.5690    29.6500    25.2630    26.8830 
  161.5000   -14.3320     2.2110    61.5910    33.7070    31.7490    28.0270    26.1210 
  161.6250   -14.4260     2.1910    58.4940    35.7370    33.8530    30.3210    25.9090 
  161.7500   -14.5330     2.1810    55.7590    37.1790    35.4850    30.7810    26.1160 
  161.8750   -14.6360     2.1810    56.0200    37.8360    36.3820    29.9260    26.2080 
  162.0000   -14.7130     2.1880    58.0500    37.7090    36.4960    28.3680    26.2030 
  162.1250   -14.7460     2.1960    59.9950    36.9710    35.9610    27.1280    26.1860 
  162.2500   -14.7210     2.2010    62.0480    35.9370    35.0560    27.4440    26.1900 
  162.3750   -14.6610     2.2020    62.9810    35.0720    34.2200    28.2980    26.2050 
  162.5000   -14.5810     2.2010    61.7670    34.7160    33.7750    27.5990    26.2230 
  162.6250   -14.5020     2.2020    60.4090    35.0660    33.9330    25.5320    26.2200 
  162.7500   -14.4530     2.2020    60.9610    36.0800    34.7160    25.1730    26.1960 
  162.8750   -14.4320     2.2000    60.6170    37.2290    35.7280    28.7700    26.1670 
  163.0000   -14.4090     2.1980    57.2250    37.9110    36.4740    34.0340    26.1310 
  163.1250   -14.3630     2.1960    53.7110    37.6140    36.4670    34.2910    26.1000 
  163.2500   -14.3100     2.1960    53.7330    36.3250    35.5600    30.3090    26.0730 
  163.3750   -14.2820     2.1990    55.9410    34.9520    34.4070    28.0050    26.0410 
  163.5000   -14.2920     2.2030    58.3520    34.4710    33.8080    28.1970    25.9880 
  163.6250   -14.3290     2.2120    59.7670    35.7250    34.5790    29.5420    25.9280 
  163.7500   -14.3460     2.2310    58.5450    39.0620    37.2810    31.6390    25.8450 
  163.8750   -14.3170     2.2550    55.1170    43.3080    41.1650    35.3830    25.7530 
  164.0000   -14.2660     2.2700    51.2930    46.5290    44.6040    43.1650    25.6670 
  164.1250   -14.2180     2.2660    50.1370    46.3150    45.1840    53.9810    25.5670 
  164.2500   -14.1620     2.2490    53.4100    41.8320    41.3640    55.1000    25.3980 
  164.3750   -14.0830     2.2370    59.2970    36.5770    35.3060    40.1810    25.0830 
  164.5000   -13.9890     2.2390    64.1560    31.1600    29.4080    22.8650    24.6830 
  164.6250   -13.8670     2.2500    65.4280    26.2460    25.0570    14.4080    24.4420 
  164.7500   -13.7300     2.2630    65.2840    23.5850    22.5070    13.2740    24.5280 
  164.8750   -13.5990     2.2800    68.6400    22.1470    21.0030    15.1900    24.9160 
  165.0000   -13.4830     2.3050    75.1760    21.1420    19.9370    17.6910    25.2660 
  165.1250   -13.3780     2.3400    80.8080    19.9140    18.7590    18.4220    25.3790 
  165.2500   -13.2840     2.3690    84.6950    18.1630    17.1660    16.6060    25.2270 
  165.3750   -13.2040     2.3810    88.5500    16.1960    15.3780    14.7000    25.0860 
  165.5000   -13.1330     2.3780    90.7950    14.4450    13.7510    13.6310    25.0220 
  165.6250   -13.0800     2.3690    90.8720    13.3050    12.6180    12.5040    25.0060 
  165.7500   -13.0890     2.3580    90.3140    13.0570    12.2200    10.9820    25.0100 
  165.8750   -13.1760     2.3440    88.8810    13.5830    12.4920    10.9180    25.0180 
  166.0000   -13.3070     2.3270    84.6650    14.6880    13.3250    13.2020    25.0290 
  166.1250   -13.4480     2.3130    79.2460    16.0460    14.5040    17.1380    25.0370 
  166.2500   -13.5840     2.3130    76.9050    17.2470    15.6950    18.9650    25.0240 
  166.3750   -13.7210     2.3230    76.9680    17.9630    16.5330    17.8480    24.9970 
  166.5000   -13.8610     2.3350    77.8870    18.0480    16.7970    16.1420    24.9700 
  166.6250   -14.0170     2.3470    79.6390    17.5440    16.4510    15.9760    24.9600 
  166.7500   -14.1710     2.3600    82.0490    16.6120    15.6180    17.2950    24.9430 
  166.8750   -14.2900     2.3750    83.3790    15.5110    14.5690    17.2680    24.9310 
  167.0000   -14.3930     2.3860    83.2100    14.3950    13.4650    14.8270    24.9220 
  167.1250   -14.5140     2.3880    83.4550    13.4260    12.4670    12.2560    24.9200 
  167.2500   -14.6780     2.3830    83.6250    12.7950    11.7420    11.3550    24.9180 
  167.3750   -14.8730     2.3730    82.4350    12.5830    11.3680    11.2570    24.9110 
