~V
VERS. 2.00: Ver 2.00
~W
STRT.M 56.0000:
STOP.M 284.0000:
STEP.M 0.1250:
NULL. -999.2500:
UWI. F10233:
~C
DEPT.M :
GR.API :
RML.OHMM :
RI. :
RXO.OHMM :
CALI.CM :
DEN.GM/CC :
SP.MV :
~A
# ...
  101.0000    70.5660     8.7380     6.2680     7.2710    24.1580     2.1880   -16.6290 
  101.1250    68.6740     8.6420     6.2490     7.2980    24.1520     2.1840   -16.4850 
  101.2500    67.5940     8.5110     6.2040     7.2030    24.0840     2.1800   -16.3450 
  101.3750    67.3020     8.3830     6.1560     7.0320    23.9320     2.1810   -16.2410 
  101.5000    70.3040     8.3060     6.1220     7.1230    23.7260     2.1850   -16.1220 
  101.6250    74.8550     8.3240     6.1100     7.5050    23.5230     2.1880   -15.9560 
  101.7500    75.4430     8.4060     6.1120     7.6770    23.4420     2.1860   -15.8320 
  101.8750    72.1440     8.5110     6.1190     7.4810    23.4820     2.1790   -15.7460 
  102.0000    69.9010     8.6000     6.1220     7.2440    23.5500     2.1680   -15.6460 
  102.1250    72.1260     8.6480     6.1190     7.3260    23.5330     2.1600   -15.5690 
  102.2500    72.9660     8.6580     6.1140     7.4520    23.3330     2.1540   -15.4790 
  102.3750    70.7420     8.6310     6.1130     7.6090    23.0610     2.1500   -15.3250 
  102.5000    68.3860     8.5680     6.1170     7.6450    22.8800     2.1480   -15.1580 
  102.6250    68.4650     8.4710     6.1190     7.2910    22.8350     2.1500   -15.0620 
  102.7500    69.4630     8.3610     6.1020     7.0660    22.9760     2.1550   -14.9270 
  102.8750    70.9310     8.2590     6.0560     7.0210    23.2380     2.1590   -14.7220 
  103.0000    74.5630     8.1780     5.9900     7.2620    23.4960     2.1590   -14.5420 
  103.1250    79.0310     8.1280     5.9300     7.2270    23.7700     2.1520   -14.4110 
  103.2500    80.1310     8.1080     5.9050     6.9720    24.1500     2.1410   -14.2920 
  103.3750    77.1650     8.1160     5.9220     6.9410    24.5020     2.1300   -14.2100 
  103.5000    73.7740     8.1470     5.9720     7.1370    24.7220     2.1250   -14.1400 
  103.6250    74.7330     8.1890     6.0280     7.1330    24.7980     2.1270   -13.9690 
  103.7500    76.7940     8.2030     6.0610     7.0590    24.8510     2.1350   -13.7860 
  103.8750    77.0710     8.1440     6.0490     7.0170    24.8470     2.1490   -13.6300 
  104.0000    76.3490     7.9840     5.9760     7.0340    24.7110     2.1740   -13.3950 
  104.1250    75.8210     7.7480     5.8470     7.0950    24.4080     2.2080   -13.0640 
  104.2500    73.7940     7.5510     5.7240     7.0090    24.2250     2.2350   -12.7390 
  104.3750    71.5920     7.4770     5.6600     6.5800    24.1520     2.2470   -12.4140 
  104.5000    73.0360     7.5460     5.6780     6.3950    24.1100     2.2500   -12.0710 
  104.6250    75.5470     7.6750     5.7400     6.2770    24.0420     2.2550   -11.7570 
  104.7500    73.6440     7.6880     5.7430     7.4450    23.9070     2.2660   -11.4460 
  104.8750    71.4000     7.4620     5.6010     8.0770    23.6970     2.2820   -11.1570 
  105.0000    73.7750     6.9910     5.2970     7.0350    23.6010     2.2950   -10.9610 
  105.1250    79.6900     6.4400     4.9220     5.2320    23.8710     2.2990   -10.8890 
  105.2500    85.1860     6.0710     4.6400     4.5530    24.0040     2.2900   -10.9090 
  105.3750    88.4870     6.0430     4.5610     4.5450    23.9680     2.2670   -11.0340 
  105.5000    88.3350     6.4070     4.7400     4.9790    23.7930     2.2350   -11.2970 
  105.6250    83.4830     7.1340     5.1980     5.8180    23.5360     2.2090   -11.7150 
  105.7500    76.9910     7.9600     5.7900     6.8540    23.3180     2.1970   -12.2270 
  105.8750    70.7410     8.6580     6.3670     7.3540    23.1980     2.1870   -12.8040 
  106.0000    65.8640     9.0650     6.7860     7.2220    23.2860     2.1670   -13.3660 
  106.1250    63.9570     9.1310     6.9480     7.2070    23.5910     2.1370   -13.8570 
  106.2500    62.6600     9.0390     6.9350     7.2890    23.9570     2.1100   -14.2910 
  106.3750    60.8410     8.9220     6.8380     7.3910    24.2120     2.0920   -14.6370 
  106.5000    60.1060     8.8790     6.7420     7.5240    24.3200     2.0830   -14.8430 
  106.6250    60.1650     8.9910     6.7260     7.5960    24.3570     2.0830   -14.8720 
  106.7500    60.3570     9.2660     6.8210     7.5990    24.4000     2.1070   -14.7880 
  106.8750    61.6220     9.7020     7.0440     7.5570    24.4350     2.1680   -14.6270 
  107.0000    63.6370    10.2430     7.3790     7.5060    24.3990     2.2580   -14.4100 
  107.1250    66.3300    10.7280     7.7480     7.4880    24.2660     2.3200   -14.2180 
  107.2500    68.7880    10.9790     8.0150     7.5640    24.0350     2.3130   -14.0750 
  107.3750    70.1890    10.9190     8.0920     7.4450    23.7620     2.2590   -13.9630 
  107.5000    70.4170    10.6070     7.9760     7.3680    23.6310     2.2070   -13.8550 
  107.6250    70.1210    10.1990     7.7480     7.4720    23.6860     2.1860   -13.7630 
  107.7500    69.1880     9.8490     7.5300     7.7480    23.7880     2.1850   -13.7270 
  107.8750    66.1780     9.5750     7.3620     8.0920    23.8450     2.1900   -13.7090 
  108.0000    64.0080     9.3210     7.2220     8.2640    23.8790     2.1950   -13.6840 
  108.1250    66.9530     9.0050     7.0400     7.9330    23.9240     2.1960   -13.5680 
  108.2500    70.6990     8.6150     6.7850     7.3050    23.9800     2.1930   -13.3300 
  108.3750    71.4450     8.1950     6.4700     6.5410    23.9630     2.1900   -12.9920 
  108.5000    69.6560     7.8040     6.1410     5.9010    23.8220     2.1890   -12.6160 
  108.6250    69.7940     7.5000     5.8530     5.9240    23.5610     2.1930   -12.2730 
  108.7500    74.3430     7.2640     5.6210     5.9160    23.2260     2.2060   -11.8840 
  108.8750    80.5290     7.0630     5.4340     5.8090    22.8970     2.2270   -11.4630 
  109.0000    85.3400     6.8620     5.2650     5.5840    22.6070     2.2530   -11.1090 
  109.1250    86.4880     6.6470     5.0890     5.4440    22.6100     2.2680   -10.8730 
  109.2500    87.1210     6.4390     4.9060     5.3900    22.9260     2.2640   -10.7980 
  109.3750    88.4390     6.2770     4.7410     5.3170    23.3970     2.2470   -10.8740 
  109.5000    87.7750     6.2160     4.6360     5.0690    23.8330     2.2300   -11.0480 
  109.6250    86.1980     6.3340     4.6700     4.8890    24.1270     2.2250   -11.3080 
  109.7500    84.8180     6.6370     4.8620     5.0390    24.2430     2.2280   -11.7570 
  109.8750    82.8650     7.1170     5.2150     5.4370    24.2250     2.2300   -12.3880 
  110.0000    79.0520     7.7150     5.6890     6.1020    24.1610     2.2210   -13.0570 
  110.1250    73.4100     8.3060     6.1930     7.1040    24.0800     2.1970   -13.7850 
  110.2500    67.5480     8.7570     6.6150     7.8380    23.9990     2.1690   -14.5250 
  110.3750    63.2490     9.0070     6.8910     8.0470    23.9930     2.1470   -15.2100 
  110.5000    61.2910     9.0810     7.0180     7.9470    24.0140     2.1340   -15.8100 
  110.6250    62.1770     9.0620     7.0310     7.9260    24.0600     2.1330   -16.2950 
  110.7500    61.9990     9.0590     7.0090     7.9850    24.0630     2.1350   -16.6250 
  110.8750    60.8660     9.1050     6.9880     8.0200    24.0690     2.1370   -16.7990 
  111.0000    61.5040     9.1750     6.9730     8.0080    24.1440     2.1370   -16.8840 
  111.1250    63.8540     9.1990     6.9430     8.1610    24.2420     2.1310   -16.8090 
  111.2500    66.4500     9.1300     6.8710     8.2570    24.3420     2.1230   -16.6040 
  111.3750    68.9570     8.9540     6.7410     8.0820    24.3650     2.1160   -16.3240 
  111.5000    71.0020     8.6840     6.5480     7.8360    24.3150     2.1150   -15.9690 
  111.6250    72.3100     8.3680     6.3100     7.5520    24.2180     2.1240   -15.5520 
  111.7500    72.7060     8.0900     6.0830     7.4210    24.1350     2.1460   -15.1390 
  111.8750    73.5930     7.9050     5.9090     7.5060    23.9870     2.1770   -14.7260 
  112.0000    75.1780     7.8390     5.8160     7.6270    23.7610     2.2020   -14.2720 
  112.1250    75.7180     7.9130     5.8310     7.7900    23.5960     2.2110   -13.8710 
