~V
VERS. 2.00: Ver 2.00
~W
STRT.M 50.0000:
STOP.M 281.0000:
STEP.M 0.1250:
NULL. -999.2500:
UWI. F10234:
~C
DEPT.M :
DEN.GM/CC :
GR.API :
RML.OHMM :
RI. :
RXO.OHMM :
CALI.CM :
SP.MV :
~A
# ...
  173.7500     2.1700    51.2260   161.9550   148.6690   105.5790    24.6710    -6.5150 
  173.8750     2.1810    52.4960   161.3910   148.8560   103.9210    24.6710    -6.6060 
  174.0000     2.1900    51.5420   162.7570   150.3540    94.6000    24.6700    -6.7380 
  174.1250     2.1900    50.2170   167.8550   154.8330    87.6340    24.6700    -6.8510 
  174.2500     2.1840    49.6150   175.9350   161.8900    98.1470    24.6700    -6.9550 
  174.3750     2.1800    49.8950   185.3680   170.2290   141.8860    24.6700    -7.0450 
  174.5000     2.1820    50.5070   193.4310   177.5340   187.2640    24.6710    -7.0980 
  174.6250     2.1900    51.1010   195.4330   179.7430   172.1350    24.6720    -7.0980 
  174.7500     2.1990    51.6350   189.5930   175.0900   163.8320    24.6730    -7.1110 
  174.8750     2.2050    51.2200   176.6800   163.8890   196.3250    24.6740    -7.1230 
  175.0000     2.2090    50.3040   160.2210   148.9510   202.0350    24.6760    -7.0740 
  175.1250     2.2130    52.0200   145.0170   134.5260   161.7430    24.6770    -6.9580 
  175.2500     2.2170    55.2120   133.6950   123.3790   109.5440    24.6780    -6.7900 
  175.3750     2.2200    55.2020   126.9150   116.3060    92.3860    24.6790    -6.5770 
  175.5000     2.2190    50.9860   124.4500   113.1980    96.0170    24.6780    -6.3540 
  175.6250     2.2160    46.7480   126.1550   114.0380   106.9830    24.6750    -6.1710 
  175.7500     2.2130    44.3440   130.3750   117.3740   111.4440    24.6700    -5.9750 
  175.8750     2.2110    43.8910   135.9870   122.1910   113.6010    24.6540    -5.7800 
  176.0000     2.2090    46.6390   141.8820   127.4420   116.9720    24.6270    -5.6460 
  176.1250     2.2010    51.8360   146.6450   131.8640   124.7500    24.5840    -5.4990 
  176.2500     2.1930    54.9170   149.0280   134.3610   138.4700    24.5190    -5.3680 
  176.3750     2.1880    53.8540   147.7920   133.8810   147.5330    24.4220    -5.2600 
  176.5000     2.1900    50.5330   142.3070   129.8230   147.8760    24.2940    -5.1330 
  176.6250     2.2020    49.8310   132.7870   122.1630   138.2800    24.1440    -5.0540 
  176.7500     2.2170    52.4640   121.8290   112.9780   123.2550    23.9890    -4.9870 
  176.8750     2.2290    55.1950   111.2700   103.8590   103.7980    23.8350    -4.9010 
  177.0000     2.2360    56.5920   102.1620    95.8380    89.7470    23.6890    -4.8580 
  177.1250     2.2380    57.2060    94.9100    89.4030    81.4450    23.5590    -4.8930 
  177.2500     2.2400    57.8410    88.9840    84.1410    74.4160    23.4460    -4.9290 
  177.3750     2.2430    57.7060    84.2810    79.9430    67.7820    23.3440    -5.0050 
  177.5000     2.2470    56.8660    80.9400    76.9020    60.5920    23.2420    -5.0600 
  177.6250     2.2490    56.2230    79.5200    75.5040    57.2410    23.1260    -5.0840 
  177.7500     2.2460    55.4530    79.8340    75.6300    56.3890    23.0050    -5.1120 
  177.8750     2.2370    55.8200    81.6220    77.0810    61.4180    22.8910    -5.1250 
  178.0000     2.2270    57.3190    84.4080    79.4240    66.6570    22.7880    -5.1210 
  178.1250     2.2210    59.1760    87.8000    82.2450    72.1650    22.7010    -5.0920 
  178.2500     2.2230    59.6690    91.6350    85.3220    70.5490    22.6380    -5.0630 
  178.3750     2.2320    58.9320    96.3420    88.9810    66.9480    22.6070    -4.9970 
  178.5000     2.2400    57.0270   102.6780    93.9080    67.1970    22.6090    -4.9320 
  178.6250     2.2380    54.1680   111.7810   101.2770    78.2060    22.6440    -4.8630 
  178.7500     2.2270    52.4140   123.2080   110.9380    98.0810    22.6940    -4.7670 
  178.8750     2.2120    52.9020   135.8640   122.0810   111.5170    22.7540    -4.6890 
  179.0000     2.2010    54.4630   147.8950   133.1150   107.4770    22.8250    -4.6260 
  179.1250     2.1960    54.1670   156.6650   141.7380   118.0300    22.9120    -4.5870 
  179.2500     2.1940    52.9920   161.0110   146.8310   132.9020    23.0170    -4.5470 
  179.3750     2.1910    52.8380   159.7890   147.3960   134.5890    23.1300    -4.5580 
  179.5000     2.1860    53.0280   152.0710   142.5500   118.6690    23.2410    -4.5840 
  179.6250     2.1810    51.7310   136.7740   130.9190   114.1390    23.3480    -4.6050 
  179.7500     2.1760    48.7260   116.8090   114.3960   111.8700    23.4460    -4.7120 
  179.8750     2.1760    45.9840    95.0720    95.1040   100.4010    23.5280    -4.8600 
  180.0000     2.1850    46.7360    74.6060    75.8810    69.1580    23.5760    -4.9440 
  180.1250     2.2120    52.4050    58.6170    60.2180    51.3660    23.5700    -5.0520 
  180.2500     2.2490    58.7210    47.6660    49.2050    39.7750    23.5240    -5.1730 
  180.3750     2.2830    61.8070    42.0510    43.1710    29.6500    23.4590    -5.2610 
  180.5000     2.2990    60.8040    42.0730    42.3290    22.5130    23.3880    -5.3950 
  180.6250     2.2860    58.4540    49.4610    48.5220    24.5570    23.3190    -5.5310 
  180.7500     2.2580    57.2860    63.9080    62.0180    42.9880    23.2580    -5.6610 
  180.8750     2.2270    57.5680    85.3030    83.1940    81.0880    23.2130    -5.7720 
  181.0000     2.2000    59.3840   111.1330   109.5500   121.6600    23.1910    -5.8780 
  181.1250     2.1850    58.8090   132.8110   131.7310   123.4790    23.2260    -5.9720 
  181.2500     2.1820    55.6330   141.8920   140.5900   130.4830    23.3420    -6.0610 
  181.3750     2.1880    54.1100   138.3210   135.8990   140.4340    23.5290    -6.1720 
  181.5000     2.1990    57.4390   129.7370   125.1670   114.9980    23.7480    -6.2680 
  181.6250     2.2040    62.4520   125.3490   117.5140    81.2150    23.9960    -6.3510 
  181.7500     2.2010    62.5600   128.6070   116.8210    74.0970    24.2420    -6.4150 
  181.8750     2.1930    59.4660   140.0990   123.8670   115.1780    24.4420    -6.4610 
  182.0000     2.1860    56.0980   158.4660   137.4460   177.4570    24.5480    -6.4820 
  182.1250     2.1860    54.1660   179.9000   154.2640   189.7100    24.5170    -6.4860 
  182.2500     2.1900    53.2070   197.4990   168.4910   174.4880    24.3770    -6.5000 
  182.3750     2.1930    52.2610   206.2550   176.1060   163.7200    24.1820    -6.4820 
  182.5000     2.1930    52.2410   205.0670   176.0440   161.2720    23.9850    -6.4450 
  182.6250     2.1940    54.7230   196.3840   169.8470   159.3020    23.8120    -6.3800 
  182.7500     2.1960    57.2520   185.4010   161.4940   158.5530    23.6670    -6.3020 
  182.8750     2.1970    57.2230   174.2830   152.6810   151.4660    23.5870    -6.2560 
  183.0000     2.1930    56.7620   164.3000   144.4430   130.7260    23.5760    -6.2560 
  183.1250     2.1870    58.6470   156.5960   137.7760   112.4310    23.6020    -6.2580 
  183.2500     2.1840    58.7910   151.3060   132.9700   109.0820    23.6360    -6.3140 
  183.3750     2.1890    55.9410   148.6860   130.3220   120.6700    23.6690    -6.3750 
  183.5000     2.1990    53.7950   148.8180   129.9580   130.2860    23.7030    -6.4390 
  183.6250     2.2050    54.5350   151.8510   132.0190   118.3320    23.7530    -6.5830 
  183.7500     2.2020    54.9220   156.8110   135.6910   115.5270    23.8090    -6.6960 
  183.8750     2.1930    55.5970   162.9850   140.4130   137.2020    23.8460    -6.7860 
  184.0000     2.1830    57.1370   169.5800   145.5560   161.6130    23.8470    -6.9030 
  184.1250     2.1740    55.6760   176.1020   150.6850   156.0760    23.8030    -6.9890 
  184.2500     2.1630    52.3120   182.8640   155.9820   141.5370    23.7260    -7.0370 
  184.3750     2.1540    52.8060   190.5100   161.9340   147.7920    23.6230    -7.0860 
  184.5000     2.1500    58.0100   199.4050   168.8520   151.3610    23.5020    -7.1290 
  184.6250     2.1600    59.9690   208.6940   176.1900   148.4980    23.3700    -7.0800 
  184.7500     2.1810    58.1400   215.2150   181.6120   158.8120    23.2360    -7.0770 
  184.8750     2.2040    56.2050   214.8870   181.9750   178.0640    23.1200    -7.0830 
