~V
VERS. 2.00: Ver 2.00
~W
STRT.M 40.0000:
STOP.M 276.0000:
STEP.M 0.1250:
NULL. -999.2500:
UWI. F10236:
~C
DEPT.M :
SP.MV :
GR.API :
RML.OHMM :
RI. :
RXO.OHMM :
CALI.CM :
DEN.GM/CC :
~A
# ...
  141.2500    -9.7870    83.5820    10.5470     9.4710    10.3040    25.3080     2.4900 
  141.3750    -9.5900    86.3140     9.3480     8.3410     8.1470    25.8180     2.5010 
  141.5000    -9.3930    88.2970     8.3890     7.4100     7.3030    25.6950     2.4970 
  141.6250    -9.2290    89.3700     7.5950     6.6340     7.4830    25.2960     2.4710 
  141.7500    -9.0740    90.5130     6.8600     5.9360     7.3240    25.1580     2.4380 
  141.8750    -8.9560    91.9030     6.1700     5.3030     6.4500    25.2450     2.4090 
  142.0000    -8.8600    93.3560     5.5680     4.7500     5.4940    25.3640     2.3880 
  142.1250    -8.7750    92.6140     5.1390     4.3290     5.0020    25.3490     2.3710 
  142.2500    -8.7310    90.2850     4.8840     4.0440     4.8810    25.2640     2.3590 
  142.3750    -8.6810    88.2760     4.7760     3.8870     4.9040    25.2180     2.3530 
  142.5000    -8.6690    87.5560     4.7610     3.8240     4.9860    25.1650     2.3530 
  142.6250    -8.6640    87.8120     4.7770     3.8110     5.0600    25.1300     2.3570 
  142.7500    -8.6770    87.8360     4.7890     3.8110     5.0310    25.0980     2.3630 
  142.8750    -8.6990    87.7460     4.7970     3.8160     4.9200    25.1030     2.3680 
  143.0000    -8.7400    88.1660     4.8130     3.8310     4.8510    25.1230     2.3700 
  143.1250    -8.7900    88.2390     4.8530     3.8610     4.8570    25.1870     2.3700 
  143.2500    -8.8310    87.0980     4.9200     3.8980     5.0020    25.1530     2.3710 
  143.3750    -8.8800    87.9460     5.0030     3.9320     5.1950    25.1030     2.3720 
  143.5000    -8.9090    94.7290     5.0840     3.9550     5.2520    25.0490     2.3720 
  143.6250    -8.9450   102.9380     5.1390     3.9580     5.2280    25.0880     2.3690 
  143.7500    -8.9630   106.1810     5.1610     3.9380     5.2920    25.2530     2.3640 
  143.8750    -8.9900   105.1760     5.1490     3.8950     5.3350    25.5340     2.3570 
  144.0000    -9.0050   102.7700     5.1130     3.8360     5.2010    25.8260     2.3480 
  144.1250    -9.0380    98.8500     5.0740     3.7790     4.9850    25.9690     2.3390 
  144.2500    -9.0770    95.5450     5.0600     3.7420     4.8190    25.8600     2.3320 
  144.3750    -9.1250    95.5970     5.0950     3.7350     4.7170    25.7460     2.3260 
  144.5000    -9.1800    96.9050     5.1960     3.7640     4.7510    25.6320     2.3230 
  144.6250    -9.2280    95.1490     5.3600     3.8320     4.9260    25.4470     2.3230 
  144.7500    -9.2890    92.9200     5.5400     3.9240     5.1450    25.1830     2.3230 
  144.8750    -9.3490    92.6400     5.6970     4.0220     5.3810    25.0240     2.3200 
  145.0000    -9.3790    93.0500     5.8030     4.1020     5.5700    24.9550     2.3160 
  145.1250    -9.3860    89.9270     5.8400     4.1380     5.6560    24.9010     2.3140 
  145.2500    -9.3540    86.0400     5.8410     4.1300     5.7450    24.8690     2.3150 
  145.3750    -9.2980    85.1640     5.8250     4.0880     5.9810    24.8230     2.3170 
  145.5000    -9.2250    86.3800     5.7950     4.0280     6.3290    24.7790     2.3220 
  145.6250    -9.1400    85.6570     5.7300     3.9560     6.2260    24.7540     2.3250 
  145.7500    -9.0440    84.4950     5.6160     3.8680     5.5420    24.7160     2.3240 
  145.8750    -8.9420    86.7180     5.4590     3.7610     5.1300    24.6360     2.3190 
  146.0000    -8.8560    90.7610     5.2890     3.6430     4.9080    24.5220     2.3090 
  146.1250    -8.7890    92.3300     5.1530     3.5410     4.7560    24.3720     2.2980 
  146.2500    -8.7520    91.0380     5.0730     3.4720     4.6890    24.3580     2.2890 
  146.3750    -8.7240    88.7590     5.0420     3.4430     4.6780    24.5230     2.2860 
  146.5000    -8.7020    87.8290     5.0420     3.4370     4.7270    24.7430     2.2870 
  146.6250    -8.7030    89.8380     5.0440     3.4370     4.7370    25.0070     2.2910 
  146.7500    -8.7040    91.2460     5.0330     3.4320     4.7040    25.2220     2.2980 
  146.8750    -8.7100    88.6030     5.0190     3.4260     4.6570    25.2900     2.3030 
  147.0000    -8.7180    84.4610     5.0170     3.4240     4.6480    25.1930     2.3060 
  147.1250    -8.7250    85.1220     5.0360     3.4300     4.7060    25.1430     2.3100 
  147.2500    -8.7300    88.5660     5.0700     3.4400     4.7250    25.1390     2.3200 
  147.3750    -8.7380    92.1290     5.1130     3.4530     4.7400    25.0030     2.3350 
  147.5000    -8.7470    94.5510     5.1600     3.4710     4.7890    24.9020     2.3420 
  147.6250    -8.7420    95.7680     5.2060     3.4910     4.9000    24.9810     2.3390 
  147.7500    -8.7460    96.3650     5.2400     3.5020     4.9840    25.1090     2.3320 
  147.8750    -8.7500    97.2580     5.2460     3.4970     5.0360    25.1330     2.3260 
  148.0000    -8.7630    98.2000     5.2210     3.4770     5.1130    25.0900     2.3220 
  148.1250    -8.7750    96.4000     5.1810     3.4530     5.1440    25.0590     2.3180 
  148.2500    -8.7990    93.2480     5.1560     3.4400     5.0380    25.0820     2.3210 
  148.3750    -8.8230    91.1810     5.1540     3.4390     4.9340    25.1770     2.3310 
  148.5000    -8.8530    91.8870     5.1620     3.4420     4.9170    25.1200     2.3460 
  148.6250    -8.8830    94.5640     5.1430     3.4280     5.2120    25.1870     2.3580 
  148.7500    -8.9070    97.5180     5.0740     3.3860     5.2840    25.4670     2.3620 
  148.8750    -8.9350   100.7450     4.9600     3.3210     4.9960    25.7130     2.3550 
  149.0000    -8.9670   102.5140     4.8340     3.2450     4.7140    25.5210     2.3400 
  149.1250    -9.0000    99.1370     4.7440     3.1830     4.6060    25.2580     2.3250 
  149.2500    -9.0270    93.3360     4.7130     3.1470     4.5690    25.1500     2.3130 
  149.3750    -9.0400    91.1140     4.7390     3.1400     4.6180    25.1750     2.3040 
  149.5000    -9.0570    93.7970     4.8010     3.1530     4.6940    25.2450     2.3010 
  149.6250    -9.0530    97.4580     4.8650     3.1740     4.6820    25.2610     2.3050 
  149.7500    -9.0620   100.3880     4.9080     3.1900     4.6440    25.2440     2.3090 
  149.8750    -9.0700   102.3270     4.9130     3.1920     4.6290    25.2550     2.3130 
  150.0000    -9.0790   101.6380     4.8750     3.1730     4.6210    25.3570     2.3170 
  150.1250    -9.0860    98.1190     4.7920     3.1290     4.5290    25.4010     2.3220 
  150.2500    -9.0930    95.0870     4.6940     3.0720     4.4590    25.4040     2.3290 
  150.3750    -9.1050    94.6570     4.6080     3.0220     4.4170    25.3990     2.3390 
  150.5000    -9.1260    94.5210     4.5600     2.9980     4.4120    25.3670     2.3490 
  150.6250    -9.1730    89.9330     4.5690     3.0120     4.4210    25.2220     2.3550 
  150.7500    -9.2200    83.9890     4.6140     3.0510     4.4470    25.0290     2.3550 
  150.8750    -9.2660    83.2590     4.6740     3.0960     4.4530    24.8570     2.3490 
  151.0000    -9.3250    89.0120     4.7240     3.1300     4.4380    24.7710     2.3430 
  151.1250    -9.3750    94.3640     4.7500     3.1440     4.4360    24.7300     2.3380 
  151.2500    -9.4310    95.2530     4.7500     3.1430     4.4570    24.7490     2.3340 
  151.3750    -9.4830    92.9410     4.7290     3.1320     4.4830    24.7690     2.3310 
  151.5000    -9.5310    90.1780     4.6920     3.1120     4.4850    24.8120     2.3300 
  151.6250    -9.5530    89.5810     4.6460     3.0850     4.4360    24.9500     2.3310 
  151.7500    -9.5760    91.5740     4.6120     3.0610     4.3790    25.2000     2.3320 
  151.8750    -9.6030    95.1050     4.6170     3.0580     4.3630    25.3790     2.3320 
  152.0000    -9.6330    96.4950     4.6830     3.0890     4.4160    25.4020     2.3300 
  152.1250    -9.6770    93.9250     4.8120     3.1650     4.4860    25.2790     2.3240 
  152.2500    -9.7170    91.5980     4.9670     3.2660     4.7340    25.1520     2.3170 
  152.3750    -9.7630    92.8120     5.1210     3.3850     5.1300    25.0810     2.3120 
