~V
VERS. 2.00: Ver 2.00
~W
STRT.M 55.0000:
STOP.M 274.0000:
STEP.M 0.1250:
NULL. -999.2500:
UWI. F10255:
~C
DEPT.M :
GR.API :
RML.OHMM :
RI. :
RXO.OHMM :
CALI.CM :
DEN.GM/CC :
SP.MV :
~A
# ...
   77.5000    60.5530     9.2460     7.3530    10.1400    25.0330     2.2150    -8.8370 
   77.6250    63.3340     9.1030     7.1820    10.1810    25.0260     2.2240    -8.7380 
   77.7500    63.4410     9.0580     7.0940     9.7690    24.9960     2.2160    -8.6480 
   77.8750    61.2330     9.1180     7.1090     9.2230    24.9580     2.1860    -8.5990 
   78.0000    58.6350     9.2800     7.2260     9.3650    24.9430     2.1450    -8.5870 
   78.1250    57.7540     9.5070     7.4170     9.8070    24.9730     2.1120    -8.5580 
   78.2500    58.0280     9.7130     7.5950    10.4340    25.0510     2.1020    -8.5470 
   78.3750    57.6440     9.8300     7.7020    10.8890    25.1340     2.1170    -8.5370 
   78.5000    55.7000     9.8440     7.7240    11.0260    25.1770     2.1560    -8.4650 
   78.6250    53.4520     9.8090     7.7070    10.5670    25.1640     2.2150    -8.3810 
   78.7500    54.4340     9.8230     7.7330    10.1530    25.1120     2.2770    -8.3400 
   78.8750    56.9510     9.9300     7.8380    10.0750    25.0120     2.3240    -8.2940 
   79.0000    58.3090    10.1030     8.0050    10.7470    24.8950     2.3410    -8.1960 
   79.1250    58.7560    10.2440     8.1550    11.9430    24.8440     2.3180    -8.1170 
   79.2500    59.2560    10.2790     8.2230    12.1750    25.0160     2.2750    -8.0560 
   79.3750    57.9640    10.2100     8.2050    11.2500    25.1470     2.2300    -8.0000 
   79.5000    54.0900    10.1040     8.1470    10.4750    25.1860     2.1940    -7.9710 
   79.6250    51.7750    10.0550     8.1260    10.4580    25.1860     2.1700    -7.9200 
   79.7500    53.0790    10.0680     8.1650    10.5440    25.1860     2.1530    -7.7450 
   79.8750    56.2280    10.0470     8.2020    10.6370    25.1920     2.1430    -7.4690 
   80.0000    58.2930     9.8470     8.1110    10.7410    25.2230     2.1460    -7.1590 
   80.1250    59.1440     9.3290     7.7430    10.5340    25.3030     2.1690    -6.7790 
   80.2500    62.0740     8.6100     7.1720     9.6950    25.3770     2.2080    -6.2560 
   80.3750    68.4060     7.8600     6.5330     8.1930    25.3800     2.2500    -5.6220 
   80.5000    75.9070     7.2600     5.9860     6.6560    25.3010     2.2810    -5.0350 
   80.6250    82.1350     6.9830     5.6980     6.2670    25.1720     2.2840    -4.5530 
   80.7500    87.5410     7.0220     5.6840     6.5210    25.0420     2.2660    -4.1440 
   80.8750    90.0460     7.3310     5.9220     7.0360    24.9380     2.2390    -3.7850 
   81.0000    86.4010     7.7930     6.3310     7.5080    24.8390     2.2150    -3.4850 
   81.1250    77.2800     8.1990     6.7570     7.6680    24.6630     2.2090    -3.2650 
   81.2500    73.5640     8.3710     7.0350     7.7090    24.4410     2.2180    -3.1030 
   81.3750    77.7800     8.2550     7.0810     7.4630    24.2590     2.2380    -2.9960 
   81.5000    82.7320     7.9140     6.8980     6.9670    24.1690     2.2630    -2.8800 
   81.6250    82.7310     7.5040     6.5610     6.5910    24.1270     2.2870    -2.7110 
   81.7500    82.0270     7.1860     6.2290     6.3810    24.0730     2.3010    -2.5510 
   81.8750    85.5080     7.0290     5.9930     6.1750    24.0200     2.2990    -2.4500 
   82.0000    90.6600     7.0250     5.8800     5.7320    23.9940     2.2840    -2.4040 
   82.1250    91.1920     7.0850     5.8520     6.1420    23.9690     2.2660    -2.4390 
   82.2500    86.1110     7.0530     5.7860     7.3610    23.9720     2.2580    -2.5810 
   82.3750    81.5540     6.8360     5.5910     8.1740    24.0980     2.2640    -2.7690 
   82.5000    84.9100     6.4630     5.2670     7.0420    24.3200     2.2780    -2.9660 
   82.6250    93.2040     6.1100     4.9490     5.9390    24.5140     2.2870    -3.2270 
   82.7500    95.9260     5.9910     4.8260     5.7010    24.5960     2.2960    -3.5240 
   82.8750    91.3200     6.2790     5.0590     6.0620    24.5740     2.3180    -3.8170 
   83.0000    83.4300     7.1530     5.8240     7.4370    24.4950     2.3700    -4.1380 
   83.1250    75.6360     9.0580     7.5050    12.3870    24.4180     2.4630    -4.5100 
   83.2500    69.5090    12.1150    10.1750    21.8150    24.3900     2.5720    -4.9310 
   83.3750    66.0480    16.0130    13.6720    30.0370    24.3010     2.6650    -5.4300 
   83.5000    65.3660    19.5210    17.1180    31.2950    24.1300     2.7070    -6.0240 
   83.6250    64.9940    20.5510    18.5250    36.7660    24.0800     2.6660    -6.7350 
   83.7500    62.6860    19.0500    17.4750    36.2230    24.1950     2.5670    -7.5370 
   83.8750    58.5360    16.1760    14.9720    24.3620    24.4410     2.4460    -8.3770 
   84.0000    54.8320    13.3640    12.3280    14.3130    24.7920     2.3430    -9.1850 
   84.1250    55.1150    11.5170    10.3720    11.5430    25.2220     2.2850    -9.9470 
   84.2500    57.4460    10.4840     9.1130    10.9260    25.5080     2.2550   -10.6470 
   84.3750    60.1680    10.0490     8.4350    10.8100    25.6630     2.2330   -11.2700 
   84.5000    62.4260     9.9930     8.1830    10.5900    25.5940     2.2020   -11.8100 
   84.6250    61.4060    10.1150     8.2020    10.5470    25.2620     2.1640   -12.2340 
   84.7500    57.4400    10.2300     8.2920    10.4180    24.8670     2.1320   -12.5120 
   84.8750    54.9150    10.2850     8.3760    10.2620    24.5780     2.1170   -12.7120 
   85.0000    56.6550    10.2950     8.4340    10.3570    24.5330     2.1220   -12.8840 
   85.1250    58.0430    10.2910     8.4700    10.6300    24.7440     2.1480   -12.9760 
   85.2500    56.3210    10.2900     8.4890    10.7960    24.9700     2.1830   -13.0300 
   85.3750    54.7810    10.2920     8.4890    10.7270    25.0010     2.2160   -13.0760 
   85.5000    54.9310    10.2930     8.4700    10.6060    24.9480     2.2340   -13.1220 
   85.6250    55.9740    10.2770     8.4200    10.3890    24.9740     2.2250   -13.1330 
   85.7500    57.4220    10.2170     8.3280    10.1580    24.9270     2.2000   -13.1130 
   85.8750    59.9470    10.0850     8.1780    10.1720    24.7930     2.1740   -13.0520 
   86.0000    61.7110     9.8710     7.9690    10.3400    24.7170     2.1620   -12.9570 
   86.1250    62.7570     9.6110     7.7320    10.4190    24.7400     2.1650   -12.8640 
   86.2500    65.3170     9.3880     7.5270    10.2020    24.7570     2.1700   -12.8110 
   86.3750    67.0900     9.2750     7.4100     9.6590    24.7200     2.1670   -12.7850 
   86.5000    64.8680     9.3190     7.4200     9.1990    24.6130     2.1570   -12.7370 
   86.6250    59.9420     9.5450     7.5890    10.0700    24.5040     2.1500   -12.6900 
   86.7500    56.1690     9.8710     7.8520    10.5890    24.5410     2.1550   -12.7310 
   86.8750    54.2220    10.2000     8.1340    10.7560    24.7270     2.1750   -12.8280 
   87.0000    53.5440    10.4230     8.3450    10.5270    24.9250     2.2030   -12.8780 
   87.1250    55.8680    10.4100     8.3730    10.3460    25.0600     2.2240   -12.8760 
   87.2500    59.4000    10.1820     8.2170    10.1120    25.0670     2.2330   -12.8600 
   87.3750    61.2420     9.8030     7.9230     9.7980    24.7830     2.2290   -12.7880 
   87.5000    61.9440     9.3830     7.5740     9.6500    24.5550     2.2190   -12.6280 
   87.6250    62.9600     9.0570     7.2750     9.4060    24.5240     2.2080   -12.4190 
   87.7500    63.4400     8.8860     7.0860     8.6820    24.4450     2.2000   -12.1940 
   87.8750    63.5620     8.8840     7.0300     7.8280    24.1910     2.1940   -11.9700 
   88.0000    63.4470     9.0190     7.0960     7.7510    23.9100     2.1930   -11.7910 
   88.1250    62.5480     9.2350     7.2510     8.5010    23.8290     2.1970   -11.7060 
   88.2500    61.2690     9.4510     7.4280     9.1330    23.9320     2.2020   -11.6390 
   88.3750    59.9150     9.6310     7.5920     9.6800    24.1760     2.2030   -11.5720 
   88.5000    57.8570     9.7600     7.7210    10.1820    24.5070     2.1980   -11.5720 
   88.6250    55.0200     9.8300     7.7890    10.4580    24.8510     2.1910   -11.6340 
