~V
VERS. 2.00: Ver 2.00
~W
STRT.M 52.0000:
STOP.M 254.0000:
STEP.M 0.1250:
NULL. -999.2500:
UWI. F10213:
~C
DEPT.M :
DEN.GM/CC :
GR.API :
RML.OHMM :
RI. :
RXO.OHMM :
CALI.CM :
SP.MV :
~A
# ...
  220.7500     2.2770    59.5150     6.7720     6.1090     6.9420    24.9190   -23.0710 
  220.8750     2.2700    58.9720     6.6290     6.0010     6.7860    24.7570   -22.1950 
  221.0000     2.2580    59.0540     6.5480     5.9260     6.6210    24.6320   -21.4900 
  221.1250     2.2500    61.4350     6.5670     5.9320     6.5450    24.5690   -21.0140 
  221.2500     2.2510    65.9490     6.6490     6.0010     6.6230    24.5540   -20.6600 
  221.3750     2.2620    67.9620     6.7530     6.0960     6.7130    24.5110   -20.4480 
  221.5000     2.2780    63.2020     6.8520     6.1850     6.7290    24.3810   -20.3670 
  221.6250     2.2960    55.2800     6.9470     6.2540     6.7500    24.2470   -20.3630 
  221.7500     2.3080    52.9510     7.0350     6.3050     6.9200    24.2340   -20.3830 
  221.8750     2.3140    54.9200     7.0930     6.3270     7.1060    24.2930   -20.4250 
  222.0000     2.3150    56.7440     7.0770     6.2940     7.2440    24.2700   -20.3980 
  222.1250     2.3150    57.7900     6.9400     6.1720     7.3490    24.1140   -20.2480 
  222.2500     2.3200    57.5550     6.7190     5.9820     7.0730    23.9640   -20.0870 
  222.3750     2.3270    55.6450     6.4840     5.7680     6.5350    23.8220   -19.9570 
  222.5000     2.3360    53.3810     6.3190     5.5900     6.2360    23.5000   -19.8550 
  222.6250     2.3510    56.1190     6.3170     5.5250     6.6210    23.1510   -19.7940 
  222.7500     2.3740    63.0670     6.4720     5.5860     7.3080    23.1350   -19.7720 
  222.8750     2.3900    71.5430     6.7580     5.7700     7.5410    23.5080   -19.7920 
  223.0000     2.3840    78.7080     7.1160     6.0400     7.9160    24.0960   -19.8790 
  223.1250     2.3570    81.7030     7.4500     6.3310     8.0950    24.4640   -20.0450 
  223.2500     2.3370    82.7840     7.6890     6.5740     8.3210    24.5990   -20.2270 
  223.3750     2.3350    83.7780     7.8110     6.7470     8.3880    24.6170   -20.3580 
  223.5000     2.3410    87.1610     7.8440     6.8570     8.3560    24.5780   -20.4410 
  223.6250     2.3500    94.6980     7.8430     6.9310     8.2660    24.4640   -20.5110 
  223.7500     2.3580   103.6240     7.8650     7.0030     8.2440    24.3590   -20.5780 
  223.8750     2.3650   107.7110     7.9190     7.0840     8.2800    24.3950   -20.6040 
  224.0000     2.3700   102.9580     7.9780     7.1600     8.3480    24.5700   -20.5930 
  224.1250     2.3730    95.6330     7.9930     7.1950     8.3740    24.6750   -20.5120 
  224.2500     2.3790    93.3810     7.9560     7.1820     8.3070    24.5780   -20.3610 
  224.3750     2.3840    95.8530     7.8870     7.1310     8.2290    24.2980   -20.1690 
  224.5000     2.3850    98.1410     7.8230     7.0680     8.1220    24.0690   -19.9890 
  224.6250     2.3810    99.7230     7.8140     7.0270     8.0190    24.0560   -19.7810 
  224.7500     2.3770   104.6650     7.8610     7.0150     8.0560    24.1970   -19.5310 
  224.8750     2.3770   111.4130     7.9350     7.0220     8.2380    24.4240   -19.2810 
  225.0000     2.3800   114.6490     7.9820     7.0180     8.4850    24.6960   -19.0730 
  225.1250     2.3840   108.7140     7.9330     6.9570     8.5740    24.9000   -18.9620 
  225.2500     2.3880   101.3840     7.7970     6.8360     8.5760    24.9760   -18.9090 
  225.3750     2.3900   101.6110     7.6480     6.7020     8.5550    24.9920   -18.8960 
  225.5000     2.3870   107.1390     7.6190     6.6470     8.5020    24.9990   -18.8660 
  225.6250     2.3770   111.6240     7.9390     6.8440     8.4320    25.0060   -18.7870 
  225.7500     2.3620   117.1640     8.7230     7.3870     8.7130    25.0130   -18.6860 
  225.8750     2.3460   121.5380    10.0810     8.3930    10.0520    25.0210   -18.5490 
  226.0000     2.3290   116.8540    12.0170     9.9430    13.1160    25.0190   -18.3170 
  226.1250     2.3180   101.7540    14.2630    11.9990    18.7380    25.0170   -17.9140 
  226.2500     2.3190    88.6630    15.9620    13.9010    23.4040    25.0060   -17.3950 
  226.3750     2.3330    82.2110    16.1770    14.7300    23.2610    25.0020   -16.7980 
  226.5000     2.3580    80.0120    14.5490    13.8830    23.9120    25.0140   -16.1560 
  226.6250     2.3860    84.0850    11.7660    11.6670    20.9940    25.0700   -15.5200 
  226.7500     2.3980    91.4980     9.2040     9.3560    14.3230    25.1750   -14.9170 
  226.8750     2.3910    97.5000     7.3970     7.5380     8.8650    25.2570   -14.3780 
  227.0000     2.3750    99.5540     6.3910     6.3580     6.8680    25.2890   -13.9470 
  227.1250     2.3670   102.0900     6.0900     5.8210     6.6650    25.3030   -13.6810 
  227.2500     2.3640   106.3330     6.1460     5.6750     6.6690    25.3310   -13.5530 
  227.3750     2.3610   110.0500     6.3550     5.7650     6.8700    25.3540   -13.5250 
  227.5000     2.3590   110.0770     6.5630     5.9460     7.2620    25.3630   -13.5680 
  227.6250     2.3590   107.3830     6.7180     6.1320     7.3540    25.3630   -13.6570 
  227.7500     2.3580   103.3320     6.8750     6.3170     7.2110    25.3630   -13.7690 
  227.8750     2.3570    99.2950     7.0590     6.5100     6.9050    25.3630   -13.8820 
  228.0000     2.3550    97.9170     7.2340     6.6840     7.0940    25.3380   -13.9460 
  228.1250     2.3580    98.4540     7.3000     6.7580     7.6480    25.2530   -13.9220 
  228.2500     2.3650    97.5100     7.2320     6.7040     8.4500    25.1470   -13.8640 
  228.3750     2.3670    94.4950     7.0950     6.5610     8.8480    25.1240   -13.8150 
  228.5000     2.3590    89.9820     7.0310     6.4340     7.6910    25.1550   -13.7570 
  228.6250     2.3480    87.3220     7.2360     6.4850     7.0680    25.1870   -13.6830 
  228.7500     2.3430    87.0150     7.7260     6.7690     7.4130    25.1820   -13.5740 
  228.8750     2.3470    84.8690     8.4170     7.2660     8.7450    25.0770   -13.4520 
  229.0000     2.3590    77.8710     9.1160     7.8570    10.2350    24.8340   -13.3540 
  229.1250     2.3770    70.0680     9.5090     8.2900    10.7850    24.3370   -13.2830 
  229.2500     2.3980    68.4200     9.4860     8.4040    11.0100    23.6910   -13.1770 
  229.3750     2.4190    70.2830     9.1140     8.1920    10.7700    23.0730   -13.0040 
  229.5000     2.4310    71.7670     8.5860     7.7810     9.5320    22.7220   -12.7690 
  229.6250     2.4280    71.4630     8.1240     7.3460     8.1540    22.9160   -12.4600 
  229.7500     2.4140    68.7440     7.8060     6.9970     7.4860    23.5920   -12.1400 
  229.8750     2.3880    65.8740     7.6200     6.7540     7.2550    24.4210   -11.8010 
  230.0000     2.3580    64.3990     7.5190     6.5980     7.1950    25.0060   -11.4200 
  230.1250     2.3410    63.4530     7.4680     6.5100     7.3130    25.1110   -11.0460 
  230.2500     2.3420    60.4830     7.4380     6.4570     7.3930    25.1390   -10.7150 
  230.3750     2.3460    57.9280     7.4370     6.4360     7.1530    25.1670   -10.4200 
  230.5000     2.3420    58.6520     7.4750     6.4510     6.8150    25.1450   -10.1680 
  230.6250     2.3320    60.7410     7.5550     6.5080     6.7740    25.0000   -10.0110 
  230.7500     2.3270    62.3530     7.6520     6.5890     6.9250    24.8950    -9.9120 
  230.8750     2.3260    64.0030     7.7480     6.6780     7.1520    24.8180    -9.8680 
  231.0000     2.3260    65.9650     7.8300     6.7620     7.5090    24.7960    -9.8820 
  231.1250     2.3310    65.6150     7.8960     6.8330     7.7730    24.8260    -9.9140 
  231.2500     2.3430    64.0020     7.9660     6.9040     8.0390    24.7670    -9.9180 
  231.3750     2.3560    63.4960     8.0590     6.9930     8.3180    24.6970    -9.9270 
  231.5000     2.3680    64.3290     8.1880     7.1140     8.6160    24.6930    -9.9360 
  231.6250     2.3790    63.7060     8.3650     7.2790     8.8180    24.8090    -9.9170 
  231.7500     2.3870    61.8460     8.5710     7.4700     8.9340    24.9190    -9.8720 
  231.8750     2.3890    62.6530     8.7890     7.6720     8.9410    24.9700    -9.8140 
