~V
VERS. 2.00: Ver 2.00
~W
STRT.M 53.0000:
STOP.M 276.0000:
STEP.M 0.1250:
NULL. -999.2500:
UWI. F10245:
~C
DEPT.M :
GR.API :
RML.OHMM :
RI. :
RXO.OHMM :
CALI.CM :
DEN.GM/CC :
SP.MV :
~A
# ...
  266.7500    62.0530    13.3160    12.6920     8.2300    24.2200     2.4980    -2.1390 
  266.8750    62.0530    13.0290    12.4230     8.3260    24.2640     2.4680    -2.0940 
  267.0000    62.0530    12.7440    12.1560     8.5080    24.3490     2.4310    -2.0430 
  267.1250    62.0530    12.4920    11.9120     8.9290    24.4090     2.3940    -1.9900 
  267.2500    62.0530    12.2890    11.7070     9.4050    24.4870     2.3630    -1.9280 
  267.3750    62.0530    12.1390    11.5480     9.7220    24.6580     2.3440    -1.8520 
  267.5000    62.0530    12.0360    11.4330    10.2940    24.7170     2.3410    -1.7950 
  267.6250    62.0530    11.9690    11.3530    10.7380    24.5830     2.3510    -1.7140 
  267.7500    62.0530    11.9230    11.2930    10.7010    24.4430     2.3690    -1.6770 
  267.8750    62.0530    11.9020    11.2520    10.2670    24.3710     2.3910    -1.6210 
  268.0000    62.0530    11.9250    11.2490     9.9740    24.3510     2.4150    -1.6320 
  268.1250    62.0530    12.0490    11.3360     9.8120    24.3620     2.4410    -1.6530 
  268.2500    62.0530    12.3050    11.5400     9.8580    24.3890     2.4610    -1.6970 
  268.3750    62.0530    12.7020    11.8770     9.9000    24.4270     2.4640    -1.7790 
  268.5000    62.0530    13.2110    12.3270    10.0560    24.4660     2.4510    -1.8660 
  268.6250    62.0530    13.7510    12.8220    10.7700    24.4800     2.4330    -2.0240 
  268.7500    62.0530    14.2040    13.2560    12.0660    24.4670     2.4250    -2.1510 
  268.8750    62.0530    14.4930    13.5460    13.1570    24.3920     2.4280    -2.2880 
  269.0000    62.0530    14.5950    13.6520    12.9200    24.2460     2.4370    -2.3570 
  269.1250    62.0530    14.5330    13.5730    11.5130    24.1940     2.4460    -2.3740 
  269.2500    62.0530    14.4200    13.4020    10.1960    24.2810     2.4510    -2.3950 
  269.3750    62.0530    14.2940    13.1990     9.6300    24.3510     2.4590    -2.3830 
  269.5000    62.0530    14.1850    13.0070     9.5620    24.3480     2.4710    -2.3470 
  269.6250    62.0530    14.0490    12.8470     9.6940    24.3170     2.4860    -2.3000 
  269.7500    62.0530    13.8750    12.7150     9.9960    24.2940     2.4970    -2.2690 
  269.8750    62.0530    13.7300    12.6040    10.3200    24.3100     2.4990    -2.2150 
  270.0000    62.0530    13.6410    12.5120    10.7930    24.3680     2.4940    -2.1850 
  270.1250    62.0530    13.6290    12.4420    11.3750    24.4370     2.4850    -2.2110 
  270.2500    62.0530    13.6260    12.3940    11.6170    24.4840     2.4790    -2.2500 
  270.3750    62.0530    13.6260    12.3670    10.6710    24.5460     2.4770    -2.3070 
  270.5000    62.0530    13.6260    12.3590    10.0370    24.6200     2.4770    -2.4130 
  270.6250    62.0530    13.6260    12.3600    10.7400    24.6850     2.4780    -2.4990 
  270.7500    62.0530    13.6260    12.3620    12.2130    24.7270     2.4810    -2.5420 
  270.8750    62.0530    13.6260    12.3640    13.8650    24.7560     2.4860    -2.6040 
  271.0000    62.0530    13.6260    12.3630    15.2710    24.7670     2.4960    -2.6720 
  271.1250    62.0530    13.6260    12.3590    16.3180    24.7800     2.5050    -2.7270 
  271.2500    62.0530    13.6260    12.3540    17.1120    24.8030     2.5110    -2.7610 
  271.3750    62.0530    13.6260    12.3480    17.7960    24.8250     2.5130    -2.7860 
  271.5000    62.0530    13.6260    12.3440    17.5520    24.8290     2.5140    -2.7780 
  271.6250    62.0530    13.6260    12.3410    17.3020    24.7740     2.5180    -2.7390 
  271.7500    62.0530    13.6260    12.3410    17.7840    24.6700     2.5200    -2.7480 
  271.8750    62.0530    13.6260    12.3410    20.0680    24.5750     2.5190    -2.7630 
  272.0000    62.0530    13.6260    12.3410    24.3340    24.5330     2.5120    -2.8470 
  272.1250    62.0530    13.6260    12.3410    26.0650    24.5690     2.5020    -2.9910 
  272.2500    62.0530    13.6260    12.3410    25.8650    24.5820     2.4950    -3.1470 
  272.3750    62.0530    13.6260    12.3410    24.2960    24.5460     2.4930    -3.3040 
  272.5000    62.0530    13.6260    12.3410    23.0270    24.5190     2.4930    -3.4780 
  272.6250    62.0530    13.6260    12.3410    23.1320    24.5180     2.4900    -3.6630 
  272.7500    62.0530    13.6260    12.3410    23.7590    24.5080     2.4810    -3.8300 
  272.8750    62.0530    13.6260    12.3410    27.6490    24.5110     2.4690    -3.9880 
  273.0000    62.0530    13.6260    12.3410    34.3320    24.5500     2.4610    -4.0300 
  273.1250    62.0530    13.6260    12.3410    24.2450    24.5580     2.4660    -4.0440 
  273.2500    62.0530    13.6260    12.3410    18.8290    24.4640     2.4800  -999.2500 
  273.3750    62.0530    13.6260    12.3410    17.4760    24.3170     2.4940  -999.2500 
  273.5000    62.0530    13.6260    12.3410    18.0300    24.2630     2.4960  -999.2500 
  273.6250    62.0530    13.6260    12.3410    18.4380    24.4050     2.4730  -999.2500 
  273.7500    62.0530    13.6260    12.3410    18.1550    24.5700     2.4320  -999.2500 
  273.8750    62.0530    13.6260    12.3410    16.4090    24.2060     2.3900  -999.2500 
  274.0000    62.0530    13.6260    12.3410    13.1740    22.7380     2.3590  -999.2500 
  274.1250    62.0530    13.6260    12.3410     9.2920    19.7560     2.3440  -999.2500 
  274.2500    62.0530    13.6260    12.3410     6.5070    18.0910     2.3450  -999.2500 
  274.3750    62.0530    13.6260    12.3410     5.6510    17.5810     2.3500  -999.2500 
  274.5000    62.0530    13.6260    12.3410     5.5430    17.5490     2.3540  -999.2500 
  274.6250    62.0530    13.6260    12.3410     5.5420    17.5490     2.3570  -999.2500 
  274.7500    62.0530    13.6260    12.3410     5.5410    17.5490     2.3610  -999.2500 
  274.8750    62.0530    13.6260    12.3410     5.5410    17.5490     2.3640  -999.2500 
  275.0000    62.0530    13.6260    12.3410     5.5410    17.5490     2.3660  -999.2500 
  275.1250    62.0530    13.6260    12.3410     5.5410    17.5490     2.3670  -999.2500 
  275.2500    62.0530    13.6260    12.3410     5.5410    17.5490     2.3670  -999.2500 
  275.3750    62.0530    13.6260    12.3410     5.5410    17.5490     2.3660  -999.2500 
  275.5000    62.0530    13.6260    12.3410     5.5420    17.5490     2.3650  -999.2500 
  275.6250    62.0530    13.6280    12.3410     5.5410    17.5490     2.3630  -999.2500 
  275.7500    62.0530    13.6450    12.3410     5.5410    17.5490     2.3610  -999.2500 
  275.8750    62.0530    13.8420    12.3410     5.5400    17.5480     2.3600  -999.2500 
  276.0000    62.0530    14.1730    12.3410     5.5390    17.5460     2.3620  -999.2500 
