~V
VERS. 2.00: Ver 2.00
~W
STRT.M 53.0000:
STOP.M 296.0000:
STEP.M 0.1250:
NULL. -999.2500:
UWI. F10258:
~C
DEPT.M :
GR.API :
RML.OHMM :
RI. :
RXO.OHMM :
CALI.CM :
DEN.GM/CC :
SP.MV :
~A
# ...
  278.0000    83.7460    26.9740    26.4730    24.5680    24.8630     2.4830   -10.7930 
  278.1250    81.5670    29.1200    28.9330    26.5160    24.6760     2.4940   -10.8660 
  278.2500    78.9140    30.9710    31.1480    26.7850    24.5280     2.5200   -10.9270 
  278.3750    76.9920    32.3570    32.7160    27.2770    24.5550     2.5620   -10.9850 
  278.5000    76.4350    33.4390    33.6790    30.8250    24.6900     2.6110   -11.0450 
  278.6250    74.0820    34.7670    34.5900    35.9680    24.6960     2.6460   -11.1120 
  278.7500    73.5360    36.9140    36.1670    34.8310    24.6510     2.6590   -11.1730 
  278.8750    77.0030    40.3110    38.9190    34.7170    24.5790     2.6490   -11.2160 
  279.0000    82.5990    45.2350    43.2050    32.8360    24.3160     2.6230   -11.2340 
  279.1250    84.7980    52.0820    49.5510    35.5500    24.1200     2.5870   -11.2330 
  279.2500    83.2170    60.4640    57.7300    43.3510    24.2500     2.5540   -11.2280 
  279.3750    80.7700    69.8510    67.5270    53.7590    24.5890     2.5350   -11.2130 
  279.5000    79.9720    78.9620    78.0510    58.3490    24.8670     2.5430   -11.1800 
  279.6250    80.5660    84.7600    86.5220    72.6950    24.9970     2.5800   -11.1340 
  279.7500    81.5940    85.1120    89.8340   101.9180    25.0800     2.6260   -11.0920 
  279.8750    81.2470    79.3890    86.1890   147.8860    25.1350     2.6620   -11.0650 
  280.0000    78.1500    69.2130    76.6140   134.8650    25.1270     2.6770   -11.0730 
  280.1250    73.4440    57.7510    64.5380    76.2250    24.9930     2.6690   -11.1310 
  280.2500    71.4770    47.8120    53.6990    46.8190    24.7850     2.6490   -11.2380 
  280.3750    74.5560    40.1280    45.2090    41.3800    24.6620     2.6280   -11.4000 
  280.5000    79.2160    34.3990    38.8440    39.8050    24.7360     2.6120   -11.6130 
  280.6250    82.0580    30.0980    34.0090    35.1100    24.9800     2.6040   -11.8730 
  280.7500    83.9230    26.4720    29.8550    27.0610    25.1950     2.5970   -12.1560 
  280.8750    84.4760    23.3500    26.1930    20.3190    25.2670     2.5830   -12.4370 
  281.0000    85.2320    20.7710    23.1000    16.6500    25.2500     2.5550   -12.6940 
  281.1250    88.6050    18.9560    20.8600    16.1700    25.2400     2.5110   -12.9190 
  281.2500    92.0390    17.8200    19.3940    16.6860    25.1580     2.4630   -13.1150 
  281.3750    92.5520    17.2830    18.6110    17.7100    25.0580     2.4210   -13.2800 
  281.5000    90.4990    17.2180    18.3740    19.6820    25.0890     2.3940   -13.4150 
  281.6250    87.5870    17.5470    18.6090    20.2440    25.3310     2.3810   -13.5170 
  281.7500    86.6430    18.1140    19.1420    19.0990    25.4270     2.3750   -13.5910 
  281.8750    89.8480    18.8560    19.8960    22.0850    25.4370     2.3700   -13.6430 
  282.0000    95.0230    19.7150    20.8110    26.6710    25.3650     2.3640   -13.6540 
  282.1250    94.9780    20.6230    21.8260    33.7650    25.2650     2.3560   -13.6070 
  282.2500    90.0330    21.4740    22.8190    35.3660    25.3040     2.3510   -13.5220 
  282.3750    85.4750    22.1640    23.6670    36.9650    25.4220     2.3510   -13.4170 
  282.5000    84.8020    22.5950    24.2430    41.5290    25.5150     2.3580   -13.2800 
  282.6250    87.7700    22.6360    24.3490    42.5910    25.5680     2.3700   -13.1020 
  282.7500    90.2600    22.3460    24.0140    37.8540    25.6680     2.3800   -12.9000 
  282.8750    90.8170    21.8010    23.3270    37.8200    25.7550     2.3880   -12.6840 
  283.0000    90.1880    21.1080    22.4410    33.3850    25.7500     2.4010   -12.4840 
  283.1250    90.7020    20.3670    21.4920    33.4130    25.7820     2.4260   -12.3410 
  283.2500    92.3400    19.6370    20.5700    30.5740    25.8140     2.4560   -12.2590 
  283.3750    94.1040    18.9250    19.6920    26.2280    25.8170     2.4770   -12.2290 
  283.5000    97.0310    18.2320    18.8470    20.8910    25.9310     2.4790   -12.2460 
  283.6250    99.1210    17.6140    18.0700    17.7990    26.1010     2.4550   -12.3040 
  283.7500    97.2190    17.1490    17.4390    16.3280    26.1700     2.4170   -12.3670 
  283.8750    90.6920    16.9320    17.0500    16.1150    26.2020     2.3770   -12.4190 
  284.0000    84.1470    17.0150    16.9830    15.9140    26.2880     2.3450   -12.4420 
  284.1250    83.7220    17.3990    17.3160    15.1740    26.3000     2.3370   -12.4120 
  284.2500    87.4550    17.8730    17.8680    16.5820    26.1710     2.3510   -12.3450 
  284.3750    91.1160    18.2230    18.3910    22.9940    25.9280     2.3810   -12.2600 
  284.5000    92.3590    18.2710    18.6170    34.6910    25.7260     2.4100   -12.1570 
  284.6250    91.8790    17.9140    18.3360    28.0010    25.6540     2.4220   -12.0300 
  284.7500    91.8050    17.3440    17.7380    21.7280    25.6830     2.4130   -11.8980 
  284.8750    90.5350    16.7650    17.0610    16.8210    25.7160     2.3890   -11.7740 
  285.0000    87.8750    16.3560    16.5330    15.5890    25.6950     2.3590   -11.6860 
  285.1250    87.2890    16.2420    16.3290    14.7480    25.6630     2.3320   -11.6240 
  285.2500    89.5740    16.3270    16.3830    14.4960    25.7220     2.3180   -11.5470 
  285.3750    92.1840    16.4820    16.5720    13.9780    25.7890     2.3200   -11.4400 
  285.5000    92.6550    16.5640    16.7270    13.2310    25.7550     2.3350   -11.3200 
  285.6250    92.6550    16.4370    16.6510    13.3660    25.6330     2.3560   -11.2090 
  285.7500    92.6550    16.1250    16.3330    11.2500    25.6060     2.3730   -11.0930 
  285.8750    92.6550    15.6960    15.8490    11.3650    25.7060     2.3800   -10.9620 
  286.0000    92.6550    15.2500    15.3130    13.6140    25.8830     2.3810   -10.8010 
  286.1250    92.6550    14.9010    14.8540    14.4710    26.0090     2.3830   -10.6170 
  286.2500    92.6550    14.6900    14.5340    15.6340    26.0560     2.3920   -10.4500 
  286.3750    92.6550    14.6200    14.3680    17.4900    26.0160     2.4110   -10.3310 
  286.5000    92.6550    14.6590    14.3360    16.9520    25.8480     2.4350   -10.2620 
  286.6250    92.6550    14.7660    14.4050    15.3170    25.6980     2.4570   -10.2290 
  286.7500    92.6550    14.8940    14.5180    13.9240    25.5500     2.4690   -10.2190 
  286.8750    92.6550    15.0390    14.6540    12.6130    25.4270     2.4720   -10.2370 
  287.0000    92.6550    15.2220    14.8180    11.9710    25.3560     2.4680   -10.2950 
  287.1250    92.6550    15.4830    15.0450    14.3830    25.3420     2.4580   -10.3810 
  287.2500    92.6550    15.8200    15.3490    22.4840    25.3560     2.4470   -10.4660 
  287.3750    92.6550    16.2050    15.7270    29.4040    25.4700     2.4320   -10.5350 
  287.5000    92.6550    16.5810    16.1410    22.6570    25.6690     2.4110   -10.6010 
  287.6250    92.6550    16.8640    16.5090    23.5700    25.8950     2.3830   -10.6940 
  287.7500    92.6550    17.0130    16.7550    28.1640    26.0160     2.3540   -10.8260 
  287.8750    92.6550    17.0170    16.8280    23.7260    26.0070     2.3360   -10.9680 
  288.0000    92.6550    16.9010    16.7340    16.8390    25.8460     2.3370   -11.0940 
  288.1250    92.6550    16.7190    16.5280    13.9710    25.6320     2.3630   -11.1850 
  288.2500    92.6550    16.5500    16.3160    13.5720    25.7110     2.3970   -11.2310 
  288.3750    92.6550    16.4320    16.1630    15.0090    26.0220     2.4250   -11.2150 
  288.5000    92.6550    16.3770    16.0950    18.3760    26.2610     2.4360   -11.1360 
  288.6250    92.6550    16.3650    16.0950    23.0170    26.2920     2.4300   -10.9980 
  288.7500    92.6550    16.3520    16.1050    23.1930    26.4250     2.4200   -10.8130 
  288.8750    92.6550    16.3120    16.0930    24.2490    26.7470     2.4140   -10.6040 
  289.0000    92.6550    16.2330    16.0410    21.6180    27.0320     2.4160   -10.3800 
  289.1250    92.6550    16.1180    15.9430    19.4490    27.1030     2.4240   -10.1800 
