~V
VERS. 2.00: Ver 2.00
~W
STRT.M 47.0000:
STOP.M 270.0000:
STEP.M 0.1250:
NULL. -999.2500:
UWI. F10221:
~C
DEPT.M :
SP.MV :
GR.API :
RML.OHMM :
RI. :
RXO.OHMM :
CALI.CM :
DEN.GM/CC :
~A
# ...
  148.2500   -17.1280   105.9800     5.8260     4.7990     5.0460    22.3230     2.3540 
  148.3750   -17.1810   109.6620     5.7530     4.7630     4.9950    22.3350     2.3400 
  148.5000   -17.2230   107.0210     5.7070     4.7410     5.0020    22.3340     2.3280 
  148.6250   -17.2520   102.5390     5.6960     4.7320     5.0460    22.2500     2.3210 
  148.7500   -17.2620   100.0150     5.7090     4.7310     5.0820    22.1890     2.3160 
  148.8750   -17.2730    99.4020     5.7310     4.7260     5.1230    22.1570     2.3130 
  149.0000   -17.2900    99.1720     5.7470     4.7110     5.1790    22.0730     2.3150 
  149.1250   -17.2730    99.4360     5.7470     4.6920     5.1870    21.9310     2.3220 
  149.2500   -17.2240    99.8880     5.7280     4.6740     5.1450    21.8500     2.3320 
  149.3750   -17.1690    97.3220     5.6980     4.6590     5.0840    21.8540     2.3440 
  149.5000   -17.1050    93.0880     5.6660     4.6410     5.1040    21.8340     2.3530 
  149.6250   -17.0230    92.1040     5.6300     4.6120     5.1910    21.7260     2.3540 
  149.7500   -16.9220    92.1380     5.5680     4.5610     5.2510    21.5650     2.3510 
  149.8750   -16.8090    91.9550     5.4710     4.4830     5.2510    21.4250     2.3480 
  150.0000   -16.6690    97.0080     5.3470     4.3830     5.1800    21.3990     2.3440 
  150.1250   -16.5470   103.9380     5.2240     4.2820     5.0960    21.4970     2.3400 
  150.2500   -16.4250   103.9060     5.1140     4.1950     5.0050    21.6570     2.3370 
  150.3750   -16.2900    96.1820     5.0260     4.1300     4.9240    21.8510     2.3370 
  150.5000   -16.1510    91.8630     4.9730     4.0890     4.8640    22.1030     2.3380 
  150.6250   -16.0280    92.6780     4.9530     4.0630     4.7700    22.4230     2.3360 
  150.7500   -15.9040    94.1370     4.9640     4.0460     4.7070    22.7130     2.3350 
  150.8750   -15.7900    95.7220     4.9830     4.0320     4.6760    22.8860     2.3350 
  151.0000   -15.7230   100.0590     4.9680     4.0210     4.6750    22.9620     2.3390 
  151.1250   -15.6620   106.1820     4.9110     4.0170     4.6460    23.0090     2.3460 
  151.2500   -15.6190   110.4160     4.8390     4.0270     4.6260    23.0770     2.3540 
  151.3750   -15.5940   108.6310     4.7850     4.0500     4.6380    23.0640     2.3600 
  151.5000   -15.6170    99.2740     4.7630     4.0710     4.6700    23.0740     2.3640 
  151.6250   -15.6460    90.6810     4.7420     4.0650     4.7000    23.0700     2.3680 
  151.7500   -15.6890    90.2170     4.6810     4.0170     4.6950    23.0180     2.3740 
  151.8750   -15.7230    96.2990     4.5570     3.9220     4.6460    22.9390     2.3820 
  152.0000   -15.7440   100.5340     4.3740     3.7920     4.4880    22.8920     2.3870 
  152.1250   -15.7710    98.9040     4.1940     3.6600     4.3150    22.9180     2.3860 
  152.2500   -15.8220    94.6100     4.0630     3.5480     4.2360    23.0200     2.3820 
  152.3750   -15.8630    92.5100     4.0070     3.4740     4.2920    23.2050     2.3780 
  152.5000   -15.8870    96.9230     4.0310     3.4550     4.3630    23.3240     2.3800 
  152.6250   -15.9210   101.9970     4.1040     3.4760     4.3380    23.3040     2.3900 
  152.7500   -15.9410   103.2420     4.2130     3.5300     4.4060    23.2190     2.4060 
  152.8750   -15.9790   102.1890     4.3600     3.6120     4.4940    23.1660     2.4170 
  153.0000   -16.0170   101.7480     4.5540     3.7360     4.5610    23.1390     2.4170 
  153.1250   -16.0610   100.5830     4.7770     3.8970     4.6610    23.0960     2.4060 
  153.2500   -16.1150    97.9720     4.9950     4.0780     4.8820    23.0660     2.3910 
  153.3750   -16.1860    96.7700     5.1640     4.2530     5.2400    23.0690     2.3760 
  153.5000   -16.2430    98.6730     5.2420     4.3850     5.4620    23.0970     2.3640 
  153.6250   -16.3090   101.2950     5.2520     4.4730     5.4320    23.1150     2.3560 
  153.7500   -16.3650   104.4930     5.2420     4.5370     5.2150    23.1370     2.3490 
  153.8750   -16.4310   106.3470     5.2720     4.6120     5.1780    23.1870     2.3410 
  154.0000   -16.5050   104.0940     5.4000     4.7410     5.5620    23.1920     2.3360 
  154.1250   -16.6020    99.4120     5.6270     4.9380     6.0800    23.0980     2.3410 
  154.2500   -16.6930    95.5370     5.9480     5.2090     6.4950    23.0080     2.3580 
  154.3750   -16.7970    95.1380     6.3510     5.5510     6.9310    22.9930     2.3800 
  154.5000   -16.9130    95.1020     6.7890     5.9280     7.0320    23.0430     2.3990 
  154.6250   -17.0350    93.1020     7.1580     6.2650     7.2840    23.0620     2.4160 
  154.7500   -17.1840    90.5020     7.3510     6.4850     7.9990    23.0540     2.4290 
  154.8750   -17.3160    86.1290     7.2880     6.5220     8.8330    23.0540     2.4310 
  155.0000   -17.4210    84.7560     6.9610     6.3410     8.0710    23.0810     2.4110 
  155.1250   -17.5020    92.6920     6.5620     6.0660     6.7910    23.0970     2.3810 
  155.2500   -17.5780   105.3350     6.2370     5.8060     5.9310    23.1030     2.3600 
  155.3750   -17.6760   109.7760     6.0540     5.6380     5.5280    23.1160     2.3560 
  155.5000   -17.7700   102.0500     5.9970     5.5790     5.4400    23.1590     2.3590 
  155.6250   -17.8410    95.9050     5.9500     5.5560     5.5470    23.2080     2.3600 
  155.7500   -17.9020    95.4530     5.8420     5.5030     5.8160    23.2220     2.3590 
  155.8750   -17.9500    98.2720     5.6690     5.3900     6.0160    23.2020     2.3560 
  156.0000   -18.0040   100.3950     5.5290     5.2750     5.8060    23.2060     2.3510 
  156.1250   -18.0720   100.4100     5.5370     5.2640     5.3840    23.2650     2.3410 
  156.2500   -18.1590    98.3630     5.7370     5.4280     5.3720    23.3320     2.3230 
  156.3750   -18.2430    94.3570     6.0980     5.7770     5.8240    23.3640     2.3010 
  156.5000   -18.3530    89.3990     6.5240     6.2540     6.6300    23.3440     2.2840 
  156.6250   -18.4940    84.8830     6.8660     6.6940     7.6770    23.3020     2.2790 
  156.7500   -18.6520    83.1910     7.0180     6.9460     8.4470    23.2630     2.2850 
  156.8750   -18.8350    83.6680     6.9430     6.9380     7.8790    23.2580     2.2960 
  157.0000   -19.0310    84.5790     6.7100     6.7230     6.7160    23.2690     2.3020 
  157.1250   -19.2440    86.4410     6.4970     6.4950     6.5700    23.2270     2.2970 
  157.2500   -19.4210    89.2210     6.4300     6.3730     6.6800    23.1610     2.2860 
  157.3750   -19.5800    91.0270     6.6070     6.4470     6.8220    23.1310     2.2780 
  157.5000   -19.7140    88.4830     7.1550     6.8390     7.1670    23.1200     2.2740 
  157.6250   -19.8330    83.4870     8.0930     7.5760     7.9970    23.1180     2.2710 
  157.7500   -19.9480    79.7340     9.5200     8.7440     9.0120    23.1100     2.2680 
  157.8750   -20.0870    76.5200    11.5480    10.4540    10.2800    23.0760     2.2680 
  158.0000   -20.2360    72.2370    14.6980    12.8990    12.7980    23.0670     2.2670 
  158.1250   -20.3700    68.5260    19.1690    15.8930    16.2560    23.2860     2.2580 
  158.2500   -20.5180    67.5970    22.5270    19.0940    19.6830    23.8320     2.2380 
  158.3750   -20.6660    66.7630    25.1610    21.9370    21.7880    24.3060     2.2180 
  158.5000   -20.8180    61.9040    26.4350    23.6970    21.4760    24.4710     2.2090 
  158.6250   -20.9840    56.9050    26.7380    24.4830    20.9100    24.4740     2.2080 
  158.7500   -21.1460    56.3400    26.6670    24.7220    20.7850    24.4560     2.2080 
  158.8750   -21.2770    60.2720    26.7660    24.9110    20.9940    24.4520     2.2070 
  159.0000   -21.4060    63.2740    27.3340    25.4170    21.4030    24.4370     2.2050 
  159.1250   -21.5330    62.4540    28.1490    26.1960    22.3310    24.3960     2.2040 
  159.2500   -21.6690    60.7860    28.8600    27.0180    23.4750    24.3150     2.2040 
  159.3750   -21.7830    61.4140    29.0370    27.5070    24.5350    24.2570     2.2080 
