~V
VERS. 2.00: Ver 2.00
~W
STRT.M 50.0000:
STOP.M 278.0000:
STEP.M 0.1250:
NULL. -999.2500:
UWI. F10217:
~C
DEPT.M :
SP.MV :
DEN.GM/CC :
GR.API :
RML.OHMM :
RI. :
RXO.OHMM :
CALI.CM :
~A
# ...
  263.7500   -11.0660     2.4940    60.8150    16.8610    16.2340    12.8110    24.2290 
  263.8750   -11.1420     2.4920    61.3360    15.9980    15.2600    16.3740    24.2570 
  264.0000   -11.2370     2.4880    63.9210    15.5550    14.6990    19.5700    24.2810 
  264.1250   -11.3050     2.4820    65.3950    15.5490    14.5840    20.3340    24.3200 
  264.2500   -11.3770     2.4720    61.8930    15.8540    14.7920    19.4320    24.3330 
  264.3750   -11.4260     2.4600    55.7000    16.3860    15.2550    19.5080    24.3060 
  264.5000   -11.4560     2.4440    54.0910    17.0300    15.8870    20.3230    24.2840 
  264.6250   -11.4680     2.4290    59.2900    17.6410    16.5780    21.5680    24.2640 
  264.7500   -11.4470     2.4200    63.5650    18.1210    17.2080    22.0730    24.2090 
  264.8750   -11.4350     2.4210    63.5030    18.4780    17.7370    22.6240    24.1310 
  265.0000   -11.4140     2.4370    62.3860    18.8150    18.2050    24.9720    24.1360 
  265.1250   -11.3850     2.4640    63.7450    19.2860    18.7220    26.7040    24.1960 
  265.2500   -11.3250     2.4900    66.1860    19.8910    19.3220    26.0870    24.2240 
  265.3750   -11.2560     2.5000    67.2660    20.4770    19.9120    25.1500    24.2350 
  265.5000   -11.1690     2.4840    66.6180    20.7850    20.2790    25.3930    24.3000 
  265.6250   -11.0730     2.4460    65.2690    20.4430    20.0620    24.9760    24.2820 
  265.7500   -10.9740     2.4110    65.7060    19.4630    19.2240    19.6310    24.1870 
  265.8750   -10.8520     2.3980    67.6230    18.0280    17.8990    13.3680    24.0790 
  266.0000   -10.7120     2.4140    69.9380    16.4660    16.3800     9.5870    24.0130 
  266.1250   -10.5700     2.4560    70.3740    15.1720    15.0330     8.5860    24.0080 
  266.2500   -10.4340     2.4980    68.2140    14.3020    14.0440     8.5820    24.0320 
  266.3750   -10.2940     2.5240    66.0750    13.8700    13.4600     8.9470    24.0440 
  266.5000   -10.1620     2.5310    66.1870    13.7970    13.2400     9.1400    24.0110 
  266.6250   -10.0620     2.5240    67.0770    13.9820    13.3290     9.1420    23.9710 
  266.7500    -9.9730     2.5170    67.0550    14.2580    13.5650     9.2230    23.9070 
  266.8750    -9.9170     2.5090    66.7280    14.5430    13.8600     9.4630    23.8800 
  267.0000    -9.8630     2.4980    67.0140    14.7850    14.1510     9.6240    23.9220 
  267.1250    -9.8300     2.4800    66.9300    14.9460    14.3820     9.6180    24.0030 
  267.2500    -9.7990     2.4600    65.6580    15.0380    14.5420     9.8000    24.0890 
  267.3750    -9.8190     2.4470    63.2890    15.0840    14.6370    10.0500    24.0920 
  267.5000    -9.8510     2.4500    60.9590    15.1190    14.6940    10.0750    23.9930 
  267.6250    -9.8790     2.4730    61.0250    15.1740    14.7440    10.0280    23.8870 
  267.7500    -9.9150     2.5010    62.8790    15.2630    14.8130    10.2810    23.8880 
  267.8750    -9.9330     2.5200    63.7430    15.3870    14.9040    10.6010    23.9930 
  268.0000    -9.9790     2.5200    63.7430    15.5340    15.0110    10.7360    24.1700 
  268.1250   -10.0860     2.5010    63.7430    15.6700    15.1110    10.8510    24.3240 
  268.2500   -10.1750     2.4790    63.7430    15.7550    15.1710    10.8090    24.4150 
  268.3750   -10.2260     2.4650    63.7430    15.7550    15.1640    10.6160    24.4570 
  268.5000   -10.2970     2.4680    63.7430    15.6580    15.0720    10.2620    24.4660 
  268.6250   -10.3560     2.4900    63.7430    15.4670    14.8890    10.0780    24.4530 
  268.7500   -10.3760     2.5200    63.7430    15.2380    14.6550    10.0740    24.4460 
  268.8750   -10.4000     2.5420    63.7430    15.0240    14.4080     9.9660    24.4440 
  269.0000   -10.4370     2.5470    63.7430    14.8800    14.2010     9.9910    24.4500 
  269.1250   -10.4450     2.5270    63.7430    14.8830    14.1130    10.2120    24.4700 
  269.2500   -10.4610     2.4890    63.7430    15.0570    14.1830    10.3350    24.4970 
  269.3750   -10.4690     2.4430    63.7430    15.4350    14.4520    10.4590    24.5050 
  269.5000   -10.4190     2.3980    63.7430    16.0400    14.9490    10.7490    24.4890 
  269.6250   -10.3910     2.3730    63.7430    16.8790    15.7040    12.0650    24.4530 
  269.7500   -10.4130     2.3750    63.7430    17.8090    16.5970    15.2610    24.4260 
  269.8750   -10.4290     2.4040    63.7430    18.6810    17.4930    20.4370    24.4120 
  270.0000   -10.4250     2.4490    63.7430    19.3600    18.2490    24.5980    24.3830 
  270.1250   -10.4130     2.4890    63.7430    19.7240    18.7160    26.7790    24.3800 
  270.2500   -10.3850     2.5060    63.7430    19.8280    18.9100    27.1150    24.4020 
  270.3750   -10.3850     2.5040    63.7430    19.7250    18.8780    25.5910    24.4200 
  270.5000   -10.4060     2.4930    63.7430    19.4800    18.6910    24.6050    24.4060 
  270.6250   -10.3930     2.4880    63.7430    19.1710    18.4260    25.8880    24.3990 
  270.7500   -10.3550     2.4930    63.7430    18.9010    18.1830    27.1110    24.4170 
  270.8750   -10.3440     2.5020    63.7430    18.7300    18.0090    26.5840    24.4420 
  271.0000   -10.3330     2.5080    63.7430    18.6640    17.9060    26.8390    24.4480 
  271.1250   -10.3030     2.5030    63.7430    18.6660    17.8360    28.0770    24.4410 
  271.2500   -10.2970     2.4900    63.7430    18.6770    17.7660    27.1050    24.4380 
  271.3750   -10.2720     2.4710    63.7430    18.6830    17.7000    26.4030    24.4310 
  271.5000   -10.2660     2.4510    63.7430    18.6810    17.6540    25.3650    24.4170 
  271.6250   -10.2750     2.4390    63.7430    18.6730    17.6370    22.2750    24.4000 
  271.7500   -10.2940     2.4370    63.7430    18.6660    17.6360    18.5240    24.3800 
  271.8750   -10.2940     2.4490    63.7430    18.6660    17.6400    16.9040    24.3690 
  272.0000   -10.2970     2.4710    63.7430    18.6760    17.6430    17.3220    24.3820 
  272.1250   -10.3270     2.4930    63.7430    18.6980    17.6420    17.3660    24.4060 
  272.2500   -10.3520     2.5090    63.7430    18.7240    17.6360    15.2370    24.4170 
  272.3750   -10.3530     2.5160    63.7430    18.7460    17.6220    13.5390    24.4450 
  272.5000   -10.3330     2.5120    63.7430    18.7600    17.5980    14.7340    24.4680 
  272.6250   -10.3190     2.5000    63.7430    18.7710    17.5710    17.6300    24.4730 
  272.7500   -10.3150     2.4830    63.7430    18.7810    17.5460    18.4610    24.4640 
  272.8750   -10.3380     2.4660    63.7430    18.7860    17.5260    16.6000    24.4420 
  273.0000   -10.3450     2.4540    63.7430    18.7840    17.5150    13.7470    24.3970 
  273.1250   -10.3210     2.4540    63.7430    18.7770    17.5160    11.4680    24.3300 
  273.2500   -10.3240     2.4630    63.7430    18.7690    17.5220    10.2530    24.3170 
  273.3750   -10.3450     2.4750    63.7430    18.7640    17.5320    10.5280    24.3600 
  273.5000   -10.3820     2.4820    63.7430    18.7650    17.5460    11.6680    24.3960 
  273.6250   -10.3820     2.4770    63.7430    18.7670    17.5610    11.5340    24.4030 
  273.7500   -10.3820     2.4660    63.7430    18.7650    17.5700    10.1440    24.4000 
  273.8750   -10.3820     2.4590    63.7430    18.7650    17.5700     9.6050    24.3930 
  274.0000  -999.2500     2.4660    63.7430    18.7650    17.5700    11.1200    24.3840 
  274.1250  -999.2500     2.4850    63.7430    18.7650    17.5700    16.2920    24.3930 
  274.2500  -999.2500     2.5110    63.7430    18.7650    17.5700    23.7790    24.4100 
  274.3750  -999.2500     2.5420    63.7430    18.7650    17.5700    28.0580    24.4220 
  274.5000  -999.2500     2.5580    63.7430    18.7650    17.5700    26.5490    24.4110 
  274.6250  -999.2500     2.5500    63.7430    18.7650    17.5700    22.0620    24.3700 
  274.7500  -999.2500     2.5190    63.7430    18.7650    17.5700    17.1550    24.3460 
  274.8750  -999.2500     2.4720    63.7430    18.7650    17.5700    12.1970    24.3510 
