~V
VERS. 2.00: Ver 2.00
~W
STRT.M 50.0000:
STOP.M 271.0000:
STEP.M 0.1250:
NULL. -999.2500:
UWI. F10251:
~C
DEPT.M :
DEN.GM/CC :
GR.API :
RML.OHMM :
RI. :
RXO.OHMM :
CALI.CM :
SP.MV :
~A
# ...
  263.7500     2.5040    60.1470    13.3310    12.3050    11.6190    23.5570    -3.4140 
  263.8750     2.5130    60.1470    13.3410    12.3030    12.1070    23.5560    -3.1410 
  264.0000     2.5230    60.1470    13.3430    12.3050    13.7400    23.5540    -2.8210 
  264.1250     2.5270    60.1470    13.3440    12.3070    14.6970    23.5520    -2.4490 
  264.2500     2.5300    60.1470    13.3510    12.3070    14.9320    23.5500    -2.0670 
  264.3750     2.5310    60.1470    13.3810    12.3040    14.6750    23.5490    -1.7310 
  264.5000     2.5300    60.1470    13.4440    12.3000    14.4960    23.5510    -1.4590 
  264.6250     2.5240    60.1470    13.5250    12.2970    14.8320    23.5530    -1.2520 
  264.7500     2.5140    60.1470    13.5730    12.2950    15.3480    23.5520    -1.0790 
  264.8750     2.5030    60.1470    13.5610    12.2950    15.1650    23.5540    -0.9800 
  265.0000     2.4960    60.1470    13.4930    12.2970    14.6920    23.5550    -0.8960 
  265.1250     2.5000    60.1470    13.4110    12.2990    15.2480    23.5550    -0.8940 
  265.2500     2.5110    60.1470    13.3600    12.3010    16.9390    23.5550    -0.9410 
  265.3750     2.5200    60.1470    13.3480    12.3000    19.0370    23.5550    -0.9650 
  265.5000     2.5280    60.1470    13.3560    12.2980    20.9350    23.5550    -0.9920 
  265.6250     2.5340    60.1470    13.3590    12.2950    22.4170    23.5540    -1.0360 
  265.7500     2.5390    60.1470    13.3550    12.2940    26.2120    23.5520    -1.1680 
  265.8750     2.5410    60.1470    13.3500    12.2940    29.9690    23.5520    -1.2450 
  266.0000     2.5380    60.1470    13.3470    12.2950    30.3260    23.5340    -1.3380 
  266.1250     2.5290    60.1470    13.3460    12.2950    29.5490    23.5000    -1.4600 
  266.2500     2.5160    60.1470    13.3460    12.2950    30.2470    23.4640    -1.5360 
  266.3750     2.4990    60.1470    13.3450    12.2940    35.3190    23.4240    -1.6710 
  266.5000     2.4780    60.1470    13.3430    12.2940    40.3420    23.3070    -1.8310 
  266.6250     2.4620    60.1470    13.3430    12.2900    33.7160    23.2270    -1.9220 
  266.7500     2.4590    60.1470    13.3670    12.2780    22.5870    23.1700    -1.9280 
  266.8750     2.4700    60.1470    13.3850    12.2780    14.3100    23.1230    -1.9340 
  267.0000     2.4880    60.1470    13.3850    12.2780    10.9920    23.1130  -999.2500 
  267.1250     2.5070    60.1470    13.3850    12.2780    10.5620    23.1350  -999.2500 
  267.2500     2.5250    60.1470    13.3850    12.2780    10.7440    23.1200  -999.2500 
  267.3750     2.5350    60.1470    13.3850    12.2780    11.0740    23.0990  -999.2500 
  267.5000     2.5230    60.1470    13.3850    12.2780    11.5880    23.1080  -999.2500 
  267.6250     2.4750    60.1470    13.3850    12.2780    11.3990    23.0820  -999.2500 
  267.7500     2.4010    60.1470    13.3850    12.2780    10.7960    23.0220  -999.2500 
  267.8750     2.3030    60.1470    13.3850    12.2780    10.6280    22.9890  -999.2500 
  268.0000     2.1740    60.1470    13.3850    12.2780    11.0740    22.9290  -999.2500 
  268.1250     1.9970    60.1470    13.3850    12.2780    10.5870    22.5630  -999.2500 
  268.2500     1.8120    60.1470    13.3850    12.2780     9.0820    21.3210  -999.2500 
  268.3750     1.6760    60.1470    13.3850    12.2780     7.4400    19.0280  -999.2500 
  268.5000     1.6030    60.1470    13.3850    12.2780     6.5830    17.0540  -999.2500 
  268.6250     1.5840    60.1470    13.3850    12.2780     6.4010    16.3200  -999.2500 
  268.7500     1.5830    60.1470    13.3850    12.2780     6.3850    16.1890  -999.2500 
  268.8750     1.5830    60.1470    13.3850    12.2780     6.4070    16.1350  -999.2500 
  269.0000     1.5810    60.1470    13.3850    12.2780     6.4130    16.1230  -999.2500 
  269.1250     1.5780    60.1470    13.3850    12.2780     6.3900    16.1530  -999.2500 
  269.2500     1.5770    60.1470    13.3850    12.2780     6.4060    16.1310  -999.2500 
  269.3750     1.5740    60.1470    13.3850    12.2780     6.4310    16.0970  -999.2500 
  269.5000     1.5410    60.1470    13.3850    12.2780     6.4350    16.0940  -999.2500 
  269.6250     1.4330    60.1470    13.3850    12.2780     6.4050    16.1160  -999.2500 
  269.7500     1.1460    60.1470    13.3850    12.2780     6.4050    16.0940  -999.2500 
  269.8750     0.5890    60.1470    13.3850    12.2780     6.4100    16.1050  -999.2500 
  270.0000    -0.1650    60.1470    13.3850    12.2780     6.4030    16.1530  -999.2500 
  270.1250    -1.4530    60.1470    13.3850    12.2780     6.4260    16.1460  -999.2500 
  270.2500    -2.9110    60.1470    13.3850    12.2780     6.4070    16.1160  -999.2500 
  270.3750    -4.7440    60.1470    13.3850    12.2780     6.3970    16.1080  -999.2500 
  270.5000    -6.7450    60.1470    13.3850    12.2780     6.4280    16.0940  -999.2500 
  270.6250    -6.6710    60.1470    13.3850    12.2780     6.4480    16.0970  -999.2500 
  270.7500    -6.5460    60.1470    13.3850    12.2780     6.4340    16.1380  -999.2500 
  270.8750    -6.3830    60.1470    13.3850    12.2780     6.3870    16.1910  -999.2500 
  271.0000  -999.2500    60.1470    13.3850    12.2780     6.3660    16.2130  -999.2500 
