~V
VERS. 2.00: Ver 2.00
~W
STRT.M 58.0000:
STOP.M 277.0000:
STEP.M 0.1250:
NULL. -999.2500:
UWI. F10219:
~C
DEPT.M :
SP.MV :
DEN.GM/CC :
GR.API :
RML.OHMM :
RI. :
RXO.OHMM :
CALI.CM :
~A
# ...
  125.5000    -7.9620     2.5340    52.1320    22.2340    19.4170    20.0970    24.4900 
  125.6250    -8.2540     2.5520    51.3220    22.4650    19.6280    20.1250    24.3790 
  125.7500    -8.4680     2.5650    49.9230    22.5410    19.7350    19.7300    24.2620 
  125.8750    -8.6340     2.5780    48.5970    22.5250    19.7680    19.3400    24.2320 
  126.0000    -8.8150     2.5910    48.4350    22.5350    19.8090    19.1700    24.3100 
  126.1250    -8.9320     2.6010    49.7040    22.6400    19.9140    19.1040    24.4180 
  126.2500    -8.9950     2.6050    51.2960    22.8530    20.1070    19.2900    24.4790 
  126.3750    -9.0510     2.5980    51.7060    23.1260    20.3650    19.6890    24.4820 
  126.5000    -9.0300     2.5840    50.4790    23.3880    20.6360    20.2150    24.4810 
  126.6250    -8.9510     2.5740    48.1980    23.5950    20.8780    20.8740    24.5280 
  126.7500    -8.8860     2.5740    46.2590    23.7090    21.0560    21.6290    24.6590 
  126.8750    -8.7710     2.5770    46.0010    23.7140    21.1510    22.2070    24.7860 
  127.0000    -8.5990     2.5770    47.2930    23.6200    21.1650    22.4760    24.7220 
  127.1250    -8.4290     2.5760    48.6850    23.4330    21.0970    22.3600    24.4420 
  127.2500    -8.2070     2.5810    49.3110    23.1600    20.9450    21.9880    24.1100 
  127.3750    -7.9330     2.5920    49.9400    22.8290    20.7230    21.8670    23.9200 
  127.5000    -7.6970     2.6010    51.0280    22.4960    20.4750    22.3940    23.8820 
  127.6250    -7.4410     2.6020    51.6630    22.2200    20.2490    22.9040    23.8810 
  127.7500    -7.1580     2.5920    51.5460    22.0730    20.1120    23.0550    23.8960 
  127.8750    -6.8970     2.5780    50.8860    22.1120    20.1200    23.2460    24.0030 
  128.0000    -6.6230     2.5650    49.3130    22.3240    20.2810    23.7780    24.1480 
  128.1250    -6.3770     2.5540    47.8010    22.6680    20.5810    24.2830    24.3000 
  128.2500    -6.2430     2.5490    47.9450    23.0620    20.9780    24.2240    24.5560 
  128.3750    -6.1480     2.5540    48.5300    23.4020    21.3890    23.9160    24.8670 
  128.5000    -6.0620     2.5630    47.6450    23.5930    21.7140    23.7460    25.0260 
  128.6250    -6.0880     2.5690    46.5850    23.5880    21.8810    23.4880    24.9130 
  128.7500    -6.1750     2.5670    46.7470    23.3910    21.8590    23.3540    24.6440 
  128.8750    -6.2540     2.5540    47.3280    23.0770    21.6860    23.1330    24.3820 
  129.0000    -6.3880     2.5370    47.9690    22.7640    21.4670    22.3500    24.1930 
  129.1250    -6.5470     2.5290    49.7420    22.5320    21.2900    21.5540    24.1210 
  129.2500    -6.6760     2.5370    51.9940    22.4150    21.2120    21.6960    24.1340 
  129.3750    -6.8560     2.5540    52.8530    22.3680    21.2200    22.6020    24.2600 
  129.5000    -7.0910     2.5670    52.2800    22.2990    21.2340    23.4110    24.4540 
  129.6250    -7.2950     2.5660    51.7500    22.1470    21.1840    23.3360    24.5920 
  129.7500    -7.5240     2.5490    51.6430    21.8900    21.0220    22.0440    24.6090 
  129.8750    -7.8430     2.5250    50.8430    21.5740    20.7670    20.2530    24.5490 
  130.0000    -8.1490     2.5030    49.4500    21.2940    20.5040    19.0050    24.4430 
  130.1250    -8.4090     2.4890    48.9560    21.1190    20.3140    18.5980    24.3390 
  130.2500    -8.6670     2.4810    49.9150    21.0800    20.2520    18.7700    24.2810 
  130.3750    -8.8530     2.4820    51.2240    21.1570    20.3190    19.0330    24.2470 
  130.5000    -8.9280     2.4900    51.6530    21.2850    20.4620    19.2500    24.1950 
  130.6250    -8.9760     2.5000    50.9890    21.4230    20.6330    19.5980    24.1100 
  130.7500    -8.9750     2.5010    49.9210    21.5590    20.8030    19.9540    24.0480 
  130.8750    -8.8590     2.4890    49.9150    21.7250    20.9790    20.1380    24.0620 
  131.0000    -8.7110     2.4700    50.9510    21.9810    21.2090    20.2930    24.1370 
  131.1250    -8.5750     2.4530    51.1970    22.3680    21.5390    20.6750    24.2170 
  131.2500    -8.3710     2.4400    50.1230    22.8950    22.0010    21.3980    24.2780 
  131.3750    -8.1250     2.4380    49.6840    23.5080    22.5690    22.6720    24.3740 
  131.5000    -7.9620     2.4450    50.8640    24.1090    23.1620    24.4890    24.5430 
  131.6250    -7.8150     2.4560    52.2950    24.6210    23.7060    26.2630    24.7150 
  131.7500    -7.6480     2.4620    52.6310    25.0000    24.1490    27.1360    24.7900 
  131.8750    -7.5740     2.4610    51.6030    25.2600    24.4840    26.7250    24.8200 
  132.0000    -7.6060     2.4650    49.7630    25.4670    24.7570    25.9470    24.8730 
  132.1250    -7.6630     2.4740    48.5110    25.6650    25.0070    25.8590    24.9200 
  132.2500    -7.7630     2.4840    48.7900    25.8580    25.2470    26.4390    24.9500 
  132.3750    -7.9550     2.4920    49.6290    26.0000    25.4470    26.9490    25.0080 
  132.5000    -8.1620     2.5000    49.8700    26.0310    25.5560    27.0470    25.0860 
  132.6250    -8.3540     2.5050    49.8800    25.9230    25.5350    26.5000    25.0940 
  132.7500    -8.5730     2.5010    50.6130    25.7040    25.3880    25.6830    25.0500 
  132.8750    -8.7940     2.4920    52.1210    25.4480    25.1780    24.8950    25.0760 
  133.0000    -8.9580     2.4910    53.5130    25.2280    24.9830    24.0000    25.1300 
  133.1250    -9.0820     2.4940    53.6550    25.0520    24.8280    23.4310    25.1700 
  133.2500    -9.2220     2.4950    52.1470    24.8670    24.6800    23.8070    25.2500 
  133.3750    -9.3270     2.4910    50.0580    24.6020    24.4700    25.0800    25.4100 
  133.5000    -9.3250     2.4840    48.4910    24.2120    24.1430    25.9470    25.5890 
  133.6250    -9.2960     2.4760    47.5930    23.7040    23.6850    25.6950    25.7210 
  133.7500    -9.2740     2.4710    47.2610    23.1490    23.1360    24.6300    25.8170 
  133.8750    -9.1920     2.4740    47.3070    22.6660    22.6020    23.6150    25.8300 
  134.0000    -9.0770     2.4840    47.7470    22.3660    22.2080    23.2770    25.6860 
  134.1250    -8.9790     2.4960    48.7420    22.3120    22.0400    23.0950    25.3860 
  134.2500    -8.8320     2.5010    50.3790    22.5170    22.1430    22.9870    25.0800 
  134.3750    -8.6390     2.4970    52.8370    22.9070    22.4800    23.3310    24.8980 
  134.5000    -8.4890     2.4880    55.6170    23.3330    22.9150    23.9450    24.7490 
  134.6250    -8.3280     2.4750    57.5290    23.6580    23.3100    24.5960    24.5660 
  134.7500    -8.1270     2.4590    57.8520    23.7650    23.5230    24.7630    24.5260 
  134.8750    -7.9490     2.4460    57.0530    23.6260    23.4820    24.2270    24.8790 
  135.0000    -7.7690     2.4430    55.9450    23.3340    23.2420    23.3840    25.5370 
  135.1250    -7.5800     2.4530    54.7050    22.9790    22.8880    22.6070    26.1260 
  135.2500    -7.4320     2.4720    53.4230    22.6300    22.4960    22.1060    26.3570 
  135.3750    -7.2860     2.4890    52.0420    22.2820    22.0880    22.1820    26.3320 
  135.5000    -7.1270     2.4920    50.3930    21.8720    21.6260    22.5830    26.3150 
  135.6250    -7.0280     2.4850    48.9580    21.3300    21.0430    22.2900    26.3820 
  135.7500    -6.9460     2.4770    48.9720    20.6150    20.2840    20.9260    26.4770 
  135.8750    -6.8290     2.4740    51.0100    19.7790    19.3820    19.5630    26.5070 
  136.0000    -6.7750     2.4760    53.8660    18.9790    18.4740    18.6910    26.4370 
  136.1250    -6.7750     2.4760    55.9590    18.3850    17.7180    17.7520    26.2610 
  136.2500    -6.7770     2.4730    56.0280    18.1670    17.2840    16.6960    25.9720 
  136.3750    -6.8350     2.4690    54.2240    18.3920    17.2610    16.3900    25.7030 
  136.5000    -6.9300     2.4710    51.4120    18.9520    17.5840    17.3150    25.5990 
  136.6250    -7.0120     2.4800    48.3970    19.7010    18.1500    18.9390    25.6180 
