~V
VERS. 2.00: Ver 2.00
~W
STRT.M 50.0000:
STOP.M 281.0000:
STEP.M 0.1250:
NULL. -999.2500:
UWI. F10222:
~C
DEPT.M :
GR.API :
RML.OHMM :
RI. :
RXO.OHMM :
CALI.CM :
DEN.GM/CC :
SP.MV :
~A
# ...
  196.2500    50.6410   324.3280   291.6750   276.0750    27.2190     2.1840   -35.5200 
  196.3750    50.6430   307.9410   276.2660   259.6120    27.1430     2.1760   -35.1990 
  196.5000    52.3620   260.5850   236.2290   197.6730    27.1740     2.1750   -34.8200 
  196.6250    52.5780   210.4490   192.4500   133.7690    27.2160     2.1800   -34.3650 
  196.7500    53.9350   166.9960   153.8460   100.2140    26.8990     2.1890   -33.8350 
  196.8750    59.3770   132.0280   122.4080    85.3660    26.2960     2.2030   -33.2720 
  197.0000    65.5750   105.6900    98.6550    71.2840    25.7330     2.2210   -32.6550 
  197.1250    66.3570    88.2180    83.1600    52.4520    25.3950     2.2390   -32.0300 
  197.2500    65.2170    76.7800    73.2700    43.6350    25.1040     2.2540   -31.3410 
  197.3750    65.4330    69.9210    67.5140    40.0940    24.9000     2.2660   -30.6700 
  197.5000    66.7570    66.1480    64.5280    40.8560    25.0520     2.2720   -29.9960 
  197.6250    66.5410    63.7740    62.8790    43.5450    25.5720     2.2680   -29.3030 
  197.7500    67.0070    60.6730    60.5860    45.6570    26.1420     2.2570   -28.6390 
  197.8750    69.5900    55.6030    56.2540    44.7880    26.4480     2.2460   -27.9620 
  198.0000    74.3090    48.1790    49.2260    40.4490    26.4010     2.2420   -27.3070 
  198.1250    77.9480    39.0810    40.0950    32.3000    26.0260     2.2550   -26.6290 
  198.2500    79.1930    30.2080    31.1200    23.2510    25.4110     2.2810   -26.0080 
  198.3750    82.1660    22.8040    23.7200    15.9790    24.7180     2.3120   -25.3970 
  198.5000    88.1600    17.5670    18.4970    11.1610    24.1840     2.3420   -24.8130 
  198.6250    94.4560    15.0750    15.7420     8.8870    23.8940     2.3650   -24.3110 
  198.7500    99.1950    14.7570    14.7800     8.4850    23.7450     2.3770   -23.8590 
  198.8750    99.7000    16.3340    15.3880     9.4810    23.6660     2.3790   -23.4980 
  199.0000    93.7600    19.4200    17.4160    12.5910    23.6620     2.3710   -23.1860 
  199.1250    80.3810    23.3680    20.6800    18.6860    23.8560     2.3500   -22.9690 
  199.2500    68.0300    26.8920    24.0820    22.6260    24.3030     2.3240   -22.7470 
  199.3750    62.3840    29.1260    26.5770    20.5720    24.8630     2.3050   -22.5710 
  199.5000    62.3730    30.1300    27.8540    19.4330    25.3970     2.3080   -22.4010 
  199.6250    66.7370    31.1730    28.7610    21.6630    25.7560     2.3290   -22.2180 
  199.7500    72.3030    33.6130    30.5220    26.4110    25.8140     2.3510   -22.0140 
  199.8750    76.5700    37.9250    33.7260    34.6100    25.7430     2.3660   -21.7640 
  200.0000    76.9840    43.5740    38.2340    39.4920    25.6630     2.3800   -21.4870 
  200.1250    73.4540    48.1310    42.2190    41.0160    25.6240     2.4050   -21.1640 
  200.2500    67.4850    48.4010    42.5350    41.6290    25.6540     2.4370   -20.8540 
  200.3750    60.9030    42.9710    37.6740    41.0370    25.7310     2.4610   -20.5060 
  200.5000    57.5540    33.6540    29.4600    37.5150    25.8080     2.4700   -20.2020 
  200.6250    59.8190    24.2520    21.4650    25.7020    25.8590     2.4670   -19.9140 
  200.7500    62.0090    17.0820    15.4610    14.9660    25.9350     2.4580   -19.6630 
  200.8750    61.5360    12.3990    11.4830     9.4050    26.0200     2.4360   -19.4530 
  201.0000    60.9660     9.7200     9.0850     7.5480    26.0540     2.4050   -19.3070 
  201.1250    62.0540     8.5780     7.9340     7.0740    25.9980     2.3850   -19.2190 
  201.2500    62.3830     8.2290     7.4810     6.8620    25.7440     2.3860   -19.1430 
  201.3750    59.9110     8.3860     7.5070     6.7490    25.3220     2.4010   -19.1130 
  201.5000    56.1290     8.8530     7.8470     6.8730    24.7630     2.4260   -19.0590 
  201.6250    53.5290     9.4720     8.3640     7.6940    24.3190     2.4610   -19.0400 
  201.7500    51.5770    10.0410     8.8730     8.9950    24.3100     2.5050   -18.9990 
  201.8750    50.7570    10.4070     9.2390     9.6500    24.6010     2.5440   -18.9580 
  202.0000    52.0750    10.4840     9.3760     9.2680    24.9620     2.5650   -18.8970 
  202.1250    56.1790    10.2730     9.2640     8.1240    25.2900     2.5510   -18.8470 
  202.2500    58.0330     9.9570     9.0290     7.6050    25.6200     2.5110   -18.8150 
  202.3750    55.5030     9.6550     8.7450     7.6710    25.8190     2.4550   -18.8200 
  202.5000    53.1010     9.4150     8.4490     8.0410    25.8470     2.3980   -18.8740 
  202.6250    54.3650     9.2210     8.1520     7.8520    25.6050     2.3600   -18.9450 
  202.7500    54.9800     9.0320     7.8540     7.1150    25.1590     2.3430   -19.0590 
  202.8750    51.4510     8.8490     7.5660     6.5370    24.7820     2.3450   -19.1630 
  203.0000    48.3720     8.7050     7.3060     6.4520    24.6980     2.3620   -19.2800 
  203.1250    49.5930     8.6340     7.1050     6.7540    24.8360     2.3880   -19.3560 
  203.2500    51.3800     8.6120     6.9590     7.0210    24.9630     2.4150   -19.4490 
  203.3750    54.7270     8.6050     6.8520     7.0650    25.0040     2.4340   -19.4950 
  203.5000    62.9740     8.6070     6.7750     7.0050    24.9860     2.4410   -19.4710 
  203.6250    76.7640     8.6850     6.7590     7.0400    24.9960     2.4360   -19.4300 
  203.7500    89.5430     8.9770     6.8730     7.4050    25.1070     2.4280   -19.3170 
  203.8750    98.1290     9.6530     7.2210     8.1090    25.2690     2.4280   -19.2030 
  204.0000   100.7020    10.8500     7.8890     8.8940    25.3350     2.4460   -19.0710 
  204.1250    94.1850    12.6690     8.9720    10.1530    25.2320     2.4770   -18.9770 
  204.2500    83.3950    14.7920    10.3460    11.5060    25.3380     2.5020   -18.8550 
  204.3750    75.0360    16.7630    11.7910    13.3380    25.5560     2.5160   -18.7290 
  204.5000    74.3690    17.9670    12.9040    16.7620    25.7590     2.5210   -18.6210 
  204.6250    77.9870    17.6810    13.0710    18.0270    25.8630     2.5210   -18.5000 
  204.7500    77.5740    16.2240    12.3380    16.6910    25.8940     2.5100   -18.4090 
  204.8750    73.1980    14.1700    11.0420    13.9030    25.7750     2.4870   -18.3090 
  205.0000    73.2120    12.1470     9.6250    11.2380    25.4360     2.4550   -18.2150 
  205.1250    81.0580    10.6350     8.4430     9.9310    24.7120     2.4350   -18.0470 
  205.2500    90.6240     9.6460     7.5750     9.0260    24.1020     2.4300   -17.8400 
  205.3750    97.2320     9.1090     7.0210     8.6030    24.1370     2.4290   -17.5740 
  205.5000    98.4350     8.9380     6.7680     7.9140    24.8580     2.4200   -17.2830 
  205.6250    94.5360     9.1250     6.8530     7.3010    25.7620     2.4050   -16.9490 
  205.7500    90.9900     9.6000     7.2140     7.6550    26.3740     2.3980   -16.6040 
  205.8750    90.8560    10.4060     7.8440     9.4720    26.6020     2.4040   -16.2300 
  206.0000    91.0190    11.6580     8.7650    11.5980    26.6220     2.4200   -15.8140 
  206.1250    88.6040    13.6710    10.1190    12.6470    26.5080     2.4450   -15.3850 
  206.2500    87.8760    16.4430    11.9330    13.9660    26.2730     2.4750   -14.9730 
  206.3750    89.8430    19.6470    14.1120    17.5980    26.0390     2.5110   -14.6120 
  206.5000    90.0960    22.2510    16.0890    19.3330    25.9470     2.5550   -14.2600 
  206.6250    83.1160    22.0020    16.2400    20.0970    25.9350     2.6010   -13.9240 
  206.7500    75.9450    18.4840    14.0530    20.0550    26.0080     2.6340   -13.5570 
  206.8750    74.6470    13.1870    10.5700    17.9460    25.9820     2.6450   -13.2120 
  207.0000    77.9150     8.3550     7.2980    12.0540    25.7710     2.6330   -12.8770 
  207.1250    76.7480     5.5120     5.1440     7.2030    25.3580     2.5890   -12.6110 
  207.2500    70.7170     4.2700     3.9310     5.2300    24.7530     2.5190   -12.3750 
  207.3750    63.7320     4.1600     3.4690     5.1630    24.2430     2.4440   -12.1620 
