~V
VERS. 2.00: Ver 2.00
~W
STRT.M 56.0000:
STOP.M 284.0000:
STEP.M 0.1250:
NULL. -999.2500:
UWI. F10233:
~C
DEPT.M :
GR.API :
RML.OHMM :
RI. :
RXO.OHMM :
CALI.CM :
DEN.GM/CC :
SP.MV :
~A
# ...
  236.0000    64.2030    49.0950    44.1080    18.0220    22.3620     2.3100   -20.6260 
  236.1250    63.2050    48.7190    44.4890    17.6910    22.3680     2.3100   -20.8200 
  236.2500    65.6510    48.1600    44.1690    17.4070    22.3790     2.3110   -20.9740 
  236.3750    70.0520    48.3400    44.1180    17.1540    22.3680     2.3110   -21.1190 
  236.5000    70.8880    49.4620    44.6680    18.2980    22.4190     2.3050   -21.2360 
  236.6250    67.7240    51.4300    45.8730    23.3160    22.7780     2.2900   -21.3130 
  236.7500    65.9450    53.7190    47.3960    32.4920    23.4450     2.2760   -21.4290 
  236.8750    66.9380    56.0290    49.0280    41.9210    24.1710     2.2700   -21.5910 
  237.0000    68.1710    58.2180    50.6870    49.0650    24.6800     2.2720   -21.6820 
  237.1250    67.7140    60.2800    52.4020    52.5510    24.8490     2.2760   -21.7080 
  237.2500    66.9280    62.3050    54.2100    55.5640    24.9050     2.2800   -21.7650 
  237.3750    66.7520    64.2450    56.0790    58.7970    24.8730     2.2800   -21.8170 
  237.5000    67.7940    65.8690    57.8160    64.3920    24.7710     2.2780   -21.8290 
  237.6250    67.4250    66.7830    59.0550    64.4940    24.7180     2.2760   -21.7910 
  237.7500    65.0030    67.1490    59.8300    64.7130    24.7290     2.2740   -21.7280 
  237.8750    62.6030    67.4630    60.4390    62.8710    24.7770     2.2700   -21.6340 
  238.0000    62.8500    68.4200    61.3530    61.7630    24.7880     2.2640   -21.5120 
  238.1250    65.1510    70.8910    63.2510    61.8970    24.7400     2.2600   -21.4230 
  238.2500    66.4340    74.8480    66.3200    64.2800    24.7360     2.2570   -21.3170 
  238.3750    66.0310    79.9410    70.4850    71.9860    24.7880     2.2550   -21.2010 
  238.5000    64.5110    85.4570    75.2520    83.5190    24.8330     2.2560   -21.0970 
  238.6250    61.7550    90.3620    79.7060    90.6220    24.8260     2.2610   -20.9720 
  238.7500    60.0270    94.1250    83.2060    93.7890    24.7810     2.2680   -20.8590 
  238.8750    60.7450    96.7740    85.6830    93.7970    24.7590     2.2720   -20.7740 
  239.0000    62.4090    98.7930    87.5780    90.9810    24.7880     2.2740   -20.6820 
  239.1250    64.0430   100.8950    89.5760    92.4670    24.7770     2.2750   -20.5620 
  239.2500    65.4830   103.4840    92.0930    96.2050    24.7340     2.2760   -20.4350 
  239.3750    65.2630   106.5630    95.1600   103.2340    24.7270     2.2730   -20.3360 
  239.5000    62.7310   109.8150    98.5260   109.1900    24.7630     2.2720   -20.2370 
  239.6250    59.5240   112.3020   101.4630   115.7360    24.7610     2.2840   -20.0780 
  239.7500    57.6000   112.9800   102.9990   116.4660    24.6940     2.3030   -19.8740 
  239.8750    56.1660   110.8690   102.1470   110.8310    24.5940     2.3170   -19.7060 
  240.0000    55.0410   105.5000    98.3360   107.4890    24.6340     2.3160   -19.5900 
  240.1250    55.0410    97.1750    91.5920   100.3460    24.7150     2.3030   -19.3740 
  240.2500    57.2460    88.1110    83.8170    86.9470    24.7480     2.2930   -19.0990 
  240.3750    61.7520    80.0550    76.5570    73.4710    24.7250     2.2900   -18.8570 
  240.5000    65.2700    74.2520    71.0320    69.0600    24.7140     2.2920   -18.7060 
  240.6250    67.5900    71.6710    68.3090    65.3350    24.7160     2.2880   -18.5820 
  240.7500    70.7070    71.4400    67.8360    62.1840    24.7170     2.2790   -18.3790 
  240.8750    72.3320    72.4820    68.7830    67.1580    24.7370     2.2750   -18.1530 
  241.0000    69.8070    73.3760    69.9060    76.6330    24.7730     2.2820   -17.9670 
  241.1250    65.6270    72.5170    69.6450    83.3260    24.6280     2.2950   -17.7610 
  241.2500    64.3820    69.7820    67.5680    82.9500    24.3080     2.2960   -17.5250 
  241.3750    64.3710    65.8650    64.0650    73.0540    24.1050     2.2830   -17.2660 
  241.5000    64.1940    61.7530    60.0110    61.2950    24.2340     2.2720   -16.9970 
  241.6250    67.6740    58.0340    56.1240    57.2660    24.6160     2.2830   -16.6950 
  241.7500    73.7660    54.4150    52.4050    56.3030    24.7810     2.3100   -16.3810 
  241.8750    77.1000    50.4790    48.5680    54.9030    24.6870     2.3370   -16.0350 
  242.0000    75.6900    46.1090    44.4850    50.0980    24.3540     2.3480   -15.6970 
  242.1250    71.7280    41.7830    40.4830    43.5060    24.0070     2.3430   -15.4320 
  242.2500    69.6540    38.3190    37.1930    39.0170    23.8630     2.3320   -15.1390 
  242.3750    69.6340    36.3150    35.1460    35.0240    23.9030     2.3240   -14.7820 
  242.5000    70.0230    35.9810    34.6060    34.2160    24.0630     2.3320   -14.3670 
  242.6250    71.2600    37.2420    35.6630    35.9170    24.2220     2.3740   -14.0670 
  242.7500    73.3950    39.0440    37.4770    40.8920    24.2860     2.4360   -13.8670 
  242.8750    76.3330    40.2580    39.0540    41.4240    24.2310     2.4850   -13.6350 
  243.0000    78.3950    39.7230    39.1940    37.7140    24.1340     2.4820   -13.2990 
  243.1250    76.7700    36.4940    36.6890    36.7720    23.9710     2.4180   -13.0230 
  243.2500    73.8000    31.5840    32.2740    37.1880    23.7890     2.3510   -12.8600 
  243.3750    72.4750    26.1190    27.0090    36.1250    23.6130     2.3130   -12.7240 
  243.5000    73.3580    21.0490    21.9180    31.4520    23.5210     2.3080   -12.5610 
  243.6250    73.2720    17.1020    17.8260    23.1840    23.7610     2.3240   -12.3310 
  243.7500    70.4700    14.2660    14.8020    17.0270    24.2180     2.3440   -12.1280 
  243.8750    69.9550    12.4540    12.7800    13.2250    24.5250     2.3640   -11.9840 
  244.0000    75.6700    11.5100    11.6150    11.1100    24.6440     2.3770   -11.8720 
  244.1250    81.7930    11.3610    11.2500    11.4270    24.6020     2.3700   -11.6990 
  244.2500    82.6460    11.7060    11.4080    13.5900    24.4930     2.3380   -11.5050 
  244.3750    80.0910    12.3750    11.9440    15.7740    24.3580     2.2990   -11.3800 
  244.5000    78.1810    13.2100    12.7130    14.6500    24.2160     2.2820   -11.3710 
  244.6250    75.4520    14.0790    13.5780    14.2930    24.1010     2.2940   -11.4310 
  244.7500    70.7450    14.8910    14.4040    15.1940    24.0290     2.3080   -11.3990 
  244.8750    68.8150    15.6050    15.1180    16.6940    23.9950     2.3060   -11.3350 
  245.0000    72.2200    16.1870    15.6680    17.8540    24.0410     2.2880   -11.3720 
  245.1250    74.3720    16.5370    15.9520    18.2020    24.1040     2.2690   -11.5010 
  245.2500    70.6190    16.6310    15.9560    18.1720    24.1750     2.2590   -11.6280 
  245.3750    65.2660    16.4970    15.7090    18.4430    24.2380     2.2590   -11.6860 
  245.5000    64.6140    16.2530    15.3260    18.5320    24.3790     2.2610   -11.6650 
  245.6250    68.0190    16.0860    14.9860    18.1310    24.5460     2.2620   -11.6480 
  245.7500    69.6090    16.1270    14.8220    17.5080    24.6680     2.2610   -11.7410 
  245.8750    68.1200    16.4160    14.8920    17.1520    24.7090     2.2620   -11.8990 
  246.0000    65.2340    16.9140    15.1850    17.5670    24.7120     2.2660   -11.9890 
  246.1250    63.8800    17.5150    15.6490    19.1030    24.7170     2.2700   -11.9930 
  246.2500    64.2660    18.0430    16.1340    20.3020    24.7460     2.2730   -12.0190 
  246.3750    65.4500    18.3740    16.5200    20.6290    24.7970     2.2720   -12.1320 
  246.5000    66.4860    18.4520    16.7200    20.0380    24.8720     2.2670   -12.3430 
  246.6250    67.3660    18.3660    16.7340    19.2900    24.9610     2.2620   -12.5490 
  246.7500    67.7180    18.3920    16.7580    19.0520    24.9800     2.2590   -12.6730 
  246.8750    66.6770    18.7100    16.9510    18.2320    24.9370     2.2580   -12.7460 
  247.0000    65.7210    19.2940    17.3410    17.4180    24.8840     2.2660   -12.9050 
  247.1250    64.6230    19.7920    17.7140    18.8370    24.7750     2.2920   -13.1690 
