~V
VERS. 2.00: Ver 2.00
~W
STRT.M 53.0000:
STOP.M 282.0000:
STEP.M 0.1250:
NULL. -999.2500:
UWI. F10240:
~C
DEPT.M :
GR.API :
RML.OHMM :
RI. :
RXO.OHMM :
CALI.CM :
DEN.GM/CC :
SP.MV :
~A
# ...
  154.2500    83.4060     6.9190     4.9020     6.2610    24.9910     2.3590   -14.2230 
  154.3750    86.1400     7.1380     5.0470     5.8640    25.0240     2.3530   -14.3140 
  154.5000    85.5900     7.4050     5.2420     6.8080    25.1260     2.3540   -14.3930 
  154.6250    81.4520     7.5450     5.3930     7.5890    25.2150     2.3510   -14.4580 
  154.7500    78.1410     7.4380     5.4110     7.3970    25.2480     2.3360   -14.5130 
  154.8750    77.8880     7.0650     5.2600     7.0270    25.2510     2.3160   -14.5530 
  155.0000    79.8500     6.5390     4.9730     6.3520    25.2500     2.3050   -14.5830 
  155.1250    82.7440     6.0940     4.6900     5.4480    25.2190     2.3050   -14.6200 
  155.2500    85.6330     5.8690     4.5100     5.0550    25.1870     2.3120   -14.6430 
  155.3750    86.7750     5.9020     4.4760     5.0680    25.1770     2.3140   -14.6570 
  155.5000    85.3000     6.1560     4.5960     5.3580    25.1860     2.3070   -14.7250 
  155.6250    85.0230     6.4570     4.7760     5.8950    25.1860     2.2960   -14.8160 
  155.7500    85.1010     6.6650     4.9300     6.3330    25.1730     2.2840   -14.8900 
  155.8750    83.5620     6.6910     4.9860     6.4910    25.1520     2.2770   -14.9940 
  156.0000    80.7190     6.5400     4.9170     5.9980    25.1120     2.2770   -15.1480 
  156.1250    78.4510     6.3800     4.8100     5.6140    25.1060     2.2820   -15.2690 
  156.2500    78.9810     6.3640     4.7610     5.6060    25.1340     2.2880   -15.3760 
  156.3750    82.1440     6.6190     4.8590     6.1130    25.1670     2.2910   -15.5130 
  156.5000    85.2060     7.2810     5.2050     6.8070    25.1720     2.2860   -15.6630 
  156.6250    85.1110     8.2820     5.7860     7.6730    25.1810     2.2750   -15.8070 
  156.7500    81.5310     9.4990     6.5600     8.8920    25.1830     2.2590   -15.9550 
  156.8750    76.8190    10.7260     7.4240    10.5690    25.2110     2.2400   -16.1060 
  157.0000    72.8490    11.7030     8.2130    12.1660    25.2550     2.2240   -16.2550 
  157.1250    72.1070    12.4290     8.8610    12.9940    25.2910     2.2150   -16.3780 
  157.2500    73.9480    13.1030     9.4320    12.8780    25.2970     2.2150   -16.4700 
  157.3750    74.3870    14.0400    10.0900    12.8120    25.3060     2.2180   -16.5470 
  157.5000    71.5450    15.6310    11.0900    14.5000    25.3010     2.2180   -16.6190 
  157.6250    68.6340    17.8160    12.4910    18.2690    25.3010     2.2130   -16.6720 
  157.7500    66.6050    20.3090    14.2090    22.2760    25.2890     2.2020   -16.7210 
  157.8750    63.8700    22.5860    15.9740    24.8630    25.2810     2.1900   -16.7670 
  158.0000    59.2430    23.9940    17.3380    24.7870    25.2640     2.1850   -16.7920 
  158.1250    56.6200    24.6740    18.2310    23.2850    25.2650     2.1880   -16.8530 
  158.2500    57.8640    25.2030    18.9140    21.9940    25.2700     2.2000   -16.9740 
  158.3750    60.2370    26.2760    19.8160    21.7480    25.2770     2.2160   -17.0860 
  158.5000    60.3280    28.4210    21.3830    24.5240    25.2620     2.2250   -17.1470 
  158.6250    59.9990    31.2060    23.5110    28.5390    25.2620     2.2240   -17.2260 
  158.7500    61.2640    33.9040    25.8230    32.2400    25.2760     2.2160   -17.3240 
  158.8750    62.2460    35.6910    27.7210    34.9960    25.3020     2.2050   -17.4160 
  159.0000    60.4840    35.9130    28.5300    33.3370    25.3040     2.1960   -17.5140 
  159.1250    58.6880    35.1810    28.4510    28.4550    25.3150     2.1890   -17.5970 
  159.2500    59.6890    34.1670    27.9110    26.3460    25.3330     2.1820   -17.6330 
  159.3750    64.1000    33.2800    27.2820    27.9330    25.3480     2.1710   -17.6610 
  159.5000    66.8840    32.5200    26.6850    29.2500    25.3530     2.1600   -17.7060 
  159.6250    63.9660    31.7120    26.0670    30.7040    25.3520     2.1560   -17.7500 
  159.7500    57.2480    30.8960    25.4540    31.1680    25.3530     2.1610   -17.7850 
  159.8750    53.4000    30.3700    25.0250    28.2260    25.3490     2.1720   -17.7960 
  160.0000    55.8190    30.7790    25.2060    25.0450    25.3560     2.1770   -17.7900 
  160.1250    59.0560    32.3840    26.2340    26.2340    25.3640     2.1710   -17.8120 
  160.2500    59.4510    35.1880    28.2190    31.6150    25.3820     2.1510   -17.8700 
  160.3750    57.6340    38.7960    31.0050    36.6030    25.3890     2.1240   -17.9620 
  160.5000    56.8310    42.3850    34.0930    37.9270    25.3920     2.0980   -18.0870 
  160.6250    56.8360    45.1640    36.7520    37.2580    25.3960     2.0770   -18.1850 
  160.7500    55.9960    46.8910    38.6090    36.6290    25.4150     2.0640   -18.2690 
  160.8750    53.8880    47.8240    39.6880    35.9750    25.4490     2.0600   -18.3900 
  161.0000    51.7900    48.4010    40.2280    36.1660    25.4230     2.0640   -18.5290 
  161.1250    51.2850    48.9270    40.5620    36.8240    25.3520     2.0700   -18.6350 
  161.2500    52.4910    49.4160    40.7790    37.7880    25.2500     2.0730   -18.7130 
  161.3750    54.7480    49.9300    40.9820    38.3600    25.1540     2.0720   -18.7810 
  161.5000    56.3870    50.7890    41.4630    37.7240    25.1510     2.0700   -18.8460 
  161.6250    56.5690    52.2950    42.5040    37.3920    25.2300     2.0700   -18.9410 
  161.7500    56.5060    54.6040    44.3020    38.4480    25.2770     2.0710   -19.0350 
  161.8750    56.2710    57.5750    46.8540    41.7800    25.3020     2.0710   -19.0750 
  162.0000    53.7140    60.6240    49.8700    47.1050    25.3050     2.0660   -19.0910 
  162.1250    50.3650    62.9670    52.6440    50.0330    25.3160     2.0600   -19.1150 
  162.2500    50.0730    64.2460    54.6660    50.2380    25.3210     2.0610   -19.1350 
  162.3750    53.5930    64.7020    55.8280    50.0230    25.3150     2.0730   -19.1190 
  162.5000    56.1350    64.9310    56.4020    50.4510    25.3130     2.0940   -19.0310 
  162.6250    54.7460    64.8140    56.5270    49.6520    25.3040     2.1130   -18.8870 
  162.7500    52.9060    62.8560    55.1900    48.3240    25.2920     2.1210   -18.7260 
  162.8750    54.0400    56.9990    50.6120    49.0070    25.2950     2.1160   -18.5830 
  163.0000    58.3790    46.2260    41.5620    49.4740    25.2980     2.1040   -18.4590 
  163.1250    62.2280    34.1530    31.1050    42.4010    25.3030     2.1010   -18.3330 
  163.2500    64.8830    23.9280    22.1020    26.4310    25.2940     2.1140   -18.2020 
  163.3750    69.0210    17.0740    15.9030    12.7480    25.2670     2.1380   -18.0950 
  163.5000    72.6710    13.9850    12.7600     9.3550    25.2360     2.1620   -18.1000 
  163.6250    72.8230    13.4020    11.5870     9.7880    25.2330     2.1810   -18.2120 
  163.7500    70.9190    14.8330    12.0230    12.4730    25.2570     2.1930   -18.3740 
  163.8750    69.6890    17.8320    13.8850    16.5340    25.2770     2.2030   -18.5840 
  164.0000    68.5610    21.5850    16.9010    23.6390    25.2520     2.2110   -18.8680 
  164.1250    65.6490    24.4420    19.7730    27.3580    25.2300     2.2160   -19.2100 
  164.2500    64.2200    25.1550    21.1910    25.9170    25.2290     2.2220   -19.5800 
  164.3750    67.6490    23.5500    20.5860    23.5160    25.2510     2.2310   -19.9340 
  164.5000    72.7750    20.5820    18.4730    19.9360    25.2590     2.2450   -20.2170 
  164.6250    75.5950    17.7900    16.2050    15.5580    25.2660     2.2590   -20.4380 
  164.7500    76.3220    15.7930    14.3800    13.9190    25.2680     2.2720   -20.6550 
  164.8750    78.0720    14.7050    13.1790    13.5370    25.2750     2.2810   -20.8510 
  165.0000    80.7980    14.4410    12.6180    13.5260    25.2630     2.2880   -20.9850 
  165.1250    81.9110    14.5340    12.4100    13.8990    25.2610     2.2940   -21.0680 
  165.2500    80.8970    14.6330    12.3170    14.5180    25.2520     2.3000   -21.1230 
  165.3750    78.5610    14.4610    12.1210    14.6610    25.2270     2.3040   -21.1810 
