~V
VERS. 2.00: Ver 2.00
~W
STRT.M 57.0000:
STOP.M 281.0000:
STEP.M 0.1250:
NULL. -999.2500:
UWI. F10238:
~C
DEPT.M :
GR.API :
RML.OHMM :
RI. :
RXO.OHMM :
CALI.CM :
DEN.GM/CC :
SP.MV :
~A
# ...
   90.7500    65.1530    11.4100     7.3730    10.2310    23.8060     2.0830   -20.4230 
   90.8750    63.3850    12.9290     8.2410    12.3160    23.9170     2.1630   -19.7340 
   91.0000    61.0760    14.5960     9.3130    19.5890    24.0910     2.2750   -19.0400 
   91.1250    59.3820    15.7250    10.2250    29.2500    24.1880     2.3630   -18.3280 
   91.2500    60.5180    15.5250    10.4290    27.6290    24.1440     2.3850   -17.6010 
   91.3750    66.2250    13.9060     9.7040    15.9860    24.0700     2.3530   -16.8540 
   91.5000    73.3340    11.7940     8.4960     9.1570    24.0800     2.3150   -16.1100 
   91.6250    77.6950    10.0710     7.3320     6.6560    24.1830     2.2930   -15.4190 
   91.7500    78.2710     9.2470     6.5870     6.2080    24.2870     2.2920   -14.8560 
   91.8750    76.0000     9.3040     6.3540     6.6400    24.2570     2.3050   -14.4800 
   92.0000    72.2420     9.8230     6.4780     7.3610    24.0390     2.3140   -14.2730 
   92.1250    68.3520    10.4150     6.7690     7.9920    23.7100     2.3070   -14.2590 
   92.2500    66.3690    10.7450     7.0150     8.0880    23.4860     2.2780   -14.4440 
   92.3750    67.5360    10.7240     7.1020     7.5510    23.5510     2.2350   -14.8260 
   92.5000    70.4230    10.5530     7.0820     7.2900    23.8390     2.1950   -15.3740 
   92.6250    72.6310    10.4730     7.0710     7.7720    24.1360     2.1670   -16.0400 
   92.7500    71.7210    10.7830     7.2350     8.9800    24.2650     2.1540   -16.7540 
   92.8750    67.3600    11.8070     7.7660    10.6470    24.1860     2.1640   -17.4400 
   93.0000    62.3770    13.7800     8.8230    12.1270    24.0550     2.2050   -18.0830 
   93.1250    59.1160    16.8510    10.5490    13.4270    23.9640     2.2800   -18.6580 
   93.2500    57.8520    20.8440    12.9790    17.2370    23.9820     2.3710   -19.1540 
   93.3750    56.9470    24.8300    15.7120    27.9610    24.1170     2.4270   -19.5750 
   93.5000    55.5700    27.1690    17.7320    40.7560    24.2540     2.4170   -19.9380 
   93.6250    54.8010    26.6230    18.0610    38.9240    24.2640     2.3510   -20.2630 
   93.7500    55.4660    23.4150    16.5440    24.6000    24.1200     2.2650   -20.5560 
   93.8750    57.2720    19.3050    14.1330    15.8520    23.9350     2.1920   -20.8160 
   94.0000    59.1320    16.0160    11.9640    12.9510    23.8380     2.1450   -21.0630 
   94.1250    60.7780    14.0300    10.4430    12.5560    23.8010     2.1250   -21.3010 
   94.2500    62.0800    13.2300     9.6310    12.4390    23.7710     2.1220   -21.5400 
   94.3750    62.2680    13.2320     9.3930    11.9230    23.7400     2.1310   -21.7640 
   94.5000    61.6110    13.6030     9.4950    11.5030    23.7310     2.1560   -21.9390 
   94.6250    61.3530    14.1380     9.7950    11.5120    23.7470     2.2010   -22.0430 
   94.7500    62.7900    14.6810    10.1660    12.2550    23.7920     2.2550   -22.0760 
   94.8750    65.0310    15.0760    10.4870    14.0750    23.8350     2.2900   -22.0760 
   95.0000    65.1550    15.2020    10.6630    15.8700    23.8220     2.2850   -22.0440 
   95.1250    62.8670    15.0260    10.6530    15.2080    23.8060     2.2470   -22.0010 
   95.2500    60.3100    14.6300    10.4870    12.9690    23.8610     2.2010   -21.9400 
   95.3750    59.5500    14.1910    10.2600    12.0110    23.9130     2.1720   -21.8590 
   95.5000    61.0830    13.8650    10.0690    11.8380    23.8900     2.1650   -21.7560 
   95.6250    63.3400    13.6990     9.9570    11.9710    23.8380     2.1670   -21.6390 
   95.7500    63.7580    13.6470     9.9220    12.1560    23.8350     2.1650   -21.5120 
   95.8750    61.0540    13.6050     9.9170    12.2400    23.8580     2.1520   -21.3490 
   96.0000    56.9230    13.5010     9.8980    12.1970    23.8610     2.1370   -21.1470 
   96.1250    53.9160    13.3630     9.8630    12.1750    23.8400     2.1290   -20.8950 
   96.2500    53.7330    13.3080     9.8650    12.1050    23.8250     2.1340   -20.5710 
   96.3750    55.7110    13.4770     9.9780    11.9520    23.8390     2.1470   -20.1800 
   96.5000    57.5490    13.8870    10.2330    11.8990    23.8790     2.1570   -19.7420 
   96.6250    58.2510    14.3810    10.5610    12.0280    23.9430     2.1570   -19.2460 
   96.7500    59.3150    14.5670    10.7270    12.3550    24.0190     2.1560   -18.6960 
   96.8750    61.4580    14.0220    10.4250    12.8860    24.1050     2.1650   -18.1080 
   97.0000    63.0970    12.6730     9.5530    13.0150    24.2010     2.1920   -17.5010 
   97.1250    64.6820    10.8130     8.2720    11.6740    24.2860     2.2360   -16.8940 
   97.2500    67.8100     9.0230     6.9520     8.9900    24.3920     2.2820   -16.3580 
   97.3750    72.2610     7.8030     5.9370     6.6050    24.5330     2.3090   -15.9360 
   97.5000    76.4460     7.2930     5.3610     5.7720    24.6050     2.3040   -15.6750 
   97.6250    78.6960     7.4740     5.2460     6.0530    24.5480     2.2740   -15.6060 
   97.7500    77.8260     8.2740     5.5900     7.2140    24.3890     2.2370   -15.7420 
   97.8750    74.8330     9.5310     6.3300     8.5440    24.2130     2.2130   -16.0800 
   98.0000    73.1200    10.9660     7.3020     9.4380    24.0870     2.2070   -16.5780 
   98.1250    74.1780    12.3440     8.3540    11.0520    24.0190     2.2100   -17.2150 
   98.2500    75.3210    13.4230     9.2900    13.6610    23.9690     2.2060   -17.9290 
   98.3750    73.6320    14.0390     9.9400    15.0630    23.9180     2.1880   -18.6570 
   98.5000    69.7740    14.2000    10.2480    14.0390    23.8820     2.1630   -19.3290 
   98.6250    66.0600    14.0030    10.2470    12.2660    23.8810     2.1420   -19.9210 
   98.7500    64.1930    13.6280    10.0390    11.5790    23.9480     2.1320   -20.4230 
   98.8750    64.8290    13.2760     9.7640    11.5150    24.0820     2.1290   -20.8300 
   99.0000    66.9090    13.0720     9.5450    11.4470    24.2140     2.1280   -21.1590 
   99.1250    67.1700    13.0390     9.4260    11.4560    24.2790     2.1290   -21.4120 
   99.2500    63.9050    13.1430     9.4050    11.6110    24.2480     2.1320   -21.6110 
   99.3750    59.7960    13.3330     9.4520    11.8500    24.1370     2.1340   -21.7750 
   99.5000    58.3500    13.5560     9.5330    12.0130    24.0130     2.1330   -21.9070 
   99.6250    59.3380    13.7870     9.6330    11.9660    23.9340     2.1340   -22.0180 
   99.7500    60.0180    14.0030     9.7500    11.8110    23.8760     2.1450   -22.1020 
   99.8750    58.9010    14.1870     9.8770    11.8560    23.8110     2.1640   -22.1770 
  100.0000    56.9510    14.3260     9.9930    12.2530    23.7440     2.1790   -22.2530 
  100.1250    55.9350    14.3960    10.0670    12.6620    23.6830     2.1820   -22.3280 
  100.2500    55.8870    14.3670    10.0630    12.4400    23.6540     2.1710   -22.3990 
  100.3750    55.4220    14.2340     9.9710    11.7940    23.6840     2.1540   -22.4570 
  100.5000    54.6230    14.0400     9.8210    11.4930    23.7180     2.1440   -22.5090 
  100.6250    54.7720    13.8270     9.6460    11.4040    23.6880     2.1430   -22.5310 
  100.7500    57.8460    13.6330     9.4780    11.4740    23.6430     2.1470   -22.5160 
  100.8750    63.6560    13.4730     9.3380    11.6160    23.6150     2.1490   -22.4520 
  101.0000    67.8560    13.3500     9.2310    11.7160    23.5490     2.1500   -22.3460 
  101.1250    67.3740    13.2920     9.1730    11.9030    23.4830     2.1500   -22.2070 
  101.2500    63.8620    13.3880     9.2190    12.1630    23.4850     2.1520   -22.0470 
  101.3750    61.9270    13.7410     9.4360    12.2940    23.5280     2.1580   -21.8810 
  101.5000    63.2120    14.3770     9.8480    12.2270    23.5520     2.1680   -21.7100 
  101.6250    65.2890    15.2350    10.4370    12.3980    23.5760     2.1790   -21.5600 
  101.7500    66.0390    16.0970    11.0920    13.0750    23.6270     2.1850   -21.4400 
  101.8750    65.3730    16.6300    11.6090    13.7160    23.6480     2.1840   -21.3580 
