~V
VERS. 2.00: Ver 2.00
~W
STRT.M 53.0000:
STOP.M 286.0000:
STEP.M 0.1250:
NULL. -999.2500:
UWI. F10262:
~C
DEPT.M :
DEN.GM/CC :
GR.API :
RML.OHMM :
RI. :
RXO.OHMM :
CALI.CM :
SP.MV :
~A
# ...
  154.2500     2.4530    74.0210    13.0110    12.2730    10.2510    23.2770    -8.2150 
  154.3750     2.4470    74.8410    13.3410    12.4510    10.6250    23.2420    -8.4030 
  154.5000     2.4450    72.7440    13.5830    12.5930    11.0680    23.2070    -8.5320 
  154.6250     2.4390    68.9110    13.6950    12.6630    11.3680    23.2490    -8.6250 
  154.7500     2.4260    66.0910    13.6920    12.6610    11.5610    23.2950    -8.6790 
  154.8750     2.4050    66.9430    13.6270    12.6150    11.8410    23.3010    -8.7240 
  155.0000     2.3850    68.8520    13.6030    12.5990    11.9740    23.3000    -8.7580 
  155.1250     2.3750    68.5330    13.7110    12.6830    11.9150    23.3420    -8.7960 
  155.2500     2.3780    66.2260    14.0100    12.9190    11.5900    23.4340    -8.8860 
  155.3750     2.3940    65.5860    14.5230    13.3350    11.4240    23.5300    -8.9640 
  155.5000     2.4150    67.8750    15.1230    13.8360    11.7480    23.6800    -8.9720 
  155.6250     2.4390    70.9780    15.6640    14.3110    12.4830    23.8390    -8.8510 
  155.7500     2.4630    73.0240    15.9810    14.6280    13.2540    23.8990    -8.6790 
  155.8750     2.4870    74.1090    15.9270    14.6500    13.1930    23.8730    -8.4150 
  156.0000     2.5070    74.0850    15.6350    14.4570    12.8550    23.8120    -8.1080 
  156.1250     2.5210    73.3230    15.2690    14.1640    12.5370    23.7030    -7.7510 
  156.2500     2.5290    71.6410    14.9730    13.8860    12.3370    23.5840    -7.2690 
  156.3750     2.5290    68.4150    14.8250    13.7070    12.3610    23.5330    -6.8000 
  156.5000     2.5250    65.2820    14.7620    13.6110    12.4100    23.5220    -6.3690 
  156.6250     2.5180    63.0600    14.7230    13.5590    12.4950    23.5360    -6.0510 
  156.7500     2.5110    61.6940    14.6810    13.5240    12.4250    23.5750    -5.8770 
  156.8750     2.5060    61.5760    14.6490    13.5000    12.3700    23.6110    -5.7930 
  157.0000     2.5020    63.5590    14.6080    13.4620    12.3150    23.6410    -5.7890 
  157.1250     2.4980    66.0010    14.4860    13.3560    12.3570    23.6550    -5.8210 
  157.2500     2.4930    65.3570    14.2080    13.1220    12.1750    23.6830    -5.8590 
  157.3750     2.4880    62.9120    13.7250    12.7160    11.6850    23.7450    -5.8910 
  157.5000     2.4830    62.2270    13.1420    12.2190    11.1370    23.8640    -5.9290 
  157.6250     2.4790    61.8660    12.5740    11.7130    10.7980    23.9540    -5.9350 
  157.7500     2.4770    60.0990    12.1150    11.2740    10.7880    24.0140    -5.8890 
  157.8750     2.4750    57.9220    11.8160    10.9470    11.1120    24.0960    -5.7930 
  158.0000     2.4720    57.4200    11.6020    10.6920    11.4010    24.2110    -5.6510 
  158.1250     2.4670    58.7650    11.4020    10.4620    11.3070    24.3050    -5.5510 
  158.2500     2.4620    60.5230    11.1790    10.2270    11.0390    24.4110    -5.5230 
  158.3750     2.4600    58.4140    10.9800    10.0160    11.0430    24.5090    -5.5770 
  158.5000     2.4610    53.4980    10.8940     9.8940    10.8740    24.5940    -5.6640 
  158.6250     2.4650    51.1260    10.9770     9.9060    10.8370    24.6400    -5.7730 
  158.7500     2.4670    52.4290    11.2140    10.0540    10.8580    24.6510    -5.8890 
  158.8750     2.4640    52.6440    11.5300    10.2880    11.2860    24.5430    -5.9630 
  159.0000     2.4580    52.3890    11.7940    10.5010    11.9110    24.4070    -6.0510 
  159.1250     2.4540    54.3700    11.9270    10.6170    12.1060    24.3460    -6.0980 
  159.2500     2.4550    56.8970    11.9050    10.6010    11.7010    24.4310    -6.1030 
  159.3750     2.4620    57.1990    11.7690    10.4700    11.1730    24.4680    -6.0690 
  159.5000     2.4710    57.8060    11.6390    10.3220    10.9770    24.4150    -5.9870 
  159.6250     2.4770    59.0600    11.5950    10.2270    10.8810    24.4460    -5.9090 
  159.7500     2.4790    58.2580    11.6750    10.2240    11.0760    24.6140    -5.8340 
  159.8750     2.4740    55.7170    11.8710    10.3180    11.3880    24.9030    -5.7750 
  160.0000     2.4670    54.8560    12.0940    10.4450    11.5890    25.1080    -5.7550 
  160.1250     2.4610    57.4170    12.2740    10.5550    11.4110    25.1660    -5.7350 
  160.2500     2.4590    61.4850    12.3680    10.6140    11.1220    25.0920    -5.7490 
  160.3750     2.4620    64.5470    12.3630    10.6060    11.3170    24.9280    -5.7610 
  160.5000     2.4670    65.4190    12.3110    10.5600    11.6260    24.8260    -5.7400 
  160.6250     2.4700    65.4200    12.2550    10.5020    11.6460    24.7790    -5.7550 
  160.7500     2.4720    66.8840    12.2110    10.4480    11.5650    24.7540    -5.7800 
  160.8750     2.4750    67.4260    12.1430    10.3800    11.6260    24.7220    -5.8330 
  161.0000     2.4800    65.3540    11.9870    10.2530    12.0880    24.7020    -5.9230 
  161.1250     2.4810    62.1510    11.7020    10.0350    12.1460    24.6850    -6.0270 
  161.2500     2.4730    61.0270    11.2960     9.7260    11.7750    24.7160    -6.1270 
  161.3750     2.4560    63.1600    10.8470     9.3760    11.0380    24.7390    -6.2660 
  161.5000     2.4380    64.2410    10.4830     9.0760    10.2830    24.7440    -6.4300 
  161.6250     2.4260    62.8310    10.2840     8.8900     9.8370    24.7180    -6.5470 
  161.7500     2.4250    60.6040    10.2560     8.8330     9.8290    24.6480    -6.6400 
  161.8750     2.4330    58.8110    10.2820     8.8370     9.9410    24.5600    -6.6830 
  162.0000     2.4390    57.2300    10.1420     8.7320     9.9620    24.5130    -6.6550 
  162.1250     2.4330    56.3410     9.6920     8.3880     9.8710    24.5220    -6.5640 
  162.2500     2.4100    57.7550     8.9270     7.7810     9.5090    24.5950    -6.4810 
  162.3750     2.3740    64.1840     7.9980     7.0140     8.9570    24.6440    -6.3750 
  162.5000     2.3370    75.3770     7.1590     6.2900     6.7320    24.6180    -6.2460 
  162.6250     2.3090    87.1660     6.5440     5.7160     5.9390    24.5270    -6.1230 
  162.7500     2.2960    93.5700     6.1920     5.3330     5.7150    24.4920    -5.9570 
  162.8750     2.2980    92.9490     6.0850     5.1480     5.8140    24.4620    -5.8330 
  163.0000     2.3090    91.5660     6.0890     5.0750     5.8760    24.3620    -5.7370 
  163.1250     2.3220    90.4150     6.1220     5.0570     5.7940    24.2710    -5.6960 
  163.2500     2.3330    87.1050     6.1310     5.0480     5.6230    24.1960    -5.7430 
  163.3750     2.3380    82.6930     6.1050     5.0220     5.5080    24.0970    -5.8330 
  163.5000     2.3360    81.8060     6.0750     4.9850     5.4810    23.9280    -5.9720 
  163.6250     2.3290    84.5810     6.0590     4.9500     5.5810    23.7990    -6.1660 
  163.7500     2.3180    87.5900     6.0650     4.9230     5.7590    23.7690    -6.3840 
  163.8750     2.3120    88.8670     6.0860     4.9060     5.8840    23.8110    -6.6330 
  164.0000     2.3130    91.0190     6.1140     4.8970     5.8360    23.9090    -6.8510 
  164.1250     2.3220    94.3350     6.1510     4.8960     5.8330    24.1160    -7.0090 
  164.2500     2.3360    97.5930     6.2090     4.9100     5.9450    24.4210    -7.0920 
  164.3750     2.3530   100.2270     6.3120     4.9540     6.1730    24.4260    -7.1220 
  164.5000     2.3680   102.3220     6.4690     5.0420     6.3810    24.2280    -7.1470 
  164.6250     2.3790   104.1260     6.6970     5.1890     6.5590    24.0140    -7.1390 
  164.7500     2.3830   105.7910     7.0010     5.4040     6.9140    23.9510    -7.0860 
  164.8750     2.3780   106.2170     7.3660     5.6850     7.2870    24.0260    -7.0110 
  165.0000     2.3670   105.7670     7.7250     5.9820     7.7330    24.1170    -6.9510 
  165.1250     2.3570   104.8510     8.0040     6.2380     8.1070    24.1580    -6.9380 
  165.2500     2.3510   104.3310     8.1320     6.3950     8.0610    24.1460    -6.9760 
  165.3750     2.3500   104.9930     8.0490     6.3940     7.6290    24.1110    -7.0000 
