~V
VERS. 2.00: Ver 2.00
~W
STRT.M 50.0000:
STOP.M 281.0000:
STEP.M 0.1250:
NULL. -999.2500:
UWI. F10222:
~C
DEPT.M :
GR.API :
RML.OHMM :
RI. :
RXO.OHMM :
CALI.CM :
DEN.GM/CC :
SP.MV :
~A
# ...
  173.7500    59.8920    66.1550    54.8420    34.4610    23.9520     2.2630   -33.4070 
  173.8750    55.9770    80.7110    68.2400    43.5650    24.0640     2.2560   -33.9040 
  174.0000    58.3120    94.0920    80.9110    53.1100    24.3880     2.2470   -34.3420 
  174.1250    61.3490   103.4320    90.1890    62.2830    24.9030     2.2440   -34.7340 
  174.2500    60.5200   108.4160    95.6170    74.2870    25.4300     2.2490   -35.0820 
  174.3750    59.3260   109.8910    97.7330    85.1820    25.8700     2.2580   -35.3620 
  174.5000    60.5180   109.5540    97.9060    88.5450    26.0820     2.2650   -35.5960 
  174.6250    64.6860   108.9850    97.5560    86.1970    26.1100     2.2660   -35.7900 
  174.7500    69.9200   108.8540    97.5340    81.7070    26.0770     2.2620   -35.9300 
  174.8750    71.5980   109.0680    97.9370    80.0780    26.0890     2.2580   -36.0650 
  175.0000    67.8420   109.3200    98.5750    82.6490    26.1340     2.2560   -36.1960 
  175.1250    61.6090   109.2820    99.1700    88.0040    26.1900     2.2590   -36.2880 
  175.2500    58.5590   108.8710    99.5350    90.4310    26.2200     2.2590   -36.3960 
  175.3750    57.8320   107.9040    99.4690    88.5040    26.2230     2.2570   -36.4900 
  175.5000    57.8610   105.8880    98.5500    84.3090    26.2110     2.2540   -36.5400 
  175.6250    59.0070   101.7490    95.7890    82.9010    26.2240     2.2560   -36.6230 
  175.7500    60.0110    95.5050    91.0500    83.5340    26.2420     2.2600   -36.6940 
  175.8750    62.2720    87.8130    84.7350    80.1260    26.2540     2.2640   -36.7560 
  176.0000    66.1580    79.9930    77.9060    67.4610    26.2680     2.2700   -36.8240 
  176.1250    69.2390    73.8620    72.1900    58.4820    26.2760     2.2780   -36.8450 
  176.2500    69.0560    70.1700    68.4950    54.9680    26.2680     2.2830   -36.8800 
  176.3750    67.6790    69.1310    67.1910    57.1490    26.2530     2.2820   -36.9320 
  176.5000    67.2140    70.4600    68.1950    61.7530    26.2150     2.2780   -36.9720 
  176.6250    66.2250    73.5590    71.1620    65.2760    26.0740     2.2760   -37.0140 
  176.7500    64.3410    76.9350    74.7120    69.8440    25.9720     2.2760   -37.0590 
  176.8750    64.7330    79.4500    77.6930    73.2980    26.0680     2.2770   -37.0630 
  177.0000    67.9340    80.3300    79.2040    74.3690    26.2260     2.2760   -37.0910 
  177.1250    67.4940    79.1930    78.6970    71.2990    26.1970     2.2740   -37.1020 
  177.2500    62.1700    76.8770    76.8990    66.0180    25.9860     2.2730   -37.0730 
  177.3750    58.1230    74.0840    74.4720    61.6430    25.7120     2.2700   -37.0630 
  177.5000    60.1390    71.4650    72.0440    58.0420    25.3900     2.2650   -37.0380 
  177.6250    65.3960    69.7250    70.2530    52.8090    25.0430     2.2600   -36.9960 
  177.7500    67.9760    69.1160    69.3840    49.7920    24.7740     2.2640   -36.9750 
  177.8750    69.4160    69.7230    69.5740    49.8400    24.6490     2.2750   -36.9590 
  178.0000    72.6640    71.3770    70.7500    50.4750    24.5670     2.2860   -36.9490 
  178.1250    75.3350    73.4110    72.6940    46.3890    24.3180     2.2880   -36.9680 
  178.2500    74.4460    74.3970    74.7880    38.9580    23.9290     2.2840   -37.0080 
  178.3750    70.2790    75.6060    76.5760    33.8600    23.6160     2.2800   -37.0570 
  178.5000    68.4470    77.3950    77.7860    33.1370    23.5020     2.2760   -37.1460 
  178.6250    71.6420    78.9490    78.5580    33.3050    23.4490     2.2700   -37.2810 
  178.7500    74.1880    79.7630    79.6760    30.9340    23.2000     2.2660   -37.4250 
  178.8750    73.2060    80.5130    81.9970    26.8850    22.7150     2.2660   -37.6150 
  179.0000    69.4710    83.4150    86.3710    24.3570    22.3800     2.2690   -37.8080 
  179.1250    66.8760   104.1370    94.0600    25.5910    22.5410     2.2690   -38.0450 
  179.2500    66.4840   116.9060   104.9130    30.4680    23.1620     2.2620   -38.3060 
  179.3750    66.3610   132.2040   118.3570    41.8280    24.0770     2.2440   -38.5590 
  179.5000    65.1520   148.0660   132.7400    63.9560    25.1370     2.2170   -38.8480 
  179.6250    64.6820   160.2230   144.6480   102.8590    25.9750     2.1910   -39.0990 
  179.7500    65.8520   165.1670   151.0740   139.2320    26.3460     2.1770   -39.3620 
  179.8750    64.2820   161.3090   150.2960   143.7900    26.0930     2.1780   -39.6110 
  180.0000    58.9730   150.2030   142.8660   123.4220    25.5670     2.1900   -39.8450 
  180.1250    56.4910   135.4690   131.0750   104.7160    25.1560     2.2100   -40.0930 
  180.2500    60.7550   121.2600   118.7250    98.8030    24.9550     2.2320   -40.3070 
  180.3750    67.5580   109.3210   107.7370    89.4880    24.8900     2.2490   -40.5390 
  180.5000    70.6530   100.1360    99.0090    79.6960    24.8980     2.2610   -40.7440 
  180.6250    67.3690    93.1350    92.4190    73.0870    24.9530     2.2660   -40.9890 
  180.7500    63.7130    86.4550    86.2880    68.0390    25.0050     2.2670   -41.2280 
  180.8750    64.9570    79.2440    79.6890    67.9980    25.0480     2.2670   -41.4940 
  181.0000    70.3820    71.6250    72.5970    71.7870    25.1040     2.2660   -41.7900 
  181.1250    71.0630    64.8470    66.0360    63.1990    25.1470     2.2640   -42.0700 
  181.2500    65.9560    60.3020    61.2920    49.1740    25.1320     2.2630   -42.3990 
  181.3750    62.3120    59.0330    59.4030    42.9200    25.0410     2.2650   -42.7230 
  181.5000    66.2230    61.4620    60.9200    46.8830    24.9120     2.2670   -43.1050 
  181.6250    75.6550    67.9000    66.4410    55.8190    24.7610     2.2690   -43.4550 
  181.7500    79.8420    76.8390    74.8020    53.2650    24.5540     2.2670   -43.8110 
  181.8750    76.1690    86.8280    84.6930    46.8660    24.3170     2.2600   -44.1400 
  182.0000    68.7890    96.0830    94.1860    44.1510    24.0950     2.2490   -44.4750 
  182.1250    64.9090   102.9010   101.1570    39.3990    23.8650     2.2420   -44.7850 
  182.2500    65.6740   107.7310   105.7720    34.9690    23.5250     2.2400   -45.0340 
  182.3750    66.4150   111.3900   108.7980    33.0230    23.1400     2.2420   -45.2740 
  182.5000    65.1910   114.5040   110.9070    36.0250    23.0710     2.2460   -45.4410 
  182.6250    64.1110   117.3630   112.4140    45.2030    23.7470     2.2470   -45.6190 
  182.7500    64.2840   120.2330   113.6580    59.5780    24.7820     2.2470   -45.7690 
  182.8750    64.4260   123.5320   114.9960    71.4890    25.5560     2.2450   -45.9140 
  183.0000    64.3770   128.0100   117.1160    70.7490    25.7080     2.2460   -45.9990 
  183.1250    64.1220   134.9830   121.2860    59.4710    25.3520     2.2500   -46.1020 
  183.2500    61.9820   144.5910   127.8730    55.9400    25.0520     2.2530   -46.2260 
  183.3750    60.5210   156.5310   136.7840    61.8810    25.0030     2.2550   -46.3090 
  183.5000    62.5900   169.8670   147.2580    73.7710    25.2180     2.2550   -46.4220 
  183.6250    63.4880   183.1200   158.0230    83.7700    25.5800     2.2490   -46.4870 
  183.7500    60.4320   194.9380   167.7570   100.6490    25.9670     2.2410   -46.5760 
  183.8750    57.9030   204.4490   175.6460   128.2230    26.3190     2.2330   -46.6420 
  184.0000    61.0660   210.9900   181.1260   152.7140    26.5420     2.2270   -46.7180 
  184.1250    66.1250   213.4380   183.2760   164.1270    26.5130     2.2230   -46.7430 
  184.2500    67.9580   212.5220   182.5700   165.8620    26.1600     2.2210   -46.7340 
  184.3750    68.2350   209.5390   179.8830   149.7260    25.4650     2.2240   -46.7210 
  184.5000    68.8620   206.6340   176.9060   122.4720    24.7810     2.2320   -46.6410 
  184.6250    68.0350   205.7910   175.5800   108.2980    24.4200     2.2360   -46.5470 
  184.7500    63.7790   205.7220   175.4100   104.5420    24.3330     2.2310   -46.3580 
  184.8750    59.8310   203.0150   173.9790   112.8310    24.4810     2.2190   -46.1370 
