~V
VERS. 2.00: Ver 2.00
~W
STRT.M 56.0000:
STOP.M 281.0000:
STEP.M 0.1250:
NULL. -999.2500:
UWI. F10232:
~C
DEPT.M :
SP.MV :
GR.API :
RML.OHMM :
RI. :
RXO.OHMM :
CALI.CM :
DEN.GM/CC :
~A
# ...
  112.2500   -12.9970    61.5250     9.4560     7.5330     8.7670    22.1010     2.2340 
  112.3750   -13.0300    57.8710     9.3360     7.5000     8.4500    22.2460     2.2370 
  112.5000   -13.0480    56.3730     9.0900     7.3610     7.8050    22.5920     2.2330 
  112.6250   -13.0460    57.0880     8.7920     7.1630     7.2430    23.0480     2.2220 
  112.7500   -13.0270    58.5290     8.5280     6.9710     6.8320    23.4600     2.2070 
  112.8750   -12.9770    57.8920     8.3950     6.8610     6.6120    23.7410     2.1920 
  113.0000   -12.8990    56.6990     8.4050     6.8570     6.6170    23.9930     2.1830 
  113.1250   -12.7770    56.5180     8.5380     6.9550     6.9200    24.2450     2.1790 
  113.2500   -12.6110    56.3160     8.7400     7.1240     7.4850    24.5050     2.1780 
  113.3750   -12.4020    56.6830     8.9240     7.3040     7.9220    24.7070     2.1830 
  113.5000   -12.1420    57.4740     9.0210     7.4320     8.1170    24.7440     2.1910 
  113.6250   -11.8160    58.5020     8.9920     7.4700     8.1400    24.6160     2.2040 
  113.7500   -11.4240    60.7850     8.8310     7.4020     8.0180    24.4650     2.2160 
  113.8750   -10.9420    64.9480     8.5380     7.2160     7.7210    24.3840     2.2210 
  114.0000   -10.3910    68.9790     8.1640     6.9500     7.3940    24.3500     2.2190 
  114.1250    -9.7880    70.9140     7.7340     6.6250     7.1320    24.3210     2.2160 
  114.2500    -9.1540    72.1200     7.2770     6.2610     6.8380    24.3000     2.2170 
  114.3750    -8.5220    73.1260     6.8280     5.8870     6.3790    24.2990     2.2300 
  114.5000    -7.9200    73.2950     6.4220     5.5350     5.8650    24.2600     2.2530 
  114.6250    -7.3880    75.1520     6.0870     5.2300     5.4740    24.2160     2.2810 
  114.7500    -6.9400    81.0640     5.8430     4.9920     5.2520    24.1980     2.3080 
  114.8750    -6.6130    85.7450     5.7140     4.8490     5.1270    24.2020     2.3280 
  115.0000    -6.4100    83.8610     5.6800     4.7910     5.0580    24.1900     2.3380 
  115.1250    -6.3310    78.3770     5.7290     4.8130     5.0120    24.1440     2.3380 
  115.2500    -6.3670    74.8410     5.8520     4.9080     5.0140    24.0760     2.3290 
  115.3750    -6.4990    76.7530     6.0470     5.0740     5.1320    24.0270     2.3110 
  115.5000    -6.7050    80.0390     6.2890     5.2850     5.2940    24.0020     2.2900 
  115.6250    -6.9580    80.2020     6.5620     5.5260     5.4500    23.9580     2.2720 
  115.7500    -7.2330    76.3330     6.8490     5.7810     5.5990    23.8700     2.2580 
  115.8750    -7.5220    71.0920     7.1150     6.0230     5.7570    23.7290     2.2490 
  116.0000    -7.7970    68.8190     7.3150     6.2170     5.8600    23.5630     2.2430 
  116.1250    -8.0460    69.3380     7.4020     6.3260     5.9400    23.3860     2.2390 
  116.2500    -8.2570    71.1780     7.3340     6.3130     6.0270    23.1850     2.2370 
  116.3750    -8.4230    74.7470     7.0790     6.1410     5.9530    22.9360     2.2390 
  116.5000    -8.5500    78.7060     6.7190     5.8630     5.6810    22.6830     2.2450 
  116.6250    -8.6570    81.4510     6.3440     5.5470     5.3390    22.4990     2.2550 
  116.7500    -8.7760    81.5420     6.0530     5.2690     5.0780    22.4690     2.2670 
  116.8750    -8.9320    78.5200     5.9510     5.1180     4.9880    22.6530     2.2760 
  117.0000    -9.1120    73.8140     6.0350     5.1060     5.1330    22.9580     2.2770 
  117.1250    -9.3220    69.3500     6.2690     5.2230     5.5880    23.3030     2.2690 
  117.2500    -9.5700    67.2300     6.5790     5.4230     6.3800    23.6210     2.2500 
  117.3750    -9.8670    66.6890     6.8730     5.6440     7.2090    23.8170     2.2260 
  117.5000   -10.2030    65.6740     7.0960     5.8340     7.9610    23.9300     2.2060 
  117.6250   -10.5590    66.5640     7.2540     5.9860     8.2960    23.9870     2.1970 
  117.7500   -10.9130    69.1290     7.4100     6.1360     7.6660    24.0400     2.2000 
  117.8750   -11.2810    68.7230     7.6750     6.3590     6.9890    24.0920     2.2160 
  118.0000   -11.6710    65.2540     8.0870     6.6900     6.9030    24.0750     2.2360 
  118.1250   -12.0720    64.1330     8.6110     7.1140     7.3450    23.9710     2.2550 
  118.2500   -12.4720    65.9040     9.1470     7.5680     8.0430    23.8630     2.2660 
  118.3750   -12.8590    63.5850     9.5290     7.9290     8.6000    23.8610     2.2640 
  118.5000   -13.2080    56.7430     9.6860     8.1250     8.8000    23.9700     2.2500 
  118.6250   -13.5220    51.1750     9.6340     8.1460     8.5900    24.1240     2.2260 
  118.7500   -13.8120    51.8760     9.4690     8.0500     8.2640    24.2340     2.2020 
  118.8750   -14.0430    56.8080     9.3260     7.9360     7.9570    24.2540     2.1870 
  119.0000   -14.2050    59.5070     9.2830     7.8850     7.7140    24.2400     2.1790 
  119.1250   -14.3040    58.9290     9.3510     7.9150     7.5550    24.2280     2.1760 
  119.2500   -14.3400    57.0590     9.5020     8.0160     7.4830    24.2230     2.1740 
  119.3750   -14.3400    56.2750     9.6970     8.1600     7.4590    24.2140     2.1720 
  119.5000   -14.3270    54.3450     9.8780     8.3040     7.4430    24.1890     2.1700 
  119.6250   -14.2990    51.4860    10.0050     8.4120     7.4640    24.1420     2.1700 
  119.7500   -14.2420    49.9520    10.0440     8.4570     7.6210    24.0900     2.1730 
  119.8750   -14.1440    51.8640     9.9680     8.4110     7.8210    24.0690     2.1750 
  120.0000   -14.0360    55.2260     9.8320     8.3070     7.9630    24.0920     2.1730 
  120.1250   -13.9290    56.3740     9.7080     8.1920     7.9800    24.1450     2.1650 
  120.2500   -13.8320    54.3780     9.6840     8.1320     7.9290    24.1820     2.1540 
  120.3750   -13.7190    52.7960     9.8560     8.2040     7.9070    24.1580     2.1510 
  120.5000   -13.5990    54.6290    10.1890     8.4050     7.9380    24.1030     2.1690 
  120.6250   -13.4800    58.8470    10.5960     8.6880     7.9740    24.0760     2.2130 
  120.7500   -13.3570    61.1210    10.9480     8.9690     7.9120    24.1160     2.2730 
  120.8750   -13.2430    60.6760    11.0760     9.1250     7.7890    24.1910     2.3230 
  121.0000   -13.1380    59.7250    10.9550     9.1090     7.7120    24.2360     2.3350 
  121.1250   -13.0270    58.1530    10.6390     8.9340     7.7750    24.2010     2.3090 
  121.2500   -12.9130    56.7910    10.2590     8.6790     7.8890    24.0920     2.2610 
  121.3750   -12.8010    57.1780     9.9860     8.4690     7.9860    23.9520     2.2180 
  121.5000   -12.6700    58.7450     9.8990     8.3810     8.0760    23.8580     2.1920 
  121.6250   -12.5100    58.7160     9.9890     8.4310     8.1750    23.8730     2.1800 
  121.7500   -12.3170    56.1330    10.1710     8.5680     8.2800    24.0290     2.1740 
  121.8750   -12.0720    52.6090    10.2800     8.6780     8.2720    24.3150     2.1630 
  122.0000   -11.7420    50.9010    10.1690     8.6360     8.1300    24.6550     2.1440 
  122.1250   -11.3250    52.5510     9.7490     8.3570     7.7790    24.9400     2.1200 
  122.2500   -10.8190    57.0250     9.0170     7.8210     7.1450    25.0130     2.1050 
  122.3750   -10.2300    62.1700     8.0600     7.0730     6.5440    24.6960     2.1160 
  122.5000    -9.6000    66.2690     7.1040     6.2890     6.0380    24.1980     2.1530 
  122.6250    -8.9630    69.3290     6.3120     5.5990     5.5200    23.7370     2.2090 
  122.7500    -8.3630    72.0010     5.7860     5.0970     5.0170    23.3760     2.2660 
  122.8750    -7.8130    75.2980     5.5990     4.8580     4.9170    23.0890     2.3020 
  123.0000    -7.3340    77.9280     5.6430     4.8210     4.9990    22.8900     2.3130 
  123.1250    -6.9350    77.1090     5.8230     4.9250     5.1010    22.8230     2.3070 
  123.2500    -6.5990    72.8110     6.0280     5.0900     5.2530    22.9150     2.2920 
  123.3750    -6.3140    69.4380     6.1290     5.2100     5.3970    23.2050     2.2790 
