~V
VERS. 2.00: Ver 2.00
~W
STRT.M 53.0000:
STOP.M 286.0000:
STEP.M 0.1250:
NULL. -999.2500:
UWI. F10262:
~C
DEPT.M :
DEN.GM/CC :
GR.API :
RML.OHMM :
RI. :
RXO.OHMM :
CALI.CM :
SP.MV :
~A
# ...
   86.7500     2.4080    78.3140    14.4710    11.7610    17.7790    25.3040   -15.5450 
   86.8750     2.3550    75.7950    13.3020    10.9350    14.3540    25.2180   -16.0730 
   87.0000     2.2840    73.1400    12.4170    10.2080    12.3720    25.2300   -16.5370 
   87.1250     2.2360    72.7250    12.1760     9.8550    11.8720    25.4700   -16.8910 
   87.2500     2.2340    74.6250    12.6310     9.9590    12.1170    25.8010   -17.1630 
   87.3750     2.2780    77.8920    13.5740    10.4780    13.3350    25.9350   -17.3520 
   87.5000     2.3230    78.6330    14.4210    11.0670    15.2240    25.8370   -17.5290 
   87.6250     2.3360    77.6670    14.7350    11.4040    15.9700    25.6750   -17.6870 
   87.7500     2.3020    75.8660    14.3700    11.3060    14.3240    25.5370   -17.8830 
   87.8750     2.2320    72.3650    13.5340    10.8170    13.6020    25.4480   -18.0770 
   88.0000     2.1640    68.2910    12.7160    10.2460    13.4640    25.4800   -18.2150 
   88.1250     2.1170    66.7090    12.1580     9.7740    13.4230    25.5620   -18.3310 
   88.2500     2.0950    69.6860    11.9260     9.4920    13.2270    25.6450   -18.4260 
   88.3750     2.0900    74.3300    11.9590     9.4220    13.0760    25.7340   -18.5680 
   88.5000     2.0890    75.1940    12.0590     9.4530    12.9440    25.8510   -18.7280 
   88.6250     2.0900    70.5790    12.1370     9.5080    12.9660    26.0070   -18.8980 
   88.7500     2.0930    66.1790    12.1670     9.5470    13.1400    26.2230   -19.0790 
   88.8750     2.0990    68.1600    12.1460     9.5520    13.3650    26.4750   -19.2670 
   89.0000     2.1080    73.8390    12.0880     9.5290    13.4690    26.6680   -19.4540 
   89.1250     2.1200    76.4110    12.0050     9.4850    13.4760    26.8430   -19.7020 
   89.2500     2.1340    72.2950    11.9090     9.4300    13.4410    27.0290   -19.9640 
   89.3750     2.1490    65.1750    11.8230     9.3770    13.4040    27.1980   -20.2330 
   89.5000     2.1590    60.6760    11.7640     9.3370    13.4000    27.3820   -20.5200 
   89.6250     2.1620    59.8330    11.7410     9.3180    13.3080    27.6850   -20.7330 
   89.7500     2.1590    60.1450    11.7410     9.3150    13.0320    28.2080   -20.8980 
   89.8750     2.1520    61.3270    11.7390     9.3150    12.7860    28.7280   -20.9880 
   90.0000     2.1410    61.5890    11.7060     9.2990    12.5880    29.0840   -21.0350 
   90.1250     2.1250    58.9000    11.6330     9.2580    12.4660    29.3790   -21.0320 
   90.2500     2.1040    55.3520    11.5320     9.2000    12.2610    29.8150   -20.9650 
   90.3750     2.0770    54.8210    11.4410     9.1470    12.1200    30.1020   -20.8200 
   90.5000     2.0510    56.0090    11.3950     9.1230    12.0870    30.0520   -20.5560 
   90.6250     2.0320    56.5440    11.4130     9.1430    12.1640    29.8130   -20.2280 
   90.7500     2.0250    57.5910    11.4890     9.2060    12.4200    29.5150   -19.8360 
   90.8750     2.0370    60.5390    11.5890     9.2910    12.9910    29.0550   -19.4150 
   91.0000     2.0630    63.6960    11.6590     9.3600    13.3270    28.5770   -18.9880 
   91.1250     2.0920    66.5130    11.6800     9.3940    13.2750    28.1990   -18.5920 
   91.2500     2.1130    67.8970    11.6640     9.3940    13.0150    27.9280   -18.2370 
   91.3750     2.1200    66.9020    11.6370     9.3790    12.7120    27.8020   -17.9360 
   91.5000     2.1200    65.5370    11.6230     9.3690    12.6120    27.7600   -17.7360 
   91.6250     2.1200    66.4920    11.6300     9.3730    12.5720    27.6950   -17.5820 
   91.7500     2.1250    70.0830    11.6500     9.3870    12.6420    27.4340   -17.4980 
   91.8750     2.1270    72.7100    11.6740     9.4080    12.8930    27.0300   -17.5270 
   92.0000     2.1240    70.8930    11.7060     9.4370    12.8960    26.6720   -17.5780 
   92.1250     2.1190    66.3590    11.7640     9.4880    12.6280    26.4210   -17.6420 
   92.2500     2.1190    62.7120    11.8580     9.5720    12.4350    26.3290   -17.7180 
   92.3750     2.1310    63.1650    11.9760     9.6890    12.5360    26.3770   -17.7270 
   92.5000     2.1450    66.6040    12.0800     9.8030    12.6590    26.3730   -17.7670 
   92.6250     2.1490    69.1030    12.1320     9.8830    12.5900    26.3080   -17.8200 
   92.7500     2.1360    68.7710    12.1170     9.9080    12.3380    26.3010   -17.8100 
   92.8750     2.1110    67.1240    12.0470     9.8790    12.0230    26.3420   -17.7680 
   93.0000     2.0920    66.5330    11.9650     9.8280    12.0660    26.2690   -17.6600 
   93.1250     2.0880    67.8390    11.8870     9.7740    12.3810    26.0790   -17.5150 
   93.2500     2.1000    69.9070    11.8140     9.7230    12.6810    25.8950   -17.3640 
   93.3750     2.1190    70.6580    11.7480     9.6780    12.6140    25.8160   -17.2100 
   93.5000     2.1330    69.2370    11.7050     9.6480    12.4750    25.8160   -17.0280 
   93.6250     2.1410    67.4050    11.7170     9.6590    12.3680    25.7540   -16.8150 
   93.7500     2.1440    68.3790    11.8300     9.7430    12.4360    25.6460   -16.6380 
   93.8750     2.1490    71.3690    12.0820     9.9320    12.5250    25.6760   -16.5100 
   94.0000     2.1580    72.0200    12.4020    10.1790    12.5380    25.7500   -16.4300 
   94.1250     2.1670    70.3350    12.6690    10.4010    12.5980    25.7070   -16.3650 
   94.2500     2.1750    69.2590    12.7400    10.4950    12.6710    25.5520   -16.2960 
   94.3750     2.1800    69.4120    12.4570    10.3380    12.6240    25.3740   -16.2270 
   94.5000     2.1860    67.9890    11.9060     9.9730    12.4170    25.2450   -16.1680 
   94.6250     2.2010    66.3500    11.2600     9.5080    12.0300    25.1450   -16.1270 
   94.7500     2.2250    67.4060    10.7590     9.1050    11.7180    25.1080   -16.0940 
   94.8750     2.2450    68.9690    10.6630     8.9550    11.7130    25.1020   -16.0380 
   95.0000     2.2390    69.1030    10.9370     9.0720    11.8040    25.1490   -15.9240 
   95.1250     2.1950    70.1660    11.4450     9.3990    12.7830    25.4760   -15.8000 
   95.2500     2.1230    72.4040    11.9620     9.8010    15.7870    26.0560   -15.7470 
   95.3750     2.0630    71.7810    12.1890    10.0540    18.8410    26.4230   -15.7420 
   95.5000     2.0450    70.5220    12.0560    10.0520    17.1590    26.1090   -15.7830 
   95.6250     2.0660    70.1610    11.6610     9.8270    14.0200    25.6410   -15.9160 
   95.7500     2.1000    68.0570    11.2080     9.5070    12.9160    25.3260   -16.0580 
   95.8750     2.1150    65.1440    10.9300     9.2570    12.7090    25.4110   -16.2580 
   96.0000     2.1020    64.7320    10.8870     9.1550    11.8920    25.6800   -16.5610 
   96.1250     2.0750    66.1320    11.0300     9.1980    11.4700    25.7360   -16.8280 
   96.2500     2.0490    66.8030    11.2280     9.3180    11.7610    25.3160   -16.9920 
   96.3750     2.0360    68.0350    11.3240     9.4080    11.8500    24.9640   -17.0480 
   96.5000     2.0410    70.3410    11.2910     9.4120    11.8710    24.8250   -17.0100 
   96.6250     2.0640    72.2370    11.1780     9.3420    11.9610    24.7870   -16.8300 
   96.7500     2.1040    73.3540    11.0560     9.2350    12.2710    24.7350   -16.5580 
   96.8750     2.1520    72.3440    10.9890     9.1360    12.3490    24.6880   -16.1850 
   97.0000     2.1930    71.0620    10.9910     9.0750    12.2680    24.6610   -15.7160 
   97.1250     2.2140    71.3240    11.0560     9.0620    11.9800    24.4980   -15.2890 
   97.2500     2.2140    70.9160    11.1710     9.0960    11.3810    24.2510   -14.9530 
   97.3750     2.1970    69.3430    11.3230     9.1760    11.3310    24.1460   -14.7030 
   97.5000     2.1780    70.5450    11.4940     9.2830    11.6550    24.2880   -14.5230 
   97.6250     2.1670    74.5650    11.6770     9.4100    11.9330    24.5090   -14.4530 
   97.7500     2.1650    76.1540    11.8630     9.5500    11.9090    24.7140   -14.4710 
   97.8750     2.1700    73.9190    12.0420     9.6930    11.6400    24.7730   -14.6100 
