~V
VERS. 2.00: Ver 2.00
~W
STRT.M 30.0000:
STOP.M 271.0000:
STEP.M 0.1250:
NULL. -999.2500:
UWI. F10210:
~C
DEPT.M :
DEN.GM/CC :
GR.API :
RML.OHMM :
RI. :
RXO.OHMM :
CALI.CM :
SP.MV :
~A
# ...
  176.2500     2.1340    61.1990    91.9870    88.5750    76.2860    24.7280   -25.2470 
  176.3750     2.1080    59.9610    89.2350    86.3820    87.0010    24.7130   -24.9970 
  176.5000     2.0920    57.4720    83.5650    81.2450    86.8170    24.6260   -24.7290 
  176.6250     2.0980    57.9870    76.3140    74.3340    63.5130    24.5560   -24.4760 
  176.7500     2.1170    62.4900    69.4540    67.6370    45.6850    24.4080   -24.2260 
  176.8750     2.1360    66.7290    63.9900    62.1800    44.0590    24.3670   -23.9770 
  177.0000     2.1530    67.5170    60.3380    58.4290    45.9370    24.2700   -23.7120 
  177.1250     2.1710    67.6930    58.5750    56.6120    47.0780    24.1570   -23.4590 
  177.2500     2.1880    69.2470    57.8540    56.0080    47.5990    24.1510   -23.2150 
  177.3750     2.2020    70.2760    57.7020    56.1690    46.4120    24.2410   -23.0030 
  177.5000     2.2110    68.4760    57.9780    56.8960    44.6880    24.1390   -22.8220 
  177.6250     2.2100    66.0270    58.9750    58.4360    45.5230    24.1370   -22.6870 
  177.7500     2.2020    67.0230    60.7420    60.8440    49.5550    24.1310   -22.5880 
  177.8750     2.1960    70.1300    63.0140    63.9460    54.6570    24.1350   -22.5350 
  178.0000     2.1930    72.1230    64.9150    66.9600    62.2230    24.1210   -22.5310 
  178.1250     2.1920    70.6230    64.4230    67.7780    66.1250    24.1120   -22.5690 
  178.2500     2.1920    68.2520    60.4400    64.8460    64.6520    24.1170   -22.6320 
  178.3750     2.1930    67.1090    53.0940    57.9340    60.2610    24.1230   -22.7130 
  178.5000     2.1930    68.7940    44.0940    48.7680    52.3760    24.0970   -22.8070 
  178.6250     2.1870    72.1370    36.1850    40.3770    37.7160    23.8920   -22.9020 
  178.7500     2.1840    75.4900    30.8110    34.4630    27.8360    23.7290   -22.9820 
  178.8750     2.1940    79.5170    28.0800    31.1920    25.1750    23.7110   -23.0480 
  179.0000     2.2120    81.8450    27.3140    29.9420    28.1660    23.6910   -23.0890 
  179.1250     2.2280    78.1540    27.5010    29.7960    36.0770    23.6960   -23.1350 
  179.2500     2.2340    72.6130    27.4990    29.6070    42.4610    23.7010   -23.1940 
  179.3750     2.2360    71.6630    27.0370    29.0180    37.2780    23.7050   -23.2610 
  179.5000     2.2340    76.6410    26.6720    28.4030    24.8560    23.7040   -23.3290 
  179.6250     2.2230    80.6870    28.1070    29.0940    20.1320    23.6940   -23.4390 
  179.7500     2.2080    79.9060    32.6240    32.2840    24.5060    23.6920   -23.5950 
  179.8750     2.1990    74.8650    41.2220    39.1150    41.9410    23.7000   -23.7920 
  180.0000     2.1940    68.1530    54.4690    50.5010    61.8400    23.6910   -24.0200 
  180.1250     2.1880    62.7920    72.5060    67.0650    76.2590    23.7010   -24.2830 
  180.2500     2.1810    59.6240    91.9330    85.4550    97.2260    23.7010   -24.5890 
  180.3750     2.1760    59.3030   108.8980   101.5990   116.9340    23.7040   -24.9350 
  180.5000     2.1730    60.9200   120.7140   112.6060   120.6410    23.6970   -25.3160 
  180.6250     2.1660    62.8600   127.0420   117.9130   116.1470    23.6940   -25.6780 
  180.7500     2.1570    65.9460   130.8510   120.3770   116.7900    23.6970   -26.0210 
  180.8750     2.1510    70.0820   133.8360   121.7420   119.7970    23.7040   -26.3380 
  181.0000     2.1530    73.0990   137.2260   123.3480   125.4100    23.7040   -26.6480 
  181.1250     2.1610    74.1130   141.5300   125.8640   130.5590    23.6980   -26.9380 
  181.2500     2.1620    73.4180   145.9790   128.6990   133.4300    23.7010   -27.1920 
  181.3750     2.1520    71.5550   149.7820   131.1690   134.4960    23.7060   -27.3950 
  181.5000     2.1380    69.3710   152.4300   132.8440   136.7040    23.7060   -27.5470 
  181.6250     2.1320    67.9450   153.5570   133.5160   137.7350    23.7050   -27.6610 
  181.7500     2.1350    66.4300   153.5380   133.5120   139.7190    23.6930   -27.7490 
  181.8750     2.1390    64.2710   152.6470   133.0510   132.3140    23.6910   -27.8270 
  182.0000     2.1410    63.0390   151.1660   132.3370   122.5810    23.7010   -27.8720 
  182.1250     2.1430    63.6440   149.4210   131.5780   111.4740    23.7030   -27.8860 
  182.2500     2.1420    64.6740   147.9440   131.0670   114.6860    23.7540   -27.8730 
  182.3750     2.1310    65.8870   147.2030   131.1510   126.3640    23.8620   -27.8500 
  182.5000     2.1060    67.4310   147.4970   132.1550   129.8260    24.0180   -27.8370 
  182.6250     2.0760    67.5580   148.9020   134.3590   134.4840    24.7790   -27.8310 
  182.7500     2.0570    65.7200   150.8120   137.3540   144.0460    25.5200   -27.8160 
  182.8750     2.0590    64.6790   152.7570   140.7150   149.5340    25.6590   -27.7920 
  183.0000     2.0850    65.2370   154.3440   143.9930   141.2100    25.3860   -27.7710 
  183.1250     2.1260    65.1770   154.6940   146.3760   128.2880    24.6860   -27.7460 
  183.2500     2.1570    63.8700   152.2630   146.4910   122.9940    24.5670   -27.7110 
  183.3750     2.1680    62.7790   144.7980   142.1910   124.1940    24.4830   -27.6530 
  183.5000     2.1640    61.8870   130.8020   131.6190   125.8920    24.2360   -27.5770 
  183.6250     2.1590    61.9420   110.8680   114.2680   120.3050    23.7270   -27.4910 
  183.7500     2.1580    63.2920    95.2130    94.7980    98.2160    23.3690   -27.4070 
  183.8750     2.1670    64.9390    81.9440    77.3060    67.7330    23.2140   -27.3510 
  184.0000     2.1900    65.4840    68.2730    64.4090    48.6910    23.1880   -27.3410 
  184.1250     2.2240    65.5660    60.9780    57.5260    40.5190    23.1870   -27.3800 
  184.2500     2.2530    66.6210    58.2980    54.9980    31.2370    23.1940   -27.4880 
  184.3750     2.2680    67.3000    59.0650    55.7220    30.6930    23.1870   -27.6840 
  184.5000     2.2720    67.7160    61.9160    58.4110    45.9110    23.1720   -27.9470 
  184.6250     2.2760    68.2040    65.2560    61.5620    58.2570    23.1900   -28.2630 
  184.7500     2.2780    68.7130    67.7500    63.9150    60.3840    23.2440   -28.6160 
  184.8750     2.2740    68.9750    69.1830    65.2670    56.3960    23.4310   -28.9780 
  185.0000     2.2610    68.7460    70.2310    66.2560    55.7610    23.6490   -29.3160 
  185.1250     2.2360    67.4790    72.2730    68.1820    60.9650    24.5890   -29.6260 
  185.2500     2.2040    64.7030    76.0010    71.6990    65.0950    25.0520   -29.8900 
  185.3750     2.1720    62.8920    81.4840    76.8710    66.9480    25.1380   -30.1000 
  185.5000     2.1500    64.0490    88.3360    83.3360    73.0510    25.1530   -30.2690 
  185.6250     2.1460    64.7740    96.0330    90.5970    79.6080    25.1450   -30.4090 
  185.7500     2.1520    63.6940   103.9400    98.0560    88.3360    25.1460   -30.5230 
  185.8750     2.1570    63.9000   111.7860   105.4590    94.1950    25.2180   -30.6150 
  186.0000     2.1550    66.5030   119.2120   112.4650   103.5150    25.3370   -30.6980 
  186.1250     2.1490    66.1040   125.1740   118.0880   125.5570    25.5400   -30.7730 
  186.2500     2.1460    61.4680   128.9170   121.6200   142.9460    25.5600   -30.8580 
  186.3750     2.1490    57.7480   130.1170   122.7520   141.0970    25.5780   -30.9600 
  186.5000     2.1580    58.0990   129.2240   121.9100   123.7740    25.5670   -31.0720 
  186.6250     2.1650    60.1690   127.3880   120.1770   109.4530    25.5740   -31.1780 
  186.7500     2.1680    60.4480   126.0940   118.9570   108.8740    25.5710   -31.2930 
  186.8750     2.1700    60.4660   126.0330   118.8990   113.3640    25.5640   -31.4170 
  187.0000     2.1730    61.8780   127.3430   120.1350   116.9470    25.5640   -31.5560 
  187.1250     2.1720    63.8540   129.9760   122.6190   116.1300    25.5710   -31.7180 
  187.2500     2.1700    62.9480   133.4170   125.8650   115.4990    25.5720   -31.8680 
  187.3750     2.1690    59.7840   137.3410   129.5670   118.3830    25.5710   -32.0040 
