~V
VERS. 2.00: Ver 2.00
~W
STRT.M 56.0000:
STOP.M 275.0000:
STEP.M 0.1250:
NULL. -999.2500:
UWI. F10253:
~C
DEPT.M :
GR.API :
RML.OHMM :
RI. :
RXO.OHMM :
CALI.CM :
DEN.GM/CC :
SP.MV :
~A
# ...
   78.5000    52.5640     9.9230     8.1620     9.7120    22.8160     2.1640   -17.8820 
   78.6250    54.0880     9.7060     7.9970     9.6720    22.8270     2.1630   -17.6200 
   78.7500    57.4450     9.4980     7.8200     9.4870    22.8170     2.1630   -17.3490 
   78.8750    57.1780     9.3900     7.6970     9.3650    22.7920     2.1620   -17.1010 
   79.0000    53.3570     9.4170     7.6650     9.4230    22.7440     2.1580   -16.8900 
   79.1250    50.9750     9.5800     7.7350     9.8380    22.6900     2.1510   -16.7110 
   79.2500    51.2260     9.8300     7.8860    10.6150    22.6370     2.1440   -16.5890 
   79.3750    50.6200    10.0860     8.0690    11.3010    22.6090     2.1400   -16.5240 
   79.5000    48.4010    10.2710     8.2250    11.6170    22.6250     2.1390   -16.4660 
   79.6250    46.4020    10.3610     8.3240    11.2330    22.6370     2.1420   -16.4250 
   79.7500    46.7750    10.3660     8.3610    10.5730    22.5820     2.1470   -16.4030 
   79.8750    49.8020    10.3220     8.3520    10.0930    22.4750     2.1540   -16.3920 
   80.0000    52.6320    10.2820     8.3340     9.7960    22.3630     2.1590   -16.3340 
   80.1250    52.7730    10.2700     8.3300     9.5930    22.2810     2.1600   -16.2500 
   80.2500    49.4280    10.2960     8.3490     9.5220    22.2530     2.1570   -16.1440 
   80.3750    45.9110    10.3690     8.3990     9.6290    22.2780     2.1540   -16.0270 
   80.5000    44.7790    10.4650     8.4620     9.8510    22.3260     2.1530   -15.9100 
   80.6250    45.0250    10.5460     8.5150    10.0450    22.3650     2.1560   -15.7840 
   80.7500    46.2690    10.5540     8.5220    10.0110    22.4140     2.1600   -15.6520 
   80.8750    47.9250    10.4010     8.4250     9.7200    22.5130     2.1640   -15.5000 
   81.0000    50.2910    10.0900     8.2240     9.3420    22.6420     2.1730   -15.3300 
   81.1250    53.3170     9.6730     7.9470     9.0790    22.7060     2.1890   -15.1370 
   81.2500    56.6320     9.2550     7.6640     8.7720    22.6480     2.2090   -14.9290 
   81.3750    59.0390     8.9960     7.4850     8.3420    22.5150     2.2240   -14.7110 
   81.5000    59.5480     8.9650     7.4700     8.0190    22.4460     2.2250   -14.5060 
   81.6250    57.9420     9.1640     7.6340     8.0590    22.4470     2.2110   -14.3330 
   81.7500    54.7290     9.5170     7.9350     8.5340    22.4890     2.1880   -14.1810 
   81.8750    50.5540     9.8620     8.2690     8.9830    22.5560     2.1660   -14.0350 
   82.0000    47.7980    10.0280     8.4880     9.2220    22.6360     2.1540   -13.9050 
   82.1250    49.3200     9.9120     8.4890     9.1640    22.7030     2.1540   -13.7650 
   82.2500    54.0920     9.5010     8.2310     8.7780    22.8190     2.1650   -13.6100 
   82.3750    59.2060     8.8490     7.7260     8.1410    23.0540     2.1870   -13.4340 
   82.5000    62.7950     8.1290     7.1170     7.3890    23.3030     2.2110   -13.2300 
   82.6250    64.8730     7.4420     6.4970     6.6800    23.4590     2.2320   -12.9990 
   82.7500    68.0400     6.8480     5.9310     6.2280    23.5290     2.2470   -12.7530 
   82.8750    73.2170     6.4020     5.4790     5.9380    23.5490     2.2560   -12.5410 
   83.0000    78.3690     6.1210     5.1630     5.7260    23.5230     2.2670   -12.4180 
   83.1250    81.7080     6.0530     5.0200     5.6200    23.5070     2.2830   -12.4050 
   83.2500    83.5140     6.2400     5.0850     5.5110    23.5900     2.3020   -12.5050 
   83.3750    82.0130     6.7350     5.4100     5.7490    23.7070     2.3170   -12.7580 
   83.5000    76.2660     7.4470     5.9390     6.6130    23.7180     2.3180   -13.1140 
   83.6250    69.0770     8.3000     6.6280     7.8290    23.5760     2.3040   -13.5480 
   83.7500    62.5940     9.2230     7.4230     9.0850    23.3580     2.2750   -14.0340 
   83.8750    57.2980    10.1860     8.2900    10.0380    23.1120     2.2440   -14.5220 
   84.0000    55.1470    11.1620     9.1780    12.0510    22.9310     2.2310   -14.9330 
   84.1250    56.5230    12.0950    10.0310    16.0570    22.9000     2.2470   -15.2800 
   84.2500    57.1460    12.8500    10.7430    21.3270    23.0550     2.2950   -15.5690 
   84.3750    55.3500    13.1620    11.1030    25.5310    23.2980     2.3520   -15.7510 
   84.5000    53.7630    12.9500    11.0310    25.0830    23.3590     2.3810   -15.8630 
   84.6250    52.9920    12.2620    10.5390    17.6230    23.1660     2.3660   -15.9160 
   84.7500    52.8700    11.3240     9.7840    11.0540    22.8250     2.3150   -15.9440 
   84.8750    54.7440    10.4880     9.0300     9.4810    22.4900     2.2550   -15.9600 
   85.0000    57.8560     9.9610     8.4710     9.0770    22.2780     2.2100   -16.0130 
   85.1250    58.4080     9.7600     8.1540     8.9920    22.2470     2.1850   -16.1070 
   85.2500    54.8010     9.7900     8.0390     8.9530    22.4270     2.1800   -16.2040 
   85.3750    51.7730     9.9090     8.0500     8.9110    22.6790     2.1890   -16.3080 
   85.5000    52.2500     9.9970     8.0840     8.8950    22.7800     2.2010   -16.4220 
   85.6250    54.8950    10.0310     8.1060     8.8820    22.7930     2.2070   -16.5350 
   85.7500    56.7320    10.0310     8.1130     8.8750    22.7290     2.2040   -16.6280 
   85.8750    57.8260    10.0340     8.1230     8.9010    22.5760     2.1940   -16.7140 
   86.0000    58.4150    10.0640     8.1480     9.0130    22.4040     2.1860   -16.7790 
   86.1250    56.8390    10.1220     8.1920     9.1790    22.2900     2.1850   -16.8020 
   86.2500    53.6350    10.1910     8.2410     9.2870    22.2000     2.1880   -16.8260 
   86.3750    49.3380    10.2400     8.2750     9.1840    22.1210     2.1920   -16.8570 
   86.5000    46.7630    10.2470     8.2740     8.9950    22.0840     2.1910   -16.8730 
   86.6250    47.5340    10.1990     8.2290     8.8630    22.1230     2.1840   -16.8850 
   86.7500    50.8820    10.0990     8.1420     8.8910    22.2720     2.1750   -16.9210 
   86.8750    54.4590     9.9620     8.0220     8.9930    22.4690     2.1650   -16.9790 
   87.0000    54.9840     9.8250     7.8960     9.0600    22.6360     2.1580   -17.0530 
   87.1250    53.3550     9.7160     7.7880     9.0600    22.7590     2.1540   -17.1410 
   87.2500    50.9960     9.6600     7.7170     9.0080    22.9170     2.1510   -17.2160 
   87.3750    49.4380     9.6750     7.7040     8.9880    23.1260     2.1500   -17.2610 
   87.5000    49.1870     9.7450     7.7400     9.0900    23.2500     2.1520   -17.3190 
   87.6250    48.4640     9.8510     7.8130     9.2690    23.2380     2.1560   -17.3480 
   87.7500    48.0550     9.9660     7.9030     9.4450    23.1190     2.1600   -17.3170 
   87.8750    49.9730    10.0540     7.9800     9.4370    22.9030     2.1620   -17.2220 
   88.0000    53.2210    10.0970     8.0280     9.3740    22.6870     2.1620   -17.0840 
   88.1250    54.3920    10.0890     8.0360     9.3120    22.4910     2.1590   -16.9130 
   88.2500    51.9940    10.0420     8.0090     9.2680    22.2990     2.1540   -16.7160 
   88.3750    50.0650     9.9790     7.9560     9.2560    22.1470     2.1490   -16.5030 
   88.5000    50.7050     9.9270     7.8990     9.2980    22.0440     2.1460   -16.2810 
   88.6250    50.1790     9.9000     7.8520     9.3850    21.9610     2.1460   -16.0820 
   88.7500    47.9240     9.8960     7.8240     9.4620    21.8920     2.1480   -15.9130 
   88.8750    47.7000     9.9050     7.8150     9.4670    21.8620     2.1510   -15.7540 
   89.0000    50.0920     9.9030     7.8100     9.5410    21.8990     2.1530   -15.6120 
   89.1250    52.2640     9.8730     7.7960     9.6270    21.9760     2.1520   -15.4620 
   89.2500    52.8400     9.8110     7.7680     9.7190    22.0390     2.1510   -15.3180 
   89.3750    52.5930     9.7210     7.7320     9.7080    22.0470     2.1520   -15.2030 
   89.5000    53.3170     9.6310     7.7040     9.5890    22.0040     2.1580   -15.0970 
   89.6250    54.0080     9.5640     7.7020     9.4550    21.9660     2.1660   -14.9860 
