~V
VERS. 2.00: Ver 2.00
~W
STRT.M 53.0000:
STOP.M 276.0000:
STEP.M 0.1250:
NULL. -999.2500:
UWI. F10245:
~C
DEPT.M :
GR.API :
RML.OHMM :
RI. :
RXO.OHMM :
CALI.CM :
DEN.GM/CC :
SP.MV :
~A
# ...
  154.2500    87.6300     3.8960     3.6210     4.3620    23.4150     2.3140    -7.2250 
  154.3750    86.8500     3.9510     3.7170     4.4060    23.2770     2.3140    -7.2640 
  154.5000    87.0060     3.9810     3.7780     4.4560    23.1540     2.3140    -7.3330 
  154.6250    88.4380     4.0000     3.8100     4.4680    23.0910     2.3200    -7.4240 
  154.7500    88.5990     4.0220     3.8350     4.4710    23.0220     2.3360    -7.5630 
  154.8750    88.1310     4.0540     3.8620     4.4930    22.9190     2.3620    -7.7530 
  155.0000    89.1530     4.0900     3.8860     4.5600    22.8340     2.3910    -7.9280 
  155.1250    90.4310     4.1120     3.8900     4.6400    22.7880     2.4090    -8.0760 
  155.2500    91.3150     4.1090     3.8640     4.7100    22.7680     2.4080    -8.1940 
  155.3750    93.8470     4.0750     3.8060     4.7330    22.7940     2.3890    -8.2710 
  155.5000    95.6860     4.0180     3.7260     4.6580    22.8780     2.3620    -8.3210 
  155.6250    92.4730     3.9560     3.6370     4.5390    22.9650     2.3410    -8.3460 
  155.7500    88.0790     3.9060     3.5590     4.4330    23.0250     2.3320    -8.3490 
  155.8750    86.4960     3.8830     3.5030     4.3270    23.0250     2.3330    -8.3250 
  156.0000    85.8620     3.8910     3.4770     4.3080    22.9940     2.3380    -8.2800 
  156.1250    84.7930     3.9310     3.4860     4.3090    22.9330     2.3420    -8.2470 
  156.2500    85.1030     3.9870     3.5160     4.2740    22.8670     2.3420    -8.2200 
  156.3750    85.4020     4.0440     3.5530     4.2610    22.7760     2.3420    -8.2260 
  156.5000    81.8620     4.0900     3.5830     4.3720    22.7010     2.3430    -8.2580 
  156.6250    76.0700     4.1170     3.5930     4.5000    22.6650     2.3430    -8.3320 
  156.7500    75.9360     4.1380     3.5910     4.5700    22.6100     2.3380    -8.4300 
  156.8750    82.5180     4.1690     3.5900     4.5690    22.5070     2.3260    -8.5150 
  157.0000    90.0530     4.2340     3.6090     4.5300    22.3680     2.3130    -8.6020 
  157.1250    91.9730     4.3650     3.6770     4.6010    22.2540     2.3040    -8.6960 
  157.2500    90.9640     4.5640     3.8030     4.7970    22.1930     2.3000    -8.8140 
  157.3750    90.0480     4.8330     3.9900     5.0680    22.1700     2.3000    -8.9370 
  157.5000    88.8120     5.1650     4.2390     5.4540    22.1560     2.2990    -9.0320 
  157.6250    84.4470     5.5740     4.5620     5.9520    22.1570     2.2910    -9.0830 
  157.7500    79.8660     6.0780     4.9650     6.5780    22.2190     2.2810    -9.0970 
  157.8750    78.0010     6.7290     5.4820     7.1100    22.3170     2.2710    -9.1110 
  158.0000    79.0010     7.5810     6.1510     7.7420    22.4000     2.2620    -9.1260 
  158.1250    80.0860     8.7070     7.0420     8.9670    22.5260     2.2520    -9.1360 
  158.2500    80.2980    10.0360     8.1290    11.1270    22.7550     2.2420    -9.1180 
  158.3750    78.6690    11.4850     9.3720    14.1720    23.0590     2.2310    -9.0820 
  158.5000    75.8500    12.9370    10.6990    16.6120    23.3900     2.2230    -9.0430 
  158.6250    74.4990    14.2360    11.9890    16.9470    23.6700     2.2190    -9.0220 
  158.7500    77.1010    15.3000    13.1320    17.4000    23.7720     2.2190    -9.0040 
  158.8750    79.9670    16.0670    14.0440    18.2670    23.7850     2.2210    -8.9860 
  159.0000    78.7170    16.5040    14.6700    19.3520    23.7770     2.2210    -8.9900 
  159.1250    76.8660    16.5510    14.9310    19.7110    23.7550     2.2180    -9.0200 
  159.2500    77.5070    16.3170    14.9050    19.0420    23.7550     2.2130    -9.0830 
  159.3750    79.4540    15.9150    14.6820    18.4290    23.8260     2.2110    -9.1690 
  159.5000    81.5070    15.4760    14.3790    17.8590    23.9890     2.2110    -9.2670 
  159.6250    82.9080    15.1210    14.1170    16.5910    24.1420     2.2130    -9.3710 
  159.7500    81.5440    14.8730    13.9440    15.7160    24.1860     2.2150    -9.5120 
  159.8750    78.4960    14.7300    13.8680    15.8450    24.1750     2.2160    -9.6810 
  160.0000    77.2920    14.8780    13.9080    16.7450    24.1720     2.2200    -9.8550 
  160.1250    78.0980    15.3840    14.1680    17.2010    24.1110     2.2290   -10.0220 
  160.2500    79.0860    16.4100    14.7120    16.5270    23.9970     2.2380   -10.1950 
  160.3750    81.0000    18.0480    15.5620    15.6350    23.8600     2.2440   -10.3770 
  160.5000    82.1820    19.4040    16.6070    16.0000    23.7630     2.2420   -10.5840 
  160.6250    79.0060    20.3320    17.5180    18.6800    23.7340     2.2360   -10.8070 
  160.7500    74.4750    20.5800    17.9270    21.9560    23.7330     2.2330   -11.0030 
  160.8750    73.4660    19.9730    17.6150    22.9060    23.7500     2.2390   -11.1950 
  161.0000    77.7140    18.6860    16.6470    20.8930    23.7730     2.2540   -11.4100 
  161.1250    83.1690    17.2720    15.4170    17.5250    23.6460     2.2710   -11.6870 
  161.2500    84.7700    16.3660    14.4850    15.2900    23.2430     2.2820   -12.0100 
  161.3750    83.8920    16.3270    14.1720    14.4860    22.6320     2.2840   -12.3500 
  161.5000    86.0060    17.3500    14.6730    14.8840    22.1080     2.2780   -12.7190 
  161.6250    89.7250    19.8300    16.3450    16.2990    21.8690     2.2710   -13.1050 
  161.7500    87.7030    23.8300    19.2940    18.6880    21.8570     2.2680   -13.5350 
  161.8750    81.5360    29.6680    23.8610    22.4470    21.9410     2.2700   -14.0010 
  162.0000    77.0090    37.6340    30.4020    28.9950    22.0610     2.2740   -14.4910 
  162.1250    74.4610    48.1030    39.4400    40.4880    22.2820     2.2730   -14.9940 
  162.2500    69.9070    60.1550    50.2300    56.4110    22.6540     2.2630   -15.4510 
  162.3750    63.7100    72.7380    61.8240    74.4760    23.1900     2.2470   -15.8750 
  162.5000    59.2430    84.5480    72.9300    87.1630    23.8950     2.2300   -16.2760 
  162.6250    58.9540    94.1800    82.0800    90.8140    24.5580     2.2200   -16.6590 
  162.7500    61.8620   101.8890    89.3320    89.0620    25.0010     2.2150   -17.0250 
  162.8750    66.1330   108.4780    95.3330    89.2360    25.1920     2.2130   -17.3760 
  163.0000    68.0360   114.8450   100.9220    94.0850    25.2790     2.2130   -17.6880 
  163.1250    65.9580   121.5580   106.7280   104.9020    25.3470     2.2170   -17.9250 
  163.2500    62.4150   128.6110   112.8980   109.2380    25.3570     2.2240   -18.1160 
  163.3750    59.3980   135.9310   119.4280   105.8570    25.2670     2.2320   -18.3350 
  163.5000    56.9060   143.5140   126.3210   104.8270    25.1390     2.2330   -18.5510 
  163.6250    54.0740   151.4140   133.6040   117.9440    25.0540     2.2240   -18.7470 
  163.7500    52.8470   159.3570   141.0030   132.7400    25.0430     2.2100   -18.9340 
  163.8750    54.2370   166.8370   148.0830   149.9690    25.0870     2.1950   -19.1160 
  164.0000    57.5100   173.1930   154.2720   169.8290    25.1260     2.1830   -19.2860 
  164.1250    58.4930   177.5750   158.8140   177.3540    25.1610     2.1790   -19.4850 
  164.2500    54.6280   180.2130   161.8450   175.3070    25.2150     2.1820   -19.7110 
  164.3750    50.1960   181.4850   163.6660   169.0510    25.2770     2.1890   -19.8920 
  164.5000    50.0390   181.8780   164.7200   153.8500    25.3320     2.1990   -20.0390 
  164.6250    52.9890   181.6350   165.3080   141.9380    25.3380     2.2090   -20.1640 
  164.7500    54.8270   180.7990   165.5230   132.4460    25.3080     2.2140   -20.2630 
  164.8750    55.7090   179.1660   165.1690   126.8440    25.2500     2.2150   -20.3150 
  165.0000    56.4280   176.7350   164.1490   128.5990    25.1830     2.2110   -20.3460 
  165.1250    54.6680   174.1450   162.8500   123.3530    25.1040     2.2050   -20.3100 
  165.2500    51.4810   172.6590   162.3220   116.9370    25.0200     2.2010   -20.2500 
  165.3750    50.1550   173.2900   163.5220   106.5930    24.9390     2.2020   -20.1710 
