~V
VERS. 2.00: Ver 2.00
~W
STRT.M 50.0000:
STOP.M 283.0000:
STEP.M 0.1250:
NULL. -999.2500:
UWI. F10256:
~C
DEPT.M :
DEN.GM/CC :
GR.API :
RML.OHMM :
RI. :
RXO.OHMM :
CALI.CM :
SP.MV :
~A
# ...
  275.0000     2.3220    48.8360     7.7270     6.5010     5.3860    25.6480    -0.9400 
  275.1250     2.3430    48.8360     7.7600     6.5280     5.4080    25.4050    -0.9180 
  275.2500     2.3590    48.8360     7.8140     6.5690     5.3600    25.0970    -0.9090 
  275.3750     2.3760    48.8360     7.8760     6.6170     5.4670    24.8710    -0.8930 
  275.5000     2.3950    48.8360     7.9330     6.6590     5.9890    24.7590    -0.9180 
  275.6250     2.4150    48.8360     7.9700     6.6860     7.2580    24.7240    -0.9370 
  275.7500     2.4340    48.8360     7.9890     6.6990     9.3610    24.7100    -0.9170 
  275.8750     2.4490    48.8360     7.9970     6.7040    12.2800    24.5930    -0.9100 
  276.0000     2.4620    48.8360     8.0000     6.7050    14.7420    24.4700    -0.9160 
  276.1250     2.4740    48.8360     8.0030     6.7050    15.3140    24.4110    -0.9000 
  276.2500     2.4850    48.8360     8.0060     6.7050    15.0110    24.4500    -0.8710 
  276.3750     2.4930    48.8360     8.0090     6.7040    14.3210    24.4180    -0.8610 
  276.5000     2.4960    48.8360     8.0100     6.7040    13.8060    24.3340    -0.8330 
  276.6250     2.4910    48.8360     8.0090     6.7040    13.8140    24.2850    -0.7910 
  276.7500     2.4810    48.8360     8.0060     6.7040    14.2060    24.2590    -0.7800 
  276.8750     2.4710    48.8360     8.0030     6.7040    14.4210    24.1760    -0.7700 
  277.0000     2.4630    48.8360     8.0020     6.7040    13.7290    24.0900    -0.7650 
  277.1250     2.4610    48.8360     8.0020     6.7040    13.2550    24.0850    -0.7760 
  277.2500     2.4620    48.8360     8.0020     6.7040    12.8860    24.0960    -0.7960 
  277.3750     2.4630    48.8360     8.0000     6.7040    12.5780    24.1620    -0.7800 
  277.5000     2.4610    48.8360     7.9980     6.7050    12.6630    24.2540    -0.7570 
  277.6250     2.4560    48.8360     7.9940     6.7050    13.2340    24.2500    -0.7680 
  277.7500     2.4500    48.8360     7.9910     6.7050    13.6990    24.0850    -0.7740 
  277.8750     2.4470    48.8360     7.9870     6.7050    13.2930    23.8400    -0.7780 
  278.0000     2.4510    48.8360     7.9860     6.7050    12.5030    23.7870    -0.7880 
  278.1250     2.4600    48.8360     7.9880     6.7040    12.2370    23.8250    -0.7890 
  278.2500     2.4710    48.8360     7.9920     6.7020    12.5630    23.8390    -0.7980 
  278.3750     2.4810    48.8360     7.9980     6.7010    13.7200    23.7630    -0.9380 
  278.5000     2.4850    48.8360     8.0020     6.7000    15.5150    23.7420    -1.0290 
  278.6250     2.4810    48.8360     8.0030     6.7000    17.0020    23.6610    -1.1110 
  278.7500     2.4710    48.8360     8.0030     6.7010    17.6870    23.6130    -1.1940 
  278.8750     2.4580    48.8360     8.0030     6.7010    17.1900    23.5240    -1.3000 
  279.0000     2.4470    48.8360     8.0030     6.7010    15.6820    23.4720    -1.3930 
  279.1250     2.4400    48.8360     8.0030     6.7010    13.8440    23.3440    -1.4630 
  279.2500     2.4360    48.8360     8.0030     6.7010    12.6630    23.2840    -1.4730 
  279.3750     2.4330    48.8360     8.0030     6.7010    11.9210    23.1750    -1.4820 
  279.5000     2.4320    48.8360     8.0030     6.7010    11.2220    23.1170  -999.2500 
  279.6250     2.4320    48.8360     8.0030     6.7010    10.6880    22.9100  -999.2500 
  279.7500     2.4370    48.8360     8.0030     6.7010    10.3900    22.7290  -999.2500 
  279.8750     2.4440    48.8360     8.0030     6.7010     9.8690    22.4670  -999.2500 
  280.0000     2.4530    48.8360     8.0030     6.7010     9.1770    22.0000  -999.2500 
  280.1250     2.4600    48.8360     8.0030     6.7010     8.2760    21.2500  -999.2500 
  280.2500     2.4630    48.8360     8.0030     6.7010     7.0660    19.9850  -999.2500 
  280.3750     2.4630    48.8360     8.0030     6.7010     5.9080    18.4630  -999.2500 
  280.5000     2.4620    48.8360     8.0030     6.7010     5.3460    17.5330  -999.2500 
  280.6250     2.4630    48.8360     8.0030     6.7010     5.2200    17.3540  -999.2500 
  280.7500     2.4650    48.8360     8.0030     6.7010     5.2180    17.4270  -999.2500 
  280.8750     2.4680    48.8360     8.0030     6.7010     5.2170    17.4310  -999.2500 
  281.0000     2.4710    48.8360     8.0030     6.7010     5.2170    17.4450  -999.2500 
  281.1250     2.4730    48.8360     8.0030     6.7010     5.2170    17.4810  -999.2500 
  281.2500     2.4730    48.8360     8.0030     6.7010     5.2180    17.4680  -999.2500 
  281.3750     2.4700    48.8360     8.0030     6.7010     5.2170    17.4510  -999.2500 
  281.5000     2.4670    48.8360     8.0030     6.7010     5.2170    17.4150  -999.2500 
  281.6250     2.4630    48.8360     8.0030     6.7010     5.2170    17.4610  -999.2500 
  281.7500     2.4620    48.8360     8.0030     6.7010     5.2180    17.4710  -999.2500 
  281.8750     2.4620    48.8360     8.0030     6.7010     5.2180    17.4710  -999.2500 
  282.0000     2.4650    48.8360     8.0030     6.7010     5.2180    17.4260  -999.2500 
  282.1250     2.4690    48.8360     8.0030     6.7010     5.2170    17.4050  -999.2500 
  282.2500     2.4720    48.8360     8.0030     6.7010     5.2160    17.3940  -999.2500 
  282.3750     2.4730    48.8360     8.0030     6.7010     5.2160    17.3810  -999.2500 
  282.5000     2.4720    48.8360     8.0030     6.7010     5.2160    17.3520  -999.2500 
  282.6250     2.4710    48.8360     8.0030     6.7010     5.2150    17.3740  -999.2500 
  282.7500     2.4690    48.8360     8.0030     6.7010     5.2150    17.3930  -999.2500 
  282.8750  -999.2500    48.8360     8.0030     6.7010     5.2140    17.4150  -999.2500 
  283.0000  -999.2500    48.8360     8.0030     6.7010     5.2130    17.4590  -999.2500 
