~V
VERS. 2.00: Ver 2.00
~W
STRT.M 56.0000:
STOP.M 284.0000:
STEP.M 0.1250:
NULL. -999.2500:
UWI. F10233:
~C
DEPT.M :
GR.API :
RML.OHMM :
RI. :
RXO.OHMM :
CALI.CM :
DEN.GM/CC :
SP.MV :
~A
# ...
  123.5000    95.0840     6.3110     5.1750     5.0140    22.3260     2.3510    -9.0360 
  123.6250    98.5920     5.7270     4.5830     4.8930    22.2870     2.3520    -8.9750 
  123.7500    99.9070     5.3860     4.1500     4.8200    22.2310     2.3580    -8.8990 
  123.8750   102.0330     5.1990     3.8630     4.6940    22.1770     2.3700    -8.7900 
  124.0000   106.1140     5.0750     3.6800     4.5230    22.1830     2.3840    -8.7800 
  124.1250   106.5150     4.9970     3.5950     4.4810    22.3040     2.3950    -8.8760 
  124.2500   101.6650     5.0170     3.6050     4.4960    22.5240     2.3970    -9.0210 
  124.3750    97.0620     5.1980     3.7290     4.6500    22.7270     2.3870    -9.2350 
  124.5000    96.2650     5.5660     3.9760     5.4360    22.7570     2.3660    -9.5310 
  124.6250    93.9360     6.0780     4.3320     7.2490    22.5870     2.3390    -9.8860 
  124.7500    86.9870     6.5790     4.7090     8.4470    22.4610     2.3110   -10.2850 
  124.8750    81.0010     6.9500     5.0230     7.5480    22.5000     2.2840   -10.6970 
  125.0000    79.4080     7.1330     5.2170     7.2500    22.8010     2.2600   -11.0930 
  125.1250    78.3090     7.1580     5.2840     8.0730    23.3650     2.2440   -11.4730 
  125.2500    75.0570     7.1730     5.3170     8.3570    23.8180     2.2340   -11.8170 
  125.3750    72.8260     7.2720     5.3900     7.2960    23.9780     2.2240   -12.1190 
  125.5000    73.2010     7.4830     5.5470     6.7150    24.0050     2.2110   -12.3630 
  125.6250    72.7060     7.7590     5.7850     7.0420    24.1290     2.1980   -12.5230 
  125.7500    69.9740     7.9920     6.0370     7.4590    24.2200     2.1980   -12.6260 
  125.8750    68.7800     8.1170     6.2470     7.2810    24.0890     2.2130   -12.6870 
  126.0000    70.4640     8.1230     6.3830     6.9340    23.7020     2.2350   -12.6750 
  126.1250    71.0940     8.0550     6.4310     6.8430    23.4260     2.2430   -12.5990 
  126.2500    70.5250     8.0010     6.4380     6.9140    23.4970     2.2280   -12.5010 
  126.3750    70.4470     7.9940     6.4340     7.0240    23.7910     2.2000   -12.3900 
  126.5000    69.6410     7.9940     6.4160     7.0070    24.0290     2.1760   -12.2360 
  126.6250    67.7030     7.8640     6.3110     6.8490    24.1600     2.1770   -11.9950 
  126.7500    70.1820     7.5190     6.0560     6.6110    24.2430     2.2050   -11.6960 
  126.8750    77.2290     6.9480     5.6290     6.2760    24.2680     2.2530   -11.3460 
  127.0000    84.4030     6.2270     5.0740     5.7240    24.3630     2.3080   -11.0030 
  127.1250    90.5230     5.4860     4.4820     4.8570    24.7810     2.3480   -10.6900 
  127.2500    97.2100     4.8430     3.9500     4.2480    25.0670     2.3690   -10.4020 
  127.3750   101.9380     4.3680     3.5320     3.9990    25.1210     2.3780   -10.1730 
  127.5000   100.8860     4.1100     3.2630     3.9140    25.4210     2.3810   -10.0940 
  127.6250    95.5900     4.1560     3.2010     3.9230    25.5920     2.3690   -10.2620 
  127.7500    89.5220     4.4810     3.3380     3.9830    25.1670     2.3330   -10.5850 
  127.8750    82.9840     5.0590     3.6780     4.5220    24.4880     2.2750   -11.0870 
  128.0000    77.5860     5.8030     4.1960     5.8490    23.9750     2.2200   -11.7420 
  128.1250    75.0200     6.5570     4.8290     7.6320    23.7010     2.1930   -12.4900 
  128.2500    73.5180     7.1720     5.4480     7.6110    23.4940     2.1930   -13.2830 
  128.3750    70.7710     7.5910     5.9680     7.1590    23.2660     2.2060   -14.0680 
  128.5000    66.5530     7.8340     6.3450     7.0590    23.0590     2.2180   -14.7700 
  128.6250    64.9170     7.9590     6.5720     7.5370    22.8960     2.2240   -15.3360 
  128.7500    66.7420     8.0460     6.7130     8.4480    22.8820     2.2210   -15.8380 
  128.8750    68.8790     8.1130     6.7900     9.0120    23.1300     2.2110   -16.2440 
  129.0000    68.8600     8.1720     6.8140     8.3120    23.5820     2.1980   -16.5030 
  129.1250    67.4580     8.2610     6.8090     7.7840    23.8140     2.1970   -16.6650 
  129.2500    67.6580     8.4140     6.8260     7.7680    23.9040     2.2060   -16.8120 
  129.3750    68.4760     8.6420     6.8960     8.0550    23.9430     2.2170   -16.9260 
  129.5000    66.6870     8.9170     7.0240     8.3420    24.0220     2.2200   -17.0220 
  129.6250    62.5510     9.1730     7.1780     8.4910    24.1270     2.2170   -17.1280 
  129.7500    59.1320     9.3380     7.2930     8.6430    24.1670     2.2130   -17.1410 
  129.8750    57.9980     9.3740     7.3210     8.6600    24.1740     2.2150   -17.1000 
  130.0000    58.8530     9.2710     7.2380     8.5340    24.1740     2.2210   -17.0840 
  130.1250    61.3720     8.9980     7.0270     8.5070    24.1730     2.2300   -17.0200 
  130.2500    64.0910     8.5920     6.7330     8.4670    24.1810     2.2400   -16.8610 
  130.3750    65.5630     8.1610     6.4330     8.3280    24.2130     2.2490   -16.6380 
  130.5000    66.1430     7.9320     6.2680     8.1700    24.2630     2.2610   -16.3760 
  130.6250    65.2660     8.3480     6.5120     8.0850    24.3190     2.2820   -16.0650 
  130.7500    61.9850     9.6360     7.3410     8.9280    24.2880     2.3230   -15.7840 
  130.8750    59.1350    11.9120     8.9250    12.2390    24.0400     2.3860   -15.5170 
  131.0000    59.9410    14.9620    11.2740    21.6330    23.6140     2.4530   -15.2530 
  131.1250    61.7000    17.7640    13.8690    33.4810    23.2610     2.4890   -15.0750 
  131.2500    60.9500    18.8140    15.4010    35.7500    23.0850     2.4750   -14.9940 
  131.3750    60.1470    17.4400    14.9780    25.5520    23.0110     2.4060   -15.0090 
  131.5000    63.4310    14.4620    12.9580    15.9630    23.0320     2.2970   -15.1010 
  131.6250    69.6940    11.5390    10.5850    11.1080    23.0470     2.1910   -15.2720 
  131.7500    73.1110     9.5410     8.7310     9.1540    23.0940     2.1190   -15.4610 
  131.8750    70.7810     8.4680     7.5270     8.3860    23.3700     2.0860   -15.6460 
  132.0000    65.1760     8.0590     6.8680     8.1670    24.0350     2.0870   -15.8330 
  132.1250    61.4660     8.0670     6.6400     7.7840    24.6650     2.1160   -15.8210 
  132.2500    61.0450     8.2130     6.6330     7.5550    24.7590     2.1580   -15.6690 
  132.3750    63.0020     8.4050     6.7610     7.4820    24.4440     2.1990   -15.4930 
  132.5000    66.9330     8.6050     6.9700     7.6140    24.1520     2.2300   -15.2480 
  132.6250    68.6720     8.7850     7.2210     7.7180    24.0500     2.2500   -14.8760 
  132.7500    66.5190     8.9140     7.4590     8.0390    24.0510     2.2670   -14.4450 
  132.8750    63.3690     8.9720     7.6460     8.5490    24.0450     2.2870   -13.9830 
  133.0000    62.5150     8.9650     7.7640     9.0190    23.9730     2.3110   -13.5150 
  133.1250    63.9020     8.9860     7.8570     8.4920    23.9320     2.3350   -13.0710 
  133.2500    66.1620     9.1940     8.0460     8.3920    23.9110     2.3620   -12.6330 
  133.3750    68.2520     9.7320     8.4540     8.5580    23.8980     2.3990   -12.1900 
  133.5000    68.4800    10.6910     9.1740     9.2950    23.9090     2.4460   -11.7330 
  133.6250    66.1490    12.1470    10.3070    11.3090    23.9880     2.4990   -11.2410 
  133.7500    63.8590    13.7770    11.6670    14.2840    24.1130     2.5430   -10.7840 
  133.8750    62.7600    15.0300    12.8550    15.8200    24.2040     2.5690   -10.3760 
  134.0000    61.2740    15.2300    13.2750    14.0840    24.2410     2.5720    -9.9140 
  134.1250    59.1510    13.8340    12.3370    13.3470    24.1920     2.5520    -9.5420 
  134.2500    59.7660    11.5610    10.5550    12.9040    24.1430     2.5140    -9.2800 
  134.3750    64.6460     9.2230     8.5860     9.3700    24.1330     2.4660    -8.9940 
  134.5000    72.0360     7.4700     6.9780     6.3810    24.2080     2.4300    -8.7730 
  134.6250    75.8330     6.7420     6.1260     5.5450    24.2850     2.4340    -8.6750 
