~V
VERS. 2.00: Ver 2.00
~W
STRT.M 50.0000:
STOP.M 275.0000:
STEP.M 0.1250:
NULL. -999.2500:
UWI. F10202:
~C
DEPT.M :
GR.API :
RML.OHMM :
RI. :
RXO.OHMM :
CALI.CM :
SP.MV :
DEN.GM/CC :
~A
# ...
  263.7500    79.5410    21.8840    20.3070    28.0890    24.6490     5.1360     2.4930 
  263.8750    73.6210    21.3130    19.7650    29.1720    24.9050     5.3040     2.4830 
  264.0000    65.5260    20.6440    19.1210    27.9680    24.9230     5.5360     2.4780 
  264.1250    64.2330    19.9350    18.4170    27.3290    24.9360     5.8290     2.4780 
  264.2500    67.0680    19.3190    17.7840    25.6310    24.9630     6.0420     2.4830 
  264.3750    67.9690    18.9510    17.3850    24.5300    24.9920     6.1000     2.4940 
  264.5000    67.8860    18.9880    17.3840    25.3500    25.0120     6.0790     2.5090 
  264.6250    67.8860    19.6180    17.9690    28.3800    25.0230     5.9230     2.5270 
  264.7500    67.8860    20.7040    19.0290    33.1530    25.0150     5.9230     2.5440 
  264.8750    67.8860    22.0540    20.4030    39.2110    24.9300     6.1570     2.5600 
  265.0000    67.8860    23.4100    21.8400    44.3910    24.8430     6.4700     2.5740 
  265.1250    67.8860    24.4850    23.0020    44.7660    24.8670     6.7760     2.5800 
  265.2500    67.8860    25.2020    23.7450    40.7770    24.9380     7.0770     2.5720 
  265.3750    67.8860    25.5650    24.0700    37.5950    24.9770     7.4600     2.5460 
  265.5000    67.8860    25.6280    24.0800    34.1510    24.9470     7.9960     2.5070 
  265.6250    67.8860    25.4640    23.8750    26.9390    24.8850     8.5720     2.4730 
  265.7500    67.8860    25.2980    23.6340    23.6400    24.9100     8.7740     2.4570 
  265.8750    67.8860    25.4250    23.6380    20.7990    24.9090     8.4900     2.4620 
  266.0000    67.8860    26.1480    24.2790    19.6610    24.8440     7.8370     2.4850 
  266.1250    67.8860    27.5930    25.8300    21.3190    24.7730     6.9290     2.5110 
  266.2500    67.8860    29.1320    27.5910    24.3180    24.7440     5.8960     2.5270 
  266.3750    67.8860    30.0240    28.6330    25.7620    24.7330     4.8030     2.5260 
  266.5000    67.8860    29.7530    28.2920    26.8930    24.6980     3.5220     2.5080 
  266.6250    67.8860    28.2770    26.5730    27.1620    24.6780     2.1470     2.4810 
  266.7500    67.8860    26.4550    24.5940    28.1890    24.7140     1.4470     2.4590 
  266.8750    67.8860    24.8700    23.0610    29.7800    24.7660     0.8610     2.4500 
  267.0000    67.8860    23.7330    22.1230    31.4530    24.8100     0.0180     2.4520 
  267.1250    67.8860    22.9290    21.4980    32.0640    24.8290    -0.4760     2.4590 
  267.2500    67.8860    22.1790    20.8380    29.0640    24.6200    -0.8120     2.4680 
  267.3750    67.8860    21.4230    20.1050    21.6930    24.4000    -0.9410     2.4810 
  267.5000    67.8860    20.7200    19.3780    12.7210    24.4000    -0.8760     2.4970 
  267.6250    67.8860    20.1700    18.7510    15.8010    24.4330    -0.6000     2.5150 
  267.7500    67.8860    19.7610    18.2430    17.3920    24.5330    -0.0730     2.5260 
  267.8750    67.8860    19.4390    17.8370    16.5860    24.5330     0.3340     2.5280 
  268.0000    67.8860    19.1310    17.4800    18.0460    24.5330     0.6440     2.5200 
  268.1250    67.8860    18.7680    17.0960    19.6060    24.9400     1.0090     2.5070 
  268.2500    67.8860    18.3530    16.6560    18.9920    24.8840     1.3610     2.4940 
  268.3750    67.8860    17.9270    16.1850    15.7410    24.9200     1.5610     2.4880 
  268.5000    67.8860    17.5480    15.7520    13.1710    24.9890     1.5870     2.4930 
  268.6250    67.8860    17.2870    15.4570    11.9730    25.0120     1.5170     2.5090 
  268.7500    67.8860    17.1490    15.3200    11.6530    24.9810     1.5500     2.5290 
  268.8750    67.8860    17.1140    15.3210    11.6120    24.9610     1.9040     2.5430 
  269.0000    67.8860    17.1450    15.4050    11.7570    24.9410     2.3740     2.5460 
  269.1250    67.8860    17.1880    15.4870    11.9810    24.9080     2.8170     2.5380 
  269.2500    67.8860    17.2590    15.5900    12.0770    24.8540     3.2780     2.5270 
  269.3750    67.8860    17.2900    15.6090    12.0340    24.8870     3.7140     2.5190 
  269.5000    67.8860    17.3190    15.6140    12.0120    24.9050     4.2020     2.5150 
  269.6250    67.8860    17.3450    15.6120    12.2910    24.8870     4.7640     2.5110 
  269.7500    67.8860    17.3610    15.6070    12.2980    24.8550     5.1700     2.5060 
  269.8750    67.8860    17.3600    15.6000    12.1520    24.8470     5.3670     2.5020 
  270.0000    67.8860    17.3470    15.5960    12.0410    24.8640     5.5450     2.5030 
  270.1250    67.8860    17.3280    15.5960    12.0690    24.8860     5.8330     2.5080 
  270.2500    67.8860    17.3130    15.5980    11.6720    24.8940     6.2870     2.5150 
  270.3750    67.8860    17.3060    15.5990    11.1050    24.8920     6.7380     2.5230 
  270.5000    67.8860    17.3040    15.5990    11.0400    24.8930     7.0740     2.5270 
  270.6250    67.8860    17.3040    15.5990    11.5650    24.9020     7.3270     2.5290 
  270.7500    67.8860    17.3040    15.5990    12.1700    24.9110     7.5010     2.5310 
  270.8750    67.8860    17.3040    15.5990    12.2390    24.1000     7.5150     2.5370 
  271.0000    67.8860    17.3040    15.5990    12.2030    24.0000     7.5620     2.5480 
  271.1250    67.8860    17.3040    15.5990    12.5150    24.0000     7.5820     2.5640 
  271.2500    67.8860    17.3040    15.5990    13.1570    24.0000     7.4650     2.5820 
  271.3750    67.8860    17.3040    15.5990    13.9690    24.0000     7.2080     2.5930 
  271.5000    67.8860    17.3040    15.5990    14.1490    24.0000     6.9890     2.5930 
  271.6250    67.8860    17.3040    15.5990    13.4220    24.0000     6.8510     2.5800 
  271.7500    67.8860    17.3040    15.5990    12.3970    24.0000     6.7440     2.5590 
  271.8750    67.8860    17.3040    15.5990    12.7950    24.0330     6.7730     2.5380 
  272.0000    67.8860    17.3040    15.5990    13.9580    24.4410     6.7140     2.5220 
  272.1250    67.8860    17.3040    15.5990    15.1370    24.7110     6.5580     2.5120 
  272.2500    67.8860    17.3040    15.5990    17.3160    24.6410     6.3350     2.5080 
  272.3750    67.8860    17.3040    15.5990    19.0890    24.5470     6.3350     2.5120 
  272.5000    67.8860    17.3040    15.5990    18.7390    24.5040  -999.2500     2.5220 
  272.6250    67.8860    17.3040    15.5990    15.1570    24.4750  -999.2500     2.5350 
  272.7500    67.8860    17.3040    15.5990    12.6380    24.4090  -999.2500     2.5470 
  272.8750    67.8860    17.3040    15.5990    12.1770    24.2870  -999.2500     2.5520 
  273.0000    67.8860    17.3040    15.5990    11.8730    24.1210  -999.2500     2.5530 
  273.1250    67.8860    17.3040    15.5990    12.1640    23.9400  -999.2500     2.5520 
  273.2500    67.8860    17.3040    15.5990    13.2790    23.7860  -999.2500     2.5500 
  273.3750    67.8860    17.3040    15.5990    12.0870    23.6160  -999.2500     2.5280 
  273.5000    67.8860    17.3040    15.5990    11.0820    23.3780  -999.2500     2.4600 
  273.6250    67.8860    17.3040    15.5990    10.0340    22.8740  -999.2500     2.3210 
  273.7500    67.8860    17.3040    15.5990     9.0280    21.7740  -999.2500     2.1130 
  273.8750    67.8860    17.3040    15.5990     7.9410    19.8360  -999.2500     1.8700 
  274.0000    67.8860    17.3040    15.5990     7.3890    18.3580  -999.2500     1.6580 
  274.1250    67.8860    17.3040    15.5990     7.2260    17.8150  -999.2500     1.5150 
  274.2500    67.8860    17.3040    15.5990     7.2140    17.7510  -999.2500     1.4400 
  274.3750    67.8860    17.3040    15.5990     7.2130    17.7440  -999.2500     1.4020 
  274.5000    67.8860    17.3040    15.5990     7.2120    17.7400  -999.2500     1.4000 
  274.6250    67.8860    17.3040    15.5990     7.2100    17.7370  -999.2500     1.4810 
  274.7500    67.8860    17.3040    15.5990     7.2090    17.7340  -999.2500     0.4530 
  274.8750    67.8860    17.3040    15.5990     7.2100    17.7320  -999.2500     2.1740 
