~V
VERS. 2.00: Ver 2.00
~W
STRT.M 50.0000:
STOP.M 271.0000:
STEP.M 0.1250:
NULL. -999.2500:
UWI. F10251:
~C
DEPT.M :
DEN.GM/CC :
GR.API :
RML.OHMM :
RI. :
RXO.OHMM :
CALI.CM :
SP.MV :
~A
   50.0000     2.3810  -999.2500  -999.2500  -999.2500  -999.2500  -999.2500    39.5500 
   50.1250     2.3070  -999.2500  -999.2500  -999.2500  -999.2500  -999.2500    40.1420 
   50.2500     2.2360  -999.2500  -999.2500  -999.2500  -999.2500  -999.2500    40.7750 
   50.3750     2.1820  -999.2500  -999.2500  -999.2500  -999.2500  -999.2500    41.4110 
   50.5000     2.1510  -999.2500  -999.2500  -999.2500  -999.2500  -999.2500    42.0970 
   50.6250     2.1370  -999.2500  -999.2500  -999.2500  -999.2500  -999.2500    42.8650 
   50.7500     2.1280  -999.2500  -999.2500  -999.2500  -999.2500  -999.2500    43.6360 
   50.8750     2.1190  -999.2500  -999.2500  -999.2500  -999.2500  -999.2500    44.3880 
   51.0000     2.1110  -999.2500  -999.2500  -999.2500  -999.2500  -999.2500    45.1190 
   51.1250     2.1110  -999.2500  -999.2500  -999.2500  -999.2500  -999.2500    45.8280 
   51.2500     2.1210     0.0000     0.0000     0.0000     0.0000     0.0000    46.5700 
   51.3750     2.1340     0.0000     0.0000     0.0000     0.0000     0.0000    47.3480 
   51.5000     2.1470     0.0000     0.0000     0.0000     0.0000     0.0000    48.1300 
   51.6250     2.1570    40.3450    79.1550     1.2900     2.4960    25.3700    49.0140 
   51.7500     2.1660    41.3500    12.6510     0.7330     1.0620    25.3780    50.0840 
   51.8750     2.1710    43.4920     4.1100     0.5630     0.8310    25.3830    51.2130 
   52.0000     2.1720    44.8920     2.5160     0.5250     0.7540    25.3600    52.3430 
   52.1250     2.1700    44.1570     2.0580     0.5170     0.6950    25.3460    53.5840 
   52.2500     2.1650    44.6150     1.8010     0.5090     0.6490    25.3380    54.9770 
   52.3750     2.1580    48.0540     1.4490     0.4970     0.6000    25.3290    56.4810 
   52.5000     2.1520    50.9370     1.2710     0.4640     0.5380    25.3240    58.0080 
   52.6250     2.1470    48.2420     1.1310     0.4580     0.4680    25.3410    59.4920 
   52.7500     2.1450    43.6610     0.9030     0.4880     0.4440    25.3620    60.9420 
   52.8750     2.1440    42.6020     0.8210     0.5200     0.4150    25.3550    62.3640 
   53.0000     2.1440    43.6230     0.7170     0.5460     0.4140    25.3410    63.7230 
   53.1250     2.1420    43.8910     0.8370     0.5450     0.4270    25.3330    65.0070 
   53.2500     2.1380    44.7020     0.9250     0.5170     0.4370    25.3410    66.2990 
   53.3750     2.1320    45.9920     1.1330     0.4810     0.4430    25.3370    67.6200 
   53.5000     2.1250    46.5670     1.1360     0.4710     0.4350    25.3340    68.9430 
   53.6250     2.1200    46.0300     0.9910     0.4900     0.3910    25.3390    70.1010 
   53.7500     2.1160    45.7900     0.9050     0.5280     0.3710    25.3270    71.0370 
   53.8750     2.1110    45.8680     0.8290     0.5020     0.3290    25.3210    71.8360 
   54.0000     2.1040    46.7700     0.7360     0.4730     0.2810    25.3130    72.5030 
   54.1250     2.1000    48.2550     0.6480     0.4470     0.2690    25.3000    72.9110 
   54.2500     2.1040    48.5530     0.6030     0.4200     0.2650    25.2650    73.0500 
   54.3750     2.1190    48.5230     0.5930     0.4040     0.2560    25.2240    72.9010 
   54.5000     2.1410    50.7810     0.5790     0.4080     0.2560    25.2140    72.4800 
   54.6250     2.1640    52.9180     0.5040     0.4440     0.2730    25.2300    71.9450 
   54.7500     2.1860    51.1840     0.4380     0.4530     0.3040    25.2250    71.3480 
   54.8750     2.2040    48.2540     0.4910     0.4100     0.3270    25.2150    70.5600 
   55.0000     2.2110    48.8530     0.5270     0.3360     0.4070    25.1430    69.6000 
   55.1250     2.2070    52.8950     0.5450     0.3410     0.4190    25.0290    68.5330 
   55.2500     2.1980    55.9400     0.5740     0.3900     0.4160    24.9480    67.3030 
   55.3750     2.1850    56.8080     0.5700     0.4210     0.3830    25.0550    65.9040 
   55.5000     2.1710    55.3570     0.5640     0.4260     0.3580    25.2410    64.3590 
   55.6250     2.1570    50.8380     0.5440     0.3540     0.3120    25.3280    62.5650 
   55.7500     2.1450    46.1050     0.5240     0.3150     0.2800    25.3310    60.6150 
   55.8750     2.1400    43.1080     0.4930     0.2980     0.2630    25.3200    58.6470 
   56.0000     2.1430    41.3990     0.4660     0.2930     0.2580    25.2500    56.6400 
   56.1250     2.1480    41.5980     0.4420     0.2900     0.2520    25.0660    54.4460 
   56.2500     2.1420    42.9030     0.4000     0.2970     0.2570    24.8480    52.0870 
   56.3750     2.1290    43.9080     0.3900     0.3370     0.2640    24.8140    49.6000 
   56.5000     2.1200    43.5080     0.3900     0.3610     0.2700    24.9460    47.0160 
   56.6250     2.1220    42.3480     0.3990     0.3700     0.2700    25.2020    44.3460 
   56.7500     2.1310    41.5520     0.3930     0.3670     0.2680    25.3790    41.6400 
   56.8750     2.1420    40.9690     0.3410     0.3260     0.2660    25.4840    38.9510 
   57.0000     2.1550    42.0570     0.2970     0.2910     0.2670    25.4910    36.3300 
   57.1250     2.1800    44.8400     0.2730     0.2640     0.2650    25.4840    33.7750 
   57.2500     2.2250    45.3420     0.2550     0.2570     0.2560    25.4670    31.2100 
   57.3750     2.2950    42.9050     0.2350     0.2730     0.2470    25.4440    28.6360 
   57.5000     2.3860    40.0240     0.2260     0.2650     0.2360    25.4160    26.0290 
   57.6250     2.4890    39.5250     0.2070     0.2190     0.2030    25.3990    23.1940 
   57.7500     2.5770    41.5150     0.2260     0.2070     0.2820    25.3470    19.8470 
   57.8750     2.6000    45.7440     0.3300     0.1940     0.6490    25.1050    15.9000 
   58.0000     2.5270    52.1160     1.0810     0.1230     3.3560    24.5280    11.4980 
   58.1250     2.3940    56.7960     1.5550     0.2970     4.9500    23.9070     6.7880 
   58.2500     2.2750    57.5270     2.5040     0.6800     8.3260    23.5030     2.0020 
   58.3750     2.2040    56.9120     3.9000     1.3680    10.8000    23.3790    -2.6970 
   58.5000     2.1730    57.7260     5.3950     2.3710    11.0790    23.4770    -7.0790 
   58.6250     2.1680    59.0330     6.2310     3.4620    10.9810    23.5680   -10.7720 
   58.7500     2.1760    58.8790     6.3780     4.3220    11.3640    23.5810   -13.7190 
   58.8750     2.1900    58.2490     6.2320     4.8840    12.0770    23.5200   -15.8890 
   59.0000     2.1950    57.8250     6.1250     5.2270    11.8590    23.4530   -17.3200 
   59.1250     2.1820    55.9290     6.1830     5.4450    11.2600    23.3570   -17.9630 
   59.2500     2.1720    55.2040     6.3730     5.6550    10.7620    23.2690   -18.0910 
   59.3750     2.1810    58.4100     6.7030     5.9620    10.8270    23.1850   -17.8710 
   59.5000     2.2160    62.4630     7.2180     6.4800    11.7370    23.1500   -17.4710 
   59.6250     2.2710    61.8960     8.0060     7.3320    13.5250    23.1430   -16.9440 
   59.7500     2.3290    58.5230     8.9470     8.3690    15.6660    23.0410   -16.1940 
   59.8750     2.3770    55.8790     9.7860     9.2720    17.6600    22.9160   -15.2890 
   60.0000     2.4150    56.2620    10.1190     9.5970    19.6600    22.9440   -14.3440 
   60.1250     2.4310    62.0700     9.5110     8.9260    18.8260    23.1740   -13.3980 
   60.2500     2.4180    71.1360     8.3270     7.6700    12.8740    23.4610   -12.4700 
   60.3750     2.3820    80.5060     7.0800     6.3240     7.9690    23.6530   -11.6190 
   60.5000     2.3460    87.6520     6.1730     5.2580     6.2680    23.6970   -10.9130 
   60.6250     2.3280    91.5460     5.8570     4.6990     6.3910    23.6390   -10.4100 
   60.7500     2.3230    92.7810     6.0290     4.5750     6.6710    23.5310   -10.0910 
   60.8750     2.3210    92.6730     6.5820     4.8160     7.0800    23.3990    -9.8810 
   61.0000     2.3180    90.7290     7.3250     5.3000     7.2500    23.3150    -9.7760 
   61.1250     2.3100    84.5020     7.9700     5.8320     7.5690    23.3330    -9.8530 
