~V
VERS. 2.00: Ver 2.00
~W
STRT.M 55.0000:
STOP.M 274.0000:
STEP.M 0.1250:
NULL. -999.2500:
UWI. F10255:
~C
DEPT.M :
GR.API :
RML.OHMM :
RI. :
RXO.OHMM :
CALI.CM :
DEN.GM/CC :
SP.MV :
~A
# ...
  122.5000    75.8550     7.5450     6.3450     7.6190    24.3620     2.2950    -3.9300 
  122.6250    69.8860     8.1850     6.9410     8.3350    24.3090     2.2690    -4.1500 
  122.7500    63.8860     8.6590     7.4330     9.1150    24.3640     2.2540    -4.3670 
  122.8750    60.3980     8.8060     7.6630     9.4350    24.4660     2.2580    -4.5330 
  123.0000    61.6480     8.5730     7.5510     9.4610    24.5210     2.2810    -4.5470 
  123.1250    66.3810     8.0290     7.1190     8.8570    24.4590     2.3080    -4.3850 
  123.2500    72.6730     7.4200     6.5810     7.8370    24.3550     2.3260    -4.1010 
  123.3750    80.8270     6.8990     6.0840     6.9610    24.2840     2.3320    -3.7760 
  123.5000    87.7340     6.5500     5.7230     6.8510    24.2570     2.3310    -3.4480 
  123.6250    89.5170     6.4230     5.5570     7.1080    24.2390     2.3280    -3.1460 
  123.7500    87.6730     6.4530     5.5420     7.1420    24.2220     2.3240    -2.8560 
  123.8750    85.5730     6.5840     5.6470     6.7850    24.1840     2.3190    -2.5980 
  124.0000    86.2950     6.7450     5.8200     6.8110    24.1300     2.3110    -2.4470 
  124.1250    88.5150     6.8470     5.9790     6.9050    24.1140     2.3070    -2.4180 
  124.2500    88.7630     6.8400     6.0520     6.8820    24.1910     2.3130    -2.4650 
  124.3750    86.6860     6.7120     6.0050     7.0640    24.3390     2.3270    -2.4990 
  124.5000    86.5850     6.4930     5.8450     6.9620    24.4990     2.3470    -2.5140 
  124.6250    90.5170     6.2640     5.6250     6.3150    24.6460     2.3640    -2.5450 
  124.7500    92.1010     6.1290     5.4520     5.8620    24.7460     2.3730    -2.5870 
  124.8750    88.5780     6.1520     5.3950     5.7870    24.7720     2.3690    -2.6800 
  125.0000    82.1130     6.3450     5.4780     6.1470    24.7020     2.3520    -2.8010 
  125.1250    78.2390     6.6450     5.6720     6.5940    24.4570     2.3290    -2.9050 
  125.2500    78.1500     6.8920     5.8550     7.1050    24.1270     2.3090    -3.0120 
  125.3750    79.8520     6.9880     5.9290     7.5130    23.9560     2.3040    -3.1820 
  125.5000    80.4280     6.9460     5.8860     7.5300    24.0680     2.3190    -3.3810 
  125.6250    78.8060     6.9220     5.8540     7.0030    24.3790     2.3560    -3.5430 
  125.7500    76.0820     7.1150     5.9990     6.7550    24.5370     2.4010    -3.6740 
  125.8750    72.5970     7.6670     6.4480     7.5820    24.5520     2.4390    -3.8050 
  126.0000    67.4290     8.6760     7.2960    10.2790    24.4960     2.4610    -3.9730 
  126.1250    60.8760    10.2180     8.6340    16.2600    24.4790     2.4540    -4.1590 
  126.2500    55.1110    12.0280    10.2470    19.4630    24.5100     2.4240    -4.3180 
  126.3750    53.0980    13.7630    11.8510    21.7290    24.5310     2.3790    -4.4810 
  126.5000    55.9160    15.0500    13.1220    28.7940    24.5340     2.3330    -4.6990 
  126.6250    57.5450    15.5490    13.7390    35.5320    24.5600     2.3020    -4.9140 
  126.7500    54.8460    15.4470    13.8150    36.5990    24.6080     2.2900    -5.0960 
  126.8750    51.3300    14.9600    13.5030    27.9280    24.6050     2.2910    -5.2500 
  127.0000    51.3400    14.2850    12.9430    17.8570    24.4950     2.2940    -5.3770 
  127.1250    53.7400    13.5570    12.2380    14.6300    24.3490     2.2900    -5.4500 
  127.2500    55.8070    12.8700    11.5390    13.8920    24.3030     2.2780    -5.5200 
  127.3750    58.0050    12.2870    10.9510    13.2130    24.3500     2.2600    -5.5950 
  127.5000    60.0960    11.8560    10.5280    12.3300    24.4360     2.2420    -5.6390 
  127.6250    60.8840    11.6410    10.3140    11.2270    24.4900     2.2300    -5.6700 
  127.7500    61.2370    11.6100    10.2690    10.6940    24.5320     2.2250    -5.7000 
  127.8750    61.6340    11.7180    10.3620    10.7900    24.5940     2.2280    -5.7350 
  128.0000    62.0930    11.8850    10.5340    11.0940    24.6930     2.2340    -5.7860 
  128.1250    62.6750    12.0130    10.7050    11.1250    24.7400     2.2330    -5.8700 
  128.2500    63.2760    12.0520    10.8190    11.1170    24.7160     2.2230    -5.9260 
  128.3750    62.9220    11.9890    10.8500    11.3820    24.6750     2.2060    -5.9180 
  128.5000    62.3360    11.8310    10.7880    11.7790    24.6580     2.1900    -5.9140 
  128.6250    61.4740    11.5810    10.6190    11.2860    24.6590     2.1850    -5.9750 
  128.7500    61.0130    11.2810    10.3840    10.8460    24.6590     2.1900    -6.0570 
  128.8750    61.2770    10.9700    10.1190    10.7700    24.6590     2.2010    -6.0890 
  129.0000    61.6920    10.6970     9.8670    11.1560    24.6540     2.2090    -6.0540 
  129.1250    60.6360    10.5230     9.6840    11.3640    24.6330     2.2080    -6.0250 
  129.2500    58.5980    10.4580     9.5900    11.3670    24.5960     2.1990    -6.0480 
  129.3750    57.2200    10.4910     9.5850    10.8890    24.5780     2.1900    -6.0890 
  129.5000    58.0750    10.5950     9.6500    10.3610    24.6190     2.1890    -6.0910 
  129.6250    59.2670    10.7300     9.7520    10.2450    24.7200     2.1990    -6.0650 
  129.7500    58.5870    10.8490     9.8490    10.2710    24.7810     2.2140    -6.0660 
  129.8750    56.9870    10.9320     9.9130    10.2710    24.8300     2.2250    -6.0770 
  130.0000    56.2440    10.9780     9.9390    10.3020    24.9020     2.2260    -6.0720 
  130.1250    57.0490    11.0020     9.9420    10.4690    24.9450     2.2150    -6.0660 
  130.2500    56.7800    11.0250     9.9410    10.5020    24.9320     2.2010    -6.0630 
  130.3750    55.0930    11.0480     9.9410    10.4840    24.9600     2.1910    -6.0510 
  130.5000    55.5460    11.0630     9.9350    10.5920    25.0170     2.1940    -6.0660 
  130.6250    60.7940    11.0580     9.9070    10.8270    25.0450     2.2080    -6.1090 
  130.7500    64.9200    11.0370     9.8530    10.9140    25.0500     2.2230    -6.1000 
  130.8750    63.7080    11.0140     9.7870    10.7770    25.0450     2.2270    -6.1000 
  131.0000    60.8160    11.0070     9.7310    10.5220    25.0240     2.2140    -6.1330 
  131.1250    61.5480    11.0400     9.7220    10.4500    24.9900     2.1880    -6.1640 
  131.2500    63.1840    11.1160     9.7710    10.6390    25.0120     2.1660    -6.2070 
  131.3750    62.3660    11.2330     9.8750    10.9750    25.1200     2.1590    -6.2820 
  131.5000    58.6800    11.3830    10.0190    11.1350    25.2690     2.1690    -6.3290 
  131.6250    54.0600    11.5530    10.1790    11.1040    25.3070     2.1890    -6.3030 
  131.7500    51.6440    11.7250    10.3350    11.2270    25.2080     2.2060    -6.3140 
  131.8750    53.8590    11.8880    10.4760    11.5520    25.0150     2.2150    -6.3610 
  132.0000    58.7050    12.0320    10.5930    11.6370    24.8450     2.2140    -6.4260 
  132.1250    60.7160    12.1260    10.6620    11.4230    24.7780     2.2070    -6.4420 
  132.2500    59.1630    12.1500    10.6690    11.2240    24.7780     2.2000    -6.3840 
  132.3750    57.2980    12.0970    10.6100    11.0360    24.7850     2.1930    -6.3170 
  132.5000    56.5220    11.9890    10.5030    10.9890    24.7800     2.1880    -6.2860 
  132.6250    56.1800    11.8740    10.3850    10.9880    24.7520     2.1880    -6.2690 
  132.7500    56.5050    11.8040    10.2970    10.9770    24.7050     2.1960    -6.1910 
  132.8750    58.0590    11.7870    10.2580    11.0320    24.6700     2.2100    -6.0590 
  133.0000    58.4880    11.7900    10.2580    11.4360    24.6620     2.2250    -5.9080 
  133.1250    57.3540    11.7300    10.2380    11.5770    24.6550     2.2350    -5.7610 
  133.2500    56.0010    11.5580    10.1400    11.5350    24.6080     2.2380    -5.5990 
  133.3750    54.7550    11.2760     9.9490    11.2270    24.5070     2.2400    -5.4150 
  133.5000    54.1360    10.9420     9.6990    10.9140    24.4000     2.2440    -5.2180 
  133.6250    56.6230    10.6620     9.4750    10.5970    24.2760     2.2510    -4.9860 
