~V
VERS. 2.00: Ver 2.00
~W
STRT.M 63.0000:
STOP.M 280.0000:
STEP.M 0.1250:
NULL. -999.2500:
UWI. F10220:
~C
DEPT.M :
SP.MV :
DEN.GM/CC :
GR.API :
RML.OHMM :
RI. :
RXO.OHMM :
CALI.CM :
~A
# ...
  153.0000    -8.8210     2.2700    91.1090     5.8430     4.5090     5.0760    24.1700 
  153.1250    -8.9550     2.2870    89.1760     6.3200     4.8530     5.3780    24.1620 
  153.2500    -9.0980     2.2960    88.6480     6.8810     5.3020     6.0580    24.1350 
  153.3750    -9.2230     2.2970    89.9290     7.3140     5.7270     6.8190    24.1200 
  153.5000    -9.3020     2.2910    89.1560     7.4200     5.9700     7.3670    24.1360 
  153.6250    -9.3380     2.2790    85.3160     7.1140     5.9150     7.4390    24.1920 
  153.7500    -9.3460     2.2660    83.2440     6.5310     5.5730     6.6320    24.2680 
  153.8750    -9.3130     2.2610    86.7650     6.0590     5.2090     5.7910    24.2560 
  154.0000    -9.2620     2.2650    91.0490     5.9630     5.0380     5.2520    24.1910 
  154.1250    -9.2270     2.2730    89.9020     6.3690     5.2050     5.1440    24.0930 
  154.2500    -9.1900     2.2760    86.2990     7.3070     5.8220     5.8860    23.9390 
  154.3750    -9.1290     2.2760    84.8240     8.4270     6.7120     7.3530    23.7790 
  154.5000    -9.0770     2.2760    83.4300     9.2730     7.5720     8.9660    23.6170 
  154.6250    -9.0120     2.2750    81.1860     9.3600     7.9710     9.7790    23.4620 
  154.7500    -8.9290     2.2740    81.4190     8.4490     7.5360     8.8140    23.3810 
  154.8750    -8.8560     2.2760    85.3410     7.1880     6.6390     7.1710    23.3800 
  155.0000    -8.7920     2.2820    90.4630     6.1110     5.7030     5.6370    23.3200 
  155.1250    -8.7120     2.2900    95.0140     5.4850     5.0130     4.9690    23.0800 
  155.2500    -8.6400     2.2960    94.8170     5.4180     4.7390     5.0260    22.9020 
  155.3750    -8.5860     2.2940    90.4130     5.7780     4.8300     5.4100    22.9630 
  155.5000    -8.5280     2.2840    86.6700     6.5250     5.2720     5.9200    23.2030 
  155.6250    -8.4730     2.2670    86.8660     7.6180     6.0430     6.5620    23.5260 
  155.7500    -8.4450     2.2520    87.8560     9.0150     7.1450     7.6280    23.8030 
  155.8750    -8.4350     2.2390    82.6840    10.5290     8.4410     9.3940    24.0020 
  156.0000    -8.4440     2.2250    74.9160    12.0090     9.8130    11.4160    24.0470 
  156.1250    -8.4710     2.2100    69.7470    13.3450    11.1400    13.2840    24.1060 
  156.2500    -8.5000     2.1990    68.5210    14.5350    12.3510    14.8370    24.3180 
  156.3750    -8.5320     2.1920    68.4500    15.7760    13.5410    15.8290    24.6090 
  156.5000    -8.6050     2.1920    67.9850    17.2770    14.8630    16.6300    24.8360 
  156.6250    -8.7140     2.2010    68.9730    19.1790    16.4670    18.2450    24.9340 
  156.7500    -8.8250     2.2210    69.4380    21.4860    18.4520    21.6160    24.9440 
  156.8750    -8.9030     2.2440    69.2710    23.8530    20.6100    24.5090    24.9220 
  157.0000    -8.9250     2.2690    68.3620    25.9060    22.6540    25.2110    24.8860 
  157.1250    -8.9200     2.2880    65.3870    27.2730    24.2410    24.1910    24.8780 
  157.2500    -8.8910     2.2870    62.9990    27.5320    24.9280    23.7330    24.9510 
  157.3750    -8.8680     2.2660    62.2080    26.8310    24.7250    24.5510    25.0210 
  157.5000    -8.8490     2.2390    62.4850    25.3870    23.7560    24.8890    25.0660 
  157.6250    -8.8520     2.2230    62.0630    23.5590    22.2970    25.1820    25.0570 
  157.7500    -8.9010     2.2230    62.2690    21.8440    20.7480    23.8480    24.9900 
  157.8750    -9.0160     2.2290    65.2600    20.6230    19.4980    20.9180    24.9140 
  158.0000    -9.1960     2.2330    71.1350    20.0520    18.7450    17.7890    24.8790 
  158.1250    -9.4180     2.2350    75.8290    20.1210    18.5440    16.3280    24.8650 
  158.2500    -9.6910     2.2360    74.6750    20.8400    18.9580    17.6000    24.8120 
  158.3750   -10.0010     2.2390    72.2910    22.1010    19.8880    20.1580    24.6560 
  158.5000   -10.3330     2.2500    72.7730    24.0200    21.4050    22.0810    24.3750 
  158.6250   -10.6680     2.2690    75.4020    26.8160    23.6740    22.1010    24.0220 
  158.7500   -11.0040     2.2900    74.3550    30.8920    27.0840    21.4160    23.7680 
  158.8750   -11.3360     2.2970    69.0490    36.0160    31.5320    24.6150    23.6260 
  159.0000   -11.6590     2.2770    62.1410    41.6970    36.6850    33.3930    23.6100 
  159.1250   -11.9670     2.2320    56.6660    47.0490    41.8000    41.7030    23.9320 
  159.2500   -12.2260     2.1770    56.3420    50.9060    45.7820    40.8390    24.7350 
  159.3750   -12.4330     2.1340    58.8310    53.3520    48.4730    38.3430    25.4720 
  159.5000   -12.5670     2.1160    61.6010    55.0720    50.3230    40.2310    25.7220 
  159.6250   -12.6370     2.1230    61.7870    56.8880    52.0400    44.6100    25.6710 
  159.7500   -12.6480     2.1420    59.8160    59.4040    54.2280    48.1200    25.5900 
  159.8750   -12.5940     2.1550    59.1750    62.5700    56.9560    52.5680    25.5490 
  160.0000   -12.5040     2.1590    60.0410    66.2500    60.1690    55.3090    25.6300 
  160.1250   -12.3860     2.1560    59.2960    70.2560    63.7600    52.5090    25.8750 
  160.2500   -12.2510     2.1450    56.2620    74.1460    67.4340    49.7920    26.3490 
  160.3750   -12.0890     2.1330    55.3070    77.1570    70.5280    50.3250    26.5880 
  160.5000   -11.9270     2.1290    56.0050    78.4300    72.2840    52.7010    26.2310 
  160.6250   -11.7920     2.1390    57.0550    77.2830    72.0540    55.7390    25.4630 
  160.7500   -11.6750     2.1580    59.7450    73.1410    69.1530    53.3660    24.9700 
  160.8750   -11.5840     2.1730    60.7860    69.4900    64.3860    46.8470    24.7380 
  161.0000   -11.5080     2.1810    58.2460    65.1530    58.8030    41.7630    24.6780 
  161.1250   -11.4310     2.1820    54.8890    59.3090    53.6320    39.3460    24.6810 
  161.2500   -11.3470     2.1870    55.6510    55.5650    50.0870    36.6380    24.6500 
  161.3750   -11.2600     2.1970    58.2060    53.7700    48.3080    34.2620    24.5230 
  161.5000   -11.1360     2.2050    60.2600    53.6310    48.2030    33.5670    24.3970 
  161.6250   -10.9600     2.2040    62.2380    54.5810    49.3670    36.7790    24.3690 
  161.7500   -10.7350     2.1940    63.3960    55.7890    51.1190    36.8690    24.4290 
  161.8750   -10.4460     2.1870    62.5580    56.3210    52.5220    35.5430    24.5510 
  162.0000   -10.0980     2.1900    60.0860    55.4210    52.8400    33.6360    24.4670 
  162.1250    -9.7010     2.2010    57.0760    52.2610    51.2040    32.6280    24.2290 
  162.2500    -9.2510     2.2130    56.4950    45.6210    46.0530    31.5780    24.0390 
  162.3750    -8.7610     2.2180    58.7620    36.4270    37.8400    28.9360    24.0100 
  162.5000    -8.2610     2.2170    60.3970    26.4160    28.2120    25.7830    24.0980 
  162.6250    -7.7470     2.2130    61.5330    18.5370    19.4150    20.8530    24.1770 
  162.7500    -7.2050     2.2080    67.9010    12.4210    13.2700    13.4140    24.1320 
  162.8750    -6.7150     2.2050    78.3110     8.8130     9.3910     7.8470    24.1280 
  163.0000    -6.3020     2.2110    85.5180     7.0010     7.2090     5.4100    24.1370 
  163.1250    -5.9820     2.2300    85.6910     6.3270     6.1800     4.8360    24.0880 
  163.2500    -5.7860     2.2540    81.5450     6.4090     6.0050     5.1600    23.9850 
  163.3750    -5.6880     2.2700    78.8760     6.8070     6.2650     5.7380    23.9860 
  163.5000    -5.6630     2.2770    79.8010     7.3060     6.7380     6.0910    24.0050 
  163.6250    -5.7180     2.2780    82.8750     7.7850     7.2520     5.9840    23.9100 
  163.7500    -5.8500     2.2740    81.9050     7.8900     7.7540     5.9160    23.7100 
  163.8750    -5.9890     2.2680    76.8300     8.5120     8.3180     6.2600    23.5870 
  164.0000    -6.0950     2.2620    72.6240     9.3220     9.0070     6.9090    23.5490 
  164.1250    -6.1560     2.2560    71.8300    10.2110     9.7720     7.8800    23.5270 
