~V
VERS. 2.00: Ver 2.00
~W
STRT.M 50.0000:
STOP.M 274.0000:
STEP.M 0.1250:
NULL. -999.2500:
UWI. F10206:
~C
DEPT.M :
SP.MV :
DEN.GM/CC :
GR.API :
RML.OHMM :
RI. :
RXO.OHMM :
CALI.CM :
~A
# ...
  196.2500   -18.8160     2.2070    56.8540    75.9020    69.4890    62.4070    25.3970 
  196.3750   -18.4830     2.2140    57.7930    77.4980    70.1110    63.6430    25.3080 
  196.5000   -18.1020     2.2200    56.6440    79.2040    70.8700    66.6540    25.3300 
  196.6250   -17.6670     2.2200    52.9940    81.2290    71.9950    68.8340    25.3810 
  196.7500   -17.1770     2.2120    51.0510    83.8880    73.8540    70.6670    25.4620 
  196.8750   -16.6280     2.1960    53.2040    87.1740    76.6300    72.3530    25.4570 
  197.0000   -16.0450     2.1770    56.7520    89.8770    79.5180    74.4840    25.4100 
  197.1250   -15.3950     2.1700    58.9290    87.5510    78.8140    77.1900    25.3720 
  197.2500   -14.7540     2.1920    58.7810    77.1320    71.0380    79.1310    25.2670 
  197.3750   -14.1310     2.2540    57.4780    59.7930    56.2230    74.3410    25.0200 
  197.5000   -13.5300     2.3520    56.3380    41.1060    39.1050    57.5710    24.8900 
  197.6250   -13.0080     2.4590    54.1960    27.1030    25.7800    30.1430    24.9630 
  197.7500   -12.5380     2.5360    50.7660    18.2310    17.2100    15.4120    25.0420 
  197.8750   -12.1650     2.5590    47.1290    13.3280    12.3640     8.6630    25.2690 
  198.0000   -11.8340     2.5350    45.1220    11.0410     9.9330     6.7500    25.3470 
  198.1250   -11.6180     2.4890    46.1540    10.5060     9.1210     7.0800    25.6120 
  198.2500   -11.4610     2.4520    47.0760    10.7350     9.0810     8.1560    25.4430 
  198.3750   -11.3410     2.4320    46.3980    11.2250     9.4150     9.9020    25.1770 
  198.5000   -11.2720     2.4300    45.5720    11.5760     9.7680    11.1070    24.8160 
  198.6250   -11.2160     2.4370    47.1520    11.5570     9.8890    10.8840    24.7900 
  198.7500   -11.1800     2.4390    48.0580    11.3590     9.8440     9.4210    25.1360 
  198.8750   -11.1410     2.4320    46.5040    11.2020     9.7650     8.6370    25.7030 
  199.0000   -11.0950     2.4210    45.2420    11.2200     9.7390     9.3480    25.5060 
  199.1250   -11.0280     2.4170    45.3620    11.3950     9.7620    11.0840    24.8940 
  199.2500   -10.9390     2.4320    44.2490    11.5300     9.7420    11.5710    24.8220 
  199.3750   -10.8650     2.4610    42.6470    11.4690     9.6020    10.2270    24.7040 
  199.5000   -10.7720     2.4940    43.4720    11.1650     9.3290     8.6810    24.8390 
  199.6250   -10.6940     2.5060    46.6020    10.7040     8.9890     7.7580    24.9590 
  199.7500   -10.6280     2.4930    48.3830    10.2810     8.6770     8.2340    25.0530 
  199.8750   -10.5580     2.4650    47.7110     9.9780     8.4080     8.9890    25.3630 
  200.0000   -10.5210     2.4370    45.9930     9.7660     8.1440     9.0990    26.1540 
  200.1250   -10.4880     2.4170    45.7090     9.5390     7.8220     7.9730    26.9270 
  200.2500   -10.5180     2.4000    45.9050     9.2320     7.4410     6.9280    27.7240 
  200.3750   -10.5670     2.3790    45.2800     8.8770     7.0550     6.1800    29.6140 
  200.5000   -10.6740     2.3490    42.8760     7.1360     6.7430     5.8940    31.4550 
  200.6250   -10.8480     2.3150    39.2510     7.0000     6.5810     6.2550    32.0110 
  200.7500   -11.0340     2.2880    37.1530     6.9710     6.5280     7.4000    31.1120 
  200.8750   -11.2700     2.2730    38.0250     6.9990     6.5240     8.8980    28.3850 
  201.0000   -11.5160     2.2690    40.9750     7.0540     6.5270     9.7050    26.0140 
  201.1250   -11.7760     2.2720    42.3780     7.1680     6.5630     8.4250    25.9760 
  201.2500   -12.0230     2.2780    41.3170     7.3710     6.6820     7.4350    26.0430 
  201.3750   -12.2330     2.2880    38.2950     7.6540     6.8880     7.8030    26.2170 
  201.5000   -12.4070     2.3080    36.0840     7.9350     7.1200    10.6420    25.4890 
  201.6250   -12.5250     2.3430    37.3690     8.0490     7.2310    14.8990    25.0960 
  201.7500   -12.6210     2.3840    39.1020     7.9630     7.1490    15.5860    24.8830 
  201.8750   -12.6940     2.4160    39.8540     7.7960     6.9310    10.6450    25.0040 
  202.0000   -12.7610     2.4290    41.7590     7.7570     6.7570     7.5830    25.8870 
  202.1250   -12.8540     2.4260    46.9110     8.0570     6.8750     7.9210    26.6070 
  202.2500   -12.9170     2.4230    50.0240     8.6220     7.2840    10.4670    26.0920 
  202.3750   -13.0020     2.4270    48.0320     9.2500     7.8370    13.2710    25.2910 
  202.5000   -13.1150     2.4330    43.2900     9.6100     8.2420    15.6450    25.0650 
  202.6250   -13.2570     2.4250    40.9520     9.3090     8.0980    13.6300    25.1320 
  202.7500   -13.4510     2.4000    43.8600     8.5060     7.4660     9.7210    25.2460 
  202.8750   -13.6860     2.3630    52.2640     7.5460     6.6270     7.4140    25.4310 
  203.0000   -14.0250     2.3310    63.3790     6.7590     5.8810     6.6000    25.5190 
  203.1250   -14.4080     2.3220    70.9720     6.3600     5.4380     6.4820    25.4380 
  203.2500   -14.8550     2.3360    73.4730     6.2720     5.2610     6.8200    25.4300 
  203.3750   -15.3250     2.3650    73.0750     6.4060     5.2840     7.3700    25.4650 
  203.5000   -15.7520     2.3950    73.4520     6.7000     5.4410     7.6150    25.4210 
  203.6250   -16.1260     2.4120    74.0280     7.1880     5.7340     7.7810    25.4730 
  203.7500   -16.3750     2.4170    69.1180     7.9100     6.1940     9.0670    25.4680 
  203.8750   -16.5130     2.4140    60.6300     8.9360     6.8880    10.8550    25.3340 
  204.0000   -16.4780     2.4130    54.2200    10.3050     7.8720    12.1680    25.2320 
  204.1250   -16.2880     2.4260    54.1770    11.9360     9.1490    13.6190    25.1430 
  204.2500   -16.0020     2.4540    56.2880    13.3850    10.4110    15.3750    25.0660 
  204.3750   -15.6390     2.4930    57.5130    14.0470    11.1790    17.3530    24.9940 
  204.5000   -15.2580     2.5330    59.0480    13.4200    10.9820    19.4160    24.9860 
  204.6250   -14.8680     2.5550    61.9440    11.4980     9.7030    20.4710    24.9920 
  204.7500   -14.5430     2.5490    66.0600     9.3380     8.1270    17.0000    25.0340 
  204.8750   -14.3100     2.5190    71.9370     7.6540     6.8120    10.6850    25.2090 
  205.0000   -14.1710     2.4780    78.0220     6.7550     6.0190     7.1940    25.2740 
  205.1250   -14.1470     2.4470    79.7190     6.7430     5.8500     7.5160    25.2640 
  205.2500   -14.1530     2.4350    75.9410     7.2980     6.0990     9.6940    25.1290 
  205.3750   -14.2090     2.4420    70.7630     8.1200     6.5880    11.8360    25.0140 
  205.5000   -14.2990     2.4580    69.1440     8.7670     7.0530    12.7040    24.9910 
  205.6250   -14.3730     2.4730    71.0300     8.6820     7.1210    11.8520    24.9890 
  205.7500   -14.4490     2.4760    72.9790     7.9260     6.7430     9.8910    24.9440 
  205.8750   -14.4560     2.4650    73.1070     6.8400     6.0760     7.9960    24.8370 
  206.0000   -14.4150     2.4380    70.6440     5.8040     5.3410     6.9340    24.5050 
  206.1250   -14.3330     2.4010    65.2580     5.0630     4.7110     5.6040    24.4640 
  206.2500   -14.2320     2.3640    59.3700     4.5900     4.2260     4.9130    24.6500 
  206.3750   -14.1360     2.3350    54.5720     4.3400     3.8910     4.7150    24.9280 
  206.5000   -14.0190     2.3150    51.1060     4.2590     3.7050     4.7910    24.9800 
  206.6250   -13.9130     2.3050    49.7890     4.2860     3.6680     4.8180    24.9420 
  206.7500   -13.8140     2.3020    52.2690     4.3130     3.6990     4.7290    25.1080 
  206.8750   -13.7240     2.3040    59.0980     4.2850     3.7260     4.4770    25.7780 
  207.0000   -13.6580     2.3110    66.8750     4.1980     3.6990     4.2920    26.3400 
  207.1250   -13.6110     2.3230    70.8290     4.0910     3.6120     4.2940    27.3320 
  207.2500   -13.5580     2.3330    72.5760     4.0240     3.5240     4.3820    27.3490 
  207.3750   -13.5090     2.3400    73.0360     4.0360     3.4980     4.4240    26.5010 
