~V
VERS. 2.00: Ver 2.00
~W
STRT.M 50.0000:
STOP.M 275.0000:
STEP.M 0.1250:
NULL. -999.2500:
UWI. F10202:
~C
DEPT.M :
GR.API :
RML.OHMM :
RI. :
RXO.OHMM :
CALI.CM :
SP.MV :
DEN.GM/CC :
~A
# ...
  173.7500    63.0240   128.8620   121.9630    70.8750    24.7400   -11.3160     2.2260 
  173.8750    61.0680   125.7050   120.2470    79.4390    24.8460   -11.0850     2.1880 
  174.0000    59.2450   120.8320   116.7750    94.2440    25.1600   -11.1020     2.1510 
  174.1250    58.9640   114.4130   111.4680    95.8110    25.4990   -11.2440     2.1330 
  174.2500    60.1260   107.4670   105.1720    88.0240    25.5740   -11.4100     2.1350 
  174.3750    62.4470   101.0290    98.7900    78.3860    25.4340   -11.6960     2.1480 
  174.5000    64.9650    96.2910    93.4800    72.3570    25.2610   -12.1760     2.1650 
  174.6250    68.4440    95.0190    91.0120    69.0950    25.1300   -12.6780     2.1780 
  174.7500    70.6060    97.6540    92.1140    68.4670    25.0370   -13.1500     2.1900 
  174.8750    76.0090   104.5540    97.4240    70.1800    24.9890   -13.4890     2.2020 
  175.0000    85.1270   115.4170   107.0670    77.4350    24.9680   -13.7880     2.2120 
  175.1250    87.7000   128.8460   120.3860    95.4740    24.9620   -14.2380     2.2190 
  175.2500    78.5710   141.1520   133.7130   112.8230    25.0470   -14.7700     2.2200 
  175.3750    66.7120   149.0460   143.0980   123.6130    25.1260   -15.3490     2.2140 
  175.5000    62.0460   150.5020   145.3880   126.7710    25.1910   -15.8750     2.2020 
  175.6250    60.8900   144.9790   139.2200   131.8700    25.2880   -16.3620     2.1910 
  175.7500    58.8640   136.0620   129.0800   129.5080    25.3020   -17.0130     2.1860 
  175.8750    60.1030   126.4960   118.7240   120.5630    25.1700   -17.8570     2.1900 
  176.0000    64.5250   118.4260   110.6920   102.3370    24.9690   -18.7190     2.2040 
  176.1250    67.2240   113.3120   106.1330    88.9560    24.7930   -19.6330     2.2280 
  176.2500    66.9450   110.4430   103.7560    74.8660    24.6680   -20.6210     2.2530 
  176.3750    65.8000   109.0200   102.6000    60.6740    24.5590   -21.6350     2.2740 
  176.5000    64.4300   108.3960   102.0390    51.6190    24.4490   -22.5520     2.2850 
  176.6250    64.3940   108.4330   102.0010    51.7610    23.8670   -23.3760     2.2840 
  176.7500    65.2890   109.1070   102.6010    40.5220    23.9330   -23.8460     2.2770 
  176.8750    66.2730   110.4040   103.9150    28.0290    24.0000   -23.8630     2.2690 
  177.0000    69.1020   112.0030   105.6550    38.6890    24.0000   -23.6750     2.2630 
  177.1250    77.0960   113.0370   106.9280    61.8490    24.0000   -23.3750     2.2610 
  177.2500    82.6850   112.7250   106.7940    84.9800    24.0000   -22.9460     2.2620 
  177.3750    77.8950   110.7410   104.7880    81.9450    24.0000   -22.2470     2.2650 
  177.5000    68.3530   107.4820   101.3060    75.4950    24.0000   -21.3990     2.2700 
  177.6250    65.6570   104.1790    97.7450    68.6710    24.3880   -20.2820     2.2750 
  177.7500    68.1820   102.2890    95.6740    62.5940    24.3820   -19.1590     2.2790 
  177.8750    69.7620   102.7670    95.9990    56.9300    24.3760   -18.2920     2.2800 
  178.0000    69.0170   106.0250    99.1430    55.5380    24.3790   -17.5480     2.2770 
  178.1250    71.4740   112.1300   105.2520    60.2150    24.4190   -16.6150     2.2670 
  178.2500    78.1320   119.6800   112.7760    64.4510    24.5040   -15.6070     2.2560 
  178.3750    82.8990   127.6890   120.5320    75.3380    24.5770   -14.8410     2.2480 
  178.5000    79.7200   135.4880   127.8820    95.0630    24.5860   -14.3130     2.2450 
  178.6250    71.9310   142.3350   134.5720   106.7130    24.5480   -14.0640     2.2450 
  178.7500    68.8520   146.8880   139.7160   110.5040    24.5600   -13.9770     2.2430 
  178.8750    68.4980   146.5140   140.5970   114.0370    24.6120   -13.9400     2.2400 
  179.0000    66.0830   138.2360   133.4710   122.2880    24.6680   -13.9590     2.2370 
  179.1250    64.2920   119.4510   114.7010   122.8640    24.6880   -14.1450     2.2440 
  179.2500    66.6350    94.6670    89.2480    98.5180    24.6960   -14.4470     2.2630 
  179.3750    72.2700    69.0700    63.3410    53.9040    24.7250   -14.7080     2.2920 
  179.5000    79.7160    47.4360    42.3470    23.0080    24.8160   -14.9410     2.3230 
  179.6250    87.3720    33.2000    29.3660    14.4980    24.9720   -15.3900     2.3520 
  179.7500    91.7740    24.6940    21.9370    10.7750    25.0310   -15.9910     2.3770 
  179.8750    91.8090    20.2550    18.1700     9.9800    24.9620   -16.5920     2.4010 
  180.0000    89.5050    18.3840    16.6320    10.0140    24.8730   -17.0650     2.4230 
  180.1250    88.4290    18.2780    16.6270    10.6390    24.8410   -17.4680     2.4360 
  180.2500    88.5870    19.1750    17.5080    11.4750    24.8380   -17.7760     2.4380 
  180.3750    89.0900    20.9190    19.1530    12.2430    24.8450   -17.8510     2.4250 
  180.5000    90.8710    23.4930    21.5650    12.2150    24.8380   -17.7860     2.4000 
  180.6250    91.7020    27.1330    24.9750    12.5620    24.7340   -17.6440     2.3690 
  180.7500    88.1020    31.8420    29.3760    15.9390    24.5940   -17.5350     2.3400 
  180.8750    80.1350    37.7950    34.9410    21.4520    24.5420   -17.4770     2.3170 
  181.0000    73.7670    45.1250    41.8610    26.7110    24.5910   -17.5050     2.3000 
  181.1250    73.9920    53.7870    50.2890    30.3950    24.6220   -17.6480     2.2900 
  181.2500    75.8730    62.6600    59.1660    35.9320    24.6060   -17.8560     2.2830 
  181.3750    79.4980    70.5990    67.0840    40.9320    24.6290   -18.1730     2.2780 
  181.5000    82.5170    77.0370    72.9240    40.6310    24.7080   -18.5000     2.2710 
  181.6250    83.9310    82.5940    76.6270    35.7990    24.5770   -18.6570     2.2620 
  181.7500    86.4010    88.7390    79.9040    35.5590    24.4150   -18.6920     2.2510 
  181.8750    87.4880    96.0590    83.8740    41.0290    24.3550   -18.7130     2.2420 
  182.0000    84.3350   104.5050    89.0880    50.4870    24.2970   -18.8600     2.2360 
  182.1250    78.1270   114.2020    96.1070    61.5710    24.1980   -18.9070     2.2350 
  182.2500    74.9800   125.0490   104.8380    74.7930    23.8840   -18.7620     2.2330 
  182.3750    74.5600   136.6110   115.0000    86.6330    23.8000   -18.5850     2.2270 
  182.5000    72.0970   147.5660   125.5770    64.8430    23.8670   -18.4750     2.2180 
  182.6250    69.6550   155.1980   134.1830    48.7710    24.0330   -18.2910     2.2100 
  182.7500    66.0090   158.1440   138.9220    45.2980    24.1330   -17.9470     2.2080 
  182.8750    63.5540   156.1810   139.0270    65.0450    24.1330   -17.6680     2.2130 
  183.0000    65.4720   150.5990   135.3490    92.3960    24.2670   -17.5840     2.2220 
  183.1250    71.3700   143.6650   129.9550    89.7050    25.0580   -17.8860     2.2320 
  183.2500    74.5070   137.5760   125.2390    81.6570    25.0650   -18.6070     2.2380 
  183.3750    73.3450   132.9050   121.9780    75.0720    25.0040   -19.5370     2.2400 
  183.5000    71.1620   129.2730   119.8610    72.8780    24.9010   -20.4410     2.2390 
  183.6250    70.3510   125.8690   117.8290    78.6150    24.7400   -21.1580     2.2380 
  183.7500    68.8240   122.1250   114.9910    87.3060    24.6130   -21.7040     2.2400 
  183.8750    67.1810   118.0930   111.3060    90.2660    24.5940   -22.2690     2.2450 
  184.0000    69.2660   114.2310   107.4200    82.5060    24.7440   -22.8580     2.2520 
  184.1250    75.5820   111.5110   104.5910    71.6870    24.9110   -23.4590     2.2570 
  184.2500    79.2350   110.5310   103.5570    64.2410    24.9210   -23.9200     2.2580 
  184.3750    77.3700   111.6520   104.6430    64.7980    24.8390   -24.1740     2.2550 
  184.5000    72.1350   114.9000   107.8060    69.2190    24.7800   -24.2920     2.2500 
  184.6250    70.2270   120.3940   113.0670    80.3980    24.7230   -24.5540     2.2450 
  184.7500    75.2510   127.7080   119.9330    96.1060    24.6490   -25.0730     2.2420 
  184.8750    81.1500   137.0170   128.5740    98.7160    24.6400   -25.4270     2.2400 
