~V
VERS. 2.00: Ver 2.00
~W
STRT.M 50.0000:
STOP.M 273.0000:
STEP.M 0.1250:
NULL. -999.2500:
UWI. F10249:
~C
DEPT.M :
DEN.GM/CC :
GR.API :
RML.OHMM :
RI. :
RXO.OHMM :
CALI.CM :
SP.MV :
~A
# ...
  263.7500     2.3660    61.4210     6.7940     5.4140     5.0790    24.5720     3.6380 
  263.8750     2.3510    61.4210     6.8100     5.4260     5.0640    24.5710     3.6070 
  264.0000     2.3460    61.4210     6.8190     5.4330     5.0610    24.5700     3.5530 
  264.1250     2.3530    61.4210     6.8190     5.4290     5.1490    24.5700     3.5180 
  264.2500     2.3640    61.4210     6.8100     5.4140     5.2500    24.5700     3.5050 
  264.3750     2.3730    61.4210     6.7900     5.3920     5.2930    24.5700     3.4920 
  264.5000     2.3790    61.4210     6.7650     5.3650     5.3420    24.5700     3.4830 
  264.6250     2.3800    61.4210     6.7410     5.3410     5.4380    24.5700     3.4610 
  264.7500     2.3750    61.4210     6.7320     5.3250     5.4510    24.5700     3.4450 
  264.8750     2.3670    61.4210     6.7450     5.3240     5.3540    24.5700     3.4340 
  265.0000     2.3600    61.4210     6.7870     5.3440     5.2530    24.5700     3.4320 
  265.1250     2.3600    61.4210     6.8580     5.3900     5.1440    24.5700     3.4110 
  265.2500     2.3700    61.4210     6.9390     5.4530     5.1030    24.5700     3.3650 
  265.3750     2.3850    61.4210     7.0100     5.5220     5.1310    24.5670     3.3000 
  265.5000     2.3990    61.4210     7.0520     5.5780     5.1570    24.5590     3.2350 
  265.6250     2.3980    61.4210     7.0450     5.5990     5.1430    24.5400     3.2000 
  265.7500     2.3800    61.4210     6.9970     5.5820     5.1580    24.5240     3.1530 
  265.8750     2.3490    61.4210     6.9230     5.5380     5.2820    24.5130     3.1340 
  266.0000     2.3160    61.4210     6.8430     5.4790     5.5590    24.5070     3.1340 
  266.1250     2.2960    61.4210     6.7770     5.4230     5.6510    24.5050     3.1290 
  266.2500     2.2930    61.4210     6.7340     5.3780     5.4440    24.5050     3.1240 
  266.3750     2.3060    61.4210     6.7120     5.3520     5.2220    24.5070     3.1150 
  266.5000     2.3290    61.4210     6.7080     5.3480     5.1630    24.5190     3.1340 
  266.6250     2.3530    61.4210     6.7190     5.3650     5.2340    24.5470     3.1650 
  266.7500     2.3720    61.4210     6.7410     5.3940     5.3930    24.5640     3.1880 
  266.8750     2.3830    61.4210     6.7710     5.4280     5.4780    24.5690     3.1810 
  267.0000     2.3880    61.4210     6.8040     5.4600     5.4710    24.5700     3.1340 
  267.1250     2.3890    61.4210     6.8310     5.4830     5.5790    24.5700     3.0590 
  267.2500     2.3900    61.4210     6.8500     5.4990     5.7980    24.5700     3.0230 
  267.3750     2.3930    61.4210     6.8600     5.5070     6.0340    24.5700     3.0150 
  267.5000     2.3990    61.4210     6.8650     5.5100     6.2980    24.5700     3.0070 
  267.6250     2.3990    61.4210     6.8690     5.5100     6.6060    24.5700     2.9860 
  267.7500     2.3840    61.4210     6.8720     5.5090     6.7250    24.5700     2.9400 
  267.8750     2.3500    61.4210     6.8740     5.5070     6.6680    24.5700     2.8800 
  268.0000     2.3080    61.4210     6.8750     5.5060     6.5000    24.5700     2.8480 
  268.1250     2.2820    61.4210     6.8760     5.5060     6.2750    24.5700     2.8740 
  268.2500     2.2880    61.4210     6.8760     5.5060     6.3300    24.5700     2.9020 
  268.3750     2.3230    61.4210     6.8760     5.5060     6.4670    24.5700     2.9260 
  268.5000     2.3690    61.4210     6.8760     5.5060     6.6330    24.5700     2.9500 
  268.6250     2.4020    61.4210     6.8760     5.5060     6.4980    24.5700     2.9540 
  268.7500     2.4190    61.4210     6.8760     5.5060     6.1270    24.5670     2.9910 
  268.8750     2.4260    61.4210     6.8760     5.5060     6.0160    24.5530     3.0460 
  269.0000     2.4280    61.4210     6.8760     5.5060     6.1370    24.5270     3.1210 
  269.1250     2.4280    61.4210     6.8760     5.5060     6.4780    24.5070     3.1720 
  269.2500     2.4270    61.4210     6.8760     5.5060     6.9920    24.5020     3.2040 
  269.3750     2.4290    61.4210     6.8760     5.5060     7.2420    24.5020     3.2260 
  269.5000     2.4400    61.4210     6.8760     5.5060     7.6710    24.5020     3.2670 
  269.6250     2.4560    61.4210     6.8760     5.5060     7.7170    24.5020     3.3240 
  269.7500     2.4690    61.4210     6.8760     5.5060     6.8540    24.5020     3.3500 
  269.8750     2.4710    61.4210     6.8760     5.5060     6.2830    24.5020     3.3510 
  270.0000     2.4620    61.4210     6.8760     5.5060     6.1460    24.5020     3.3430 
  270.1250     2.4480    61.4210     6.8760     5.5060     6.2000    24.5020     3.3750 
  270.2500     2.4370    61.4210     6.8760     5.5060     6.5070    24.5120     3.4000 
  270.3750     2.4290    61.4210     6.8760     5.5060     6.9630    24.5240     3.3920 
  270.5000     2.4230    61.4210     6.8760     5.5060     7.0330    24.5200     3.3500 
  270.6250     2.4170    61.4210     6.8760     5.5060     6.5640    24.5080     3.3040 
  270.7500     2.4110    61.4210     6.8760     5.5060     6.4280    24.4810     3.2770 
  270.8750     2.4050    61.4210     6.8760     5.5060     6.7440    24.4250     3.2690 
  271.0000     2.4020    61.4210     6.8760     5.5060     7.0270    24.3550     3.2350 
  271.1250     2.3970    61.4210     6.8760     5.5060     7.1580    24.3180     3.1720 
  271.2500     2.3880    61.4210     6.8760     5.5060     7.1750    24.2940     3.0960 
  271.3750     2.3760    61.4210     6.8760     5.5060     7.2150    24.2640     3.0320 
  271.5000     2.3700    61.4210     6.8760     5.5060     7.2690    24.2250     3.0320 
  271.6250     2.3690    61.4210     6.8760     5.5060     7.4750    24.1930     3.0320 
  271.7500     2.3320    61.4210     6.8760     5.5060     7.8420    24.2570  -999.2500 
  271.8750     2.2300    61.4210     6.8760     5.5060     8.0310    24.2820  -999.2500 
  272.0000     2.1170    61.4210     6.8760     5.5060     7.4950    23.4680  -999.2500 
  272.1250     2.1180    61.4210     6.8760     5.5060     6.3500    21.1470  -999.2500 
  272.2500     2.2550    61.4210     6.8760     5.5060     5.5800    18.1630  -999.2500 
  272.3750     3.6260    61.4210     6.8760     5.5060     5.3100    16.8820  -999.2500 
  272.5000     3.0530    61.4210     6.8760     5.5060     5.2700    16.5880  -999.2500 
  272.6250     2.4050    61.4210     6.8760     5.5060     5.2690    16.5750  -999.2500 
  272.7500     2.1180    61.4210     6.8760     5.5060     5.2690    16.5730  -999.2500 
  272.8750  -999.2500    61.4210     6.8760     5.5060     5.2680    16.5730  -999.2500 
  273.0000  -999.2500    61.4210     6.8760     5.5060     5.2670    16.5730  -999.2500 
