~V
VERS. 2.00: Ver 2.00
~W
STRT.M 56.0000:
STOP.M 275.0000:
STEP.M 0.1250:
NULL. -999.2500:
UWI. F10253:
~C
DEPT.M :
GR.API :
RML.OHMM :
RI. :
RXO.OHMM :
CALI.CM :
DEN.GM/CC :
SP.MV :
~A
# ...
  146.0000    53.8650    14.9800    13.1330    14.8140    24.9050     2.1400   -11.3810 
  146.1250    54.3620    15.2160    13.4300    14.7860    24.9000     2.1360   -11.4170 
  146.2500    54.2670    15.4210    13.7080    14.5830    24.8200     2.1310   -11.4190 
  146.3750    55.1890    15.6370    13.9860    14.2740    24.7010     2.1250   -11.3710 
  146.5000    55.0320    15.8620    14.2670    14.0810    24.6240     2.1230   -11.2800 
  146.6250    53.8740    16.0550    14.5210    14.0000    24.5860     2.1260   -11.1530 
  146.7500    54.5970    16.1690    14.7060    13.9230    24.5050     2.1350   -11.0130 
  146.8750    59.3790    16.1780    14.7870    13.6620    24.2210     2.1490   -10.8580 
  147.0000    63.5110    16.1550    14.8130    13.1850    23.8390     2.1640   -10.7130 
  147.1250    62.9340    16.1890    14.8560    12.6280    23.5640     2.1710   -10.5850 
  147.2500    58.1830    16.3620    14.9910    12.1540    23.4500     2.1640   -10.4730 
  147.3750    55.2070    16.7260    15.2830    12.1020    23.4540     2.1400   -10.3850 
  147.5000    56.9040    17.1960    15.6840    12.4720    23.4640     2.1100   -10.3590 
  147.6250    58.4790    17.6530    16.1040    13.1460    23.4520     2.0870   -10.3910 
  147.7500    57.3900    17.9590    16.4250    14.0280    23.4140     2.0790   -10.4390 
  147.8750    58.1710    17.9480    16.4910    14.5440    23.6890     2.0880   -10.5040 
  148.0000    60.7320    17.6510    16.3010    14.7380    24.1740     2.1020   -10.5750 
  148.1250    61.7870    17.1550    15.9140    14.4960    24.6440     2.1150   -10.6370 
  148.2500    61.0830    16.6070    15.4500    14.1630    24.8750     2.1220   -10.6680 
  148.3750    61.3130    16.1960    15.0730    13.9400    24.8540     2.1290   -10.6740 
  148.5000    60.5750    16.0180    14.8840    14.0890    24.6410     2.1430   -10.6420 
  148.6250    58.5430    16.0990    14.9170    14.5530    24.4780     2.1730   -10.5880 
  148.7500    57.5320    16.3980    15.1480    14.8730    24.4510     2.2240   -10.5190 
  148.8750    56.6920    16.7980    15.4930    15.2350    24.4160     2.3020   -10.4380 
  149.0000    53.6560    17.1020    15.7830    15.5750    24.2340     2.3910   -10.3520 
  149.1250    49.2780    17.1560    15.8800    16.0480    24.0530     2.4740   -10.2710 
  149.2500    46.0970    16.8900    15.7050    16.2020    23.9620     2.5320   -10.2100 
  149.3750    45.3880    16.3390    15.2530    15.7960    23.9350     2.5540   -10.1380 
  149.5000    45.1580    15.7510    14.7240    15.1580    23.9240     2.5580   -10.0620 
  149.6250    43.5650    15.3310    14.2970    14.4750    23.9070     2.5580    -9.9730 
  149.7500    40.5870    15.2070    14.1000    14.2040    23.8560     2.5610    -9.8840 
  149.8750    38.1270    15.4270    14.2080    14.6890    23.7390     2.5630    -9.8280 
  150.0000    38.2630    15.8240    14.5100    15.3940    23.5220     2.5600    -9.7870 
  150.1250    39.9020    16.2600    14.8980    16.0320    23.2350     2.5500    -9.7740 
  150.2500    41.3650    16.6200    15.2700    16.1480    23.0620     2.5370    -9.7770 
  150.3750    40.7310    16.8330    15.5390    15.5680    23.0780     2.5260    -9.8140 
  150.5000    39.8820    16.9490    15.7160    15.1070    23.0970     2.5200    -9.8790 
  150.6250    38.9070    17.0330    15.8390    15.2620    23.1900     2.5170    -9.9850 
  150.7500    37.8640    17.1390    15.9510    15.7870    23.4380     2.5160   -10.1150 
  150.8750    39.0810    17.3060    16.0950    16.0310    23.6870     2.5150   -10.2470 
  151.0000    41.4050    17.5240    16.2790    16.0330    23.8510     2.5140   -10.3730 
  151.1250    42.1010    17.7780    16.5020    16.0710    23.9650     2.5170   -10.4940 
  151.2500    39.4260    18.0490    16.7560    16.3380    24.0220     2.5260   -10.6010 
  151.3750    37.1510    18.3090    17.0260    16.8630    23.9750     2.5380   -10.6970 
  151.5000    38.4580    18.5280    17.2830    17.5390    23.8170     2.5500   -10.8000 
  151.6250    42.0550    18.6930    17.5030    18.2600    23.5440     2.5580   -10.8990 
  151.7500    45.6740    18.8190    17.6820    18.8970    23.1780     2.5600   -10.9820 
  151.8750    47.2900    18.9550    17.8460    19.1510    22.8640     2.5570   -11.0470 
  152.0000    47.8170    19.1590    18.0460    19.3220    22.9110     2.5520   -11.1050 
  152.1250    48.1050    19.4440    18.3060    19.6480    23.2650     2.5480   -11.1500 
  152.2500    47.3500    19.7560    18.6010    20.1680    23.6680     2.5450   -11.2230 
  152.3750    45.1600    19.9410    18.8170    20.6480    23.9110     2.5420   -11.3240 
  152.5000    43.1600    19.8680    18.8300    21.1420    23.9870     2.5380   -11.4170 
  152.6250    43.6190    19.4620    18.5530    21.0150    23.9960     2.5300   -11.5090 
  152.7500    47.1780    18.7530    17.9830    19.8470    23.9780     2.5190   -11.6100 
  152.8750    49.8640    17.8890    17.2220    18.1160    23.9500     2.5070   -11.7100 
  153.0000    48.2270    17.1400    16.5100    16.6930    23.9220     2.4940   -11.7920 
  153.1250    44.4630    16.6990    16.0260    15.9350    23.9210     2.4810   -11.8600 
  153.2500    43.4960    16.6720    15.8840    15.7430    23.9620     2.4690   -11.9000 
  153.3750    46.8370    17.0850    16.1440    16.2110    23.9910     2.4640   -11.8950 
  153.5000    50.2910    17.6950    16.6210    17.1780    23.9800     2.4680   -11.8710 
  153.6250    50.9350    18.2770    17.1320    18.6050    23.9340     2.4810   -11.8200 
  153.7500    49.5250    18.6240    17.4850    19.9420    23.9150     2.4980   -11.7630 
  153.8750    50.8150    18.5530    17.4880    20.3950    23.9080     2.5100   -11.6900 
  154.0000    54.7150    18.1530    17.1820    19.7690    23.9160     2.5140   -11.6210 
  154.1250    58.9700    17.5730    16.6770    18.6000    23.9300     2.5080   -11.5650 
  154.2500    61.1350    17.0010    16.1370    17.6260    23.9280     2.4990   -11.5090 
  154.3750    61.6510    16.6310    15.7370    17.3850    23.9110     2.4930   -11.4400 
  154.5000    61.9170    16.4780    15.5190    17.0620    23.8810     2.4930   -11.3520 
  154.6250    60.5770    16.4730    15.4430    16.5490    23.8530     2.4970   -11.2510 
  154.7500    57.4880    16.4860    15.4080    16.2860    23.8440     2.5030   -11.1160 
  154.8750    54.3120    16.3440    15.2690    16.3470    23.8570     2.5080   -10.9610 
  155.0000    52.5150    15.9930    14.9590    16.3600    23.8360     2.5090   -10.8060 
  155.1250    51.3940    15.4630    14.4900    15.8150    23.8120     2.5060   -10.6230 
  155.2500    48.3950    14.8570    13.9340    14.8010    23.7970     2.4960   -10.4290 
  155.3750    46.9430    14.3170    13.4100    13.5310    23.7990     2.4790   -10.2560 
  155.5000    50.2550    13.9110    12.9830    12.9510    23.8170     2.4620   -10.1010 
  155.6250    55.8560    13.6240    12.6540    12.9170    23.8580     2.4510    -9.9460 
  155.7500    58.4330    13.3930    12.3780    12.8750    23.8810     2.4470    -9.8030 
  155.8750    55.7770    13.1570    12.1060    12.2160    23.8830     2.4510    -9.6800 
  156.0000    51.7770    12.9200    11.8330    11.2810    23.8700     2.4560    -9.5390 
  156.1250    48.8890    12.7370    11.5960    10.3910    23.8380     2.4610    -9.3980 
  156.2500    48.2700    12.6710    11.4490     9.8240    23.7800     2.4640    -9.2450 
  156.3750    50.4860    12.7790    11.4480    10.2380    23.7100     2.4660    -9.0940 
  156.5000    52.5070    13.0050    11.5590    11.0620    23.6000     2.4640    -8.9530 
  156.6250    51.1550    13.2870    11.7430    11.7810    23.4540     2.4580    -8.8350 
  156.7500    45.7050    13.5770    11.9560    12.0940    23.4020     2.4520    -8.7350 
  156.8750    41.0450    13.8680    12.1860    12.2440    23.5090     2.4540    -8.6590 
  157.0000    40.6590    14.2080    12.4540    12.5120    23.5800     2.4670    -8.6170 
  157.1250    43.4490    14.6560    12.8080    13.1340    23.6350     2.4880    -8.6170 
