~V
VERS. 2.00: Ver 2.00
~W
STRT.M 57.0000:
STOP.M 281.0000:
STEP.M 0.1250:
NULL. -999.2500:
UWI. F10238:
~C
DEPT.M :
GR.API :
RML.OHMM :
RI. :
RXO.OHMM :
CALI.CM :
DEN.GM/CC :
SP.MV :
~A
# ...
  225.7500    42.9120    10.6720     8.0660     9.1070    24.1210     2.3290   -18.2090 
  225.8750    44.6290     9.8470     7.5020     9.0540    24.4040     2.3170   -17.8930 
  226.0000    46.9390     9.0880     6.9370     8.3420    24.4630     2.3050   -17.4680 
  226.1250    50.0290     8.5110     6.4630     7.0450    24.3460     2.2940   -16.9810 
  226.2500    52.4070     8.2370     6.1850     6.2470    24.2040     2.2870   -16.4940 
  226.3750    52.5100     8.3050     6.1560     6.2220    24.1510     2.2820   -16.0570 
  226.5000    50.6160     8.6070     6.3270     6.4180    24.1190     2.2800   -15.6820 
  226.6250    47.3270     8.9840     6.6090     6.7760    24.0050     2.2830   -15.3520 
  226.7500    44.0840     9.2160     6.8550     7.2640    23.8580     2.2870   -15.0720 
  226.8750    43.2800     9.1380     6.9190     7.3650    23.7650     2.2900   -14.8220 
  227.0000    45.2340     8.7710     6.7630     6.9330    23.7170     2.2900   -14.5830 
  227.1250    47.8060     8.2390     6.4390     6.4200    23.6760     2.2860   -14.3740 
  227.2500    48.1470     7.6850     6.0420     5.9380    23.6090     2.2800   -14.1780 
  227.3750    46.1060     7.1950     5.6510     5.5340    23.5050     2.2760   -13.9910 
  227.5000    44.6030     6.7680     5.2970     5.2780    23.3450     2.2720   -13.8260 
  227.6250    45.7770     6.3870     4.9810     5.1350    23.2100     2.2660   -13.7200 
  227.7500    49.7590     6.0700     4.7160     5.0260    23.1800     2.2560   -13.6900 
  227.8750    56.1010     5.8820     4.5380     4.8760    23.1740     2.2500   -13.7550 
  228.0000    64.7430     5.8910     4.4910     4.7850    23.1160     2.2530   -13.9160 
  228.1250    74.2690     6.1410     4.6070     4.9110    23.0700     2.2670   -14.1460 
  228.2500    80.9880     6.6390     4.9000     5.4650    23.1150     2.2860   -14.4180 
  228.3750    82.2470     7.3070     5.3370     6.3640    23.2850     2.3020   -14.6930 
  228.5000    79.2930     7.9840     5.8260     7.0630    23.5340     2.3140   -14.9620 
  228.6250    75.9130     8.5230     6.2770     7.2700    23.7190     2.3240   -15.1970 
  228.7500    76.2870     8.8110     6.6030     7.2810    23.7810     2.3360   -15.3970 
  228.8750    80.1050     8.8600     6.7810     7.2580    23.7430     2.3470   -15.5650 
  229.0000    83.6070     8.8020     6.8640     7.2150    23.6810     2.3510   -15.6940 
  229.1250    84.6100     8.7510     6.9100     7.2100    23.6080     2.3460   -15.7980 
  229.2500    85.0510     8.7810     6.9640     7.2320    23.5210     2.3340   -15.8840 
  229.3750    87.7840     8.8980     7.0400     7.2470    23.4580     2.3230   -15.9680 
  229.5000    92.1810     9.0560     7.1280     7.3180    23.4430     2.3160   -16.0440 
  229.6250    95.9740     9.2110     7.2040     7.3390    23.4680     2.3140   -16.1110 
  229.7500    97.8380     9.3210     7.2390     7.2110    23.4670     2.3100   -16.1840 
  229.8750    98.3510     9.3550     7.2060     7.0780    23.4270     2.2990   -16.2500 
  230.0000    98.4150     9.2930     7.0980     7.0600    23.4270     2.2820   -16.3230 
  230.1250    98.8180     9.1230     6.9170     7.0550    23.5360     2.2610   -16.3960 
  230.2500   100.6290     8.8860     6.6970     7.0110    23.6990     2.2470   -16.4890 
  230.3750   101.9170     8.7190     6.5190     7.0260    23.7840     2.2430   -16.6090 
  230.5000    99.9180     8.8340     6.4990     7.1900    23.7360     2.2500   -16.7710 
  230.6250    95.1210     9.4710     6.7710     7.5560    23.5530     2.2640   -16.9780 
  230.7500    89.4450    10.9940     7.5520     8.7410    23.2950     2.2810   -17.2160 
  230.8750    83.7360    13.7740     9.1070    11.9760    23.1200     2.2950   -17.4860 
  231.0000    77.8540    17.9430    11.6400    16.8300    23.1820     2.2990   -17.7640 
  231.1250    73.4860    23.4340    15.2990    21.5220    23.4900     2.2930   -18.0560 
  231.2500    72.0110    29.5740    19.8870    26.7450    23.8640     2.2800   -18.3350 
  231.3750    72.3250    35.0080    24.5520    34.2230    24.1770     2.2640   -18.5930 
  231.5000    72.3580    38.5680    28.1690    40.8620    24.3870     2.2480   -18.8240 
  231.6250    71.9150    40.2400    30.3410    42.1070    24.4530     2.2310   -19.0190 
  231.7500    71.7610    41.2180    31.6130    38.4830    24.4570     2.2150   -19.1940 
  231.8750    71.0950    43.0710    33.0520    35.1900    24.4730     2.2010   -19.3500 
  232.0000    68.9690    46.7270    35.5410    39.3910    24.5120     2.1940   -19.4960 
  232.1250    66.2190    52.2900    39.4270    52.0360    24.5490     2.1950   -19.6230 
  232.2500    64.5890    58.9180    44.4150    63.3090    24.5670     2.1990   -19.7360 
  232.3750    65.3840    64.7400    49.3220    65.6370    24.5520     2.2010   -19.8340 
  232.5000    66.3340    67.7840    52.5710    64.7200    24.4960     2.1990   -19.8940 
  232.6250    64.6810    67.2990    53.2930    66.1250    24.4130     2.1930   -19.9260 
  232.7500    61.3540    64.0050    51.6400    63.1870    24.3030     2.1870   -19.9200 
  232.8750    59.8120    59.4780    48.6290    52.7260    24.1660     2.1850   -19.8690 
  233.0000    61.3720    55.0070    45.3570    43.2710    24.0180     2.1850   -19.7720 
  233.1250    63.5220    50.9470    42.2270    39.7330    23.8870     2.1880   -19.6440 
  233.2500    63.9440    47.3580    39.3760    40.0100    23.7940     2.1940   -19.4870 
  233.3750    63.0380    44.2650    36.8760    38.2520    23.7260     2.2070   -19.3100 
  233.5000    62.3770    41.7770    34.8300    33.3770    23.6580     2.2230   -19.1190 
  233.6250    63.1120    40.1490    33.4250    28.9940    23.5790     2.2400   -18.9090 
  233.7500    64.3610    39.7160    32.9180    26.9210    23.4560     2.2510   -18.6860 
  233.8750    64.9450    40.5920    33.4360    27.3190    23.2840     2.2530   -18.4430 
  234.0000    65.8990    42.3410    34.7280    29.9200    23.1540     2.2440   -18.1840 
  234.1250    66.9980    44.2590    36.3330    32.8940    23.1170     2.2240   -17.9040 
  234.2500    66.9680    45.3590    37.5130    34.7890    23.1870     2.2000   -17.6060 
  234.3750    65.9420    44.9790    37.6730    35.7640    23.3990     2.1810   -17.2890 
  234.5000    64.7620    43.3600    36.8340    36.0010    23.7570     2.1780   -16.9590 
  234.6250    63.8810    41.1490    35.3910    35.7580    24.1940     2.1990   -16.6310 
  234.7500    64.7580    39.0640    33.8620    35.4760    24.5360     2.2420   -16.2910 
  234.8750    68.8520    37.4630    32.5770    35.8790    24.6550     2.2910   -15.9530 
  235.0000    72.8240    36.1850    31.5080    37.6490    24.6430     2.3280   -15.6440 
  235.1250    71.9800    34.8860    30.4370    38.2410    24.6130     2.3430   -15.3650 
  235.2500    67.8690    33.2490    29.1200    36.1250    24.6150     2.3400   -15.1280 
  235.3750    66.1180    31.2330    27.4960    32.9340    24.6250     2.3290   -14.9200 
  235.5000    67.2630    29.1090    25.7490    29.3040    24.6290     2.3180   -14.7390 
  235.6250    66.9130    27.1850    24.1110    26.0470    24.6280     2.3090   -14.5780 
  235.7500    62.8140    25.7400    22.8180    23.9340    24.6300     2.3010   -14.4560 
  235.8750    58.3880    24.8940    22.0020    23.3310    24.6320     2.2940   -14.3740 
  236.0000    58.7530    24.5490    21.6310    22.8130    24.6350     2.2840   -14.3010 
  236.1250    63.8300    24.6080    21.6510    21.6850    24.6480     2.2670   -14.2260 
  236.2500    68.4070    24.9660    21.9860    21.9030    24.6900     2.2430   -14.1270 
  236.3750    68.0380    25.4820    22.5050    23.7490    24.7530     2.2170   -14.0180 
  236.5000    64.6810    25.9710    23.0280    25.5320    24.7970     2.1990   -13.9080 
  236.6250    62.8450    26.2870    23.4070    26.4120    24.7960     2.1950   -13.8110 
  236.7500    63.2270    26.3180    23.5210    26.5470    24.7580     2.2010   -13.7120 
  236.8750    63.3130    26.0770    23.3480    26.7130    24.7290     2.2110   -13.6060 
