~V
VERS. 2.00: Ver 2.00
~W
STRT.M 53.0000:
STOP.M 267.0000:
STEP.M 0.1250:
NULL. -999.2500:
UWI. F10211:
~C
DEPT.M :
GR.API :
RML.OHMM :
RI. :
RXO.OHMM :
CALI.CM :
SP.MV :
DEN.GM/CC :
~A
# ...
  210.5000    66.8000    15.8630    15.0390    15.1660    24.4640   -16.3740     2.2720 
  210.6250    67.0990    15.9610    15.1000    15.2530    24.5180   -16.3240     2.2720 
  210.7500    69.7240    16.2280    15.2920    15.7100    24.5390   -16.3300     2.2700 
  210.8750    71.5190    16.6060    15.5900    16.5980    24.5490   -16.3950     2.2650 
  211.0000    70.0590    17.0260    15.9480    17.3800    24.5610   -16.5390     2.2610 
  211.1250    68.3450    17.4680    16.3360    17.9640    24.5610   -16.7480     2.2580 
  211.2500    67.5600    17.9870    16.7790    18.6270    24.5460   -17.0100     2.2550 
  211.3750    66.7450    18.6820    17.3510    19.4870    24.5360   -17.3080     2.2550 
  211.5000    65.1880    19.7290    18.2050    20.3090    24.5460   -17.6100     2.2570 
  211.6250    64.7020    21.2060    19.4350    21.5680    24.5710   -17.9060     2.2560 
  211.7500    65.3790    23.1250    21.0880    23.1040    24.5940   -18.1930     2.2510 
  211.8750    64.9470    25.3740    23.1070    24.8740    24.6010   -18.4540     2.2380 
  212.0000    63.2410    27.6130    25.2360    27.1110    24.5840   -18.6790     2.2230 
  212.1250    61.1420    29.3590    27.0330    29.9230    24.5580   -18.8880     2.2170 
  212.2500    58.6620    30.2350    28.1070    32.5540    24.5440   -19.0810     2.2230 
  212.3750    57.6390    30.1650    28.3160    33.3600    24.5330   -19.2580     2.2370 
  212.5000    59.2710    29.4750    27.8490    30.7510    24.5090   -19.4360     2.2460 
  212.6250    60.4180    28.8770    27.3020    27.4190    24.4730   -19.6060     2.2440 
  212.7500    58.8720    28.9290    27.1900    25.8530    24.4310   -19.7650     2.2330 
  212.8750    56.2780    29.9040    27.8260    26.2490    24.3880   -19.9260     2.2200 
  213.0000    55.0110    31.8250    29.3810    28.6010    24.3850   -20.0810     2.2110 
  213.1250    54.5170    34.1810    31.5410    32.7740    24.4840   -20.2070     2.2060 
  213.2500    55.4910    36.3980    33.8480    37.3280    24.5940   -20.3130     2.2020 
  213.3750    58.4090    38.0550    35.8700    39.9390    24.6440   -20.4010     2.1980 
  213.5000    60.2260    39.0690    37.3710    39.8390    24.6680   -20.4690     2.1910 
  213.6250    58.5480    39.8800    38.6120    38.6710    24.6680   -20.5260     2.1830 
  213.7500    55.4690    40.8240    39.8870    37.5920    24.6450   -20.5700     2.1790 
  213.8750    55.2560    41.8450    41.2250    37.1060    24.6190   -20.5970     2.1840 
  214.0000    57.8850    42.2090    42.0570    39.2310    24.5990   -20.6200     2.1990 
  214.1250    59.1700    41.0910    41.5720    45.0380    24.5870   -20.6530     2.2210 
  214.2500    58.9340    38.1200    39.2600    49.8760    24.5610   -20.6950     2.2420 
  214.3750    59.6990    37.1600    35.3740    45.3190    24.4980   -20.7500     2.2630 
  214.5000    61.7870    32.9490    30.9470    33.2430    24.3120   -20.8140     2.2830 
  214.6250    62.7440    28.7830    27.1420    24.4770    23.9960   -20.8770     2.2970 
  214.7500    61.9110    26.2210    24.5670    19.9640    23.6910   -20.9430     2.3000 
  214.8750    60.7060    25.3350    23.3850    18.7300    23.5280   -21.0200     2.2980 
  215.0000    61.2250    26.0100    23.6470    19.0710    23.5560   -21.1210     2.2960 
  215.1250    62.5040    27.6250    24.9260    21.2470    23.6360   -21.2260     2.2850 
  215.2500    62.9980    29.5690    26.7540    24.6420    23.6980   -21.3170     2.2670 
  215.3750    62.3880    31.2520    28.5940    28.8980    23.7440   -21.3750     2.2530 
  215.5000    60.7340    32.0630    29.8010    30.6920    23.9030   -21.3960     2.2530 
  215.6250    60.2240    31.9510    30.1720    30.3330    24.1900   -21.4250     2.2620 
  215.7500    62.6450    31.1980    29.8510    30.1010    24.4500   -21.4790     2.2720 
  215.8750    66.9890    30.2820    29.2230    30.4900    24.5770   -21.5380     2.2790 
  216.0000    70.1040    29.8050    28.8330    30.9770    24.5980   -21.5400     2.2790 
  216.1250    70.8160    30.0580    29.0220    31.0630    24.5960   -21.5040     2.2730 
  216.2500    70.0640    31.0270    29.8770    30.3150    24.6150   -21.4840     2.2630 
  216.3750    68.1150    32.4170    31.2250    29.8660    24.6540   -21.5230     2.2550 
  216.5000    65.5350    33.5860    32.5500    32.6520    24.6680   -21.6190     2.2510 
  216.6250    64.3440    33.9130    33.2200    37.5810    24.6630   -21.7080     2.2510 
  216.7500    64.3800    33.1080    32.8320    38.4240    24.6810   -21.7670     2.2530 
  216.8750    65.3370    31.3420    31.4200    33.4450    24.7500   -21.8260     2.2590 
  217.0000    66.6170    29.1750    29.4110    28.2310    24.8530   -21.9720     2.2630 
  217.1250    67.1480    27.2430    27.4400    26.1530    24.9000   -22.2090     2.2630 
  217.2500    67.9650    25.8740    25.8890    25.8140    24.8720   -22.4970     2.2610 
  217.3750    69.2700    25.1560    24.9080    25.4480    24.8130   -22.7880     2.2610 
  217.5000    69.7000    25.1770    24.6130    24.4220    24.7310   -23.1120     2.2630 
  217.6250    68.7120    25.9630    25.0020    23.6700    24.6540   -23.5210     2.2650 
  217.7500    67.9410    27.7530    26.2450    24.0850    24.5640   -24.0110     2.2670 
  217.8750    68.3160    30.8960    28.6570    25.8190    24.5010   -24.5160     2.2730 
  218.0000    68.1690    35.8510    32.7790    29.4700    24.5280   -24.9670     2.2800 
  218.1250    66.3600    42.1770    38.4150    35.5470    24.5690   -25.3690     2.2840 
  218.2500    62.9720    48.7560    44.7140    46.5570    24.5940   -25.7350     2.2850 
  218.3750    58.6230    53.8310    50.0710    62.0850    24.6120   -26.0470     2.2830 
  218.5000    55.6840    55.3470    52.3740    68.9030    24.6470   -26.2570     2.2760 
  218.6250    55.8330    53.8770    51.7450    61.4060    24.6900   -26.3720     2.2570 
  218.7500    58.1440    51.3240    49.6720    49.6410    24.6780   -26.4090     2.2310 
  218.8750    59.8480    49.5970    47.8870    41.4860    24.6260   -26.4180     2.2070 
  219.0000    60.4970    50.0610    47.8530    40.4580    24.5470   -26.4020     2.1960 
  219.1250    61.7970    52.3980    49.6340    48.0440    24.4100   -26.3200     2.1970 
  219.2500    63.4920    55.5690    52.5450    56.7150    24.2680   -26.1630     2.2070 
  219.3750    63.5080    58.2220    55.4530    58.4030    24.1800   -25.9910     2.2190 
  219.5000    61.2240    58.9140    56.9280    54.3330    24.1450   -25.8400     2.2320 
  219.6250    58.7790    57.6440    56.5900    50.7250    24.1090   -25.7020     2.2420 
  219.7500    58.1820    55.1930    54.8790    48.3540    24.0560   -25.5630     2.2500 
  219.8750    59.4850    52.5280    52.6170    46.2540    24.0160   -25.4130     2.2590 
  220.0000    61.1060    50.4610    50.6420    44.9630    24.0210   -25.2480     2.2650 
  220.1250    62.2120    49.1910    49.3080    44.5750    24.0980   -25.1050     2.2700 
  220.2500    63.7380    48.6350    48.6280    43.8890    24.2460   -25.0120     2.2810 
  220.3750    64.5820    48.5500    48.4080    43.4770    24.4320   -24.9780     2.3080 
  220.5000    61.8050    48.5050    48.2670    43.6920    24.5320   -24.9950     2.3540 
  220.6250    57.2590    48.0910    47.8070    42.3570    24.5500   -25.0180     2.4010 
  220.7500    55.6580    47.2050    46.8890    36.4610    24.5090   -25.0450     2.4210 
  220.8750    58.5020    46.1350    45.7180    27.8830    24.4010   -25.0830     2.4050 
  221.0000    61.6900    45.6270    44.9060    28.6360    24.3470   -25.1790     2.3690 
  221.1250    62.1360    46.3390    45.0740    34.2820    24.4050   -25.3400     2.3360 
  221.2500    61.2050    48.6730    46.6620    41.7830    24.4880   -25.5070     2.3140 
  221.3750    60.7200    52.6820    49.7970    49.4410    24.5480   -25.6210     2.3060 
  221.5000    59.8620    58.1700    54.3680    56.4440    24.5810   -25.6590     2.3170 
  221.6250    58.5700    64.4680    59.7960    64.1810    24.5850   -25.6680     2.3390 
