~V
VERS. 2.00: Ver 2.00
~W
STRT.M 53.0000:
STOP.M 296.0000:
STEP.M 0.1250:
NULL. -999.2500:
UWI. F10258:
~C
DEPT.M :
GR.API :
RML.OHMM :
RI. :
RXO.OHMM :
CALI.CM :
DEN.GM/CC :
SP.MV :
~A
# ...
  210.5000    81.0900    65.6440    65.2390    63.4230    26.4400     2.2300   -24.1360 
  210.6250    77.6300    66.7760    65.0510    56.7950    26.2590     2.2410   -24.3550 
  210.7500    74.1770    71.6050    68.9830    68.1090    26.0940     2.2420   -24.5390 
  210.8750    73.9800    79.4130    76.5340    82.6420    26.0180     2.2350   -24.6750 
  211.0000    72.6280    88.9050    86.5730    89.2220    26.0310     2.2240   -24.7700 
  211.1250    67.2870    97.9220    96.8640    96.3380    26.0780     2.2120   -24.8460 
  211.2500    63.6830   104.5480   104.7410   105.3290    26.1400     2.2020   -24.9290 
  211.3750    64.1690   108.0430   108.9480   104.2170    26.1980     2.1950   -25.0190 
  211.5000    65.7040   108.9210   109.9660    97.0840    26.2450     2.1930   -25.1030 
  211.6250    67.0770   108.4900   109.4110    93.4920    26.2790     2.1950   -25.2000 
  211.7500    69.1040   108.1430   109.1080    99.8690    26.2920     2.1980   -25.3170 
  211.8750    71.2670   107.9790   109.4240   106.5690    26.2950     2.2000   -25.4520 
  212.0000    71.9840   107.2320   109.6250   103.6190    26.2950     2.2030   -25.5800 
  212.1250    71.4210   104.3690   107.7610   102.0030    26.2930     2.2080   -25.6660 
  212.2500    71.6970    99.1400   102.9780   108.2180    26.2800     2.2170   -25.6990 
  212.3750    71.9200    92.2360    95.7100   104.9350    26.2360     2.2290   -25.7080 
  212.5000    70.7070    85.2290    87.6250    92.9320    26.1600     2.2410   -25.7120 
  212.6250    68.7140    80.5050    81.3500    82.9270    26.0920     2.2480   -25.7120 
  212.7500    67.4980    79.2920    78.4720    78.7230    26.0600     2.2500   -25.7230 
  212.8750    68.2550    82.2280    79.9030    77.7610    26.0700     2.2470   -25.7440 
  213.0000    69.5640    89.2690    85.9120    82.7670    26.1070     2.2380   -25.7900 
  213.1250    68.5970    99.8680    96.3960    95.0980    26.1450     2.2230   -25.8840 
  213.2500    64.9170   111.2920   108.5920   118.6040    26.1550     2.2070   -26.0370 
  213.3750    60.9190   120.8380   119.5050   142.8410    26.1310     2.1930   -26.2360 
  213.5000    59.0110   126.0800   126.0250   157.0000    26.0850     2.1840   -26.4540 
  213.6250    58.6710   125.3410   125.6630   151.0150    26.0700     2.1830   -26.6800 
  213.7500    59.5420   121.0790   121.0580   135.0290    26.0490     2.1860   -26.8840 
  213.8750    62.6220   115.7970   115.1650   129.4310    26.0400     2.1920   -27.0830 
  214.0000    67.1130   111.5710   110.3860   118.5510    26.0270     2.1970   -27.2700 
  214.1250    69.1290   109.6840   108.2380   107.7440    25.9900     2.2010   -27.4310 
  214.2500    67.7830   109.4580   108.1740   107.7360    25.9410     2.2040   -27.5690 
  214.3750    67.0080   109.8600   109.2930   119.0100    25.9150     2.2050   -27.6990 
  214.5000    68.1150   109.5110   110.2320   122.4610    25.9090     2.2050   -27.8260 
  214.6250    68.4600   106.5100   108.7900   117.1870    25.9280     2.2040   -27.9490 
  214.7500    65.5140   100.5050   103.9170   117.6140    25.9740     2.2040   -28.0720 
  214.8750    62.2410    92.0610    95.7810   121.2150    26.0150     2.2080   -28.1820 
  215.0000    62.7980    82.6860    86.0250   111.3680    26.0210     2.2150   -28.2710 
  215.1250    67.1580    74.4840    77.2160    84.0540    25.9950     2.2220   -28.3250 
  215.2500    70.5920    68.4560    70.7270    62.9000    25.9830     2.2270   -28.3340 
  215.3750    70.3160    64.6540    66.7280    56.2870    25.9840     2.2280   -28.2880 
  215.5000    68.9800    62.4670    64.6390    61.7040    25.9980     2.2270   -28.2090 
  215.6250    69.4130    60.9820    63.4780    73.3490    26.0140     2.2270   -28.1050 
  215.7500    69.2270    59.2860    62.0570    75.6700    26.0000     2.2290   -27.9840 
  215.8750    68.6030    57.1680    59.9510    67.3810    25.9760     2.2320   -27.8580 
  216.0000    70.7670    54.9110    57.3680    59.5250    25.9980     2.2380   -27.7450 
  216.1250    77.4210    53.2460    55.1420    52.6960    26.0960     2.2440   -27.6490 
  216.2500    80.1550    52.6280    53.9830    51.0830    26.2230     2.2490   -27.5880 
  216.3750    75.6690    53.1720    54.1540    54.8740    26.2730     2.2530   -27.5870 
  216.5000    68.4340    54.6490    55.4860    60.8710    26.2280     2.2580   -27.6490 
  216.6250    64.8220    56.6070    57.5060    64.1850    26.1500     2.2620   -27.7580 
  216.7500    64.4670    58.4510    59.4320    69.7030    26.0990     2.2660   -27.8830 
  216.8750    64.4210    59.9320    60.8370    75.2330    26.1450     2.2640   -28.0070 
  217.0000    64.2590    61.0900    61.6700    73.6590    26.3750     2.2540   -28.1180 
  217.1250    63.9700    62.2520    62.3580    71.0540    26.7690     2.2370   -28.2050 
  217.2500    63.3330    63.7480    63.4860    70.7800    27.1640     2.2200   -28.2660 
  217.3750    63.3720    65.6030    65.2310    71.8250    27.4850     2.2080   -28.2980 
  217.5000    63.5510    67.5040    67.3510    71.1720    27.6720     2.2020   -28.3140 
  217.6250    62.0160    68.7070    69.0850    83.5260    27.6510     2.1980   -28.3210 
  217.7500    58.8130    68.7330    69.6990    89.4060    27.4730     2.1940   -28.3290 
  217.8750    58.0440    67.4920    68.8680    85.9720    27.2200     2.1890   -28.3360 
  218.0000    62.2670    65.4020    66.9080    72.6660    26.9380     2.1840   -28.3510 
  218.1250    68.1740    63.3730    64.7670    61.2500    26.5510     2.1790   -28.3840 
  218.2500    70.0540    62.2480    63.5150    57.9080    26.2610     2.1730   -28.4250 
  218.3750    67.5510    62.3070    63.7200    60.8710    26.0760     2.1660   -28.4500 
  218.5000    64.1610    63.1430    65.3070    65.2990    25.8830     2.1600   -28.4260 
  218.6250    63.5890    63.3470    66.9630    77.2680    25.6370     2.1600   -28.3560 
  218.7500    64.5030    61.4370    66.4180    87.3210    25.4280     2.1670   -28.2530 
  218.8750    65.1270    56.7400    62.1750    89.7270    25.2340     2.1850   -28.1240 
  219.0000    65.8330    49.7920    54.5200    73.6920    25.1060     2.2140   -27.9780 
  219.1250    68.4900    42.2710    45.6680    46.1930    25.0660     2.2480   -27.8210 
  219.2500    71.9170    36.0170    38.2320    29.3030    25.0760     2.2790   -27.6570 
  219.3750    73.8070    31.7920    33.1310    26.4770    25.1130     2.2990   -27.5110 
  219.5000    73.6120    29.6270    30.3210    27.9890    25.1550     2.3040   -27.4150 
  219.6250    72.0640    29.3440    29.6080    32.6580    25.1580     2.2950   -27.3990 
  219.7500    70.2560    30.1720    30.1880    36.5920    25.1330     2.2840   -27.4700 
  219.8750    69.3500    31.7890    31.6960    38.2750    25.0970     2.2750   -27.6160 
  220.0000    70.9680    34.0150    33.8810    35.7770    25.0120     2.2700   -27.8060 
  220.1250    71.9920    36.8240    36.7310    37.1460    24.9620     2.2690   -28.0210 
  220.2500    69.9640    39.9800    40.0600    46.5340    24.9000     2.2700   -28.2440 
  220.3750    67.2800    43.2060    43.6260    55.9520    24.8560     2.2770   -28.4570 
  220.5000    66.6170    46.1140    47.0000    59.5280    24.8540     2.2870   -28.6400 
  220.6250    66.9550    48.1860    49.4520    60.4660    24.8830     2.2980   -28.8000 
  220.7500    67.0540    49.4200    50.7550    61.7010    24.8990     2.3010   -28.9330 
  220.8750    68.0620    50.0180    51.0920    60.7320    24.8600     2.2930   -29.0350 
  221.0000    69.7870    50.3270    50.9480    61.7830    24.7830     2.2780   -29.1140 
  221.1250    70.9960    50.6810    50.7820    63.8350    24.7000     2.2650   -29.1790 
  221.2500    70.4000    51.2290    50.8160    62.4220    24.6490     2.2590   -29.2360 
  221.3750    68.1770    51.9860    51.1260    59.7940    24.6320     2.2540   -29.2860 
  221.5000    66.4020    52.9130    51.7070    59.8510    24.6880     2.2410   -29.3220 
  221.6250    66.1640    53.9490    52.5150    64.8910    24.8290     2.2100   -29.3060 
