~V
VERS. 2.00: Ver 2.00
~W
STRT.M 49.0000:
STOP.M 279.0000:
STEP.M 0.1250:
NULL. -999.2500:
UWI. F10243:
~C
DEPT.M :
GR.API :
RML.OHMM :
RI. :
RXO.OHMM :
CALI.CM :
DEN.GM/CC :
SP.MV :
~A
# ...
  217.7500    58.9790   201.4220   188.1860   195.3330    25.5570     2.2020   -13.8320 
  217.8750    58.4950   189.8150   177.6200   171.2390    25.5170     2.2100   -14.0320 
  218.0000    59.9970   181.8010   170.2440   165.1520    25.4210     2.2180   -14.1180 
  218.1250    61.8580   177.6380   166.6020   165.9220    25.3400     2.2250   -14.1790 
  218.2500    63.9870   176.4210   166.0340   163.7620    25.3450     2.2290   -14.2830 
  218.3750    65.5350   176.2930   167.0800   168.5940    25.3750     2.2310   -14.4340 
  218.5000    65.2910   174.5420   167.3690   191.2770    25.3040     2.2330   -14.5750 
  218.6250    63.9940   169.8830   165.0630   182.4740    25.0940     2.2350   -14.7300 
  218.7500    64.0750   162.6970   159.8570   152.0070    24.8460     2.2350   -14.9170 
  218.8750    67.3680   154.6450   152.9330   139.6330    24.7420     2.2300   -15.1380 
  219.0000    72.1710   148.0560   146.5010   142.1480    24.8990     2.2200   -15.3770 
  219.1250    74.3930   143.8700   142.1770   136.9610    25.1170     2.2090   -15.5120 
  219.2500    72.6760   141.8960   140.3690   132.3780    25.2890     2.1990   -15.5010 
  219.3750    69.2950   141.0510   140.3030   133.7030    25.3460     2.1920   -15.3710 
  219.5000    66.6080   139.5340   140.0680   149.1300    25.3390     2.1910   -15.1350 
  219.6250    65.6170   136.2150   138.0080   156.8840    25.3080     2.1930   -14.8520 
  219.7500    66.5730   131.0260   133.6870   149.4610    25.2730     2.1970   -14.5460 
  219.8750    67.0270   124.7620   127.6920   131.4110    25.2210     2.1980   -14.2580 
  220.0000    65.4370   118.7800   121.3670   118.0750    25.1770     2.1950   -13.9670 
  220.1250    64.5960   113.9920   116.0960   110.7850    25.1660     2.1890   -13.7430 
  220.2500    65.1800   110.5700   112.3450   111.9190    25.2120     2.1780   -13.5980 
  220.3750    65.4900   108.2410   109.8530   113.0860    25.2690     2.1660   -13.5220 
  220.5000    64.5690   106.7600   108.2360   106.9330    25.2900     2.1640   -13.5190 
  220.6250    63.7350   105.8850   107.2200   100.7200    25.2720     2.1960   -13.5630 
  220.7500    63.1250   105.6600   106.8610   105.4740    25.2230     2.2710   -13.6830 
  220.8750    63.1130   106.0640   107.1320   112.0440    25.1150     2.3730   -13.8180 
  221.0000    63.7770   106.9230   107.8970   111.6230    24.9010     2.4520   -13.9590 
  221.1250    62.7560   107.7930   108.6870   113.9330    24.6660     2.4670   -14.0820 
  221.2500    61.2470   108.3140   109.1590   115.9920    24.6320     2.4140   -14.1530 
  221.3750    61.4860   108.0340   109.1350   106.8540    24.8540     2.3200   -14.1950 
  221.5000    63.2480   105.9060   107.8880    98.2560    25.1600     2.2340   -14.2250 
  221.6250    63.6090   101.4450   104.5600    94.9000    25.3230     2.1850   -14.1860 
  221.7500    63.4930    94.6360    98.6770    97.8580    25.3350     2.1720   -14.0570 
  221.8750    65.1500    86.2890    90.8000   102.3010    25.2240     2.1820   -13.8620 
  222.0000    68.0880    77.9020    82.3280    89.4640    25.0110     2.1970   -13.6390 
  222.1250    70.7500    70.8140    74.8810    68.2720    24.8300     2.2040   -13.4090 
  222.2500    72.6120    65.6770    69.4090    60.3480    24.8170     2.2040   -13.2030 
  222.3750    72.6020    62.6740    66.2780    65.9770    24.8920     2.1980   -12.9940 
  222.5000    70.6010    61.8670    65.6750    65.1820    24.8760     2.1940   -12.7710 
  222.6250    68.3870    62.3220    66.6960    58.4420    24.7350     2.1950   -12.5580 
  222.7500    66.5540    63.2170    68.4360    53.7290    24.5580     2.1990   -12.3010 
  222.8750    65.8220    63.6220    69.7260    54.8880    24.4170     2.2050   -12.0070 
  223.0000    66.3660    62.4470    69.2370    58.3930    24.2680     2.2120   -11.7310 
  223.1250    67.2860    59.5760    66.7290    59.0850    24.0930     2.2170   -11.5450 
  223.2500    67.5080    55.3410    62.3160    53.7750    23.9490     2.2250   -11.4450 
  223.3750    67.9480    50.5720    56.7460    45.2400    23.8640     2.2460   -11.3850 
  223.5000    69.0280    46.5680    51.5270    40.5700    23.8070     2.2950   -11.3430 
  223.6250    69.0280    44.1820    47.9590    37.0040    23.6940     2.3610   -11.3410 
  223.7500    68.3360    43.9050    46.7680    33.8090    23.5020     2.4190   -11.4150 
  223.8750    68.8110    45.9800    48.3300    34.3890    23.3390     2.4420   -11.5990 
  224.0000    72.0260    50.7910    53.0200    45.1520    23.4370     2.4120   -11.8500 
  224.1250    75.6440    57.5620    59.7360    58.6700    23.7530     2.3530   -12.0450 
  224.2500    75.3320    65.6190    67.5700    68.3780    24.0970     2.2910   -12.1550 
  224.3750    70.5260    74.2520    75.7190    74.6150    24.3710     2.2430   -12.1900 
  224.5000    66.3640    83.3080    84.0850    77.9800    24.5890     2.2150   -12.1980 
  224.6250    64.3550    93.5410    93.6280    80.5250    24.8040     2.1980   -12.2210 
  224.7500    63.0070   106.2060   105.5690   100.5380    24.9450     2.1850   -12.3060 
  224.8750    62.1310   121.8740   120.0590   143.9940    25.0280     2.1770   -12.4350 
  225.0000    62.0270   138.7130   134.6220   191.4680    25.0880     2.1760   -12.5810 
  225.1250    60.8140   151.9990   144.9530   202.2280    25.1200     2.1820   -12.7520 
  225.2500    59.4480   158.0950   148.2480   187.5300    25.1110     2.1980   -12.9470 
  225.3750    61.0690   156.3540   144.6890   165.5790    25.0930     2.2200   -13.1260 
  225.5000    63.8180   148.9330   136.9710   140.2000    25.0770     2.2420   -13.2290 
  225.6250    64.8980   140.1520   128.8980   130.2900    25.0760     2.2560   -13.2180 
  225.7500    65.4260   131.3510   121.3870   131.4160    25.1080     2.2580   -13.0700 
  225.8750    65.5980   122.4590   114.0360   130.0430    25.1340     2.2500   -12.8120 
  226.0000    64.5830   113.0480   106.1810   118.3350    25.1300     2.2370   -12.4850 
  226.1250    62.6640   103.4410    97.9190    95.2610    25.1100     2.2300   -12.1390 
  226.2500    61.2740    94.3250    89.8110    74.4720    25.1030     2.2290   -11.8080 
  226.3750    61.3190    86.3980    82.5630    65.2150    25.0960     2.2340   -11.5420 
  226.5000    64.1080    80.3790    76.9030    69.3900    25.0920     2.2410   -11.3240 
  226.6250    68.4220    76.0420    72.6900    69.7250    25.0900     2.2450   -11.1370 
  226.7500    71.8190    73.2140    69.7880    67.5440    25.0920     2.2450   -11.0250 
  226.8750    71.9210    71.6790    68.0080    63.1450    25.0930     2.2450   -10.9830 
  227.0000    70.2780    71.4390    67.3430    60.5310    25.0870     2.2440   -11.0300 
  227.1250    70.4700    72.2600    67.5950    63.4000    25.0870     2.2410   -11.1460 
  227.2500    70.6420    74.2510    68.8710    67.3550    25.0940     2.2340   -11.2670 
  227.3750    67.0360    77.6750    71.4070    70.3950    25.1120     2.2240   -11.3720 
  227.5000    61.7890    83.3260    75.9470    70.8080    25.1560     2.2160   -11.4430 
  227.6250    61.5030    91.3950    82.6960    74.7520    25.1720     2.2140   -11.5200 
  227.7500    65.0740   101.9930    91.7140    84.8870    25.1400     2.2200   -11.5920 
  227.8750    65.8780   114.3980   102.2370   103.9850    25.1280     2.2260   -11.6240 
  228.0000    63.2300   126.1590   111.9740   138.4510    25.1810     2.2230   -11.6150 
  228.1250    62.3260   134.0950   118.3000   156.7400    25.2570     2.2170   -11.5520 
  228.2500    63.3920   136.1040   119.6100   149.9910    25.3080     2.2210   -11.4510 
  228.3750    63.3730   131.9940   115.8630   122.8480    25.3190     2.2460   -11.3160 
  228.5000    61.9840   123.0120   108.1760   105.3150    25.2750     2.2890   -11.1890 
  228.6250    63.5350   112.3600    99.2490   105.6680    25.1180     2.3250   -11.0740 
  228.7500    68.3030   101.6780    90.4360   121.9790    24.9180     2.3340   -10.9360 
  228.8750    73.0730    92.0690    82.5460   131.6130    24.8950     2.3080   -10.8130 
