~V
VERS. 2.00: Ver 2.00
~W
STRT.M 60.0000:
STOP.M 271.0000:
STEP.M 0.1250:
NULL. -999.2500:
UWI. F10205:
~C
DEPT.M :
DEN.GM/CC :
GR.API :
RML.OHMM :
RI. :
RXO.OHMM :
CALI.CM :
SP.MV :
~A
# ...
  183.7500     2.2150    69.9450   360.4530   307.5220    64.5660    22.8450   -23.3470 
  183.8750     2.2050    71.6100   385.8510   327.0220    62.1050    23.0100   -23.1650 
  184.0000     2.1990    72.0130   397.6570   335.7060    79.0240    23.4440   -23.0350 
  184.1250     2.1980    69.5720   395.7540   333.4390   126.3300    24.0190   -22.7680 
  184.2500     2.2020    68.4090   385.9270   324.7650   198.9110    24.4940   -22.4550 
  184.3750     2.2140    69.8800   370.1500   311.3320   247.5870    24.6630   -22.0970 
  184.5000     2.2320    71.5850   349.1330   293.7650   249.5880    24.6400   -21.6680 
  184.6250     2.2450    70.5300   323.5320   272.4260   229.7450    24.6520   -21.2820 
  184.7500     2.2430    68.5450   296.8350   249.8520   202.4660    24.8340   -20.8380 
  184.8750     2.2230    67.2480   272.1620   228.4290   182.3370    25.0880   -20.3250 
  185.0000     2.1940    66.5730   252.0460   210.2970   170.3160    25.3450   -19.7880 
  185.1250     2.1750    67.0560   238.7380   197.5290   174.7260    25.5390   -19.3170 
  185.2500     2.1750    68.8110   230.9240   189.3070   172.7800    25.4910   -18.8270 
  185.3750     2.1910    69.9660   227.3210   184.6780   156.6110    25.1520   -18.3460 
  185.5000     2.2140    69.3200   226.3530   182.3770   131.2900    24.7590   -17.8960 
  185.6250     2.2310    68.9180   226.7860   181.4280   134.3870    24.5930   -17.4640 
  185.7500     2.2390    70.8660   227.8910   181.1990   159.0390    24.5660   -17.0870 
  185.8750     2.2420    73.3820   229.9620   181.9770   172.6050    24.5700   -16.7470 
  186.0000     2.2470    74.5070   233.1170   184.0730   159.9970    24.5710   -16.3760 
  186.1250     2.2690    73.1520   235.0340   186.3830   160.2840    24.5930   -16.0270 
  186.2500     2.3140    69.6200   230.5360   185.2590   182.2380    24.5680   -15.7170 
  186.3750     2.3790    67.4000   214.5500   176.5590   210.2660    24.4620   -15.4400 
  186.5000     2.4490    69.8080   185.9290   158.1480   215.0200    24.2600   -15.2350 
  186.6250     2.4990    74.5210   149.3210   131.4920   186.7410    23.9970   -15.0500 
  186.7500     2.5130    76.2160   114.5570   103.8610   131.7930    23.7480   -14.8870 
  186.8750     2.4880    76.8730    86.5110    79.9320    73.1330    23.8130   -14.7510 
  187.0000     2.4380    79.8290    66.0430    61.6400    37.6000    24.1310   -14.6610 
  187.1250     2.3880    83.3780    52.3450    49.2100    26.7820    24.5260   -14.5360 
  187.2500     2.3580    87.3700    42.4680    40.3110    31.3100    24.8110   -14.4020 
  187.3750     2.3510    94.3330    35.3080    33.9300    34.0230    24.8350   -14.2770 
  187.5000     2.3580   101.5070    30.1460    29.3980    27.4950    24.5140   -14.1120 
  187.6250     2.3670   103.8080    26.4770    26.2560    19.3970    24.0680   -13.9120 
  187.7500     2.3710   102.5640    23.3640    23.5960    16.4920    23.8570   -13.6420 
  187.8750     2.3720   101.3900    20.3190    20.8940    16.8210    23.7990   -13.2900 
  188.0000     2.3750   101.9510    17.1710    17.9260    16.1770    23.7560   -12.8490 
  188.1250     2.3870   104.3410    14.1520    14.8760    12.3490    23.5530   -12.3830 
  188.2500     2.4070   108.2250    11.6270    12.1720     8.2050    23.1650   -11.9330 
  188.3750     2.4340   111.2140     9.8100    10.0880     5.9910    22.8720   -11.5290 
  188.5000     2.4620   111.7160     8.7210     8.7070     5.4440    22.8370   -11.1820 
  188.6250     2.4830   109.8930     8.3190     8.0450     5.6790    22.9580   -10.9340 
  188.7500     2.4950   106.1450     8.3330     7.8450     6.0670    22.8760   -10.8560 
  188.8750     2.4960   102.5380     8.6440     7.9770     6.5930    22.5240   -11.0110 
  189.0000     2.4890   102.1420     9.1820     8.3460     6.9110    22.0820   -11.4200 
  189.1250     2.4740   105.9320     9.9810     8.9480     6.8470    21.8830   -12.0960 
  189.2500     2.4540   108.1990    11.0650     9.7780     7.0590    21.8120   -12.9070 
  189.3750     2.4340   105.7200    12.5160    10.8930     8.0970    21.7260   -13.7490 
  189.5000     2.4160   101.8250    14.4300    12.3450     9.8970    21.6610   -14.6250 
  189.6250     2.4050   100.1160    17.0470    14.2600    13.0210    21.9450   -15.5450 
  189.7500     2.3950    97.6720    20.5950    16.6650    17.3180    22.8030   -16.4340 
  189.8750     2.3800    95.1430    24.6880    19.7460    26.9000    23.9460   -17.2230 
  190.0000     2.3550    93.8510    28.7510    23.8070    40.4890    24.9040   -17.8840 
  190.1250     2.3190    91.0880    33.4950    29.4030    48.8070    25.5490   -18.3970 
  190.2500     2.2810    85.6270    40.1060    36.3140    49.5090    25.8710   -18.8330 
  190.3750     2.2430    81.8190    48.4190    44.0330    52.7630    25.9010   -19.2470 
  190.5000     2.2100    82.3350    56.9620    51.7320    57.8050    25.7620   -19.6360 
  190.6250     2.1870    83.7950    64.5340    58.5800    62.7620    25.5860   -19.9560 
  190.7500     2.1760    84.0720    71.7110    64.8660    65.6940    25.4280   -20.1910 
  190.8750     2.1790    84.5250    79.2840    71.3910    63.6140    25.2670   -20.3800 
  191.0000     2.1910    83.5030    87.6490    78.7020    58.9750    25.0930   -20.5630 
  191.1250     2.2080    80.0950    95.6070    86.0030    59.6520    24.9650   -20.7100 
  191.2500     2.2240    77.0270   100.8280    91.2320    73.1210    25.0170   -20.7860 
  191.3750     2.2360    75.1020   101.7360    92.8030    81.4640    25.0690   -20.8030 
  191.5000     2.2410    74.7040    98.6430    90.6380    75.9170    25.0230   -20.7470 
  191.6250     2.2350    76.6690    93.8730    86.4420    57.7260    24.9090   -20.6370 
  191.7500     2.2240    78.5040    90.4140    83.0770    47.0450    24.8470   -20.5480 
  191.8750     2.2140    77.3150    89.1660    81.7240    49.9460    24.8780   -20.4550 
  192.0000     2.2110    74.6830    89.4470    82.0990    63.0450    24.9420   -20.3250 
  192.1250     2.2180    74.2710    89.5270    82.7950    71.7690    25.0500   -20.2110 
  192.2500     2.2320    75.5950    88.0770    82.3380    75.7130    25.1420   -20.0960 
  192.3750     2.2460    77.3010    84.8520    80.2210    74.7870    25.2270   -19.9870 
  192.5000     2.2600    79.0430    80.3990    76.7070    72.3210    25.3280   -19.9230 
  192.6250     2.2720    78.6130    75.3200    72.4470    67.4670    25.4960   -19.9180 
  192.7500     2.2840    77.0450    70.7160    68.0930    65.9680    25.6080   -19.9230 
  192.8750     2.2960    79.2170    67.3790    63.7210    66.0600    25.6470   -19.9180 
  193.0000     2.3090    84.4360    64.7390    59.2470    64.9250    25.6510   -19.9100 
  193.1250     2.3200    86.2210    60.9960    54.7240    60.0600    25.6510   -19.8780 
  193.2500     2.3270    85.9180    56.1440    50.5040    53.9780    25.6450   -19.8680 
  193.3750     2.3310    87.0810    51.6930    47.0340    47.6600    25.6020   -19.8520 
  193.5000     2.3310    88.3810    48.9260    44.7540    43.4310    25.4630   -19.7700 
  193.6250     2.3300    85.3510    48.3880    44.3340    41.7610    25.2180   -19.6330 
  193.7500     2.3310    81.7680    49.6860    45.6890    42.6480    25.0320   -19.4590 
  193.8750     2.3330    80.5580    52.0890    48.4250    43.0950    25.0120   -19.2710 
  194.0000     2.3340    79.2100    54.0060    51.2190    43.2690    25.1390   -19.0680 
  194.1250     2.3310    76.8290    52.5770    51.1830    46.9090    25.2780   -18.8300 
  194.2500     2.3260    76.1970    46.9460    46.8890    56.2390    25.2770   -18.5550 
  194.3750     2.3230    77.6410    38.0620    38.8490    64.9080    25.1620   -18.2670 
  194.5000     2.3310    82.0540    28.3450    29.3610    49.4350    25.0880   -17.9570 
  194.6250     2.3540    90.9460    20.6410    21.4050    25.1100    24.9690   -17.5510 
  194.7500     2.3820   103.7090    15.6380    15.9800    12.3970    24.8340   -17.0970 
  194.8750     2.4060   116.4940    13.0280    12.8800     9.2390    24.7060   -16.6370 
