~V
VERS. 2.00: Ver 2.00
~W
STRT.M 47.0000:
STOP.M 270.0000:
STEP.M 0.1250:
NULL. -999.2500:
UWI. F10221:
~C
DEPT.M :
SP.MV :
GR.API :
RML.OHMM :
RI. :
RXO.OHMM :
CALI.CM :
DEN.GM/CC :
~A
# ...
  114.5000   -19.6290    73.0800     8.7170     7.4400    10.7030    23.4570     2.2030 
  114.6250   -19.2470    70.4170     9.3590     7.9200    10.8120    23.6180     2.2140 
  114.7500   -18.7240    70.3800     9.7530     8.3200    12.3150    23.6950     2.2540 
  114.8750   -18.1090    76.7900     9.5640     8.3120    15.8960    23.6490     2.3250 
  115.0000   -17.4390    92.0060     8.6070     7.6540    17.4960    23.4960     2.3910 
  115.1250   -16.8300   106.3360     7.3200     6.6620    11.2450    23.3010     2.4120 
  115.2500   -16.2990   113.9190     6.1200     5.6810     6.5120    23.1540     2.3980 
  115.3750   -15.8630   114.7150     5.2880     4.9520     5.1120    23.0610     2.3760 
  115.5000   -15.5550   114.6530     4.9860     4.6220     5.1660    22.9880     2.3590 
  115.6250   -15.3960   116.9540     5.0790     4.6060     5.2550    22.9390     2.3450 
  115.7500   -15.3520   117.4970     5.5130     4.8220     5.2600    22.8970     2.3320 
  115.8750   -15.4110   115.9560     6.2460     5.1640     5.3190    22.8470     2.3160 
  116.0000   -15.5550   111.6370     7.1420     5.5140     5.5020    22.8080     2.2970 
  116.1250   -15.7260   105.7710     7.7860     5.7670     5.7160    22.7750     2.2850 
  116.2500   -15.8970   101.7510     7.7880     5.8480     5.8080    22.7070     2.2890 
  116.3750   -16.0400   102.0070     7.1300     5.7180     5.7390    22.5300     2.3100 
  116.5000   -16.1970   107.0720     6.2250     5.3850     5.4290    22.3560     2.3390 
  116.6250   -16.3510   110.3850     5.5020     4.9780     5.1020    22.2580     2.3640 
  116.7500   -16.5420   110.7690     5.0590     4.5880     4.8480    22.2170     2.3820 
  116.8750   -16.7240   111.0710     4.8430     4.2810     4.7120    22.2170     2.3930 
  117.0000   -16.9540   112.6750     4.8030     4.1170     4.6100    22.2700     2.3920 
  117.1250   -17.2060   115.7960     4.8830     4.0870     4.5040    22.3250     2.3810 
  117.2500   -17.5080   117.7480     5.0840     4.1920     4.5120    22.3240     2.3630 
  117.3750   -17.8650   114.9370     5.4220     4.4230     4.7640    22.1940     2.3400 
  117.5000   -18.2860   107.7950     5.9240     4.7820     5.2820    21.9480     2.3100 
  117.6250   -18.7320   100.8030     6.5010     5.2160     5.8870    21.8620     2.2790 
  117.7500   -19.2140    95.8300     7.0420     5.6770     6.6000    21.9830     2.2500 
  117.8750   -19.7140    92.2860     7.4430     6.1010     7.2950    22.1220     2.2250 
  118.0000   -20.1920    88.6500     7.6540     6.4210     7.8470    22.1750     2.2050 
  118.1250   -20.6510    84.2970     7.7830     6.6570     8.3590    22.2470     2.1890 
  118.2500   -21.0600    77.2810     7.9290     6.8560     8.6860    22.5500     2.1780 
  118.3750   -21.3620    69.8720     8.1330     7.0540     8.4910    23.0910     2.1750 
  118.5000   -21.4610    67.9190     8.3330     7.2270     8.2200    23.7070     2.1870 
  118.6250   -21.4020    70.7730     8.4050     7.2880     8.4760    24.0590     2.2070 
  118.7500   -21.1460    73.6280     8.2520     7.1480     8.9690    23.9540     2.2360 
  118.8750   -20.7640    73.8310     7.8520     6.7790     8.5380    23.4740     2.2740 
  119.0000   -20.2930    74.4870     7.2750     6.2430     6.9590    22.9770     2.3140 
  119.1250   -19.8180    79.4430     6.7100     5.7170     5.7740    22.6070     2.3420 
  119.2500   -19.3440    87.3220     6.2790     5.3130     5.3150    22.4560     2.3500 
  119.3750   -18.9570    93.1650     6.0530     5.0870     5.2760    22.3860     2.3450 
  119.5000   -18.7470    94.0650     6.0680     5.0680     5.4370    22.2790     2.3340 
  119.6250   -18.6920    92.0640     6.2130     5.1620     5.6250    22.2130     2.3190 
  119.7500   -18.8060    87.9810     6.3730     5.2780     5.8190    22.2160     2.3010 
  119.8750   -19.0490    83.3330     6.4450     5.3390     6.0460    22.2620     2.2850 
  120.0000   -19.3730    84.3560     6.3780     5.3010     6.2890    22.3050     2.2730 
  120.1250   -19.7330    90.2860     6.2740     5.2330     6.1560    22.3200     2.2670 
  120.2500   -20.1660    93.1920     6.2630     5.2250     5.6300    22.3160     2.2660 
  120.3750   -20.6360    88.3150     6.4560     5.3610     5.2960    22.3080     2.2670 
  120.5000   -21.1550    80.5060     6.9290     5.7150     6.0900    22.2700     2.2660 
  120.6250   -21.7250    74.3440     7.5470     6.2130     7.9890    22.1780     2.2570 
  120.7500   -22.3240    69.6330     8.1370     6.7440    10.1530    22.0350     2.2370 
  120.8750   -22.9310    65.9230     8.5200     7.1670    10.2410    22.1090     2.2080 
  121.0000   -23.5120    64.5470     8.5740     7.3470     9.1310    22.5890     2.1750 
  121.1250   -23.9620    63.3030     8.4330     7.3420     8.5140    23.1480     2.1500 
  121.2500   -24.2710    63.9130     8.2500     7.2440     8.4120    23.3630     2.1410 
  121.3750   -24.4450    67.6010     8.1370     7.1450     8.4070    23.2710     2.1450 
  121.5000   -24.4600    70.1430     8.1260     7.0940     8.2530    23.0640     2.1480 
  121.6250   -24.3470    69.4020     8.1350     7.0710     8.0870    22.8380     2.1400 
  121.7500   -24.1240    69.0740     8.1130     7.0520     7.9670    22.6780     2.1310 
  121.8750   -23.8040    71.1870     8.0510     7.0290     7.9330    22.5900     2.1360 
  122.0000   -23.4420    72.2240     7.9790     7.0060     8.1500    22.5240     2.1520 
  122.1250   -23.1020    72.7210     7.9350     6.9950     8.3190    22.4510     2.1620 
  122.2500   -22.7710    75.1370     7.9330     7.0050     8.3750    22.4700     2.1660 
  122.3750   -22.4670    76.5370     7.9660     7.0420     8.3640    22.5590     2.1680 
  122.5000   -22.1690    73.3310     8.0240     7.1070     8.2820    22.6050     2.1720 
  122.6250   -21.8600    68.6420     8.0960     7.1860     8.2520    22.5640     2.1770 
  122.7500   -21.5410    66.0110     8.1720     7.2640     8.3520    22.4510     2.1860 
  122.8750   -21.2280    66.6150     8.2220     7.3140     8.4090    22.3430     2.1970 
  123.0000   -20.8800    69.7490     8.1610     7.2780     8.2380    22.2950     2.2130 
  123.1250   -20.5260    73.7960     7.9450     7.1370     7.9540    22.2890     2.2340 
  123.2500   -20.1310    76.9070     7.5900     6.9040     7.7750    22.2930     2.2620 
  123.3750   -19.6900    78.7450     7.1960     6.6430     7.4810    22.2970     2.2930 
  123.5000   -19.2200    79.9470     6.9560     6.4740     6.9430    22.2790     2.3240 
  123.6250   -18.7680    78.6310     6.9640     6.4690     6.4650    22.2570     2.3480 
  123.7500   -18.3620    73.9710     7.2170     6.6450     6.4000    22.2380     2.3620 
  123.8750   -18.0240    69.2390     7.6180     6.9690     6.6080    22.2470     2.3710 
  124.0000   -17.7730    69.6130     7.9940     7.3370     7.2740    22.2500     2.3760 
  124.1250   -17.5990    71.3120     8.2070     7.6150     8.1280    22.2500     2.3640 
  124.2500   -17.5310    71.3080     8.2310     7.7380     9.0370    22.2550     2.3290 
  124.3750   -17.5110    71.2260     8.1350     7.7290     8.1670    22.2530     2.2840 
  124.5000   -17.5510    71.7850     8.0440     7.6760     7.7030    22.2350     2.2450 
  124.6250   -17.5990    70.8550     8.0380     7.6630     7.8130    22.2150     2.2080 
  124.7500   -17.6300    69.3510     8.1220     7.7100     8.5920    22.2150     2.1720 
  124.8750   -17.6150    69.5340     8.2450     7.7910     9.0230    22.2450     2.1510 
  125.0000   -17.5250    70.8150     8.3310     7.8470     9.0420    22.3110     2.1670 
  125.1250   -17.3220    72.5460     8.4080     7.8930     8.9170    22.4020     2.2180 
  125.2500   -17.0320    72.4200     8.6080     8.0260     9.0790    22.4590     2.2900 
  125.3750   -16.6990    69.4750     9.1280     8.3850     9.6070    22.4630     2.3650 
  125.5000   -16.3130    65.7090    10.2790     9.1990     9.8620    22.4300     2.4290 
  125.6250   -15.8690    61.4910    11.2380    10.5610    10.5450    22.4350     2.4830 
