~V
VERS. 2.00: Ver 2.00
~W
STRT.M 50.0000:
STOP.M 281.0000:
STEP.M 0.1250:
NULL. -999.2500:
UWI. F10234:
~C
DEPT.M :
DEN.GM/CC :
GR.API :
RML.OHMM :
RI. :
RXO.OHMM :
CALI.CM :
SP.MV :
~A
# ...
   83.7500     2.4660    45.6520    22.2290    15.4750    62.6650    25.1000   -16.7600 
   83.8750     2.5350    43.0510    23.8420    17.1110    81.9090    25.2060   -17.1220 
   84.0000     2.5130    44.9430    22.3240    16.6930    52.3970    25.3560   -17.4800 
   84.1250     2.4220    51.3620    18.6340    14.5450    26.1950    25.5340   -17.7870 
   84.2500     2.3280    55.5070    15.1610    12.2510    13.7890    25.7290   -18.0450 
   84.3750     2.2600    54.8000    12.7600    10.4880    10.6210    25.9280   -18.2430 
   84.5000     2.2230    52.5010    11.4490     9.3940    10.5250    26.1240   -18.4140 
   84.6250     2.2070    52.0280    11.0130     8.9140    10.7550    26.3130   -18.4970 
   84.7500     2.1950    52.8980    10.9580     8.7570    10.5940    26.5150   -18.5490 
   84.8750     2.1790    53.3700    11.0370     8.7720    10.6030    26.7430   -18.5820 
   85.0000     2.1630    50.9260    11.1240     8.8580    10.7140    26.9870   -18.5240 
   85.1250     2.1490    44.9240    11.2200     8.9730    10.9370    27.2230   -18.4330 
   85.2500     2.1410    42.2330    11.3600     9.1010    11.1900    27.4260   -18.3260 
   85.3750     2.1390    44.3480    11.5250     9.2270    11.1360    27.5820   -18.1690 
   85.5000     2.1380    46.6350    11.6440     9.3190    10.9910    27.6960   -17.9690 
   85.6250     2.1280    47.4420    11.6370     9.3290    11.1760    27.7480   -17.7570 
   85.7500     2.1050    49.9420    11.5470     9.2710    11.3990    27.6980   -17.5020 
   85.8750     2.0760    52.9830    11.4450     9.1810    11.3730    27.5470   -17.2290 
   86.0000     2.0530    52.4510    11.3880     9.1020    11.0170    27.2970   -16.9980 
   86.1250     2.0520    48.7990    11.3990     9.0570    10.5210    26.9560   -16.7620 
   86.2500     2.0740    47.8590    11.4420     9.0190    10.1600    26.5800   -16.5160 
   86.3750     2.1120    50.7590    11.4600     8.9470     9.7930    26.2070   -16.3210 
   86.5000     2.1540    54.2150    11.3890     8.8030     9.9780    25.8670   -16.0950 
   86.6250     2.1860    55.0920    11.1790     8.5570    10.1980    25.5950   -15.8480 
   86.7500     2.2030    55.2520    10.9050     8.2560    10.0780    25.3910   -15.6160 
   86.8750     2.2030    56.1450    10.6860     7.9520     9.6570    25.2360   -15.3750 
   87.0000     2.1890    57.5380    10.6500     7.7040     9.2270    25.1010   -15.1550 
   87.1250     2.1680    57.2290    10.8700     7.5920     8.9920    24.9830   -14.9290 
   87.2500     2.1510    55.2820    11.2110     7.6290     9.4130    24.8640   -14.6850 
   87.3750     2.1390    53.6610    11.5360     7.8030     9.8020    24.7490   -14.4410 
   87.5000     2.1330    52.2490    11.7410     8.0630     9.9480    24.6510   -14.2150 
   87.6250     2.1320    50.4790    11.7790     8.3250    10.0380    24.5830   -14.0040 
   87.7500     2.1360    49.6430    11.7140     8.5160    10.1180    24.5440   -13.7730 
   87.8750     2.1420    51.6050    11.5900     8.5990    10.1740    24.5240   -13.5310 
   88.0000     2.1520    53.9250    11.4280     8.5770    10.1970    24.5150   -13.2450 
   88.1250     2.1580    52.8250    11.2210     8.4610    10.1200    24.5150   -12.9170 
   88.2500     2.1580    52.3380    10.9910     8.2890     9.8880    24.5150   -12.5610 
   88.3750     2.1520    54.9640    10.7590     8.0890     9.7070    24.5120   -12.1410 
   88.5000     2.1430    58.9020    10.5530     7.8960     9.4450    24.5010   -11.7250 
   88.6250     2.1380    61.0540    10.4270     7.7540     9.0790    24.4840   -11.3020 
   88.7500     2.1390    61.0330    10.3960     7.6780     8.7670    24.4630   -10.9220 
   88.8750     2.1460    59.2680    10.4580     7.6650     8.8100    24.4410   -10.6020 
   89.0000     2.1560    57.7110    10.5790     7.7010     9.2600    24.4200   -10.3330 
   89.1250     2.1620    59.2630    10.7030     7.7610     9.4320    24.4010   -10.1260 
   89.2500     2.1620    60.5970    10.7880     7.8180     9.3830    24.3860    -9.9700 
   89.3750     2.1560    59.2680    10.8220     7.8570     9.2540    24.3790    -9.8830 
   89.5000     2.1440    57.8490    10.8080     7.8710     9.2730    24.3770    -9.8080 
   89.6250     2.1330    60.0900    10.7290     7.8410     9.1180    24.3770    -9.7980 
   89.7500     2.1300    61.7050    10.5790     7.7640     9.0490    24.3780    -9.8270 
   89.8750     2.1390    60.6440    10.3670     7.6410     8.8980    24.3790    -9.8280 
   90.0000     2.1600    58.9380    10.1270     7.4940     8.6940    24.3810    -9.8750 
   90.1250     2.1830    59.1290     9.9070     7.3570     8.4850    24.3840   -10.0540 
   90.2500     2.1950    60.7170     9.7370     7.2610     8.3040    24.3980   -10.2940 
   90.3750     2.1930    61.3580     9.6290     7.2240     8.3660    24.4350   -10.5830 
   90.5000     2.1810    59.6310     9.5800     7.2540     8.6340    24.5010   -10.9010 
   90.6250     2.1700    57.1040     9.5970     7.3570     8.8710    24.5940   -11.2000 
   90.7500     2.1620    54.7920     9.6820     7.5140     8.7810    24.7010   -11.4290 
   90.8750     2.1530    52.8230     9.8540     7.7210     8.9300    24.8070   -11.6300 
   91.0000     2.1410    51.0360    10.1170     7.9740     9.4420    24.8940   -11.7550 
   91.1250     2.1270    50.7930    10.4300     8.2530     9.8470    24.9450   -11.6910 
   91.2500     2.1180    50.8920    10.6840     8.4870    10.2300    24.9570   -11.5080 
   91.3750     2.1220    50.1990    10.7550     8.5750    10.4860    24.9230   -11.1830 
   91.5000     2.1370    51.9550    10.5340     8.4160    10.2850    24.8550   -10.7670 
   91.6250     2.1630    59.3610     9.9140     7.9120     9.2750    24.7740   -10.2840 
   91.7500     2.1900    68.9160     9.0100     7.1730     7.8750    24.6960    -9.8110 
   91.8750     2.2130    78.3420     8.0110     6.3500     6.7760    24.6300    -9.3890 
   92.0000     2.2300    86.7690     7.1980     5.6440     6.1790    24.5810    -9.0450 
   92.1250     2.2440    90.6740     6.9220     5.2940     5.7520    24.5490    -8.8650 
   92.2500     2.2690    87.7800     7.2410     5.3460     5.4890    24.5350    -8.8470 
   92.3750     2.3150    79.9410     8.1380     5.8100     6.8070    24.5470    -8.9890 
   92.5000     2.3740    72.3200     9.4390     6.6160    10.8830    24.5880    -9.2530 
   92.6250     2.4060    66.2830    10.7140     7.5590    16.3570    24.6550    -9.6160 
   92.7500     2.3880    59.8240    11.4670     8.2850    13.4580    24.7360    -9.9880 
   92.8750     2.3300    54.4110    11.5100     8.5960    10.4150    24.8240   -10.3150 
   93.0000     2.2570    51.8520    11.0420     8.5180     9.7090    24.9080   -10.5960 
   93.1250     2.1960    51.8420    10.5080     8.2490    10.1340    24.9710   -10.8120 
   93.2500     2.1530    52.7170    10.2160     8.0230    10.1890    24.9980   -10.8670 
   93.3750     2.1250    53.9860    10.1500     7.8910     9.9000    24.9760   -10.8220 
   93.5000     2.1090    55.3670    10.1320     7.7980     9.6530    24.9110   -10.6870 
   93.6250     2.1080    58.1410     9.9600     7.6500     9.4700    24.8160   -10.5010 
   93.7500     2.1180    62.3930     9.6440     7.4320     8.9890    24.7310   -10.3730 
   93.8750     2.1360    65.8570     9.2770     7.1800     8.4770    24.6730   -10.2680 
   94.0000     2.1550    67.1910     8.9610     6.9410     8.0920    24.6530   -10.1990 
   94.1250     2.1680    67.6600     8.7780     6.7720     7.6820    24.6790   -10.1900 
   94.2500     2.1740    68.9350     8.7280     6.6910     7.4630    24.7400   -10.2600 
   94.3750     2.1750    69.6690     8.8060     6.7010     7.6160    24.8480   -10.3760 
   94.5000     2.1730    69.7650     8.9830     6.7810     8.1120    25.0040   -10.5350 
   94.6250     2.1660    67.6330     9.1960     6.8940     8.4360    25.1960   -10.6860 
   94.7500     2.1560    62.1050     9.3560     6.9920     8.5690    25.3960   -10.7570 
   94.8750     2.1420    56.7600     9.4230     7.0560     8.7030    25.5860   -10.7930 
