~V
VERS. 2.00: Ver 2.00
~W
STRT.M 49.0000:
STOP.M 279.0000:
STEP.M 0.1250:
NULL. -999.2500:
UWI. F10243:
~C
DEPT.M :
GR.API :
RML.OHMM :
RI. :
RXO.OHMM :
CALI.CM :
DEN.GM/CC :
SP.MV :
~A
# ...
  251.5000    65.0850     6.2260     6.4880     5.3710    23.9570     2.3540    -6.1290 
  251.6250    65.8320     6.2340     6.5210     5.3690    23.9790     2.3660    -5.8690 
  251.7500    66.0720     6.1910     6.5000     5.4250    23.9660     2.3590    -5.6500 
  251.8750    65.4890     6.1340     6.4370     5.5380    23.9660     2.3430    -5.4250 
  252.0000    65.4800     6.1090     6.3470     5.5000    23.9690     2.3330    -5.2020 
  252.1250    64.8870     6.1310     6.2530     5.4630    23.9490     2.3320    -5.0200 
  252.2500    62.8510     6.1880     6.1720     5.4500    23.9020     2.3380    -4.9220 
  252.3750    60.2160     6.2600     6.1120     5.4570    23.8790     2.3450    -4.9220 
  252.5000    61.5480     6.3350     6.0830     5.4790    23.9050     2.3470    -5.0500 
  252.6250    65.6600     6.4110     6.0780     5.5130    23.9590     2.3440    -5.2020 
  252.7500    65.7830     6.4870     6.0910     5.5720    24.0500     2.3410    -5.3170 
  252.8750    61.3310     6.5600     6.1150     5.6260    24.1610     2.3420    -5.4060 
  253.0000    60.3680     6.6200     6.1430     5.6640    24.2590     2.3470    -5.4520 
  253.1250    65.0470     6.6730     6.1690     5.7560    24.3150     2.3510    -5.4500 
  253.2500    70.7310     6.7300     6.1940     5.8800    24.3460     2.3500    -5.4210 
  253.3750    72.1180     6.8060     6.2230     6.0740    24.3580     2.3460    -5.3690 
  253.5000    69.6250     6.9070     6.2690     6.5540    24.3510     2.3460    -5.2740 
  253.6250    65.9770     7.0230     6.3350     7.2300    24.3300     2.3520    -5.1960 
  253.7500    62.5730     7.1390     6.4140     7.6160    24.3060     2.3590    -5.1640 
  253.8750    61.5090     7.2380     6.4930     7.5420    24.2790     2.3620    -5.1740 
  254.0000    63.6700     7.3040     6.5580     7.3270    24.2320     2.3580    -5.2410 
  254.1250    66.7290     7.3420     6.6010     7.2770    24.1710     2.3520    -5.3060 
  254.2500    67.3690     7.3670     6.6290     7.3190    24.1200     2.3480    -5.3040 
  254.3750    64.0670     7.3990     6.6550     7.5020    24.1090     2.3450    -5.2560 
  254.5000    60.9170     7.4560     6.7020     7.5950    24.2150     2.3420    -5.1500 
  254.6250    61.5990     7.5350     6.7740     7.3520    24.3050     2.3410    -4.9850 
  254.7500    64.8220     7.6200     6.8690     6.8590    24.3430     2.3470    -4.7730 
  254.8750    67.8460     7.6890     6.9780     6.6150    24.3600     2.3600    -4.5200 
  255.0000    69.4750     7.7230     7.0760     6.8580    24.3840     2.3770    -4.2700 
  255.1250    69.9890     7.7270     7.1400     6.9090    24.4330     2.3900    -4.0990 
  255.2500    68.4980     7.7110     7.1580     6.5040    24.4840     2.3950    -4.0450 
  255.3750    64.9740     7.6910     7.1310     6.1690    24.5140     2.3960    -4.0670 
  255.5000    62.3980     7.6990     7.0850     6.1250    24.5060     2.3960    -4.1220 
  255.6250    62.8930     7.7580     7.0680     6.1890    24.4570     2.3960    -4.1900 
  255.7500    64.4000     7.8780     7.1150     6.2580    24.4080     2.3930    -4.3050 
  255.8750    65.0850     8.0480     7.2410     6.5760    24.4010     2.3840    -4.4510 
  256.0000    64.8650     8.2210     7.4350     7.4810    24.4440     2.3730    -4.5720 
  256.1250    63.8150     8.3410     7.6340     9.1250    24.4750     2.3610    -4.6080 
  256.2500    61.5610     8.3970     7.7900    11.0360    24.4880     2.3490    -4.5550 
  256.3750    59.9290     8.4330     7.8920    11.6720    24.5060     2.3340    -4.4700 
  256.5000    61.2810     8.5530     7.9870    11.3650    24.5530     2.3220    -4.4150 
  256.6250    61.8340     8.8250     8.1590    11.3210    24.5940     2.3270    -4.3970 
  256.7500    60.8100     9.2630     8.4670    11.6540    24.5430     2.3570    -4.3990 
  256.8750    60.5670     9.8170     8.9190    11.6750    24.3950     2.4120    -4.3940 
  257.0000    62.3680    10.3660     9.4540    11.9140    24.2750     2.4700    -4.3720 
  257.1250    63.9030    10.7770     9.9300    11.6490    24.2120     2.5110    -4.4010 
  257.2500    65.0020    10.9880    10.2450    11.9460    24.2220     2.5230    -4.4430 
  257.3750    66.9770    11.0170    10.3600    12.3580    24.2580     2.5130    -4.4630 
  257.5000    69.5550    10.9550    10.3050    12.6710    24.2630     2.4930    -4.4450 
  257.6250    72.3490    10.9280    10.2110    12.9510    24.2560     2.4780    -4.3470 
  257.7500    72.8340    10.9890    10.1540    13.2520    24.2530     2.4700    -4.1460 
  257.8750    70.2160    11.1340    10.1730    13.6060    24.2320     2.4710    -3.8910 
  258.0000    68.1000    11.3400    10.2920    13.7060    24.2130     2.4790    -3.6670 
  258.1250    69.4380    11.5710    10.4880    13.5250    24.2080     2.4860    -3.4770 
  258.2500    72.0780    11.8190    10.7450    12.9760    24.2270     2.4900    -3.3570 
  258.3750    73.5000    12.0710    11.0390    13.0520    24.2520     2.4840    -3.2750 
  258.5000    74.0940    12.2870    11.3290    13.5530    24.2120     2.4690    -3.1900 
  258.6250    73.2760    12.4150    11.5690    14.2630    24.1680     2.4520    -3.1280 
  258.7500    69.0930    12.4780    11.7370    14.6160    24.1450     2.4380    -3.1310 
  258.8750    64.7730    12.5580    11.8410    14.4410    24.0850     2.4320    -3.2440 
  259.0000    66.3410    12.7120    11.9210    13.6570    23.9950     2.4360    -3.4210 
  259.1250    69.9880    12.8900    12.0270    13.6660    23.9270     2.4460    -3.5610 
  259.2500    69.8290    13.0680    12.1840    14.2890    23.8930     2.4600    -3.6120 
  259.3750    65.8040    13.2710    12.3920    14.9670    23.8770     2.4750    -3.5960 
  259.5000    63.7070    13.5150    12.6340    15.4110    23.9090     2.4920    -3.5790 
  259.6250    65.0240    13.7710    12.8830    15.5680    23.9610     2.5060    -3.5990 
  259.7500    66.4280    14.0310    13.1340    15.9930    23.9770     2.5140    -3.6340 
  259.8750    66.4280    14.2930    13.3870    15.8370    23.9140     2.5170    -3.6530 
  260.0000    65.9100    14.5460    13.6390    15.6780    23.7940     2.5150    -3.6750 
  260.1250    66.3900    14.7710    13.8650    15.3210    23.6950     2.5160    -3.6840 
  260.2500    67.1180    14.9430    14.0390    15.0620    23.5920     2.5210    -3.6980 
  260.3750    67.1500    15.0470    14.1390    15.4790    23.4380     2.5270    -3.7280 
  260.5000    67.5000    15.0780    14.1570    16.0600    23.1720     2.5280    -3.7390 
  260.6250    67.6480    15.0840    14.1460    16.2170    22.9410     2.5220    -3.7030 
  260.7500    66.3480    15.1190    14.1610    16.1220    22.9970     2.5130    -3.5870 
  260.8750    64.6060    15.2370    14.2630    16.0270    23.3970     2.5050    -3.3820 
  261.0000    64.6070    15.4940    14.5120    15.2510    23.8800     2.5010    -3.0730 
  261.1250    64.7650    15.8670    14.8870    15.5040    24.1250     2.5020    -2.7690 
  261.2500    63.2280    16.3140    15.3410    16.3570    24.2230     2.5060    -2.5270 
  261.3750    61.4630    16.7720    15.8050    17.2110    24.2710     2.5100    -2.3510 
  261.5000    62.0110    17.1640    16.1950    17.6230    24.2910     2.5150    -2.2050 
  261.6250    63.7030    17.4570    16.4790    17.7170    24.2980     2.5190    -2.0530 
  261.7500    65.4150    17.6450    16.6540    17.8520    24.3090     2.5220    -1.9570 
  261.8750    67.9930    17.7400    16.7390    18.2550    24.3310     2.5240    -1.9430 
  262.0000    70.2440    17.7600    16.7510    18.8540    24.3230     2.5270    -2.0640 
  262.1250    70.5000    17.7440    16.7270    19.3980    24.2930     2.5330    -2.2730 
  262.2500    69.9750    17.7220    16.6970    19.4590    24.2600     2.5400    -2.4820 
  262.3750    70.2050    17.7190    16.6870    19.3490    24.2450     2.5480    -2.6340 
  262.5000    70.7520    17.7640    16.7300    19.0510    24.2350     2.5540    -2.7190 
  262.6250    69.2810    17.8530    16.8220    19.1050    24.2320     2.5570    -2.8010 
