~V
VERS. 2.00: Ver 2.00
~W
STRT.M 20.0000:
STOP.M 256.0000:
STEP.M 0.1250:
NULL. -999.2500:
UWI. F10201:
~C
DEPT.M :
DEN.GM/CC :
GR.API :
RML.OHMM :
RI. :
RXO.OHMM :
CALI.CM :
SP.MV :
~A
# ...
  188.7500     2.3170    86.3220    21.8290    16.3760    29.5230    24.8600   -23.2240 
  188.8750     2.3000    73.8410    32.9260    25.6050    53.7670    24.8710   -23.8760 
  189.0000     2.2800    65.3560    47.2920    38.1600    70.8130    24.8700   -24.4930 
  189.1250     2.2660    63.6970    60.8260    50.8590    65.6780    24.8810   -25.0620 
  189.2500     2.2570    63.8000    68.6120    59.4780    62.1810    24.8910   -25.5550 
  189.3750     2.2520    64.8560    70.8620    63.4680    63.1550    24.9070   -25.9010 
  189.5000     2.2460    66.3910    71.1480    65.0290    68.8700    24.9240   -26.0970 
  189.6250     2.2390    66.9810    72.3990    66.5760    71.2940    24.9440   -26.1950 
  189.7500     2.2320    66.4560    74.8140    68.9190    73.0570    24.9480   -26.1850 
  189.8750     2.2340    66.1710    77.1890    71.4670    75.5580    24.9280   -26.0660 
  190.0000     2.2530    66.8660    77.2430    72.6940    79.7910    24.8940   -25.9070 
  190.1250     2.2980    67.7920    71.2090    69.5440    81.5200    24.8610   -25.6660 
  190.2500     2.3560    67.4760    62.4480    61.3410    76.1580    24.8440   -25.3300 
  190.3750     2.4090    65.6800    50.7460    49.7010    59.6710    24.8490   -24.9480 
  190.5000     2.4360    63.8700    37.6740    37.9520    39.8280    24.8450   -24.5330 
  190.6250     2.4190    65.1580    29.2260    29.3260    25.2370    24.8660   -24.1010 
  190.7500     2.3770    69.3370    24.4630    23.9700    17.2330    24.9310   -23.6960 
  190.8750     2.3320    71.6340    22.3960    21.2600    14.8190    25.0020   -23.3050 
  191.0000     2.3080    68.5880    21.9420    20.2950    17.5200    25.0140   -22.9270 
  191.1250     2.3260    61.8580    21.8230    20.0320    22.7600    24.9140   -22.6300 
  191.2500     2.3720    59.4540    20.7680    19.2430    23.3780    24.7080   -22.3800 
  191.3750     2.4270    64.5230    18.4080    17.4190    18.9600    24.4870   -22.1380 
  191.5000     2.4670    73.5260    15.3470    14.8740    12.5070    24.3260   -21.9250 
  191.6250     2.4710    80.6780    12.7790    12.5130     9.8160    24.3040   -21.7010 
  191.7500     2.4500    83.1310    11.3050    10.9250     9.1920    24.3800   -21.3900 
  191.8750     2.4180    81.6100    11.1160    10.3200     9.6960    24.4710   -21.0330 
  192.0000     2.3920    77.7190    12.3530    10.8470    10.7670    24.5620   -20.6480 
  192.1250     2.3920    69.7850    15.7980    13.0920    12.7330    24.6430   -20.1670 
  192.2500     2.4240    58.8820    21.7560    17.2630    17.4640    24.6410   -19.6620 
  192.3750     2.4840    48.9410    28.8420    23.3390    28.3460    24.6060   -19.1470 
  192.5000     2.5560    44.8940    35.5900    29.8750    43.4320    24.5790   -18.6020 
  192.6250     2.6160    46.7600    36.1550    31.9320    62.2380    24.5910   -18.0490 
  192.7500     2.6540    47.9760    29.3870    27.4590    60.1680    24.5860   -17.5820 
  192.8750     2.6720    47.6210    19.9400    19.6410    38.6870    24.5830   -17.1610 
  193.0000     2.6760    48.5140    12.4170    12.6630    18.0970    24.6280   -16.7390 
  193.1250     2.6620    51.0030     8.2690     8.3940     8.7680    24.7040   -16.4000 
  193.2500     2.6270    50.8300     6.1170     5.9600     5.7640    24.6840   -16.0740 
  193.3750     2.5700    47.2100     4.8380     4.7120     4.9460    24.5930   -15.7420 
  193.5000     2.4980    44.0880     4.5060     4.2140     4.8420    24.5580   -15.4690 
  193.6250     2.4250    45.3050     4.6720     4.2260     4.7970    24.5060   -15.2240 
  193.7500     2.3700    49.0210     4.9630     4.4610     4.8480    24.4350   -15.0140 
  193.8750     2.3430    53.2450     5.2700     4.7880     5.0150    24.5230   -14.8900 
  194.0000     2.3440    55.9610     5.5200     5.1120     5.1410    24.7840   -14.8510 
  194.1250     2.3620    56.3030     5.6670     5.3570     5.4240    24.8650   -14.8940 
  194.2500     2.3800    56.8340     5.7290     5.5120     5.3270    24.7540   -14.9730 
  194.3750     2.3930    58.5770     5.7420     5.5880     5.3810    24.6330   -15.0930 
  194.5000     2.4020    59.4080     5.7560     5.6190     5.4460    24.6070   -15.2470 
  194.6250     2.4160    56.4770     5.8020     5.6280     5.5000    24.6470   -15.4410 
  194.7500     2.4340    53.5780     5.8580     5.6200     5.5530    24.7150   -15.6000 
  194.8750     2.4480    53.3040     5.8900     5.5840     5.5670    24.7600   -15.7280 
  195.0000     2.4460    55.7720     5.8710     5.5110     5.5160    24.6500   -15.8140 
  195.1250     2.4170    57.4980     5.7890     5.4050     5.4470    24.3950   -15.7540 
  195.2500     2.3740    56.7100     5.6880     5.2920     5.4330    24.2640   -15.6450 
  195.3750     2.3320    55.4520     5.6150     5.1980     5.4390    24.4200   -15.5230 
  195.5000     2.3060    54.8530     5.6060     5.1440     5.3850    24.6440   -15.3550 
  195.6250     2.3050    53.4970     5.6840     5.1530     5.2750    24.7000   -15.1320 
  195.7500     2.3180    50.6970     5.8230     5.2180     5.2360    24.5930   -14.9180 
  195.8750     2.3330    48.4090     5.9920     5.3260     5.3500    24.4480   -14.7130 
  196.0000     2.3420    47.0090     6.1550     5.4480     5.6070    24.3620   -14.5110 
  196.1250     2.3420    45.3040     6.2810     5.5440     5.8870    24.3870   -14.3910 
  196.2500     2.3390    45.9500     6.3740     5.6040     6.0770    24.4390   -14.3550 
  196.3750     2.3370    48.5400     6.4550     5.6400     6.1910    24.4520   -14.3520 
  196.5000     2.3370    49.0310     6.5560     5.6860     6.3020    24.4040   -14.4250 
  196.6250     2.3390    47.6120     6.7370     5.7920     6.4360    24.4020   -14.5880 
  196.7500     2.3390    47.5220     7.0190     5.9820     6.5790    24.4220   -14.7780 
  196.8750     2.3370    47.5080     7.3930     6.2520     6.7700    24.4360   -15.0280 
  197.0000     2.3360    47.0180     7.8020     6.5620     6.9940    24.4380   -15.3760 
  197.1250     2.3440    47.7040     8.1370     6.8200     7.1380    24.4410   -15.8060 
  197.2500     2.3650    50.2260     8.3320     6.9570     7.2020    24.4450   -16.3340 
  197.3750     2.3950    52.6090     8.3930     6.9570     7.2730    24.4430   -17.0030 
  197.5000     2.4230    55.6440     8.4140     6.8730     7.4180    24.4300   -17.7610 
  197.6250     2.4360    61.3170     8.5630     6.8100     7.6590    24.3990   -18.6430 
  197.7500     2.4360    64.7190     8.9390     6.8690     8.0010    24.3400   -19.6710 
  197.8750     2.4300    66.5350     9.5730     7.1140     8.4210    24.2470   -20.7360 
  198.0000     2.4250    70.2000    10.4080     7.5650     8.8860    24.1460   -21.8130 
  198.1250     2.4250    77.3610    11.2760     8.1800     9.3850    24.0580   -22.9250 
  198.2500     2.4310    84.5400    11.9840     8.8000     9.9220    23.9520   -23.9670 
  198.3750     2.4400    88.7340    12.5050     9.3360    10.5400    23.8250   -24.9130 
  198.5000     2.4470    91.3750    13.0330     9.8440    11.2280    23.7020   -25.8100 
  198.6250     2.4480    92.7590    13.9470    10.5590    11.9330    23.6230   -26.5950 
  198.7500     2.4390    93.1300    15.2930    11.5810    12.8970    23.5780   -27.2860 
  198.8750     2.4170    93.4780    16.7260    12.7480    13.9990    23.5700   -27.9960 
  199.0000     2.3860    94.6390    17.4850    13.5590    14.9330    23.6500   -28.7440 
  199.1250     2.3590    99.5440    16.5030    13.1960    15.2320    23.8470   -29.4890 
  199.2500     2.3480   105.6760    14.2170    11.7970    14.7260    24.0060   -30.2940 
  199.3750     2.3560   110.0040    11.6470     9.9830    13.6030    24.0040   -31.1820 
  199.5000     2.3740   110.8460     9.6870     8.3840    12.2140    24.0120   -32.1000 
  199.6250     2.3850   109.0450     8.3720     7.3810    10.2260    24.1440   -33.0720 
  199.7500     2.3770   106.0840     8.2090     6.8790     8.0600    24.3610   -34.0380 
  199.8750     2.3530   101.4870     8.4340     6.7580     8.2540    24.7970   -34.8930 
