~V
VERS. 2.00: Ver 2.00
~W
STRT.M 58.0000:
STOP.M 277.0000:
STEP.M 0.1250:
NULL. -999.2500:
UWI. F10219:
~C
DEPT.M :
SP.MV :
DEN.GM/CC :
GR.API :
RML.OHMM :
RI. :
RXO.OHMM :
CALI.CM :
~A
   58.0000    78.0270  -999.2500  -999.2500  -999.2500  -999.2500  -999.2500  -999.2500 
   58.1250    77.7400  -999.2500  -999.2500  -999.2500  -999.2500  -999.2500  -999.2500 
   58.2500    77.4160  -999.2500  -999.2500  -999.2500  -999.2500  -999.2500  -999.2500 
   58.3750    77.1110  -999.2500  -999.2500  -999.2500  -999.2500  -999.2500  -999.2500 
   58.5000    76.8250     0.0000  -999.2500  -999.2500  -999.2500  -999.2500  -999.2500 
   58.6250    76.5650     0.0000     0.0000     0.0000     0.0000     0.0000     0.0000 
   58.7500    76.3270     0.0000     0.0000     0.0000     0.0000     0.0000     0.0000 
   58.8750    76.1120     0.0000     0.0000     0.0000     0.0000     0.0000     0.0000 
   59.0000    75.9370     0.0000     0.0000     0.0000     0.0000     0.0000     0.0000 
   59.1250    75.8130     0.0000     0.0000     0.0000     0.0000     0.0000     0.0000 
   59.2500    75.6900     0.7630    17.3950     2.0810     0.2180     0.1900    10.1510 
   59.3750    75.5320     1.9020    44.1660     5.1000     0.5470     0.4750    25.3780 
   59.5000    75.3830     1.8850    46.0100     4.8950     0.5530     0.4780    25.3760 
   59.6250    75.2500     1.8630    47.7650     4.8070     0.5580     0.4820    25.3750 
   59.7500    75.1030     1.8510    48.7060     4.7640     0.5600     0.4890    25.3760 
   59.8750    74.9080     1.8570    48.9860     4.6830     0.5580     0.4950    25.3760 
   60.0000    74.6810     1.8730    48.9670     4.6160     0.5540     0.4980    25.3750 
   60.1250    74.4830     1.8890    48.3860     4.7360     0.5510     0.4980    25.3750 
   60.2500    74.3380     1.9010    46.6780     5.2110     0.5490     0.4960    25.3740 
   60.3750    74.2040     1.9130    44.7340     6.0340     0.5480     0.4960    25.3700 
   60.5000    74.0070     1.9270    44.6180     6.9810     0.5480     0.4960    25.3610 
   60.6250    73.6940     1.9420    46.7170     7.7880     0.5500     0.4980    25.3530 
   60.7500    73.2460     1.9500    49.6980     8.1760     0.5510     0.5060    25.3560 
   60.8750    72.7020     1.9430    52.2480     8.0630     0.5520     0.5130    25.3660 
   61.0000    72.1150     1.9270    53.3730     7.6870     0.5530     0.5180    25.3730 
   61.1250    71.4880     1.9060    52.3100     7.2710     0.5530     0.5300    25.3750 
   61.2500    70.8350     1.8880    50.2260     6.9060     0.5510     0.5490    25.3700 
   61.3750    70.1530     1.8760    48.9020     6.5940     0.5480     0.5730    25.3630 
   61.5000    69.4330     1.8660    48.2170     6.3340     0.5450     0.5930    25.3620 
   61.6250    68.7120     1.8580    47.6690     6.1600     0.5420     0.6050    25.3670 
   61.7500    68.0420     1.8550    48.2160     6.1140     0.5390     0.6110    25.3730 
   61.8750    67.4250     1.8630    49.8930     6.1940     0.5360     0.6170    25.3660 
   62.0000    66.8130     1.8820    50.6410     6.3420     0.5320     0.6290    25.3390 
   62.1250    66.1600     1.9060    49.7430     6.4860     0.5240     0.6420    25.3040 
   62.2500    65.4090     1.9340    48.8810     6.4870     0.5050     0.6480    25.2870 
   62.3750    64.5340     1.9790    48.9610     6.0940     0.4710     0.6440    25.2770 
   62.5000    63.5370     2.0480    48.6980     5.1550     0.4200     0.6360    25.2490 
   62.6250    62.3330     2.1400    47.7910     3.7630     0.3550     0.6280    25.2050 
   62.7500    60.7060     2.2470    47.3830     1.9860     0.2840     0.6170    25.1330 
   62.8750    58.3790     2.3520    47.2840     0.6330     0.2230     0.6090    24.9900 
   63.0000    55.0760     2.4390    45.5270     0.4670     0.1840     0.6430    24.7170 
   63.1250    50.3990     2.4870    42.6410     0.7180     0.1840     0.8410    24.3220 
   63.2500    44.0180     2.4640    41.2450     1.4300     0.2610     1.4010    23.9400 
   63.3750    36.1770     2.3740    42.4180     2.7970     0.4750     2.4750    23.6820 
   63.5000    27.7160     2.2680    44.8730     4.8070     0.8800     4.0340    23.5220 
   63.6250    19.2260     2.1940    47.7250     7.2960     1.5190     5.7040    23.4370 
   63.7500    11.1970     2.1740    51.4420     9.9340     2.3720     6.8660    23.4270 
   63.8750     4.0960     2.1940    57.6710    11.9120     3.3130     7.2560    23.5060 
   64.0000    -1.7720     2.2250    67.2300    12.5620     4.1360     7.1360    23.6810 
   64.1250    -6.1440     2.2480    78.5110    11.9700     4.7120     6.8400    23.8910 
   64.2500    -8.7840     2.2570    88.0840    11.0250     5.0450     6.5800    24.0230 
   64.3750    -9.9110     2.2530    94.0930    10.4810     5.2640     6.4860    24.0630 
   64.5000   -10.3450     2.2470    97.1470    10.4440     5.5020     6.4810    24.0950 
   64.6250   -10.6800     2.2380    96.8940    10.8250     5.8150     6.6010    24.2000 
   64.7500   -11.3190     2.2170    92.1200    11.5440     6.2320     7.0370    24.3580 
   64.8750   -12.4360     2.1840    83.8120    12.4940     6.7450     7.9450    24.4990 
   65.0000   -13.8910     2.1560    75.5820    13.4930     7.2960     8.9990    24.7490 
   65.1250   -15.4310     2.1510    70.0370    14.3500     7.8110     9.7010    25.2930 
   65.2500   -16.8180     2.1690    67.3880    14.8280     8.1820     9.9230    25.9490 
   65.3750   -17.9510     2.1960    66.4590    14.7570     8.3100     9.9080    26.2170 
   65.5000   -18.7950     2.2230    66.6840    14.1650     8.1610     9.7740    26.0350 
   65.6250   -19.2190     2.2500    68.7910    13.1640     7.7530     9.3690    25.7130 
   65.7500   -19.1110     2.2760    72.8530    11.9520     7.1610     8.5510    25.4980 
   65.8750   -18.5810     2.2950    77.7780    10.7720     6.5180     7.4560    25.4390 
   66.0000   -17.9580     2.3000    82.0100     9.8570     5.9740     6.5060    25.4850 
   66.1250   -17.4580     2.2880    84.4720     9.3730     5.6380     6.0630    25.5880 
   66.2500   -17.2300     2.2710    84.2680     9.4640     5.6100     6.1950    25.7030 
   66.3750   -17.3430     2.2640    81.4930    10.1820     5.9420     6.9250    25.8500 
   66.5000   -17.7920     2.2710    77.3570    11.4240     6.6010     8.1560    26.0100 
   66.6250   -18.6080     2.2800    72.2490    13.0620     7.5500     9.7830    26.1650 
   66.7500   -19.7190     2.2830    66.8280    14.8340     8.7060    11.5340    26.3770 
   66.8750   -20.9530     2.2990    62.6200    16.3310     9.9040    12.6510    26.7300 
   67.0000   -22.1530     2.3480    60.5480    17.1460    10.9090    12.4080    27.1010 
   67.1250   -23.2740     2.4150    60.1050    17.0230    11.5070    11.2730    27.2230 
   67.2500   -24.3340     2.4350    59.9940    15.8980    11.5200    10.4210    27.0840 
   67.3750   -25.3340     2.3670    59.7760    14.0320    10.9550    10.0920    26.9960 
   67.5000   -26.2420     2.2620    59.8600    11.9790    10.0540    10.0020    27.0960 
   67.6250   -26.9970     2.1850    60.6890    10.1690     9.0520    10.0300    27.2080 
   67.7500   -27.6410     2.1540    62.0330     8.8720     8.1650    10.0770    27.3240 
   67.8750   -28.2830     2.1530    62.7350     8.1210     7.5360    10.1260    27.4580 
   68.0000   -28.9410     2.1620    61.8270     7.8000     7.2200    10.2420    27.5410 
   68.1250   -29.5380     2.1750    59.3090     7.8790     7.2640    10.4690    27.5290 
   68.2500   -29.9810     2.1950    56.1500     8.4060     7.7120    11.1860    27.3810 
   68.3750   -30.2520     2.2280    54.0970     9.3840     8.5190    13.1040    27.0640 
   68.5000   -30.4270     2.2790    54.3950    10.6240     9.4820    16.2080    26.5720 
   68.6250   -30.5970     2.3320    56.7670    11.8160    10.3460    19.6990    25.9080 
   68.7500   -30.8050     2.3400    59.2870    12.4940    10.7840    22.1180    25.3220 
   68.8750   -30.9990     2.2810    60.2290    12.3290    10.5850    20.4830    25.1730 
   69.0000   -31.1470     2.2000    59.9340    11.4770     9.8780    15.2250    25.4310 
   69.1250   -31.2920     2.1410    58.9060    10.3460     8.9460    11.4040    25.8350 
