~V
VERS. 2.00: Ver 2.00
~W
STRT.M 50.0000:
STOP.M 270.0000:
STEP.M 0.1250:
NULL. -999.2500:
UWI. F10223:
~C
DEPT.M :
GR.API :
RML.OHMM :
RI. :
RXO.OHMM :
CALI.CM :
DEN.GM/CC :
SP.MV :
~A
# ...
  218.7500    64.7120    59.5910    60.6160    66.9780    24.6630     2.2410   -26.1600 
  218.8750    59.9640    64.4280    65.1170    73.3510    24.6670     2.2450   -26.3010 
  219.0000    56.7370    70.8740    71.1410    81.0480    24.8240     2.2510   -26.4360 
  219.1250    57.4210    79.3350    79.1200    90.5970    25.0850     2.2540   -26.5500 
  219.2500    56.2090    89.2230    88.5410    91.2250    25.3590     2.2500   -26.6450 
  219.3750    53.2310    99.6810    98.5870    77.6860    25.4610     2.2350   -26.7410 
  219.5000    50.1570   109.4070   107.9710    56.2000    25.2760     2.2060   -26.8300 
  219.6250    48.9050   116.6070   114.9210    57.2310    24.8340     2.1960   -26.9350 
  219.7500    46.8560   120.9150   119.0590    83.8880    24.4110     2.2290   -27.0370 
  219.8750    46.1110   122.4520   120.4930   112.5610    24.2590     2.2890   -27.1010 
  220.0000    50.1290   121.7010   119.6860   131.3820    24.4530     2.3250   -27.1330 
  220.1250    54.3830   119.0330   117.0180   139.5350    24.6650     2.2980   -27.1600 
  220.2500    56.2970   115.4110   113.4570   144.5160    24.6700     2.2600   -27.1930 
  220.3750    56.5040   111.3750   109.5550   136.9080    24.5910     2.2430   -27.2480 
  220.5000    57.3840   107.1700   105.5580   122.1720    24.5560     2.2440   -27.3070 
  220.6250    57.0370   102.5940   101.2450   114.9440    24.6060     2.2510   -27.3260 
  220.7500    53.6360    97.4320    96.3670   119.3440    24.6410     2.2570   -27.3030 
  220.8750    51.5650    91.6700    90.8920   117.1510    24.5840     2.2610   -27.2520 
  221.0000    53.1330    85.6490    85.1180    97.2420    24.4970     2.2660   -27.1700 
  221.1250    56.2050    80.2760    79.8460    74.4250    24.4430     2.2730   -27.0290 
  221.2500    56.6100    76.3720    75.8540    65.9820    24.4320     2.2760   -26.8460 
  221.3750    55.2160    74.4630    73.6650    67.2280    24.4490     2.2680   -26.6210 
  221.5000    55.5210    74.6770    73.4740    72.3810    24.4450     2.2540   -26.3620 
  221.6250    57.3220    76.9520    75.3630    77.7750    24.4360     2.2450   -26.1020 
  221.7500    58.9030    80.2840    78.4550    82.8700    24.4320     2.2410   -25.8540 
  221.8750    60.4240    84.0200    82.1340    88.6100    24.4250     2.2400   -25.5930 
  222.0000    60.6410    87.7210    85.9260    94.6000    24.4300     2.2400   -25.3160 
  222.1250    59.1060    91.2440    89.5920    96.2000    24.4370     2.2420   -25.0700 
  222.2500    57.2380    94.7870    93.2040    96.6310    24.4500     2.2460   -24.8690 
  222.3750    56.4420    98.5760    96.9360    98.0950    24.4530     2.2490   -24.6820 
  222.5000    57.0090   102.5700   100.8180    99.9580    24.4790     2.2500   -24.5080 
  222.6250    56.1720   105.6090   103.9710   101.1390    24.4790     2.2490   -24.3510 
  222.7500    54.1210   105.6790   104.6380   105.0730    24.4340     2.2510   -24.1920 
  222.8750    53.4130   100.9930   101.0510   117.1990    24.3490     2.2580   -24.0370 
  223.0000    55.6020    91.4590    92.7040   130.1130    24.3480     2.2700   -23.9070 
  223.1250    57.7140    79.2280    81.0350   105.1870    24.4840     2.2840   -23.7770 
  223.2500    57.9620    68.0040    69.7090    71.7190    24.5560     2.2970   -23.6130 
  223.3750    60.3340    59.7370    60.9240    53.7910    24.5970     2.3060   -23.4210 
  223.5000    64.6300    55.2350    55.7070    49.9340    24.6370     2.3130   -23.2270 
  223.6250    64.0120    55.2700    54.9170    52.9300    24.5540     2.3170   -22.9990 
  223.7500    58.7700    59.1690    57.9940    55.5690    24.4810     2.3160   -22.7650 
  223.8750    53.7080    67.0800    65.2700    60.0490    24.4340     2.3090   -22.5440 
  224.0000    52.1190    79.4450    77.3940    72.3300    24.4480     2.3000   -22.3450 
  224.1250    54.4420    98.0560    96.3460   101.2690    24.4810     2.2920   -22.1740 
  224.2500    57.3410   122.6150   121.6740   124.1500    24.5240     2.2920   -22.0020 
  224.3750    57.7550   150.4230   150.7760   149.9190    24.5740     2.3160   -21.8260 
  224.5000    55.4910   169.1460   172.7840   206.6090    24.4850     2.3780   -21.6160 
  224.6250    56.2160   150.2580   159.7880   327.3300    24.3430     2.4760   -21.3880 
  224.7500    59.0510   104.0580   114.9300   406.4640    24.2270     2.5780   -21.1390 
  224.8750    59.5550    59.5710    66.7800   280.5990    24.1100     2.6550   -20.8850 
  225.0000    56.8000    30.6950    34.4600    94.4620    23.9470     2.6840   -20.6250 
  225.1250    56.1960    21.0820    19.1660    31.2960    23.7770     2.6590   -20.3700 
  225.2500    59.3820    12.9640    11.7850    12.2290    23.7070     2.6020   -20.1600 
  225.3750    60.8340     9.2360     8.3960     7.2990    23.8540     2.5320   -19.9870 
  225.5000    56.0610     7.6760     6.9780     6.5530    24.1910     2.4720   -19.8410 
  225.6250    47.6410     7.4170     6.7430     7.1850    24.4770     2.4390   -19.7320 
  225.7500    43.6100     7.7410     7.0370     7.6230    24.5190     2.4280   -19.6780 
  225.8750    45.8380     8.2440     7.4940     7.7690    24.5060     2.4310   -19.6650 
  226.0000    50.2560     8.5670     7.7880     7.5740    24.4850     2.4370   -19.6920 
  226.1250    51.9480     8.4630     7.6940     7.3770    24.5200     2.4420   -19.7690 
  226.2500    51.4050     8.0990     7.3630     7.0890    24.5760     2.4490   -19.8620 
  226.3750    52.2760     7.6990     6.9990     6.3210    24.6090     2.4650   -19.9540 
  226.5000    56.3310     7.4610     6.7830     5.8350    24.4490     2.4950   -20.0740 
  226.6250    62.7520     7.5450     6.8590     6.3900    24.3340     2.5380   -20.2290 
  226.7500    69.9210     7.9090     7.1900     8.2900    24.2270     2.5720   -20.4110 
  226.8750    76.0890     8.4700     7.7000    11.2490    24.2130     2.5730   -20.5850 
  227.0000    77.5650     9.0760     8.2510    11.5340    24.2550     2.5420   -20.7490 
  227.1250    74.8020     9.5170     8.6520    10.6350    24.2690     2.5130   -20.9310 
  227.2500    77.4090     9.7160     8.8330     9.6350    24.3370     2.4970   -21.1500 
  227.3750    87.0450     9.6900     8.8090     9.0120    24.4110     2.4800   -21.4240 
  227.5000    95.1860     9.5070     8.6430     8.6040    24.4590     2.4530   -21.7050 
  227.6250    95.2740     9.2310     8.3910     8.6170    24.4470     2.4280   -21.9590 
  227.7500    94.0220     8.9390     8.1260     8.6710    24.3830     2.4050   -22.1640 
  227.8750    95.6150     8.7180     7.9250     8.5410    24.3360     2.3890   -22.3510 
  228.0000    97.2140     8.7030     7.9120     8.5340    24.3810     2.3810   -22.5320 
  228.1250    95.7280     8.9850     8.1680     8.7720    24.4500     2.3770   -22.7040 
  228.2500    92.8730     9.4630     8.6030     9.9130    24.4420     2.3760   -22.8660 
  228.3750    91.1110    10.3230     9.3840    12.9860    24.3530     2.3860   -23.0150 
  228.5000    90.8400    12.0050    10.9140    19.5710    24.3000     2.4120   -23.1830 
  228.6250    86.8800    16.5600    13.9310    24.8330    24.3800     2.4350   -23.3600 
  228.7500    78.5520    24.7940    18.3620    29.0160    24.4570     2.4340   -23.5350 
  228.8750    70.0590    29.3390    23.6250    34.2630    24.5170     2.4110   -23.7100 
  229.0000    65.3630    33.5170    28.7350    40.5330    24.5680     2.3890   -23.8570 
  229.1250    63.7620    37.2710    32.8320    45.5790    24.3940     2.3830   -23.9510 
  229.2500    64.3690    40.9050    36.2550    44.3520    24.0960     2.3840   -24.0000 
  229.3750    66.5320    44.6200    39.5180    41.7260    23.5280     2.3790   -24.0250 
  229.5000    66.7630    48.4800    42.8180    42.8900    22.8050     2.3670   -24.0200 
  229.6250    64.1630    52.2870    46.1120    45.3680    22.3520     2.3570   -23.9790 
  229.7500    63.0400    55.5030    49.0730    45.1380    22.2390     2.3540   -23.9450 
  229.8750    64.4630    57.3880    51.1160    44.6670    22.4220     2.3510   -23.9150 
