~V
VERS. 2.00: Ver 2.00
~W
STRT.M 50.0000:
STOP.M 275.0000:
STEP.M 0.1250:
NULL. -999.2500:
UWI. F10202:
~C
DEPT.M :
GR.API :
RML.OHMM :
RI. :
RXO.OHMM :
CALI.CM :
SP.MV :
DEN.GM/CC :
~A
# ...
   72.5000    70.9920     7.6540     6.5890     9.2120    28.6610   -22.5100     2.1800 
   72.6250    74.2250     7.7670     6.7080     8.9290    28.5960   -22.3560     2.1820 
   72.7500    77.7220     7.9610     6.9140     9.2110    28.4850   -22.3200     2.1850 
   72.8750    77.6090     8.1740     7.1370     9.6070    28.4280   -22.4270     2.1910 
   73.0000    73.6230     8.3240     7.2920     9.9950    28.4230   -22.5590     2.1960 
   73.1250    71.4750     8.3200     7.2880    10.1630    28.4520   -22.5310     2.1960 
   73.2500    71.3840     8.1850     7.1530     9.9560    28.5210   -22.3360     2.1880 
   73.3750    70.5200     7.9810     6.9530     9.3870    28.5800   -22.0530     2.1770 
   73.5000    69.3820     7.7990     6.7690     8.9330    28.5140   -21.8200     2.1650 
   73.6250    72.2580     7.7260     6.6750     8.9990    28.2380   -21.6670     2.1580 
   73.7500    75.8980     7.7530     6.6700     9.6270    28.0130   -21.5030     2.1540 
   73.8750    74.6650     7.8270     6.7150    10.1520    27.9230   -21.2650     2.1510 
   74.0000    70.5180     7.8750     6.7520    10.1020    27.9120   -21.0080     2.1470 
   74.1250    71.1260     7.8240     6.7090     9.8580    27.8510   -20.7030     2.1440 
   74.2500    75.2450     7.6870     6.5830     9.7110    27.6180   -20.3090     2.1420 
   74.3750    77.8760     7.5100     6.4080     9.6930    27.2490   -19.8420     2.1390 
   74.5000    77.3160     7.3510     6.2420     9.4730    26.9700   -19.3970     2.1360 
   74.6250    76.2140     7.2740     6.1550     9.0900    26.8380   -19.0550     2.1320 
   74.7500    74.3090     7.2820     6.1600     8.8990    26.8060   -18.7010     2.1310 
   74.8750    71.7030     7.3550     6.2410     9.0510    26.7980   -18.3060     2.1330 
   75.0000    71.1140     7.4450     6.3480     9.2890    26.7740   -17.7250     2.1400 
   75.1250    74.2420     7.4780     6.3940     9.2600    26.6830   -16.9070     2.1510 
   75.2500    76.5390     7.4190     6.3360     9.1550    26.5270   -16.0160     2.1650 
   75.3750    75.3820     7.2790     6.1850     9.0700    26.3770   -15.1610     2.1810 
   75.5000    73.9130     7.1140     6.0020     8.6710    26.2590   -14.4840     2.1960 
   75.6250    76.6720     7.0250     5.8980     7.8860    26.1350   -13.9310     2.2060 
   75.7500    79.1150     7.0650     5.9340     7.6820    26.0300   -13.4830     2.2090 
   75.8750    78.2020     7.2370     6.1130     8.9390    25.9690   -13.1210     2.2050 
   76.0000    75.0550     7.4850     6.3780     9.9840    25.9500   -12.9940     2.1950 
   76.1250    74.2450     7.6960     6.6080     9.9920    25.9500   -13.1060     2.1860 
   76.2500    75.1960     7.7720     6.6940     9.7780    25.9500   -13.2110     2.1830 
   76.3750    76.2170     7.6710     6.5920     9.2920    25.9320   -13.1010     2.1880 
   76.5000    79.3420     7.4080     6.3200     8.3400    25.8790   -12.5610     2.2010 
   76.6250    85.3240     7.0580     5.9570     7.3340    25.7750   -11.6990     2.2150 
   76.7500    91.1060     6.7500     5.6270     6.6280    25.7040   -10.7240     2.2230 
   76.8750    93.9870     6.5850     5.4130     6.1170    25.5660    -9.8680     2.2230 
   77.0000    93.7440     6.6400     5.3790     6.1120    25.2680    -9.1370     2.2180 
   77.1250    90.8680     6.9780     5.5950     6.5940    24.8640    -8.6230     2.2190 
   77.2500    85.7520     7.4900     6.0080     7.5620    24.5870    -8.2580     2.2340 
   77.3750    82.4960     8.0430     6.5350     8.6880    24.5410    -7.9710     2.2650 
   77.5000    82.6640     8.4650     7.0340     9.5810    24.7240    -7.7150     2.3080 
   77.6250    84.9110     8.5400     7.2800     9.3620    25.1000    -7.3840     2.3470 
   77.7500    87.6180     8.2570     7.1830     9.1820    25.4230    -7.1780     2.3710 
   77.8750    91.6450     7.6880     6.7610     8.9530    25.5960    -6.9310     2.3760 
   78.0000    97.1620     6.9850     6.1360     7.0730    25.6540    -6.5490     2.3670 
   78.1250   101.1240     6.3320     5.4860     5.6340    25.6800    -5.9270     2.3540 
   78.2500   105.2210     5.8360     4.9440     4.9950    25.6870    -5.2180     2.3450 
   78.3750   108.9630     5.5370     4.5600     4.9760    25.7050    -4.5430     2.3360 
   78.5000   110.7420     5.4550     4.3530     5.0000    25.7570    -4.0830     2.3270 
   78.6250   111.6080     5.6660     4.3870     5.0100    25.8680    -4.0160     2.3230 
   78.7500   113.2780     6.1660     4.6720     5.0720    25.9620    -4.1530     2.3390 
   78.8750   112.4790     6.9520     5.2430     5.4250    26.0540    -4.4740     2.3830 
   79.0000   103.7170     7.9360     6.0900     7.2030    26.1520    -5.0840     2.4440 
   79.1250    88.2530     8.8990     7.0980    11.3900    26.1600    -6.1340     2.4860 
   79.2500    76.1640     9.5780     7.9810    13.9120    26.0830    -7.5500     2.4790 
   79.3750    70.2430     9.8230     8.5050    11.0930    26.0270    -9.1990     2.4210 
   79.5000    68.9810     9.6430     8.5800     9.2020    26.0630   -10.8640     2.3300 
   79.6250    68.5950     9.1870     8.2790     8.9410    26.1180   -12.2760     2.2430 
   79.7500    69.2420     8.7250     7.8900     9.2050    26.0830   -13.3850     2.1810 
   79.8750    70.5080     8.3820     7.5580     9.6970    25.9960   -14.2470     2.1450 
   80.0000    70.2060     8.1940     7.3240    10.1410    25.8940   -14.8990     2.1280 
   80.1250    69.3810     8.1880     7.1900    10.4220    25.6240   -15.3110     2.1220 
   80.2500    68.5120     8.3730     7.1700    10.4350    25.0670   -15.5790     2.1260 
   80.3750    68.0800     8.8040     7.3450     9.9380    25.0670   -15.7790     2.1470 
   80.5000    68.2710     9.5010     7.7930     9.3020    25.0670   -15.9240     2.1970 
   80.6250    68.1480    10.3820     8.5370    10.3210    25.0670   -16.0570     2.2830 
   80.7500    67.9300    11.1740     9.3390    13.2230    25.0670   -16.3480     2.3790 
   80.8750    67.2940    11.6220     9.9200    13.5450    25.0670   -16.8550     2.4500 
   81.0000    67.3980    11.5700    10.0420    15.6930    25.0670   -17.5050     2.4670 
   81.1250    68.8730    11.0110     9.6060    13.0900    25.0670   -18.2480     2.4150 
   81.2500    70.3190    10.2900     8.9280    12.3320    25.0000   -19.0090     2.3350 
   81.3750    69.9850     9.6860     8.2780    11.9690    24.9330   -19.8390     2.2620 
   81.5000    67.8850     9.3730     7.8440    12.2580    24.9330   -20.8430     2.2180 
   81.6250    65.7410     9.4130     7.7210    12.8580    25.1090   -22.0150     2.2070 
   81.7500    63.8110     9.6260     7.7970    13.2950    25.6530   -23.0990     2.2080 
   81.8750    60.8590     9.8730     7.9720    13.2940    25.6780   -23.9810     2.2100 
   82.0000    58.4700    10.0500     8.1590    13.2360    25.6860   -24.7310     2.2090 
   82.1250    60.5070    10.1010     8.2960    13.3240    25.6860   -25.4530     2.2060 
   82.2500    63.7860    10.0670     8.3760    13.5860    25.6860   -26.2300     2.2050 
   82.3750    64.0950     9.9910     8.4030    13.8390    25.6860   -26.9420     2.2070 
   82.5000    60.4550     9.9070     8.3860    13.8220    25.6860   -27.4960     2.2120 
   82.6250    57.0430     9.8370     8.3330    13.8820    25.6860   -27.9460     2.2190 
   82.7500    56.7200     9.7780     8.2620    13.9370    25.6870   -28.4880     2.2230 
   82.8750    59.1320     9.7260     8.1830    14.0050    25.6950   -29.0940     2.2230 
   83.0000    62.9000     9.6810     8.1040    14.1810    25.7170   -29.4490     2.2180 
   83.1250    65.7120     9.6660     8.0430    14.2930    25.7720   -29.4360     2.2090 
   83.2500    64.5980     9.7090     8.0200    14.5790    25.8530   -29.1440     2.2000 
   83.3750    59.3190     9.8290     8.0570    14.5520    25.9600   -28.6470     2.1920 
   83.5000    53.9680    10.0230     8.1650    14.2200    26.0810   -28.0580     2.1870 
   83.6250    53.6270    10.2610     8.3450    13.9080    26.2320   -27.3360     2.1860 
