~V
VERS. 2.00: Ver 2.00
~W
STRT.M 53.0000:
STOP.M 269.0000:
STEP.M 0.1250:
NULL. -999.2500:
UWI. F10224:
~C
DEPT.M :
DEN.GM/CC :
GR.API :
RML.OHMM :
RI. :
RXO.OHMM :
CALI.CM :
SP.MV :
~A
# ...
  109.1250     2.2020    56.7020     9.9660     7.8400     8.2610    21.6630   -19.7200 
  109.2500     2.2030    59.6310     9.8970     7.8170     8.2830    21.6340   -19.4490 
  109.3750     2.2050    63.8530     9.8050     7.7690     8.4290    21.6270   -19.1450 
  109.5000     2.2090    64.3120     9.7090     7.7120     8.5110    21.6130   -18.8350 
  109.6250     2.2230    61.5780     9.6800     7.6850     8.5130    21.5480   -18.4940 
  109.7500     2.2470    61.1010     9.7590     7.7270     8.4760    21.4760   -18.1120 
  109.8750     2.2800    63.3760     9.9130     7.8340     8.3910    21.4800   -17.7020 
  110.0000     2.3240    65.3860    10.0130     7.9330     8.3220    21.6090   -17.2500 
  110.1250     2.3820    66.4870     9.8120     7.8630     8.5680    21.8320   -16.7810 
  110.2500     2.4370    68.6290     9.2250     7.5330     9.5070    22.0800   -16.3210 
  110.3750     2.4590    73.2310     8.3180     6.9480    10.2320    22.4060   -15.8670 
  110.5000     2.4340    80.8200     7.3230     6.2330     9.1480    22.7780   -15.4270 
  110.6250     2.3920    89.4290     6.5440     5.5970     6.9130    23.0080   -15.0470 
  110.7500     2.3630    95.3050     6.0650     5.1520     5.5630    22.9930   -14.7170 
  110.8750     2.3400    97.0560     5.8540     4.9160     5.2680    22.7290   -14.4490 
  111.0000     2.3220    96.4210     5.8240     4.8510     5.5660    22.4390   -14.2730 
  111.1250     2.3210    95.1650     5.8920     4.9060     5.9890    22.4340   -14.1830 
  111.2500     2.3290    96.7540     5.9850     5.0060     6.1140    22.8200   -14.1710 
  111.3750     2.3420   103.6350     6.0850     5.1250     5.8250    23.4650   -14.2350 
  111.5000     2.3540   111.3880     6.1680     5.2490     5.4250    23.9250   -14.3540 
  111.6250     2.3640   110.2260     6.1680     5.3420     5.7660    24.0120   -14.5070 
  111.7500     2.3770   103.8600     6.0420     5.3540     6.9750    23.9280   -14.6780 
  111.8750     2.3930   101.6490     5.7840     5.2470     7.8660    23.8400   -14.8430 
  112.0000     2.4000   107.5180     5.4510     5.0350     7.0750    23.8420   -14.9930 
  112.1250     2.3870   113.9240     5.1620     4.7880     5.4590    23.8750   -15.1580 
  112.2500     2.3730   115.1150     5.0020     4.6090     4.7750    23.8530   -15.3500 
  112.3750     2.3700   113.7700     5.0040     4.5520     4.9090    23.8430   -15.5690 
  112.5000     2.3750   113.7110     5.1620     4.6310     5.1320    23.8970   -15.8160 
  112.6250     2.3770   113.7340     5.4230     4.8120     5.2480    23.8760   -16.0840 
  112.7500     2.3730   112.1070     5.6620     4.9930     5.3110    23.7790   -16.3740 
  112.8750     2.3660   108.9320     5.7800     5.0930     5.3700    23.6890   -16.6580 
  113.0000     2.3560   107.0360     5.7090     5.0560     5.4590    23.6240   -16.9230 
  113.1250     2.3450   106.7820     5.4160     4.8450     5.5760    23.5170   -17.1580 
  113.2500     2.3350   107.3050     5.0210     4.5330     5.5360    23.4210   -17.3800 
  113.3750     2.3320   110.1110     4.6630     4.2110     5.2370    23.5910   -17.6220 
  113.5000     2.3390   113.2280     4.5090     3.9950     4.8250    23.8180   -17.9010 
  113.6250     2.3540   111.8690     4.8450     4.0670     4.6900    23.9190   -18.2600 
  113.7500     2.3710   107.0030     5.8210     4.5340     5.0950    23.8360   -18.6420 
  113.8750     2.3890   100.5510     7.5890     5.5190     6.2630    23.6850   -19.0580 
  114.0000     2.4150    93.9580    10.1510     7.1010     8.5940    23.5960   -19.4930 
  114.1250     2.4550    87.2130    13.0680     9.1850    13.2660    23.6080   -19.9160 
  114.2500     2.4960    82.4080    15.1380    11.0140    19.7320    23.6140   -20.3350 
  114.3750     2.5140    77.0940    15.3390    11.7520    23.7440    23.4500   -20.7530 
  114.5000     2.4820    69.5060    13.7040    11.1450    20.2090    23.1160   -21.1860 
  114.6250     2.3930    65.8560    11.4290     9.7770    13.7920    22.7400   -21.5930 
  114.7500     2.3000    67.4670     9.7150     8.5290    10.3060    22.4480   -21.9680 
  114.8750     2.2380    69.0650     8.8180     7.6810     9.3340    22.3040   -22.2950 
  115.0000     2.2100    69.3640     8.6160     7.2590     9.4080    22.2860   -22.5760 
  115.1250     2.2010    73.6710     8.8850     7.2100     9.5300    22.3010   -22.6260 
  115.2500     2.1910    79.9460     9.2810     7.3340     9.6040    22.2940   -22.8640 
  115.3750     2.1810    81.9790     9.6240     7.5070     9.6970    22.2310   -23.0540 
  115.5000     2.1750    78.3200     9.8210     7.6400     9.6710    22.1000   -23.1790 
  115.6250     2.1770    73.1900     9.8410     7.6780     9.3740    21.9440   -23.2700 
  115.7500     2.1840    70.4450     9.7580     7.6380     8.9740    21.8620   -23.3660 
  115.8750     2.1940    69.8390     9.6380     7.5540     8.6560    21.8270   -23.4900 
  116.0000     2.2010    69.8270     9.5310     7.4700     8.5020    21.7800   -23.6270 
  116.1250     2.2000    70.2680     9.4640     7.4220     8.5010    21.7290   -23.7380 
  116.2500     2.1930    70.8600     9.4410     7.4170     8.5770    21.7190   -23.8370 
  116.3750     2.1870    71.4740     9.4870     7.4570     8.7340    21.6810   -23.9210 
  116.5000     2.1840    72.7960     9.6310     7.5480     8.9880    21.6760   -23.9920 
  116.6250     2.1910    74.3200     9.8790     7.6980     9.3060    21.6630   -24.0070 
  116.7500     2.2060    74.5230    10.1580     7.8800     9.5840    21.6490   -23.9960 
  116.8750     2.2310    70.9550    10.4010     8.0610     9.6830    21.6480   -23.9770 
  117.0000     2.2660    66.6300    10.5420     8.1920     9.4760    21.5960   -23.9540 
  117.1250     2.2980    65.2550    10.5040     8.2060     9.0140    21.4610   -23.9650 
  117.2500     2.3030    65.8680    10.3220     8.1120     8.5710    21.3150   -23.9670 
  117.3750     2.2720    66.7270    10.0610     7.9500     8.2690    21.1800   -23.9550 
  117.5000     2.2280    66.0230     9.8100     7.7740     8.1680    21.0380   -23.9160 
  117.6250     2.2040    65.6300     9.6530     7.6420     8.3250    21.1430   -23.8330 
  117.7500     2.1930    66.3790     9.5870     7.5670     8.5660    21.2900   -23.7230 
  117.8750     2.1850    68.0010     9.5640     7.5380     8.6830    21.2210   -23.5720 
  118.0000     2.1770    69.1880     9.5250     7.5300     8.6780    21.2040   -23.4110 
  118.1250     2.1710    67.0750     9.4520     7.5280     8.7470    21.4250   -23.2370 
  118.2500     2.1660    62.7510     9.3860     7.5340     8.9010    21.5700   -23.0350 
  118.3750     2.1630    60.2370     9.3640     7.5610     9.0200    21.6150   -22.7860 
  118.5000     2.1630    62.3910     9.4020     7.6200     9.0240    21.6260   -22.5040 
  118.6250     2.1670    67.4870     9.4740     7.7130     8.9210    21.5430   -22.1650 
  118.7500     2.1780    70.9180     9.4800     7.7910     8.8110    21.5230   -21.7940 
  118.8750     2.1970    71.0770     9.3110     7.7780     8.7470    21.5420   -21.4090 
  119.0000     2.2260    68.9720     8.9040     7.6090     8.7440    21.6360   -21.0100 
  119.1250     2.2670    68.3280     8.2860     7.2570     8.6950    21.7860   -20.5890 
  119.2500     2.3200    72.0520     7.6490     6.8360     8.2450    21.8900   -20.1950 
  119.3750     2.3820    78.6610     7.1460     6.4520     7.3940    21.9260   -19.8280 
  119.5000     2.4420    82.7130     6.8830     6.1980     6.6910    21.9060   -19.4890 
  119.6250     2.4700    79.3520     6.9130     6.1470     6.7570    21.8880   -19.2140 
  119.7500     2.4400    75.3720     7.0950     6.2340     7.1630    21.8830   -18.9350 
  119.8750     2.3680    77.4060     7.2810     6.3710     7.2610    21.8950   -18.6420 
  120.0000     2.3110    83.2590     7.3190     6.4400     7.0040    21.9210   -18.3530 
  120.1250     2.3000    83.9790     7.0890     6.3170     6.9150    22.0050   -18.1190 
  120.2500     2.3010    80.3670     6.6930     6.0410     6.9370    22.1240   -17.9310 
