~V
VERS. 2.00: Ver 2.00
~W
STRT.M 49.0000:
STOP.M 279.0000:
STEP.M 0.1250:
NULL. -999.2500:
UWI. F10243:
~C
DEPT.M :
GR.API :
RML.OHMM :
RI. :
RXO.OHMM :
CALI.CM :
DEN.GM/CC :
SP.MV :
~A
# ...
   60.2500    75.6100     8.3230     7.6270     8.8300    24.1670     2.2280   -32.2830 
   60.3750    75.9460     8.3120     7.6110     8.9270    24.1340     2.2340   -32.1690 
   60.5000    72.5410     8.2690     7.5640     9.0830    24.0870     2.2410   -32.0300 
   60.6250    69.1000     8.2120     7.5070     9.1750    24.0230     2.2510   -31.8010 
   60.7500    69.9330     8.1500     7.4460     9.0480    23.9960     2.2670   -31.4680 
   60.8750    74.1550     8.0910     7.3870     8.5880    24.0610     2.2880   -31.1060 
   61.0000    77.0110     8.0340     7.3340     7.9460    24.2240     2.3070   -30.8230 
   61.1250    76.4480     7.9770     7.2820     7.6270    24.2560     2.3120   -30.6350 
   61.2500    74.7830     7.9140     7.2220     7.6610    24.1810     2.2970   -30.5360 
   61.3750    73.6760     7.8430     7.1500     7.7440    24.0680     2.2630   -30.4900 
   61.5000    70.6720     7.7730     7.0770     7.8420    23.9950     2.2230   -30.4820 
   61.6250    66.4350     7.7120     7.0190     8.0480    23.9330     2.1920   -30.5370 
   61.7500    64.9650     7.6570     6.9740     8.3540    23.8960     2.1750   -30.6860 
   61.8750    68.9670     7.5990     6.9200     8.5170    23.8840     2.1700   -30.8860 
   62.0000    75.2610     7.5490     6.8540     8.4450    23.8860     2.1640   -31.0980 
   62.1250    79.2450     7.5600     6.8380     8.2660    23.8790     2.1550   -31.2850 
   62.2500    79.2470     7.6960     6.9540     8.1240    23.8390     2.1550   -31.3690 
   62.3750    74.8140     7.9940     7.2490     8.0570    23.7750     2.1780   -31.3510 
   62.5000    70.2810     8.4290     7.7110     8.1520    23.8530     2.2280   -31.3060 
   62.6250    69.2470     8.8420     8.1710     9.5380    24.0560     2.2810   -31.3200 
   62.7500    71.5320     9.0820     8.4440    11.8380    24.2230     2.3110   -31.3390 
   62.8750    73.5880     9.0510     8.4010    10.7620    24.2830     2.3030   -31.2880 
   63.0000    73.8430     8.7410     8.0460     8.8910    24.2830     2.2610   -31.2040 
   63.1250    73.9750     8.3340     7.6050     8.0170    24.2780     2.2140   -31.1440 
   63.2500    73.9600     7.9670     7.2250     7.8620    24.2630     2.1800   -31.1220 
   63.3750    74.2080     7.7210     6.9890     7.8940    24.2340     2.1620   -31.0680 
   63.5000    74.3340     7.6210     6.9150     7.8610    24.2170     2.1570   -30.9600 
   63.6250    74.4720     7.5910     6.9080     7.6930    24.1990     2.1580   -30.8010 
   63.7500    75.1280     7.5710     6.8980     7.6190    24.1720     2.1630   -30.5720 
   63.8750    76.4990     7.5280     6.8540     7.7170    24.1530     2.1700   -30.3080 
   64.0000    77.9040     7.4580     6.7790     7.9260    24.1550     2.1740   -30.0520 
   64.1250    77.0440     7.3860     6.7020     8.0770    24.1760     2.1740   -29.8050 
   64.2500    73.8640     7.3330     6.6450     8.0260    24.2010     2.1680   -29.5580 
   64.3750    71.4060     7.3220     6.6290     7.9790    24.2130     2.1590   -29.3210 
   64.5000    73.9420     7.3710     6.6780     7.9650    24.2120     2.1500   -29.0030 
   64.6250    76.3240     7.4630     6.7760     8.0000    24.2060     2.1450   -28.5980 
   64.7500    72.9800     7.5640     6.8920     8.1560    24.2010     2.1460   -28.1920 
   64.8750    66.7500     7.6210     6.9690     8.2440    24.2060     2.1530   -27.7680 
   65.0000    66.9000     7.5560     6.9160     8.3320    24.2630     2.1680   -27.2410 
   65.1250    72.4870     7.3580     6.7150     8.1950    24.4210     2.1940   -26.6240 
   65.2500    80.3630     7.0500     6.3970     7.7770    24.7050     2.2280   -25.9500 
   65.3750    89.8890     6.6860     6.0250     7.1510    25.0800     2.2640   -25.2850 
   65.5000   100.0220     6.3460     5.6790     6.4360    25.3750     2.2850   -24.6950 
   65.6250   105.8920     6.1040     5.4240     6.2400    25.4920     2.2840   -24.1470 
   65.7500   105.3020     6.0410     5.3330     6.4030    25.4190     2.2660   -23.6500 
   65.8750   101.3560     6.2480     5.5010     6.7630    25.2730     2.2500   -23.2860 
   66.0000    99.3250     6.9060     6.1140     6.8180    25.2090     2.2760   -23.1130 
   66.1250    99.7100     8.0670     7.1860     7.3860    25.1940     2.3530   -23.0690 
   66.2500    99.2300     9.6630     8.6560     9.7490    25.1930     2.4640   -23.1190 
   66.3750    95.2760    11.2480    10.2260    16.3980    25.1910     2.5680   -23.2670 
   66.5000    93.0630    11.8790    11.1360    21.9040    25.1900     2.6040   -23.5510 
   66.6250    95.2270    11.3140    10.9510    19.6870    25.1770     2.5640   -23.9110 
   66.7500    96.1280     9.9680     9.8550    12.4220    25.1510     2.4690   -24.2760 
   66.8750    93.3190     8.5700     8.4570     8.4280    25.1320     2.3590   -24.6250 
   67.0000    92.2970     7.7450     7.3760     7.3710    25.1250     2.2780   -24.9010 
   67.1250    94.4580     7.5030     6.7910     6.7190    25.1170     2.2390   -25.1060 
   67.2500    95.2520     7.7370     6.6980     6.2760    25.0920     2.2380   -25.2820 
   67.3750    91.0610     8.2970     7.0060     6.6930    25.0360     2.2580   -25.4360 
   67.5000    84.9240     8.9650     7.5660     7.6730    25.0080     2.2800   -25.5600 
   67.6250    79.2910     9.4660     8.1020     8.1850    24.9980     2.2870   -25.6680 
   67.7500    75.2420     9.6400     8.4310     8.1580    24.9980     2.2720   -25.7300 
   67.8750    74.5590     9.4860     8.4760     8.0180    24.9850     2.2410   -25.7370 
   68.0000    74.8460     9.1480     8.2810     7.8510    24.9060     2.2080   -25.7670 
   68.1250    75.3420     8.8630     8.0380     7.7870    24.7450     2.1850   -25.8470 
   68.2500    75.7570     8.7310     7.8580     7.7980    24.5760     2.1750   -25.9980 
   68.3750    75.3290     8.7560     7.7820     7.9430    24.4870     2.1760   -26.1650 
   68.5000    75.2810     8.8720     7.8020     8.0460    24.4610     2.1820   -26.2450 
   68.6250    77.4200     8.9830     7.8620     8.0450    24.4360     2.1870   -26.2620 
   68.7500    80.0840     9.0600     7.9370     8.0850    24.4050     2.1910   -26.2610 
   68.8750    79.4850     9.1180     8.0180     8.1980    24.3660     2.1910   -26.2400 
   69.0000    76.4910     9.1920     8.1000     8.2700    24.3120     2.1900   -26.2390 
   69.1250    75.5450     9.2810     8.1670     8.2670    24.2850     2.1880   -26.2620 
   69.2500    76.1940     9.3480     8.1910     8.6800    24.2560     2.1840   -26.2860 
   69.3750    77.1730     9.3320     8.1400     9.5900    24.1820     2.1780   -26.3220 
   69.5000    77.9130     9.1770     7.9750    10.1790    24.0680     2.1660   -26.3690 
   69.6250    77.7880     8.9530     7.7440     9.1210    23.9860     2.1520   -26.4160 
   69.7500    77.0750     8.7890     7.5540     8.4050    23.9560     2.1390   -26.4590 
   69.8750    77.7030     8.8590     7.5720     8.1060    23.9460     2.1400   -26.4790 
   70.0000    80.2180     9.4380     8.0500     8.1460    23.9580     2.1790   -26.4490 
   70.1250    82.6130    10.5760     9.0180     8.8980    24.0390     2.2620   -26.3660 
   70.2500    82.7040    12.1420    10.4010    11.8430    24.1920     2.3750   -26.1840 
   70.3750    79.7710    13.6340    11.8680    18.7150    24.2870     2.4830   -25.9510 
   70.5000    75.6260    14.1320    12.6480    20.5080    24.2730     2.5300   -25.7630 
   70.6250    74.1230    13.4640    12.3690    13.8480    24.2610     2.5010   -25.6150 
   70.7500    74.5380    12.0410    11.2500     9.6370    24.3190     2.4120   -25.5050 
   70.8750    73.6040    10.5350     9.8590     8.3520    24.4170     2.3020   -25.4610 
   71.0000    70.0750     9.4950     8.7350     8.0680    24.4570     2.2120   -25.4470 
   71.1250    67.6800     8.9270     8.0220     7.8770    24.4440     2.1550   -25.4140 
   71.2500    67.5420     8.7130     7.6830     7.7450    24.3950     2.1280   -25.4280 
   71.3750    69.5230     8.7030     7.6030     7.6310    24.3510     2.1170   -25.5050 
