~V
VERS. 2.00: Ver 2.00
~W
STRT.M 30.0000:
STOP.M 271.0000:
STEP.M 0.1250:
NULL. -999.2500:
UWI. F10210:
~C
DEPT.M :
DEN.GM/CC :
GR.API :
RML.OHMM :
RI. :
RXO.OHMM :
CALI.CM :
SP.MV :
~A
# ...
  165.0000     2.2200    86.5360    11.3300    11.2840    13.4980    24.1550   -11.1850 
  165.1250     2.2050    81.4100    15.2810    14.6900    20.6090    24.3330   -12.0800 
  165.2500     2.1940    77.7690    20.5760    19.3010    24.6940    24.3790   -13.0300 
  165.3750     2.1860    75.1480    27.5630    25.4350    28.6790    24.3880   -14.0020 
  165.5000     2.1780    74.0930    36.9200    33.6910    34.1840    24.3870   -15.0020 
  165.6250     2.1680    72.3990    50.4790    45.8110    42.2800    24.3740   -16.0460 
  165.7500     2.1580    67.8950    68.9160    62.4960    64.0670    24.3810   -17.0870 
  165.8750     2.1480    63.1480    92.3620    83.7130    93.5860    24.3890   -18.0910 
  166.0000     2.1390    61.8680   118.4850   107.0820   113.5010    24.3900   -19.0320 
  166.1250     2.1350    61.8170   140.2220   126.5280   115.2010    24.3900   -19.8850 
  166.2500     2.1350    60.4700   152.2720   137.8990   108.9760    24.3710   -20.6560 
  166.3750     2.1370    59.4850   154.9020   141.1170    99.4170    24.3130   -21.3400 
  166.5000     2.1370    61.3490   152.2270   139.1610    88.7460    24.2200   -21.9390 
  166.6250     2.1320    65.5950   147.7040   135.0110    87.0780    24.1430   -22.4490 
  166.7500     2.1250    69.4810   142.5980   130.3040    90.8210    24.0840   -22.8910 
  166.8750     2.1170    72.2650   137.1780   125.3960    95.0910    23.9960   -23.3020 
  167.0000     2.1130    72.0010   132.4700   121.0880    91.9540    23.9520   -23.7100 
  167.1250     2.1220    67.2770   130.8090   119.3650    81.7160    23.8660   -24.1070 
  167.2500     2.1440    62.7040   133.5270   121.5450    73.9870    23.8090   -24.4920 
  167.3750     2.1710    61.1160   141.6690   128.6810    70.9400    23.8200   -24.8910 
  167.5000     2.1890    62.0010   155.5470   141.0450    71.2680    23.8020   -25.3050 
  167.6250     2.1880    61.4480   174.6130   157.9520    75.8470    23.8140   -25.7000 
  167.7500     2.1710    60.3300   194.7330   175.6820    83.5010    23.9350   -26.0960 
  167.8750     2.1460    59.9560   212.0020   191.0650    98.8780    24.2670   -26.4640 
  168.0000     2.1190    60.5770   223.8140   202.1130   125.1670    24.5770   -26.7900 
  168.1250     2.1040    61.4200   229.6720   208.3370   145.4730    24.6110   -27.0750 
  168.2500     2.0990    61.3840   232.4830   211.9230   147.6610    24.5300   -27.3340 
  168.3750     2.1030    60.8770   232.9570   213.4670   141.0990    24.3240   -27.5370 
  168.5000     2.1120    60.6270   229.9600   212.0970   148.9700    24.0770   -27.6880 
  168.6250     2.1240    60.0250   220.8650   205.4940   150.2040    23.9570   -27.7970 
  168.7500     2.1320    58.3480   206.7880   194.2860   131.1740    23.8910   -27.8910 
  168.8750     2.1310    57.0400   190.2440   180.2420   107.3770    23.8700   -27.9750 
  169.0000     2.1200    58.2790   174.6540   166.1480    90.7880    23.8710   -28.0440 
  169.1250     2.1030    60.9290   163.7580   155.5450    85.1270    23.8690   -28.1280 
  169.2500     2.0920    62.7620   158.0190   149.5540    90.5520    23.8670   -28.2000 
  169.3750     2.0970    63.1290   156.7400   147.9030    97.6160    23.8010   -28.2910 
  169.5000     2.1210    61.8750   158.2380   149.1820    92.2030    23.3930   -28.4060 
  169.6250     2.1540    60.2320   160.1420   151.3530    75.0680    23.0920   -28.5450 
  169.7500     2.1770    61.7920   160.1310   152.2520    63.9430    23.0450   -28.6690 
  169.8750     2.1820    67.4620   157.2150   150.8360    58.7100    23.0390   -28.7700 
  170.0000     2.1780    71.2230   151.7470   147.1010    56.5580    23.0390   -28.8650 
  170.1250     2.1730    66.8380   145.1270   141.8950    56.8960    23.0280   -28.9170 
  170.2500     2.1700    61.7690   139.2900   136.8780    57.5440    23.0320   -28.9630 
  170.3750     2.1630    62.4570   135.3510   133.2100    59.1740    23.0330   -28.9590 
  170.5000     2.1530    65.9450   133.6360   131.5440    61.5310    23.0400   -28.9150 
  170.6250     2.1450    65.9310   133.3970   131.6160    65.9210    23.0390   -28.8180 
  170.7500     2.1440    63.7930   132.3790   131.3830    70.3040    23.0330   -28.6960 
  170.8750     2.1530    63.6670   128.7160   128.8870    73.4620    23.0330   -28.5560 
  171.0000     2.1630    63.6170   121.5760   122.9680    73.2140    23.0380   -28.4100 
  171.1250     2.1700    60.9960   111.8150   113.9010    66.9420    23.0270   -28.2630 
  171.2500     2.1770    59.0700   102.4310   104.4930    57.8710    23.0320   -28.1180 
  171.3750     2.1870    58.8710    95.4680    96.9210    52.5660    23.0570   -28.0010 
  171.5000     2.1950    60.1800    91.9840    92.5380    53.9540    23.1030   -27.8990 
  171.6250     2.1920    62.4360    92.5800    92.2590    61.5920    23.1070   -27.8200 
  171.7500     2.1710    65.3310    95.8030    94.8870    64.8610    23.1390   -27.7380 
  171.8750     2.1230    68.4010   100.4240    99.3450    59.0680    23.4180   -27.6660 
  172.0000     2.0550    69.7980   105.1810   104.4070    55.1440    24.2040   -27.6020 
  172.1250     2.0040    68.4410   108.9870   108.8690    60.1480    25.2680   -27.5850 
  172.2500     1.9900    65.1740   111.7120   112.3020    72.8550    25.6800   -27.5840 
  172.3750     2.0080    62.9180   113.4880   114.6990    81.4480    25.4730   -27.5970 
  172.5000     2.0400    63.3340   114.4510   116.1720    83.0350    25.0740   -27.6220 
  172.6250     2.0710    64.6990   114.4520   116.5810    88.1010    24.7170   -27.6650 
  172.7500     2.0970    66.4730   113.5710   116.0240    93.2440    24.6470   -27.7260 
  172.8750     2.1150    69.6130   111.9190   114.5610    93.2910    24.6170   -27.8150 
  173.0000     2.1230    71.9910   109.7250   112.3310    89.5160    24.5540   -27.9160 
  173.1250     2.1220    72.0910   107.2240   109.4640    88.5850    24.5460   -27.9820 
  173.2500     2.1160    70.3140   104.8230   106.4340    85.4180    24.4670   -28.0450 
  173.3750     2.1060    67.8110   102.9570   103.7500    81.7640    24.3390   -28.0990 
  173.5000     2.0910    65.7060   102.0820   101.9260    80.8560    24.2880   -28.1320 
  173.6250     2.0780    65.0520   102.9240   101.6570    81.5330    24.3020   -28.1110 
  173.7500     2.0810    65.5610   105.6670   103.1080    80.4470    24.3420   -28.0620 
  173.8750     2.1010    66.4720   110.5470   106.4900    82.2360    24.6040   -27.9950 
  174.0000     2.1270    68.6450   117.6360   111.8800    90.4280    24.8380   -27.9380 
  174.1250     2.1490    72.2290   127.4250   119.7770    94.4740    24.8680   -27.8620 
  174.2500     2.1620    72.3420   139.9530   130.2290   101.8270    24.8880   -27.7620 
  174.3750     2.1600    67.4620   155.8480   143.8170   119.7400    24.8810   -27.6480 
  174.5000     2.1420    63.1380   175.6770   161.0990   144.8400    24.8730   -27.5240 
  174.6250     2.1160    62.9560   199.5170   182.3140   164.7460    24.8880   -27.4230 
  174.7500     2.0970    62.0650   222.8690   203.7280   178.3350    24.8870   -27.3240 
  174.8750     2.0900    57.8370   237.3100   218.4800   174.0680    24.8850   -27.2070 
  175.0000     2.0930    53.9130   232.5100   217.7560   174.5060    24.8810   -27.0440 
  175.1250     2.1070    54.0640   203.2770   195.0800   178.3420    24.8800   -26.8950 
  175.2500     2.1320    55.7770   165.7750   162.2130   173.8910    24.8380   -26.7420 
  175.3750     2.1590    57.9490   132.2960   130.3060   124.6130    24.7600   -26.5860 
  175.5000     2.1770    59.9470   108.2560   106.0500    78.3850    24.7160   -26.4230 
  175.6250     2.1780    62.1420    95.0270    92.2080    60.4840    24.7010   -26.2220 
  175.7500     2.1720    63.4150    88.8320    85.5280    68.5130    24.6990   -26.0210 
  175.8750     2.1670    62.7330    87.6040    83.9330    92.3840    24.7090   -25.8240 
  176.0000     2.1630    60.9480    89.3340    85.4400    94.9990    24.7150   -25.6550 
  176.1250     2.1540    60.6740    91.6180    87.8150    80.4920    24.7290   -25.4600 
