~V
VERS. 2.00: Ver 2.00
~W
STRT.M 50.0000:
STOP.M 274.0000:
STEP.M 0.1250:
NULL. -999.2500:
UWI. F10206:
~C
DEPT.M :
SP.MV :
DEN.GM/CC :
GR.API :
RML.OHMM :
RI. :
RXO.OHMM :
CALI.CM :
~A
# ...
  218.7500   -22.2950     2.1930    53.2480   128.5930   118.4030   127.2120    25.3190 
  218.8750   -22.4870     2.1820    52.4400   143.7850   132.6360   136.3620    25.3350 
  219.0000   -22.6490     2.1690    51.7510   156.0810   144.4490   142.5870    25.3960 
  219.1250   -22.7790     2.1600    51.6340   164.2480   152.4870   148.6230    25.4220 
  219.2500   -22.9240     2.1540    51.8610   168.9250   157.1450   155.4040    25.4030 
  219.3750   -23.0360     2.1500    52.5570   170.0250   158.2880   158.1390    25.4290 
  219.5000   -23.1740     2.1470    51.4810   167.3250   155.7650   156.1080    25.4180 
  219.6250   -23.2440     2.1400    47.2430   160.1840   149.0120   157.7620    25.5370 
  219.7500   -23.2650     2.1320    43.7040   150.2950   139.5160   152.5340    25.8710 
  219.8750   -23.2640     2.1280    44.4650   139.7770   129.0650   136.8190    26.1200 
  220.0000   -23.2170     2.1320    47.9130   130.9800   119.7170   129.4820    26.3020 
  220.1250   -23.1860     2.1470    49.4250   126.1690   113.6940   120.8590    26.0650 
  220.2500   -23.1070     2.1650    48.3800   125.2390   111.3710   106.8070    25.8430 
  220.3750   -22.9910     2.1780    46.2870   127.6460   112.6330   102.7670    25.6370 
  220.5000   -22.8810     2.1790    46.2820   132.0920   116.5100   107.6000    25.6000 
  220.6250   -22.7940     2.1710    50.1810   136.4790   121.1680   117.8590    25.6690 
  220.7500   -22.7280     2.1610    54.3660   138.8070   124.3630   124.6380    25.7300 
  220.8750   -22.6670     2.1570    54.8620   138.1890   124.8060   122.4880    25.7220 
  221.0000   -22.6060     2.1580    52.0620   135.0510   122.3550   111.9540    25.6820 
  221.1250   -22.5450     2.1640    51.0060   131.0540   118.0720   101.8060    25.4930 
  221.2500   -22.4870     2.1670    52.2150   128.2600   114.0580    94.5910    25.4650 
  221.3750   -22.4520     2.1660    52.1040   127.6040   111.4800    95.9720    25.4590 
  221.5000   -22.3860     2.1610    49.7160   129.1850   110.8380    99.6560    25.4580 
  221.6250   -22.2900     2.1570    48.9310   132.7090   112.2750   101.6630    25.4410 
  221.7500   -22.1850     2.1580    50.5280   137.2490   115.0230   103.0640    25.3610 
  221.8750   -22.0480     2.1640    52.4200   142.5450   118.7410   102.7960    25.2490 
  222.0000   -21.9350     2.1690    55.2850   148.4550   123.1640   102.0800    25.3850 
  222.1250   -21.7610     2.1700    59.2390   154.2370   127.6970   100.6900    25.3890 
  222.2500   -21.5750     2.1650    59.7200   158.3600   131.2210   106.2710    25.4070 
  222.3750   -21.3660     2.1590    55.6990   159.1860   132.6100   122.5370    25.4830 
  222.5000   -21.0800     2.1510    51.3810   155.9890   131.2200   147.5390    25.5890 
  222.6250   -20.7920     2.1420    49.0430   150.0070   127.4790   144.8460    25.7450 
  222.7500   -20.4550     2.1300    48.3090   144.8820   123.8100   121.5990    25.6770 
  222.8750   -20.0580     2.1190    48.7830   142.6380   121.9660   106.5420    25.5400 
  223.0000   -19.6340     2.1220    49.1800   142.4470   122.0110   107.9400    25.3670 
  223.1250   -19.1880     2.1630    47.7320   137.0220   119.1380   114.0370    25.2040 
  223.2500   -18.7300     2.2490    45.3750   118.0410   105.6760   127.8900    24.9510 
  223.3750   -18.2860     2.3710    44.9090    86.1400    79.6910   139.8600    24.8130 
  223.5000   -17.8820     2.4960    45.8320    52.9580    50.1160   119.0130    24.8560 
  223.6250   -17.4990     2.5700    46.1780    30.2330    28.9990    63.4380    24.9670 
  223.7500   -17.1770     2.5670    45.3460    16.8050    16.6750    25.5690    24.9740 
  223.8750   -16.9740     2.5010    43.8180    10.7000    10.3250     9.7870    24.8490 
  224.0000   -16.8570     2.4090    43.3430     8.0900     7.3430     5.4360    24.8500 
  224.1250   -16.8230     2.3340    43.9390     7.5340     6.3000     5.2010    25.1840 
  224.2500   -16.8870     2.2920    44.5640     7.8400     6.1330     6.1110    25.8290 
  224.3750   -16.9880     2.2820    43.9970     8.5210     6.5040     7.0720    26.0280 
  224.5000   -17.1130     2.2930    43.3790     9.1560     7.1210     7.6900    25.7290 
  224.6250   -17.2720     2.3100    44.5430     9.3760     7.6270     7.5980    25.5340 
  224.7500   -17.4150     2.3230    46.2870     9.2460     7.8410     7.4800    25.3870 
  224.8750   -17.5270     2.3300    46.4080     8.9630     7.8050     7.2120    25.4220 
  225.0000   -17.5890     2.3400    44.6910     8.7300     7.6750     6.7570    25.8820 
  225.1250   -17.6270     2.3550    43.0570     8.6930     7.6340     6.7340    26.5960 
  225.2500   -17.6170     2.3720    41.8270     8.8100     7.7200     7.0420    26.3950 
  225.3750   -17.5650     2.3840    40.3480     8.9890     7.8440     7.6590    25.7330 
  225.5000   -17.4910     2.3840    37.9390     9.0940     7.8530     8.3740    25.5790 
  225.6250   -17.3570     2.3680    36.4320     8.9610     7.6070     8.3830    25.5380 
  225.7500   -17.2170     2.3400    38.5910     8.6010     7.1760     7.8650    25.3330 
  225.8750   -17.1040     2.3070    43.2280     8.1030     6.6540     7.1140    25.6920 
  226.0000   -17.0150     2.2730    45.9740     6.3210     6.1270     6.2530    25.5280 
  226.1250   -16.9590     2.2480    45.5160     5.9280     5.6440     5.5960    24.6160 
  226.2500   -16.9850     2.2390    45.5120     5.5650     5.2050     5.2090    24.3970 
  226.3750   -17.1020     2.2480    49.0660     5.2240     4.8260     5.0400    24.4910 
  226.5000   -17.3140     2.2700    55.5800     4.9410     4.5500     4.9060    24.2490 
  226.6250   -17.6610     2.2950    60.9780     4.8420     4.4390     4.8090    24.1740 
  226.7500   -18.0530     2.3170    65.2480     4.9880     4.4940     4.9180    24.2010 
  226.8750   -18.4540     2.3400    69.3480     5.3950     4.7410     5.3330    24.4990 
  227.0000   -18.8530     2.3630    72.3510     6.0040     5.1970     5.8590    24.9510 
  227.1250   -19.2750     2.3840    72.9150     6.6740     5.8280     7.7100    24.9190 
  227.2500   -19.6490     2.3930    72.3290     7.2130     6.4590     8.7880    24.9560 
  227.3750   -19.9730     2.3860    72.7480     7.5080     6.9270     8.8080    24.9720 
  227.5000   -20.2870     2.3670    74.8570     7.5600     7.1350     8.2800    24.9310 
  227.6250   -20.5340     2.3470    78.7080     7.4630     7.1080     8.1720    24.9130 
  227.7500   -20.7690     2.3330    81.0540     7.3720     7.0350     8.2280    24.8730 
  227.8750   -20.9990     2.3280    80.6770     7.3630     6.9960     8.5210    24.8350 
  228.0000   -21.2080     2.3270    80.9880     7.4570     6.9950     8.9370    24.8250 
  228.1250   -21.3980     2.3260    84.3010     7.6310     7.0100     8.8270    24.8030 
  228.2500   -21.5870     2.3250    86.6960     7.8140     7.0320     8.5560    24.8860 
  228.3750   -21.7720     2.3250    86.2570     7.9470     7.0550     8.5410    24.9780 
  228.5000   -21.9410     2.3290    83.6540     7.9920     7.0570     8.8690    24.9880 
  228.6250   -22.1680     2.3370    82.3890     7.9670     7.0040     8.9140    24.9820 
  228.7500   -22.4200     2.3450    84.5040     8.0010     6.9390     8.8150    24.9820 
  228.8750   -22.7130     2.3510    88.7600     8.2290     6.9690     8.7410    24.9530 
  229.0000   -23.0760     2.3520    91.1570     8.7640     7.2190     8.8230    24.9880 
  229.1250   -23.4480     2.3460    88.4410     9.7600     7.8480     9.4190    25.0330 
  229.2500   -23.8600     2.3360    82.3670    11.1850     8.8640    11.2910    25.0990 
  229.3750   -24.3000     2.3250    76.3440    12.9780    10.2750    14.9650    25.1200 
  229.5000   -24.7360     2.3150    72.4000    14.9810    12.0160    18.2290    25.1220 
  229.6250   -25.1180     2.3070    68.2340    16.9590    13.9340    19.7890    25.0840 
  229.7500   -25.4570     2.2990    62.3320    18.7530    15.7750    23.4620    25.0080 
  229.8750   -25.7270     2.2880    57.8820    20.3320    17.4010    27.2770    24.9720 
