~V
VERS. 2.00: Ver 2.00
~W
STRT.M 20.0000:
STOP.M 256.0000:
STEP.M 0.1250:
NULL. -999.2500:
UWI. F10201:
~C
DEPT.M :
DEN.GM/CC :
GR.API :
RML.OHMM :
RI. :
RXO.OHMM :
CALI.CM :
SP.MV :
~A
# ...
  233.7500     2.3320    77.3920    17.9860    16.7790    20.1230    24.3980   -22.1190 
  233.8750     2.3310    73.4680    17.7360    16.7330    20.2200    24.3970   -22.3360 
  234.0000     2.3280    73.1760    17.1540    16.3370    18.9210    24.3970   -22.5920 
  234.1250     2.3240    78.9660    16.4100    15.6980    17.8470    24.3970   -22.8750 
  234.2500     2.3200    86.7010    15.7750    15.0400    18.8550    24.3970   -23.1010 
  234.3750     2.3190    89.9830    15.6130    14.6790    18.4270    24.3950   -23.2700 
  234.5000     2.3220    87.0930    16.0450    14.7830    17.8730    24.3830   -23.4330 
  234.6250     2.3300    81.7890    17.1060    15.4490    17.9210    24.3500   -23.4860 
  234.7500     2.3430    80.8570    18.6750    16.6570    20.4010    24.3100   -23.3620 
  234.8750     2.3570    85.6180    20.3570    18.1870    23.2010    24.2610   -23.0160 
  235.0000     2.3700    90.5780    21.4230    19.3920    26.6620    24.2110   -22.4680 
  235.1250     2.3810    93.3240    21.1970    19.5790    28.6640    24.1610   -21.6950 
  235.2500     2.3950    95.0330    19.4280    18.3600    28.7720    24.1570   -20.7180 
  235.3750     2.4160    92.3350    16.5900    15.9840    22.6910    24.2380   -19.4740 
  235.5000     2.4430    85.8350    13.8610    13.5090    16.2590    24.2950   -18.0570 
  235.6250     2.4710    80.3850    11.8120    11.5040    12.1420    24.3100   -16.5980 
  235.7500     2.4890    80.0740    10.5820    10.1720    10.9800    24.2560   -15.1940 
  235.8750     2.4830    84.4580    10.1300     9.5570    11.2720    24.0970   -13.9710 
  236.0000     2.4550    87.4590    10.0590     9.3560    12.6870    23.9750   -12.8740 
  236.1250     2.4130    86.8640    10.0630     9.3150    13.5770    24.0670   -11.9090 
  236.2500     2.3680    83.9030     9.8670     9.1630    12.8580    24.2840   -11.1030 
  236.3750     2.3290    81.4370     9.2850     8.6750    12.4720    24.3830   -10.4710 
  236.5000     2.2990    81.0520     8.4750     7.9490    11.1780    24.3710    -9.9800 
  236.6250     2.2760    82.0140     7.6350     7.1630     7.9610    24.2750    -9.5750 
  236.7500     2.2600    83.0930     6.9320     6.4850     6.0990    24.1560    -9.1920 
  236.8750     2.2530    80.3680     6.4800     6.0320     5.7200    24.1410    -8.7870 
  237.0000     2.2580    74.2540     6.2220     5.7640     5.7510    24.2490    -8.4040 
  237.1250     2.2770    69.1620     6.1010     5.6340     5.6850    24.3690    -8.0570 
  237.2500     2.3070    67.4630     6.0570     5.5860     5.5720    24.4240    -7.7690 
  237.3750     2.3400    67.0490     6.0450     5.5760     5.3870    24.4300    -7.6070 
  237.5000     2.3690    63.4830     6.0440     5.5650     5.2270    24.4340    -7.4810 
  237.6250     2.3900    59.5980     6.0570     5.5440     5.1440    24.4390    -7.3920 
  237.7500     2.4010    60.0070     6.0840     5.5150     5.1240    24.4430    -7.3590 
  237.8750     2.4020    63.0420     6.1070     5.4870     5.1200    24.4460    -7.3780 
  238.0000     2.3990    62.1500     6.1220     5.4730     5.1460    24.4490    -7.4310 
  238.1250     2.3930    57.9550     6.1540     5.4850     5.2150    24.4540    -7.5030 
  238.2500     2.3910    56.0260     6.2340     5.5190     5.4070    24.4600    -7.5530 
  238.3750     2.3940    57.4950     6.3840     5.5650     5.9730    24.4650    -7.5790 
  238.5000     2.4020    58.5750     6.5640     5.6060     6.7330    24.4670    -7.6160 
  238.6250     2.4090    59.3500     6.7310     5.6330     7.1770    24.4680    -7.6130 
  238.7500     2.4110    59.5070     6.8510     5.6410     6.7430    24.4680    -7.5700 
  238.8750     2.4060    57.9010     6.9040     5.6240     6.2660    24.4700    -7.5470 
  239.0000     2.3950    57.0420     6.9290     5.5920     6.1150    24.4750    -7.5180 
  239.1250     2.3850    59.7560     6.9660     5.5550     6.1580    24.4750    -7.4610 
  239.2500     2.3780    63.9230     7.0350     5.5340     6.1670    24.4670    -7.4160 
  239.3750     2.3780    63.4940     7.1300     5.5650     6.2440    24.4410    -7.3930 
  239.5000     2.3810    60.2930     7.2460     5.6580     6.4920    24.4320    -7.3760 
  239.6250     2.3820    58.3230     7.3920     5.8110     6.7720    24.4420    -7.3730 
  239.7500     2.3760    58.0850     7.5880     6.0100     7.0330    24.4640    -7.4030 
  239.8750     2.3610    57.2760     7.8470     6.2310     7.5560    24.4600    -7.4240 
  240.0000     2.3460    55.7240     8.1220     6.4360     8.2340    24.4130    -7.4970 
  240.1250     2.3430    54.8390     8.3470     6.5950     8.5670    24.3180    -7.6070 
  240.2500     2.3620    55.1590     8.4630     6.6870     8.1030    24.1870    -7.7380 
  240.3750     2.4010    56.7670     8.4430     6.6860     7.4550    23.9910    -7.8730 
  240.5000     2.4420    59.7060     8.3320     6.6120     7.1640    23.8500    -7.9810 
  240.6250     2.4670    61.5640     8.1560     6.4870     7.0420    23.8850    -8.1080 
  240.7500     2.4720    61.5090     7.9460     6.3400     7.0230    24.0310    -8.2560 
  240.8750     2.4620    61.7730     7.7360     6.1970     6.9560    24.2570    -8.4370 
  241.0000     2.4510    61.7360     7.5630     6.0820     6.8100    24.3300    -8.5720 
  241.1250     2.4430    60.0120     7.4650     6.0110     6.5040    24.3080    -8.6990 
  241.2500     2.4380    58.8060     7.4680     5.9950     6.1810    24.2370    -8.8100 
  241.3750     2.4340    60.2160     7.5790     6.0430     5.9440    24.1640    -8.8460 
  241.5000     2.4290    61.1670     7.7420     6.1310     5.9660    24.1480    -8.8860 
  241.6250     2.4200    60.0850     7.9070     6.2360     6.1070    24.1860    -8.9070 
  241.7500     2.4060    58.6260     8.0240     6.3330     6.2510    24.2330    -8.8820 
  241.8750     2.3880    57.6680     8.0590     6.4020     6.2990    24.2590    -8.7960 
  242.0000     2.3710    56.5170     8.0360     6.4450     6.3060    24.2720    -8.6800 
  242.1250     2.3570    56.8970     7.9760     6.4680     6.3600    24.2930    -8.5320 
  242.2500     2.3500    58.7960     7.9050     6.4840     6.5580    24.3080    -8.3500 
  242.3750     2.3530    59.5070     7.8480     6.5040     6.9520    24.3110    -8.2020 
  242.5000     2.3650    59.2240     7.8180     6.5340     7.4670    24.3130    -8.0630 
  242.6250     2.3840    59.9710     7.8380     6.5770     8.0720    24.3200    -7.9920 
  242.7500     2.4070    62.7690     7.9240     6.6320     8.3650    24.3330    -7.9890 
  242.8750     2.4280    64.6870     8.0580     6.6930     8.2450    24.3430    -8.0160 
  243.0000     2.4430    63.8780     8.1730     6.7460     7.9910    24.3490    -8.0740 
  243.1250     2.4490    63.1050     8.2190     6.7750     7.8690    24.3350    -8.1590 
  243.2500     2.4460    63.6020     8.1870     6.7700     7.6500    24.2890    -8.2750 
  243.3750     2.4340    63.5840     8.0950     6.7250     7.5920    24.2260    -8.3810 
  243.5000     2.4200    62.1210     7.9990     6.6650     7.5300    24.1460    -8.4820 
  243.6250     2.4090    60.7070     7.9230     6.6120     7.5100    24.0990    -8.5230 
  243.7500     2.4010    60.3050     7.8800     6.5880     7.5900    24.1810    -8.5050 
  243.8750     2.3980    59.0890     7.9050     6.6220     7.9840    24.2810    -8.4990 
  244.0000     2.3960    58.1660     8.0160     6.7220     8.6550    24.2970    -8.5080 
  244.1250     2.3950    59.4240     8.2100     6.8930     9.1020    24.2070    -8.5310 
  244.2500     2.3970    63.4260     8.4550     7.1310     9.4360    24.0580    -8.5780 
  244.3750     2.4060    66.6540     8.7210     7.4280    10.9120    24.0000    -8.6720 
  244.5000     2.4230    66.9160     9.0140     7.7560    13.4360    24.1380    -8.7480 
  244.6250     2.4440    66.1790     9.3840     8.1040    15.4720    24.2970    -8.8190 
  244.7500     2.4650    65.9510     9.8750     8.4740    15.1120    24.3780    -8.8880 
  244.8750     2.4740    65.2750    10.5000     8.8830    13.7490    24.3930    -8.9490 
