~V
VERS. 2.00: Ver 2.00
~W
STRT.M 50.0000:
STOP.M 258.0000:
STEP.M 0.1250:
NULL. -999.2500:
UWI. F10200:
~C
DEPT.M :
SP.MV :
GR.API :
RML.OHMM :
RI. :
RXO.OHMM :
CALI.CM :
DEN.GM/CC :
~A
# ...
  128.7500    -1.6890    54.1840    15.3890    13.0800    15.9240    22.9150     2.4110 
  128.8750    -0.9000    50.4940    16.8940    14.6020    16.7070    22.9870     2.4730 
  129.0000    -0.1950    48.9400    17.9720    15.8050    16.9850    22.9930     2.5090 
  129.1250     0.4090    49.9280    18.2470    16.3060    18.5940    23.1000     2.5200 
  129.2500     0.8970    52.2880    17.6760    16.0270    19.9680    23.3580     2.5190 
  129.3750     1.2490    53.2670    16.3450    15.0130    19.9560    23.6630     2.5090 
  129.5000     1.4830    51.0420    14.6150    13.5600    19.6570    23.8720     2.4930 
  129.6250     1.5740    50.1900    13.1600    12.2120    18.4040    23.9740     2.4720 
  129.7500     1.5930    53.4050    12.5100    11.4290    15.5160    24.0010     2.4600 
  129.8750     1.5600    56.4200    12.8990    11.4410    12.1310    23.9860     2.4630 
  130.0000     1.5050    55.5470    14.2620    12.2770    12.1980    23.9340     2.4860 
  130.1250     1.4220    52.9040    16.2820    13.8420    16.2160    23.8900     2.5210 
  130.2500     1.3340    51.2060    18.2690    15.6340    21.2320    23.8670     2.5460 
  130.3750     1.2570    49.6950    19.7300    17.2310    23.0970    23.8430     2.5550 
  130.5000     1.1830    47.8630    20.3970    18.2910    22.0110    23.8040     2.5520 
  130.6250     1.1250    45.8930    20.2980    18.6620    20.6060    23.7900     2.5500 
  130.7500     1.0830    44.2230    19.9950    18.7420    19.2310    23.8480     2.5530 
  130.8750     1.0570    44.0270    19.8300    18.8430    19.3030    23.9110     2.5590 
  131.0000     1.0210    45.0110    19.9160    19.1080    20.9670    23.9390     2.5640 
  131.1250     0.9540    44.2750    20.1890    19.5160    21.4400    23.9250     2.5680 
  131.2500     0.8600    43.0310    20.4260    19.8870    21.8070    23.8840     2.5730 
  131.3750     0.7290    44.4390    20.3920    20.0150    21.6430    23.8460     2.5770 
  131.5000     0.5700    48.2940    19.8400    19.6620    20.9230    23.8510     2.5730 
  131.6250     0.3900    51.0720    18.4780    18.5200    20.4850    23.8930     2.5460 
  131.7500     0.1730    52.2110    16.4840    16.7150    21.1980    23.9420     2.4960 
  131.8750    -0.0910    53.3250    14.1450    14.4960    20.2290    23.9730     2.4310 
  132.0000    -0.3900    55.7870    11.8560    12.2410    17.0980    23.9720     2.3640 
  132.1250    -0.7020    59.4760    10.0770    10.3970    13.3610    23.9200     2.3110 
  132.2500    -1.0330    62.2500     8.9180     9.1010     9.7810    23.8400     2.2740 
  132.3750    -1.3630    64.2160     8.3570     8.3570     8.0310    23.6790     2.2520 
  132.5000    -1.6640    66.6410     8.2690     8.0830     7.7230    23.4660     2.2370 
  132.6250    -1.9360    67.2030     8.5070     8.1800     7.9920    23.3630     2.2240 
  132.7500    -2.1280    65.0650     8.8490     8.4420     8.3990    23.4020     2.2110 
  132.8750    -2.2290    63.9740     9.2150     8.7770     8.7890    23.4270     2.2020 
  133.0000    -2.2320    65.8520     9.6270     9.1700     9.2450    23.4060     2.1990 
  133.1250    -2.1170    66.3090    10.2650     9.7360     9.8610    23.3920     2.2080 
  133.2500    -1.9030    62.7620    11.3120    10.6180    10.5490    23.4290     2.2330 
  133.3750    -1.6120    57.9390    12.9370    11.9730    12.0980    23.5530     2.2760 
  133.5000    -1.2860    52.7890    15.2290    13.9130    15.1370    23.7300     2.3380 
  133.6250    -0.9480    48.6960    18.1930    16.5290    19.9920    23.8250     2.4140 
  133.7500    -0.6390    49.0420    21.3960    19.5030    24.9420    23.8490     2.4870 
  133.8750    -0.3780    53.0700    24.3490    22.4370    27.5230    23.8660     2.5430 
  134.0000    -0.1640    55.0580    26.5090    24.8240    29.5780    23.9020     2.5700 
  134.1250    -0.0380    51.4880    27.2480    26.0230    32.0530    23.9470     2.5660 
  134.2500     0.0250    47.1800    26.7890    26.1010    34.8560    23.9290     2.5430 
  134.3750     0.0340    44.5210    25.5530    25.3610    33.9660    23.8920     2.5120 
  134.5000     0.0050    43.6360    24.0950    24.2680    29.4680    23.8900     2.4840 
  134.6250    -0.0660    44.9540    22.8160    23.1750    24.7400    23.9010     2.4750 
  134.7500    -0.1500    47.0430    21.6190    22.0570    22.3690    23.8530     2.4880 
  134.8750    -0.2460    48.2330    20.1690    20.6450    21.9070    23.7630     2.5160 
  135.0000    -0.3590    48.3230    18.1470    18.6590    22.7190    23.7090     2.5390 
  135.1250    -0.4850    49.3720    15.4290    15.9730    24.3690    23.7660     2.5270 
  135.2500    -0.6250    52.9540    12.5050    13.0630    22.7690    23.8240     2.4820 
  135.3750    -0.7850    59.1630     9.8760    10.4220    15.8410    23.8960     2.4210 
  135.5000    -0.9770    65.7390     7.9090     8.3990     9.4980    23.9560     2.3630 
  135.6250    -1.1680    70.8040     6.8360     7.2170     7.4090    23.9980     2.3220 
  135.7500    -1.3880    74.9090     6.4120     6.6710     6.6870    23.9960     2.2960 
  135.8750    -1.6220    77.8120     6.4630     6.6240     6.5710    23.9630     2.2790 
  136.0000    -1.8610    78.2610     6.8150     6.9300     6.6290    23.9080     2.2640 
  136.1250    -2.0930    74.7620     7.2920     7.4310     6.9210    23.8070     2.2500 
  136.2500    -2.2960    72.2030     7.6980     7.9060     7.4690    23.6910     2.2440 
  136.3750    -2.4490    71.6090     7.9000     8.1990     8.2850    23.6090     2.2530 
  136.5000    -2.5470    71.5670     7.8270     8.2050     8.8190    23.5610     2.2750 
  136.6250    -2.6080    71.9850     7.4580     7.8640     8.9480    23.5060     2.3010 
  136.7500    -2.6300    73.4530     6.9710     7.3460     8.6480    23.4580     2.3180 
  136.8750    -2.6260    77.2060     6.5640     6.8400     7.7900    23.4190     2.3240 
  137.0000    -2.6030    81.5790     6.4570     6.5580     7.2280    23.3790     2.3220 
  137.1250    -2.5640    84.0980     6.9690     6.7880     7.1620    23.3490     2.3150 
  137.2500    -2.5430    82.3920     8.1800     7.6220     7.7840    23.3420     2.3040 
  137.3750    -2.5440    77.9930    10.1400     9.1470     9.3100    23.3570     2.2870 
  137.5000    -2.5530    74.1650    12.7340    11.3420    12.4380    23.4030     2.2640 
  137.6250    -2.5650    71.3790    15.5950    14.0180    17.4780    23.4970     2.2410 
  137.7500    -2.5680    69.8370    18.0830    16.6060    22.0430    23.6270     2.2210 
  137.8750    -2.5450    68.9500    19.7200    18.5850    24.2710    23.7080     2.2040 
  138.0000    -2.4990    64.7620    20.3160    19.5990    24.6930    23.8170     2.1970 
  138.1250    -2.4170    57.1310    20.0370    19.5970    24.3470    23.8040     2.2140 
  138.2500    -2.2890    53.6760    19.5940    19.2330    22.8670    23.6210     2.2590 
  138.3750    -2.1440    55.5190    19.4190    18.9590    20.1330    23.3760     2.3310 
  138.5000    -1.9910    56.2800    19.6900    19.0080    18.7880    23.2820     2.4160 
  138.6250    -1.8400    52.5320    20.3920    19.4490    19.2100    23.3210     2.4880 
  138.7500    -1.6930    48.7310    21.2170    20.0750    20.2890    23.4000     2.5290 
  138.8750    -1.5650    46.1520    21.8880    20.6680    21.7290    23.4400     2.5410 
  139.0000    -1.4780    44.8860    22.1730    21.0150    22.6800    23.4650     2.5330 
  139.1250    -1.4220    45.2130    21.9280    20.9440    22.5930    23.4510     2.5180 
  139.2500    -1.3940    45.7840    21.3970    20.6050    22.4690    23.3760     2.5080 
  139.3750    -1.3760    45.4410    20.8590    20.2090    20.9440    23.2620     2.5050 
  139.5000    -1.3680    44.1010    20.5750    19.9750    18.5420    23.1290     2.5090 
  139.6250    -1.3780    42.6060    20.7450    20.0930    17.1870    23.0450     2.5170 
  139.7500    -1.3930    41.8370    21.2160    20.4770    17.4420    23.1360     2.5260 
  139.8750    -1.4100    41.7830    21.7480    20.9500    18.8280    23.2840     2.5390 
