~V
VERS. 2.00: Ver 2.00
~W
STRT.M 50.0000:
STOP.M 258.0000:
STEP.M 0.1250:
NULL. -999.2500:
UWI. F10200:
~C
DEPT.M :
SP.MV :
GR.API :
RML.OHMM :
RI. :
RXO.OHMM :
CALI.CM :
DEN.GM/CC :
~A
# ...
  106.2500    -5.4130    72.4870     6.4120     5.5170     7.3410    23.7760     2.1810 
  106.3750    -4.8760    82.9670     5.9830     5.0670     6.1570    23.9440     2.2150 
  106.5000    -4.5320    87.5560     5.8640     4.8510     5.1610    24.0050     2.2440 
  106.6250    -4.4360    85.9240     6.1390     4.9510     5.2260    24.0050     2.2510 
  106.7500    -4.5420    81.0020     6.7040     5.3100     5.7670    23.9370     2.2370 
  106.8750    -4.7990    73.8110     7.4750     5.8770     6.6060    23.8010     2.2120 
  107.0000    -5.1510    67.1980     8.3360     6.5750     7.7130    23.6240     2.1900 
  107.1250    -5.5460    64.6070     9.1190     7.2830     8.5720    23.5000     2.1870 
  107.2500    -5.8810    64.2640     9.6810     7.8670     9.2130    23.4620     2.2020 
  107.3750    -6.1230    63.0240     9.9330     8.2290    10.0040    23.4640     2.2250 
  107.5000    -6.2420    60.4710     9.8510     8.3210    10.9590    23.4700     2.2400 
  107.6250    -6.2070    59.3970     9.4710     8.1350    11.4010    23.4710     2.2340 
  107.7500    -6.0430    60.6260     9.0410     7.8470    10.0810    23.4710     2.2150 
  107.8750    -5.7790    63.9190     8.8400     7.6620     9.1040    23.4710     2.1950 
  108.0000    -5.4530    67.3300     9.1950     7.8280     8.7270    23.4660     2.1870 
  108.1250    -5.0620    67.5800    10.5530     8.7070     8.8240    23.4380     2.2000 
  108.2500    -4.6480    64.1800    12.7860    10.2960     9.8750    23.4100     2.2370 
  108.3750    -4.2120    60.2850    15.4430    12.3580    12.6030    23.4400     2.2990 
  108.5000    -3.7670    59.9240    17.6750    14.3220    17.5670    23.5270     2.3800 
  108.6250    -3.3560    65.1300    18.1450    15.1530    25.2970    23.5970     2.4590 
  108.7500    -2.9790    71.8840    16.5380    14.3620    35.2690    23.6500     2.5030 
  108.8750    -2.6540    77.9960    13.3880    12.1480    35.2040    23.7040     2.4960 
  109.0000    -2.3930    82.8910     9.9870     9.4680    20.2350    23.7530     2.4500 
  109.1250    -2.2050    85.3960     7.6090     7.3820     9.0080    23.7760     2.3930 
  109.2500    -2.0650    85.4850     6.2970     6.0650     6.2580    23.7280     2.3430 
  109.3750    -1.9790    84.4150     5.7580     5.3700     5.7990    23.6540     2.3080 
  109.5000    -1.9440    84.1100     5.6610     5.0910     5.8420    23.6810     2.2880 
  109.6250    -1.9390    85.5470     5.7630     5.0670     5.5790    23.8720     2.2830 
  109.7500    -1.9560    89.7320     5.8800     5.1280     5.4280    24.0450     2.2870 
  109.8750    -1.9950    92.2740     5.9580     5.2120     5.4090    24.0630     2.2910 
  110.0000    -2.0530    89.9420     5.9890     5.2920     5.5290    24.0280     2.2910 
  110.1250    -2.1250    86.6580     5.9710     5.3500     5.8980    24.0560     2.2850 
  110.2500    -2.2220    87.8570     5.9100     5.3720     6.5280    24.0650     2.2800 
  110.3750    -2.3420    92.5630     5.8090     5.3430     6.9680    24.0460     2.2800 
  110.5000    -2.4840    96.2890     5.6820     5.2670     6.1420    24.0210     2.2870 
  110.6250    -2.6660    96.5720     5.5750     5.1750     5.6250    24.0350     2.2960 
  110.7500    -2.8930    95.7230     5.5380     5.1190     5.4620    24.0280     2.2990 
  110.8750    -3.1630    94.7850     5.6100     5.1440     5.5040    24.0200     2.2960 
  111.0000    -3.4820    93.2520     5.8080     5.2750     5.6840    23.9780     2.2910 
  111.1250    -3.8830    88.9790     6.1220     5.5210     6.0330    23.8460     2.2830 
  111.2500    -4.3240    84.4050     6.4790     5.8260     6.5360    23.6570     2.2730 
  111.3750    -4.7810    80.6620     6.8190     6.1350     7.2030    23.5430     2.2600 
  111.5000    -5.2520    78.4660     7.0960     6.3980     7.9990    23.4920     2.2470 
  111.6250    -5.6840    79.9890     7.2690     6.5640     8.1940    23.4440     2.2370 
  111.7500    -6.0790    83.2880     7.3570     6.6380     7.9270    23.3660     2.2310 
  111.8750    -6.4430    82.8940     7.3820     6.6360     7.7560    23.2940     2.2290 
  112.0000    -6.7580    76.6230     7.3730     6.5810     7.8250    23.2640     2.2280 
  112.1250    -7.0010    70.3820     7.3530     6.5010     8.0960    23.2670     2.2260 
  112.2500    -7.2230    68.4140     7.3360     6.4200     8.3310    23.3130     2.2230 
  112.3750    -7.4410    70.6510     7.3260     6.3530     8.2450    23.4650     2.2160 
  112.5000    -7.6550    74.7430     7.3420     6.3170     8.0960    23.6550     2.2050 
  112.6250    -7.8690    74.8910     7.4720     6.3750     8.5790    23.7220     2.1870 
  112.7500    -8.0660    69.9480     7.8280     6.6040     9.1240    23.6800     2.1700 
  112.8750    -8.2370    65.4580     8.5410     7.1040     9.2280    23.6300     2.1610 
  113.0000    -8.3990    65.1430     9.6650     7.9360     9.5130    23.6120     2.1740 
  113.1250    -8.5910    65.0040    11.0960     9.0840    11.1540    23.6880     2.2210 
  113.2500    -8.8170    63.0540    12.4180    10.2580    14.2730    23.8000     2.2900 
  113.3750    -9.0640    62.6040    13.2140    11.1340    19.1540    23.8500     2.3550 
  113.5000    -9.3220    63.2270    13.1740    11.4100    25.8710    23.8170     2.3830 
  113.6250    -9.5870    61.5550    12.1850    10.8680    23.3570    23.6440     2.3550 
  113.7500    -9.8470    57.9680    10.8230     9.8920    15.5880    23.4220     2.3050 
  113.8750   -10.1060    56.1720     9.5830     8.8760    10.8840    23.2500     2.2610 
  114.0000   -10.3510    58.1460     8.7730     8.1110     9.4340    23.1890     2.2340 
  114.1250   -10.5510    62.6580     8.5010     7.7450     9.2790    23.2650     2.2200 
  114.2500   -10.6910    67.1090     8.5330     7.6490     9.2960    23.3730     2.2090 
  114.3750   -10.7760    67.2640     8.6920     7.7050     9.2840    23.4290     2.1960 
  114.5000   -10.8210    63.9800     8.8390     7.8010     9.2610    23.4160     2.1850 
  114.6250   -10.8280    61.1770     8.8860     7.8470     9.3650    23.3620     2.1790 
  114.7500   -10.8240    60.2340     8.8330     7.8200     9.4640    23.3660     2.1770 
  114.8750   -10.7900    59.7720     8.7000     7.7200     9.4670    23.3930     2.1760 
  115.0000   -10.7240    59.8540     8.5140     7.5630     9.3510    23.3960     2.1720 
  115.1250   -10.6240    62.3190     8.3130     7.3730     9.1890    23.2250     2.1640 
  115.2500   -10.4930    64.5350     8.1470     7.1950     8.9930    22.9370     2.1540 
  115.3750   -10.3490    66.0100     8.0630     7.0670     8.7830    22.8780     2.1450 
  115.5000   -10.1920    68.9630     8.0960     7.0240     8.6110    23.1660     2.1400 
  115.6250   -10.0620    73.3660     8.2840     7.1060     8.4970    23.4690     2.1400 
  115.7500    -9.9740    74.7880     8.5750     7.2870     8.5040    23.5640     2.1450 
  115.8750    -9.9560    72.6780     8.9040     7.5270     8.6000    23.5540     2.1540 
  116.0000   -10.0080    68.9260     9.1890     7.7680     8.7350    23.5400     2.1680 
  116.1250   -10.1120    64.6130     9.3320     7.9300     8.8710    23.5390     2.1840 
  116.2500   -10.2270    62.0370     9.3180     7.9790     8.9920    23.5240     2.1970 
  116.3750   -10.3160    62.3700     9.1690     7.9110     9.1860    23.4930     2.2040 
  116.5000   -10.3600    65.1570     8.9380     7.7540     9.3350    23.5020     2.2060 
  116.6250   -10.3270    67.3060     8.6880     7.5460     9.5740    23.5140     2.2040 
  116.7500   -10.2080    67.4880     8.4550     7.3330     9.8140    23.5250     2.1980 
  116.8750    -9.9970    65.8460     8.2390     7.1260     9.8720    23.5290     2.1910 
  117.0000    -9.7180    63.5220     8.0270     6.9260     9.2200    23.5310     2.1830 
  117.1250    -9.3650    62.6870     7.8210     6.7410     8.7150    23.5230     2.1780 
  117.2500    -8.9700    63.4720     7.6500     6.5920     8.4750    23.4970     2.1820 
  117.3750    -8.5740    65.0610     7.5630     6.5150     8.2270    23.4300     2.1970 
