~V
VERS. 2.00: Ver 2.00
~W
STRT.M 50.0000:
STOP.M 274.0000:
STEP.M 0.1250:
NULL. -999.2500:
UWI. F10208:
~C
DEPT.M :
SP.MV :
DEN.GM/CC :
GR.API :
RML.OHMM :
RI. :
RXO.OHMM :
CALI.CM :
~A
# ...
   61.2500    50.8010     1.9090    33.8350     0.1470     0.1880     1.5150    23.5490 
   61.3750    50.8390     1.9110    34.9140     0.1460     0.1870     1.5330    23.4450 
   61.5000    50.8620     1.9130    37.2900     0.1270     0.1960     1.5320    23.4080 
   61.6250    50.8420     1.9210    36.6050     0.1060     0.2090     1.5230    23.3800 
   61.7500    50.8250     1.9340    33.9820     0.0980     0.2190     1.4890    23.5110 
   61.8750    50.6980     1.9460    32.7020     0.1060     0.2240     1.4460    23.6580 
   62.0000    50.3250     1.9520    33.3700     0.1180     0.2270     1.3500    23.8710 
   62.1250    49.5890     1.9500    35.4070     0.1270     0.2230     1.2340    24.1250 
   62.2500    48.4750     1.9440    40.0480     0.1280     0.2060     1.1170    24.3730 
   62.3750    47.0550     1.9400    45.0090     0.1210     0.1720     1.0650    24.5520 
   62.5000    45.4170     1.9490    45.2070     0.1020     0.1220     1.1250    24.7580 
   62.6250    43.2460     1.9900    41.0080     0.0710     0.0730     1.4930    24.9540 
   62.7500    40.3300     2.0730    40.2400     0.0410     0.0400     2.4240    25.1560 
   62.8750    36.8190     2.1980    43.9970     0.0240     0.0250     3.0570    25.2820 
   63.0000    32.7950     2.3450    45.9840     0.0240     0.0220     2.0320    25.3540 
   63.1250    27.7930     2.4490    44.8770     0.0510     0.0330     1.8000    25.2120 
   63.2500    21.6990     2.4690    49.2070     0.1140     0.0770     2.3180    24.6630 
   63.3750    14.7850     2.4050    59.5870     0.2470     0.1980     3.2830    23.9460 
   63.5000     7.5700     2.2970    67.9640     0.5140     0.4720     5.4790    23.5140 
   63.6250     0.7640     2.1900    65.4440     1.0780     1.0550     6.9440    23.3720 
   63.7500    -5.4160     2.1180    59.9910     1.9760     1.9700     7.5950    23.2750 
   63.8750   -11.0190     2.0910    58.8060     3.0500     3.1130     7.3880    23.2960 
   64.0000   -16.0140     2.1010    61.3140     3.9910     4.2430     7.3060    23.3480 
   64.1250   -19.9480     2.1240    63.6350     4.5990     5.1310     7.4920    22.7420 
   64.2500   -22.6430     2.1370    64.9860     5.0110     5.8100     8.0930    22.3810 
   64.3750   -24.3490     2.1370    65.8790     5.3110     6.3220     8.9550    22.6900 
   64.5000   -25.5420     2.1370    65.7690     5.5070     6.6630     9.3700    23.2730 
   64.6250   -26.5770     2.1510    64.3430     5.5760     6.7860     9.2740    23.5400 
   64.7500   -27.5930     2.1730    62.6830     5.5560     6.7420     8.7140    23.3340 
   64.8750   -28.5680     2.1880    60.0390     5.5150     6.6150     9.4940    22.9080 
   65.0000   -29.4360     2.1830    57.2690     5.5790     6.5570    10.2330    22.8690 
   65.1250   -30.1420     2.1680    56.0220     5.9820     6.8320    10.2070    23.0550 
   65.2500   -30.7700     2.1760    56.9080     6.8950     7.6150     9.9820    23.0400 
   65.3750   -31.3740     2.2330    57.9780     8.4860     9.0660    10.2080    23.1770 
   65.5000   -31.9870     2.3400    56.1180    10.7620    11.1970    13.0410    23.4630 
   65.6250   -32.7210     2.4710    51.6910    13.1470    13.5660    24.6160    23.4140 
   65.7500   -33.4830     2.5680    48.2940    14.2800    15.0110    46.5110    23.5040 
   65.8750   -34.2350     2.5920    46.8430    13.3920    14.6590    50.6380    23.4350 
   66.0000   -34.9780     2.5320    47.9670    11.1780    12.7430    28.5960    23.1700 
   66.1250   -35.6770     2.4170    52.9900     9.0700    10.4140    13.6770    23.0330 
   66.2500   -36.3300     2.2980    58.4890     7.6830     8.5870     9.8420    23.1360 
   66.3750   -36.8960     2.1980    59.4720     6.9650     7.4250     9.2310    23.0810 
   66.5000   -37.3770     2.1270    56.6430     6.7280     6.8430     9.3030    22.9770 
   66.6250   -37.7320     2.0880    54.5170     6.8250     6.7320     9.2390    23.0350 
   66.7500   -38.0600     2.0660    54.2920     7.0400     6.8440     9.2140    23.3170 
   66.8750   -38.3470     2.0560    54.8640     7.2630     7.0380     9.4390    23.8480 
   67.0000   -38.6160     2.0530    56.0260     7.4450     7.2260     9.7840    24.3940 
   67.1250   -38.8420     2.0590    56.6670     7.5820     7.3710     9.8770    24.5710 
   67.2500   -39.0150     2.0720    55.8890     7.6990     7.4820     9.8680    24.5650 
   67.3750   -39.1670     2.0890    54.0290     7.7970     7.5580     9.8860    24.3440 
   67.5000   -39.3110     2.1080    51.7190     7.8620     7.5910     9.9860    24.3430 
   67.6250   -39.4690     2.1310    50.5410     7.8720     7.5600    10.0770    24.2100 
   67.7500   -39.5980     2.1520    51.9050     7.8390     7.4750    10.0410    23.7980 
   67.8750   -39.7780     2.1650    55.1370     7.7920     7.3620     9.6960    23.2920 
   68.0000   -39.9950     2.1640    58.5060     7.7720     7.2600     9.1690    23.0330 
   68.1250   -40.3170     2.1480    59.1520     7.8200     7.2120     9.0330    22.7100 
   68.2500   -40.6850     2.1280    57.8540     7.9170     7.2170     9.0500    22.5450 
   68.3750   -41.0710     2.1100    56.0770     8.0280     7.2550     9.1800    22.4890 
   68.5000   -41.4480     2.0980    54.5680     8.1110     7.2930     9.3300    22.6130 
   68.6250   -41.7760     2.0910    53.0090     8.1370     7.3010     9.6140    23.0280 
   68.7500   -42.0890     2.0870    52.0300     8.1350     7.2790     9.8670    23.3680 
   68.8750   -42.3010     2.0820    52.9180     8.1510     7.2480    10.1590    23.7350 
   69.0000   -42.3630     2.0780    54.0930     8.2280     7.2370    10.4150    23.9840 
   69.1250   -42.1660     2.0760    53.0800     8.3750     7.2650    10.7380    24.2080 
   69.2500   -41.8350     2.0770    51.2790     8.5220     7.3070    10.9560    24.5310 
   69.3750   -41.4580     2.0810    52.1450     8.5970     7.3190    10.9870    24.7320 
   69.5000   -41.0510     2.0890    55.7210     8.5550     7.2660    11.0400    24.5940 
   69.6250   -40.6420     2.1060    56.4960     8.3950     7.1290    10.9070    24.4260 
   69.7500   -40.2450     2.1270    55.1050     8.2100     6.9630    10.4440    24.2310 
   69.8750   -39.8990     2.1480    55.2890     8.0820     6.8220     9.7370    23.9240 
   70.0000   -39.6470     2.1600    58.7140     8.0600     6.7480     9.3270    23.7580 
   70.1250   -39.5270     2.1570    61.5740     8.1690     6.7650     9.6010    23.7540 
   70.2500   -39.5070     2.1440    61.3150     8.3530     6.8400    10.2620    23.9630 
   70.3750   -39.4870     2.1280    58.5600     8.5630     6.9380    10.9290    24.3360 
   70.5000   -39.4640     2.1160    55.8420     8.7460     7.0240    10.6440    24.8970 
   70.6250   -39.3770     2.1110    55.1420     8.8360     7.0570    10.2490    25.0070 
   70.7500   -39.2440     2.1080    54.3000     8.8250     7.0260    10.0440    24.8720 
   70.8750   -39.0980     2.1060    52.3120     8.7240     6.9330    10.0290    24.7280 
   71.0000   -38.9570     2.1070    50.8120     8.5660     6.8000     9.9510    24.4220 
   71.1250   -38.8690     2.1150    51.2360     8.4080     6.6620     9.5380    24.1930 
   71.2500   -38.8230     2.1250    52.8380     8.3110     6.5610     8.8880    24.0290 
   71.3750   -38.8420     2.1320    55.4740     8.3110     6.5270     8.7680    23.9290 
   71.5000   -38.8660     2.1340    56.4030     8.4120     6.5680     9.4220    23.9840 
   71.6250   -38.9570     2.1370    53.2200     8.5820     6.6670     9.9600    24.0820 
   71.7500   -39.0890     2.1490    52.7410     8.7470     6.7750    10.0060    24.2710 
   71.8750   -39.2430     2.1720    58.6960     8.8550     6.8520     9.6820    24.2980 
   72.0000   -39.3970     2.1920    65.1340     8.8790     6.8750     9.2670    24.0200 
   72.1250   -39.5300     2.1920    64.0390     8.8280     6.8380     9.1490    23.7700 
   72.2500   -39.6230     2.1720    58.6270     8.7540     6.7740     9.2100    23.6020 
   72.3750   -39.6470     2.1430    55.0110     8.6830     6.7050     9.3540    23.5130 
