~V
VERS. 2.00: Ver 2.00
~W
STRT.M 56.0000:
STOP.M 281.0000:
STEP.M 0.1250:
NULL. -999.2500:
UWI. F10232:
~C
DEPT.M :
SP.MV :
GR.API :
RML.OHMM :
RI. :
RXO.OHMM :
CALI.CM :
DEN.GM/CC :
~A
# ...
  236.0000   -15.5140    55.6040    64.3630    61.3510    59.3090    24.0200     2.3340 
  236.1250   -15.6790    51.9050    67.8470    64.9720    64.2940    24.0060     2.3240 
  236.2500   -15.8550    50.6420    69.8290    67.4000    67.2880    23.9820     2.3130 
  236.3750   -16.0290    51.8070    70.2250    67.6430    67.0900    23.9470     2.3060 
  236.5000   -16.1800    54.7710    69.0290    65.9950    65.5990    23.9110     2.3030 
  236.6250   -16.3220    57.7150    67.2490    63.1260    63.3160    23.8910     2.3020 
  236.7500   -16.4460    59.0920    66.8390    60.0460    59.4190    23.8860     2.3020 
  236.8750   -16.5330    59.2980    64.6150    57.9520    54.8910    23.8890     2.3040 
  237.0000   -16.5850    58.5970    64.1640    57.3230    52.5390    23.8870     2.3080 
  237.1250   -16.5960    57.8430    65.4920    58.2830    53.4050    23.8750     2.3120 
  237.2500   -16.5480    57.7040    68.2730    60.6520    56.8080    23.8480     2.3170 
  237.3750   -16.4550    58.0070    72.0120    64.1110    61.3710    23.7930     2.3190 
  237.5000   -16.3280    57.1670    75.8690    67.9020    65.3680    23.7120     2.3170 
  237.6250   -16.1620    55.1900    79.3580    71.5450    67.5990    23.6210     2.3100 
  237.7500   -15.9660    53.7090    82.2390    74.7410    67.7160    23.5420     2.3010 
  237.8750   -15.7380    53.9460    84.4950    77.3640    67.7660    23.5000     2.2940 
  238.0000   -15.4790    54.1490    86.5120    79.6940    69.8440    23.5210     2.2910 
  238.1250   -15.2020    53.2360    88.5750    81.9780    73.3240    23.5990     2.2910 
  238.2500   -14.9280    52.2710    90.8310    84.3850    76.4010    23.7070     2.2920 
  238.3750   -14.6380    52.2050    93.1110    86.8410    78.7340    23.8010     2.2890 
  238.5000   -14.3480    51.4860    94.8450    88.9000    81.7950    23.8350     2.2830 
  238.6250   -14.0540    48.8970    95.3210    89.9380    85.7310    23.8290     2.2760 
  238.7500   -13.7490    47.6550    93.9270    89.3570    89.4060    23.8100     2.2700 
  238.8750   -13.4410    51.1650    90.2300    86.6140    89.2760    23.7760     2.2680 
  239.0000   -13.1370    55.3510    85.1960    82.4410    82.9050    23.7210     2.2700 
  239.1250   -12.8570    56.6720    79.7550    77.6130    72.9120    23.6490     2.2740 
  239.2500   -12.6000    55.4430    74.7230    72.9120    64.3120    23.5760     2.2790 
  239.3750   -12.3520    55.6660    70.7630    69.0410    59.8160    23.5500     2.2860 
  239.5000   -12.1210    57.6530    67.9240    66.1630    58.5020    23.5800     2.2960 
  239.6250   -11.9000    59.0460    66.3390    64.4340    57.2210    23.6100     2.3080 
  239.7500   -11.6910    59.5360    66.2130    64.0450    54.9620    23.6090     2.3190 
  239.8750   -11.4930    58.7180    68.0990    65.5040    55.7070    23.5870     2.3240 
  240.0000   -11.2930    57.4340    71.8150    68.6760    60.6230    23.5640     2.3210 
  240.1250   -11.0570    56.9830    77.0840    73.3690    68.5530    23.5100     2.3110 
  240.2500   -10.7740    57.1040    83.1720    78.9670    77.4260    23.4520     2.2980 
  240.3750   -10.4580    55.3610    88.7000    84.2560    80.5830    23.4320     2.2850 
  240.5000   -10.1070    52.8280    92.4010    88.0130    78.8710    23.4510     2.2750 
  240.6250    -9.7350    52.5640    93.4780    89.4640    76.8340    23.5000     2.2690 
  240.7500    -9.3650    53.5660    91.6750    88.3200    78.3990    23.5720     2.2710 
  240.8750    -9.0050    52.6470    86.7940    84.3160    75.7270    23.6520     2.2850 
  241.0000    -8.6530    49.9270    79.7370    78.1920    73.0360    23.7370     2.3080 
  241.1250    -8.3120    48.4420    71.0250    70.3350    71.5290    23.8050     2.3310 
  241.2500    -7.9940    48.8430    61.4360    61.3990    68.0170    23.8320     2.3450 
  241.3750    -7.6930    49.1920    52.1610    52.4920    57.4450    23.8370     2.3420 
  241.5000    -7.4090    49.0810    44.1100    44.6220    44.7600    23.8460     2.3290 
  241.6250    -7.1380    49.4390    37.6690    38.2380    35.9520    23.8540     2.3130 
  241.7500    -6.8600    51.2970    32.8410    33.3850    31.2650    23.8330     2.3020 
  241.8750    -6.5740    52.2520    29.5630    30.0330    29.2560    23.7750     2.3000 
  242.0000    -6.2730    52.5420    27.2310    27.6240    27.7590    23.6980     2.3020 
  242.1250    -5.9690    54.7560    25.5520    25.8890    25.3390    23.6310     2.3040 
  242.2500    -5.6740    58.2490    24.3280    24.6380    22.6930    23.6260     2.3030 
  242.3750    -5.3990    59.0470    23.5210    23.8250    21.6950    23.6930     2.2990 
  242.5000    -5.1620    57.9250    23.0910    23.3800    21.6200    23.7700     2.2950 
  242.6250    -4.9710    55.8020    23.1170    23.3600    21.9750    23.8080     2.2920 
  242.7500    -4.8300    53.1530    23.6680    23.8270    22.1450    23.8170     2.2930 
  242.8750    -4.7270    50.4720    24.7870    24.8430    22.6900    23.8180     2.2940 
  243.0000    -4.6610    49.0670    26.1490    26.1340    24.2520    23.8180     2.2970 
  243.1250    -4.6220    49.2460    27.3400    27.3360    26.9670    23.8170     2.3010 
  243.2500    -4.5910    50.6150    27.8630    27.9670    29.5520    23.8170     2.3110 
  243.3750    -4.5630    52.8300    27.1400    27.4020    30.1180    23.8170     2.3300 
  243.5000    -4.5200    57.0090    25.3850    25.7660    28.2430    23.8130     2.3510 
  243.6250    -4.4520    63.0790    23.0480    23.4650    25.4290    23.8030     2.3670 
  243.7500    -4.3610    68.6650    20.7340    21.0980    22.1000    23.7840     2.3710 
  243.8750    -4.2630    68.1160    19.0750    19.2850    19.1420    23.7510     2.3600 
  244.0000    -4.1680    63.1220    18.1730    18.1680    17.5330    23.7030     2.3440 
  244.1250    -4.0890    57.2510    17.9220    17.6920    17.1870    23.6430     2.3290 
  244.2500    -4.0290    52.6230    18.0740    17.6650    17.0640    23.5750     2.3200 
  244.3750    -3.9900    50.7080    18.3060    17.8190    17.1060    23.5350     2.3160 
  244.5000    -3.9710    51.8860    18.3440    17.8620    17.7030    23.5660     2.3130 
  244.6250    -3.9550    54.2300    18.1370    17.6960    17.9330    23.6690     2.3100 
  244.7500    -3.9350    56.3420    17.8650    17.4290    16.9560    23.7920     2.3060 
  244.8750    -3.9040    57.6490    18.0300    17.4660    15.5220    23.8570     2.3080 
  245.0000    -3.8630    57.6920    18.9900    18.1620    15.5190    23.8760     2.3230 
  245.1250    -3.8060    55.5570    20.8340    19.6690    18.3940    23.8770     2.3590 
  245.2500    -3.7420    52.4480    23.2410    21.7990    24.4030    23.8760     2.4180 
  245.3750    -3.6760    49.0850    25.3360    23.8650    32.3740    23.8770     2.4830 
  245.5000    -3.6040    45.2020    26.2070    24.9560    39.3160    23.8820     2.5230 
  245.6250    -3.5480    44.1330    25.3710    24.4540    40.1110    23.8920     2.5180 
  245.7500    -3.5310    48.5800    23.0110    22.3790    31.2380    23.9080     2.4730 
  245.8750    -3.5680    54.5750    20.0290    19.5610    20.7940    23.9250     2.4110 
  246.0000    -3.6530    56.7410    17.6100    17.1850    16.6000    23.9380     2.3610 
  246.1250    -3.7900    58.5040    16.2660    15.7270    15.2730    23.9410     2.3280 
  246.2500    -3.9590    63.6680    16.0540    15.2580    15.0160    23.9390     2.3100 
  246.3750    -4.1300    66.9800    16.8750    15.7630    15.6260    23.9380     2.3000 
  246.5000    -4.2840    64.3690    18.2300    16.8630    16.9800    23.9380     2.2920 
  246.6250    -4.4040    60.9290    19.8080    18.3090    18.8730    23.9380     2.2860 
  246.7500    -4.5000    60.9910    21.3170    19.8410    20.9190    23.9390     2.2830 
  246.8750    -4.5840    60.5320    22.4580    21.1550    22.0670    23.9390     2.2830 
  247.0000    -4.6390    57.1780    23.1690    22.1020    22.5330    23.9390     2.2860 
  247.1250    -4.6390    53.1760    23.4760    22.6390    22.5910    23.9390     2.2900 
