~V
VERS. 2.00: Ver 2.00
~W
STRT.M 57.0000:
STOP.M 281.0000:
STEP.M 0.1250:
NULL. -999.2500:
UWI. F10238:
~C
DEPT.M :
GR.API :
RML.OHMM :
RI. :
RXO.OHMM :
CALI.CM :
DEN.GM/CC :
SP.MV :
~A
# ...
  169.5000    58.3050   135.7290   115.1590   105.1540    24.5450     2.1970   -27.9970 
  169.6250    58.1000   135.2680   116.3130   104.9790    24.4380     2.2020   -28.3210 
  169.7500    58.4930   130.1560   113.4060   101.3900    24.3510     2.2090   -28.6180 
  169.8750    59.8920   121.8660   107.3840    93.8680    24.3100     2.2180   -28.8830 
  170.0000    61.3340   112.6640   100.0970    85.2730    24.2830     2.2270   -29.1300 
  170.1250    61.3950   104.3100    93.0240    74.3760    24.2510     2.2370   -29.3520 
  170.2500    61.1830    98.6390    87.7880    62.7440    24.2190     2.2470   -29.5730 
  170.3750    63.6900    96.9230    85.6880    55.1480    24.2030     2.2520   -29.7950 
  170.5000    67.2440    99.1550    87.0030    53.6120    24.2070     2.2480   -30.0230 
  170.6250    66.8690   104.9570    91.5730    58.5550    24.2330     2.2340   -30.2460 
  170.7500    61.8300   113.5010    98.8270    69.8930    24.2660     2.2160   -30.4610 
  170.8750    57.1840   123.1520   107.4660    84.6150    24.2960     2.2000   -30.6640 
  171.0000    55.8910   131.4830   115.3770    93.2730    24.3320     2.1910   -30.8500 
  171.1250    56.5280   136.4820   120.6580    88.0550    24.3500     2.1910   -31.0180 
  171.2500    58.1310   137.3020   122.1940    79.1060    24.3170     2.1980   -31.1430 
  171.3750    59.4300   135.3390   120.7920    76.8880    24.2530     2.2090   -31.2260 
  171.5000    59.5190   133.6540   118.9810    72.7060    24.2100     2.2180   -31.2790 
  171.6250    59.8250   134.7080   119.0340    65.9990    24.1860     2.2190   -31.2900 
  171.7500    61.6740   140.2240   122.8210    64.0000    24.1540     2.2120   -31.2730 
  171.8750    63.7980   149.9080   130.5340    75.8870    24.1110     2.1990   -31.2360 
  172.0000    63.6800   160.8500   139.9670    97.0330    24.1110     2.1850   -31.1810 
  172.1250    61.7590   169.5040   148.2350   115.2960    24.2220     2.1760   -31.1180 
  172.2500    60.0300   172.3000   152.1240   120.4540    24.4020     2.1740   -31.0310 
  172.3750    59.1930   168.5150   150.3420   113.3650    24.5380     2.1770   -30.9270 
  172.5000    58.6610   161.4170   144.9700   103.8590    24.6450     2.1820   -30.7990 
  172.6250    58.2750   154.1530   138.6440   101.2420    24.7220     2.1840   -30.6770 
  172.7500    59.1170   148.4720   133.2870   107.6090    24.7660     2.1850   -30.5530 
  172.8750    61.2770   144.4940   129.3980   110.7970    24.7810     2.1840   -30.4230 
  173.0000    63.0840   141.8280   126.7490   102.4490    24.7810     2.1820   -30.2870 
  173.1250    62.9230   140.7990   125.5680    91.9560    24.7720     2.1780   -30.1440 
  173.2500    60.8340   142.2750   126.5550    86.5960    24.7660     2.1680   -30.0230 
  173.3750    58.6510   146.7670   130.2210    90.5530    24.7730     2.1580   -29.9240 
  173.5000    56.8030   153.4290   136.0250   101.4250    24.7840     2.1550   -29.8440 
  173.6250    54.8260   160.5450   142.6890   116.4240    24.7890     2.1640   -29.7640 
  173.7500    53.5440   165.3690   147.9310   122.7230    24.7900     2.1850   -29.6860 
  173.8750    53.6710   165.7120   149.6240   118.2380    24.7890     2.2080   -29.6100 
  174.0000    54.9730   161.8530   147.4930   110.7210    24.7880     2.2190   -29.5310 
  174.1250    56.9340   155.5140   142.6690   103.3880    24.7830     2.2170   -29.4410 
  174.2500    58.9010   148.8420   136.9700    96.5280    24.7710     2.2090   -29.3420 
  174.3750    59.0740   143.0250   131.6800    90.3730    24.7520     2.2000   -29.2290 
  174.5000    57.1140   137.9270   126.9600    84.3340    24.7020     2.1950   -29.1160 
  174.6250    55.9650   133.0390   122.4230    81.3830    24.5600     2.1950   -28.9990 
  174.7500    57.1540   128.0760   117.7680    74.0590    24.2910     2.1980   -28.8680 
  174.8750    59.0430   123.1630   113.0700    64.4720    24.0280     2.2020   -28.7200 
  175.0000    59.5860   118.6280   108.6580    62.0640    23.9520     2.2080   -28.5650 
  175.1250    59.2770   114.8160   104.8900    65.5440    24.0500     2.2130   -28.4250 
  175.2500    59.6120   112.3550   102.3950    74.6280    24.2140     2.2150   -28.2710 
  175.3750    60.6520   112.0540   101.9680    84.5810    24.3320     2.2130   -28.1150 
  175.5000    61.9390   114.4970   104.1950    84.6820    24.3720     2.2040   -27.9440 
  175.6250    63.7510   120.3100   109.7160    81.2190    24.3060     2.1910   -27.7630 
  175.7500    64.7090   130.2420   119.3800    90.6070    24.1560     2.1780   -27.5920 
  175.8750    62.4860   144.3820   133.4690   114.2440    24.0560     2.1660   -27.4180 
  176.0000    58.3030   161.2910   150.7540   133.9550    24.0950     2.1590   -27.2430 
  176.1250    56.5910   178.5470   169.1430   137.5580    24.2470     2.1570   -27.0620 
  176.2500    58.6700   190.4560   183.6560   131.4620    24.4180     2.1570   -26.8890 
  176.3750    60.1370   188.6360   186.3280   130.6670    24.5160     2.1580   -26.7090 
  176.5000    58.3910   168.2760   171.0580   138.2790    24.5140     2.1610   -26.5400 
  176.6250    56.6760   132.7800   138.8770   140.4060    24.4600     2.1720   -26.3830 
  176.7500    58.9730    94.1510   100.4640   119.0050    24.4190     2.1960   -26.2260 
  176.8750    65.4960    63.6250    68.2070    74.3440    24.4210     2.2360   -26.0790 
  177.0000    72.3650    44.0170    46.7350    39.0380    24.4310     2.2830   -25.9620 
  177.1250    76.8660    33.6680    34.7940    23.3030    24.4070     2.3230   -25.8790 
  177.2500    78.0660    30.5080    30.0450    19.9330    24.3490     2.3400   -25.8540 
  177.3750    76.2610    33.1240    30.7550    23.3790    24.3020     2.3340   -25.8930 
  177.5000    72.6510    40.5400    35.9940    32.9210    24.2900     2.3120   -25.9670 
  177.6250    68.4000    52.7880    46.1340    48.6970    24.3000     2.2830   -26.0930 
  177.7500    65.6440    69.5480    61.3170    67.2460    24.3230     2.2550   -26.2670 
  177.8750    65.7090    89.0340    79.9090    80.0110    24.3320     2.2340   -26.4920 
  178.0000    66.1740   108.1870    98.4950    84.9280    24.2930     2.2240   -26.7290 
  178.1250    64.7030   125.0460   114.7000    85.7020    24.2140     2.2240   -26.9710 
  178.2500    62.3030   139.1070   127.6560    86.5630    24.1260     2.2300   -27.1950 
  178.3750    61.6640   151.0360   137.8610    92.9230    24.0890     2.2320   -27.3900 
  178.5000    62.5430   161.2940   145.9700   106.7980    24.1510     2.2240   -27.5740 
  178.6250    63.0600   168.7730   151.3150   126.3140    24.3400     2.2050   -27.7210 
  178.7500    62.5140   170.9590   152.1240   141.1240    24.5780     2.1830   -27.8400 
  178.8750    61.3400   165.9690   147.1550   137.4090    24.7370     2.1700   -27.9330 
  179.0000    60.1050   154.6910   137.2640   124.2720    24.7440     2.1700   -28.0130 
  179.1250    60.1130   139.2000   124.0600   108.6210    24.6280     2.1830   -28.0710 
  179.2500    61.4510   122.4620   109.8210    89.9000    24.4250     2.2030   -28.1090 
  179.3750    62.3580   107.1690    96.6960    73.0490    24.2150     2.2240   -28.1310 
  179.5000    61.4970    94.7060    85.8910    58.9910    24.0810     2.2390   -28.1440 
  179.6250    59.8760    85.3670    77.7450    47.0400    24.0290     2.2470   -28.1460 
  179.7500    59.2110    78.8920    72.1240    42.2560    24.0420     2.2480   -28.1430 
  179.8750    59.6130    74.5700    68.4410    48.0780    24.1200     2.2460   -28.1450 
  180.0000    59.9330    71.4880    65.8660    54.9760    24.2570     2.2460   -28.1310 
  180.1250    59.4900    69.2250    64.0020    59.4840    24.4240     2.2480   -28.1090 
  180.2500    58.7160    67.4730    62.5700    57.0810    24.5610     2.2500   -28.0780 
  180.3750    59.1140    65.9030    61.2820    51.6210    24.6020     2.2510   -28.0570 
  180.5000    60.2960    64.2070    59.8640    48.9230    24.5210     2.2530   -28.0400 
  180.6250    60.6150    62.2920    58.2040    46.3820    24.3290     2.2610   -28.0400 
