~V
VERS. 2.00: Ver 2.00
~W
STRT.M 58.0000:
STOP.M 277.0000:
STEP.M 0.1250:
NULL. -999.2500:
UWI. F10219:
~C
DEPT.M :
SP.MV :
DEN.GM/CC :
GR.API :
RML.OHMM :
RI. :
RXO.OHMM :
CALI.CM :
~A
# ...
   80.5000   -29.6690     2.1430    60.1740     8.1960     6.5760    11.2590    24.4630 
   80.6250   -29.0450     2.1530    59.6790     8.2510     6.5880    11.1450    24.4000 
   80.7500   -28.2840     2.1630    62.7980     8.3100     6.6170    11.1070    24.3490 
   80.8750   -27.5780     2.1680    67.2460     8.3530     6.6430    11.1350    24.2980 
   81.0000   -27.0040     2.1650    68.9690     8.3810     6.6500    11.1190    24.2420 
   81.1250   -26.5110     2.1590    67.4950     8.4180     6.6370    10.9870    24.1910 
   81.2500   -26.2270     2.1580    65.5600     8.5000     6.6200    10.7720    24.1610 
   81.3750   -26.2840     2.1620    65.3980     8.6510     6.6230    10.6640    24.1640 
   81.5000   -26.5760     2.1650    66.2320     8.8560     6.6620    10.8150    24.2320 
   81.6250   -27.0540     2.1570    66.7910     9.0810     6.7350    11.1480    24.4550 
   81.7500   -27.7280     2.1430    66.9760     9.2700     6.8220    11.4490    24.9120 
   81.8750   -28.4770     2.1340    67.1460     9.3740     6.8960    11.5530    25.4520 
   82.0000   -29.2070     2.1370    67.0120     9.3870     6.9400    11.4460    25.7890 
   82.1250   -29.9550     2.1460    65.2520     9.3310     6.9530    11.2680    25.9560 
   82.2500   -30.6820     2.1570    61.3180     9.2440     6.9470    11.1350    26.1080 
   82.3750   -31.2650     2.1630    56.8930     9.1610     6.9370    11.1210    26.3400 
   82.5000   -31.7070     2.1650    54.1330     9.1030     6.9320    11.2080    26.6420 
   82.6250   -32.0770     2.1650    53.3490     9.0760     6.9380    11.2520    26.9670 
   82.7500   -32.3690     2.1650    53.3560     9.0940     6.9610    11.0070    27.2550 
   82.8750   -32.6190     2.1650    53.5690     9.1650     7.0140    10.3740    27.4740 
   83.0000   -32.9290     2.1670    53.9260     9.2800     7.1020     9.5630    27.6890 
   83.1250   -33.3010     2.1720    54.0310     9.4170     7.2170     9.0410    28.0830 
   83.2500   -33.6470     2.1810    53.8560     9.5360     7.3350     9.3340    28.6840 
   83.3750   -33.9480     2.1900    54.3330     9.5970     7.4170    10.4620    29.1190 
   83.5000   -34.1700     2.1940    56.2270     9.5830     7.4340    11.6490    29.1170 
   83.6250   -34.1860     2.1930    58.6790     9.5040     7.3810    12.1690    28.9470 
   83.7500   -34.0160     2.1900    59.9190     9.3930     7.2760    12.0200    28.8670 
   83.8750   -33.7410     2.1910    59.3970     9.2960     7.1560    11.6730    28.9890 
   84.0000   -33.3440     2.1970    59.1000     9.2410     7.0590    11.4270    29.0930 
   84.1250   -32.8340     2.2050    60.7920     9.2270     6.9990    11.3010    28.6520 
   84.2500   -32.3740     2.2050    63.5830     9.2300     6.9710    11.3190    27.8270 
   84.3750   -32.0330     2.1910    64.6860     9.2190     6.9600    11.4500    27.5130 
   84.5000   -31.7410     2.1750    62.9670     9.1830     6.9560    11.5010    27.9400 
   84.6250   -31.5180     2.1650    60.4350     9.1300     6.9640    11.4350    28.7030 
   84.7500   -31.3380     2.1590    58.6740     9.0810     6.9900    11.3530    28.9920 
   84.8750   -31.0640     2.1510    57.1110     9.0310     7.0230    11.3620    28.5160 
   85.0000   -30.6030     2.1410    55.7910     8.9430     7.0280    11.4350    27.7780 
   85.1250   -29.8820     2.1390    56.3180     8.7560     6.9520    11.3760    27.3130 
   85.2500   -28.7020     2.1470    58.6660     8.4070     6.7420    10.8190    27.2350 
   85.3750   -26.9510     2.1650    61.1150     7.9030     6.3930     9.5960    27.3410 
   85.5000   -24.8410     2.1960    64.7130     7.3510     5.9730     8.0100    27.2540 
   85.6250   -22.6220     2.2320    72.9190     6.8770     5.5650     6.5770    26.8040 
   85.7500   -20.4540     2.2610    84.8170     6.6100     5.2620     5.7770    26.2080 
   85.8750   -18.4840     2.2720    94.4320     6.5980     5.1210     5.7230    25.7390 
   86.0000   -16.8400     2.2680    97.4650     6.7790     5.1320     6.0830    25.4070 
   86.1250   -15.5800     2.2540    95.3480     7.0750     5.2650     6.5480    25.1400 
   86.2500   -14.7650     2.2370    91.7290     7.3960     5.4750     6.8820    24.9520 
   86.3750   -14.4910     2.2260    88.4120     7.6760     5.7060     6.9380    24.8630 
   86.5000   -14.7070     2.2190    85.8550     7.8870     5.9140     6.8910    24.8280 
   86.6250   -15.1910     2.2120    83.9340     8.0290     6.0790     7.0800    24.8210 
   86.7500   -15.7270     2.2060    81.3530     8.1200     6.1980     7.4820    24.8240 
   86.8750   -16.2520     2.2020    78.1690     8.1890     6.2830     7.8020    24.8180 
   87.0000   -16.7450     2.2000    76.6270     8.2790     6.3670     7.9390    24.7770 
   87.1250   -17.2010     2.1950    77.7970     8.4280     6.4820     8.0980    24.7170 
   87.2500   -17.7270     2.1880    79.6770     8.6680     6.6620     8.3670    24.7220 
   87.3750   -18.3760     2.1810    79.9940     8.9920     6.9120     8.7160    24.8500 
   87.5000   -19.0200     2.1740    78.3390     9.3400     7.1890     9.0950    25.0500 
   87.6250   -19.6270     2.1660    74.8020     9.6330     7.4340     9.5060    25.2340 
   87.7500   -20.1970     2.1610    70.7200     9.7780     7.5680     9.8550    25.3380 
   87.8750   -20.5680     2.1610    68.3720     9.7130     7.5310     9.9960    25.3420 
   88.0000   -20.5790     2.1720    68.2380     9.4470     7.3240     9.8370    25.2750 
   88.1250   -20.2460     2.1920    70.1420     9.0140     6.9770     9.3260    25.1800 
   88.2500   -19.6030     2.2190    74.4920     8.4760     6.5440     8.5470    25.1210 
   88.3750   -18.6650     2.2440    80.2520     7.9350     6.1010     7.7080    25.1410 
   88.5000   -17.6300     2.2610    85.0320     7.5130     5.7300     6.9710    25.2760 
   88.6250   -16.7300     2.2690    87.5110     7.3140     5.4960     6.4250    25.5390 
   88.7500   -16.1580     2.2660    87.3290     7.4160     5.4590     6.2360    25.8470 
   88.8750   -16.0910     2.2470    84.3440     7.8130     5.6430     6.5840    26.0650 
   89.0000   -16.5970     2.2120    78.8600     8.3800     5.9960     7.4170    26.1190 
   89.1250   -17.5750     2.1730    72.4230     8.9690     6.4440     8.5780    26.0310 
   89.2500   -18.7830     2.1450    67.0120     9.4000     6.8610     9.5680    25.9010 
   89.3750   -20.0170     2.1410    63.7040     9.5340     7.1170     9.9760    25.8580 
   89.5000   -21.0700     2.1580    62.6630     9.3560     7.1470    10.1330    25.9180 
   89.6250   -21.6290     2.1910    63.6400     8.9160     6.9520    10.1840    25.9500 
   89.7500   -21.4370     2.2290    65.6960     8.3250     6.5980     9.9830    25.8450 
   89.8750   -20.5480     2.2620    68.6400     7.7280     6.1930     9.4440    25.6630 
   90.0000   -19.2640     2.2840    74.1500     7.2530     5.8410     8.6860    25.5690 
   90.1250   -17.7860     2.2900    82.1840     6.9690     5.6010     7.7660    25.5170 
   90.2500   -16.3150     2.2810    88.5180     6.9050     5.5050     6.8920    25.4550 
   90.3750   -14.9680     2.2720    89.2960     7.0290     5.5500     6.4340    25.3430 
   90.5000   -13.7070     2.2760    86.0390     7.2540     5.6900     6.5030    25.2160 
   90.6250   -12.5880     2.3010    81.8970     7.5090     5.8890     6.6820    25.1430 
   90.7500   -11.7640     2.3510    79.6960     7.7300     6.1050     6.8470    25.1760 
   90.8750   -11.2140     2.4140    80.8290     7.8700     6.2920     7.0000    25.2780 
   91.0000   -10.7500     2.4640    83.3200     7.9170     6.4140     7.1100    25.3530 
   91.1250   -10.3400     2.4730    85.3140     7.8790     6.4470     7.1520    25.3600 
   91.2500   -10.0050     2.4330    87.0880     7.7670     6.3790     7.0520    25.3160 
   91.3750    -9.6990     2.3710    88.4240     7.5860     6.2150     6.7710    25.2450 
   91.5000    -9.4800     2.3280    87.4320     7.3380     5.9800     6.4630    25.2040 
   91.6250    -9.4380     2.3130    83.8580     7.0140     5.6800     6.2890    25.2570 
