~V
VERS. 2.00: Ver 2.00
~W
STRT.M 53.0000:
STOP.M 296.0000:
STEP.M 0.1250:
NULL. -999.2500:
UWI. F10258:
~C
DEPT.M :
GR.API :
RML.OHMM :
RI. :
RXO.OHMM :
CALI.CM :
DEN.GM/CC :
SP.MV :
~A
# ...
  176.7500    70.3740    24.5020    22.4630    20.7200    25.4710     2.5430   -14.7040 
  176.8750    71.0200    25.3710    23.3290    20.7990    25.3880     2.5750   -14.6730 
  177.0000    73.2920    26.1600    24.2720    21.8940    25.3400     2.6070   -14.6140 
  177.1250    77.3920    26.4500    24.8860    22.9390    25.4670     2.6260   -14.5390 
  177.2500    79.2200    25.9770    24.7720    26.2130    25.6640     2.6230   -14.4590 
  177.3750    77.7350    24.6690    23.7100    29.5540    25.8650     2.5940   -14.3780 
  177.5000    74.6030    22.7440    21.8620    25.6580    26.0260     2.5500   -14.2990 
  177.6250    73.0250    20.6810    19.7610    17.4250    26.1030     2.5150   -14.2340 
  177.7500    74.1540    18.9810    17.9850    13.7470    26.1440     2.4980   -14.1880 
  177.8750    76.9610    17.8630    16.7580    14.0860    26.1740     2.4950   -14.1650 
  178.0000    80.8130    17.3360    16.1040    15.4400    26.2030     2.4900   -14.1710 
  178.1250    81.0290    17.2820    15.9700    15.9400    26.2660     2.4660   -14.2060 
  178.2500    78.3230    17.3650    16.0450    15.8130    26.3550     2.4240   -14.2540 
  178.3750    76.5920    17.3850    16.1010    16.2200    26.5440     2.3740   -14.3030 
  178.5000    77.4310    17.2520    16.0010    16.2990    26.9590     2.3310   -14.3350 
  178.6250    77.6400    17.0190    15.7450    16.3890    27.6570     2.3100   -14.3360 
  178.7500    75.6350    16.8750    15.5030    16.6310    28.2460     2.3090   -14.3090 
  178.8750    74.3980    16.9790    15.4420    16.7110    28.5220     2.3240   -14.2490 
  179.0000    74.7480    17.4030    15.6890    16.3970    28.5770     2.3440   -14.1540 
  179.1250    75.5020    18.0830    16.2880    15.9730    28.5470     2.3620   -14.0190 
  179.2500    76.5870    18.6880    16.9530    16.7530    28.4370     2.3800   -13.8540 
  179.3750    77.8920    18.8860    17.3080    20.2950    28.0320     2.4040   -13.6600 
  179.5000    77.5660    18.4480    17.0000    25.2590    27.2800     2.4310   -13.4440 
  179.6250    74.7910    17.3460    15.8850    22.0730    26.8040     2.4490   -13.2000 
  179.7500    74.3880    16.0480    14.4760    15.9170    26.7340     2.4470   -12.9280 
  179.8750    77.4220    14.9600    13.2090    12.1400    26.8570     2.4270   -12.6350 
  180.0000    82.2320    14.3650    12.3600    10.7040    26.9430     2.4070   -12.3300 
  180.1250    84.9400    14.4420    12.1160    11.2690    26.8230     2.4090   -12.0260 
  180.2500    84.3230    14.9880    12.3510    12.3360    26.6190     2.4350   -11.7380 
  180.3750    82.2490    15.8220    12.9440    12.3700    26.4010     2.4730   -11.4750 
  180.5000    80.1470    16.7430    13.7190    12.8050    26.3060     2.5120   -11.2530 
  180.6250    80.7270    17.5200    14.4540    13.9220    26.3260     2.5420   -11.0880 
  180.7500    82.7430    17.9950    14.9550    16.6010    26.3450     2.5640   -10.9790 
  180.8750    83.7120    18.0780    15.0940    18.3640    26.3340     2.5780   -10.9140 
  181.0000    81.4940    17.7770    14.8410    17.6990    26.3520     2.5830   -10.8890 
  181.1250    78.9400    17.2210    14.2900    15.6850    26.4570     2.5830   -10.9020 
  181.2500    78.0600    16.7040    13.7210    14.1990    26.5650     2.5850   -10.9420 
  181.3750    77.8900    16.4270    13.3330    13.4770    26.5650     2.5970   -10.9990 
  181.5000    77.6850    16.4730    13.2380    13.3560    26.4780     2.6190   -11.0600 
  181.6250    81.5490    16.7960    13.4630    15.3250    26.3440     2.6400   -11.1240 
  181.7500    86.8980    17.1580    13.8110    17.3220    26.3290     2.6480   -11.1890 
  181.8750    87.8020    17.3950    14.1190    17.8720    26.4410     2.6380   -11.2570 
  182.0000    83.9280    17.4360    14.2850    16.9420    26.6220     2.6180   -11.3280 
  182.1250    80.6760    17.2940    14.3010    16.8340    26.7360     2.5990   -11.3910 
  182.2500    80.0950    17.0460    14.2650    16.7460    26.6930     2.5870   -11.4430 
  182.3750    80.2260    16.6300    14.1610    16.9040    26.6310     2.5790   -11.4920 
  182.5000    79.8330    15.8720    13.8060    16.8170    26.6770     2.5710   -11.5440 
  182.6250    79.1900    14.5020    12.8160    16.1940    26.8170     2.5590   -11.5930 
  182.7500    79.3200    12.6480    11.2080    16.2910    26.9540     2.5390   -11.6340 
  182.8750    82.2980    10.4390     9.2350    13.1190    26.9900     2.5080   -11.6620 
  183.0000    86.7760     8.0940     7.2830     7.3450    26.9150     2.4600   -11.6770 
  183.1250    90.3880     6.1050     5.7360     5.0810    26.8610     2.4010   -11.6740 
  183.2500    94.6860     4.8110     4.6360     4.2830    26.6880     2.3490   -11.6500 
  183.3750   100.6300     4.1920     3.9440     4.0390    26.2870     2.3190   -11.5970 
  183.5000   104.6710     3.9800     3.5840     3.8920    25.7500     2.3160   -11.5150 
  183.6250   103.2430     4.0020     3.5100     3.9120    25.3420     2.3320   -11.4230 
  183.7500   100.9740     4.1650     3.6040     3.9810    25.2310     2.3510   -11.3480 
  183.8750   103.0400     4.4050     3.8100     4.1230    25.2570     2.3670   -11.2850 
  184.0000   109.8640     4.6680     4.0830     4.3190    25.3080     2.3830   -11.2210 
  184.1250   115.2700     4.8770     4.3600     4.5880    25.3770     2.4000   -11.1580 
  184.2500   115.3300     4.9750     4.5590     4.9220    25.4210     2.4160   -11.0910 
  184.3750   112.0190     4.9290     4.6140     4.9420    25.4290     2.4240   -11.0360 
  184.5000   110.1960     4.7430     4.4950     4.7080    25.3820     2.4160   -10.9930 
  184.6250   111.8320     4.4630     4.2250     4.2920    25.3230     2.3930   -10.9450 
  184.7500   113.2040     4.1850     3.9180     3.8920    25.2130     2.3660   -10.8790 
  184.8750   111.1540     3.9680     3.6530     3.5340    25.1160     2.3450   -10.8010 
  185.0000   104.8380     3.8490     3.4820     3.3160    25.0980     2.3370   -10.7340 
  185.1250    98.6540     3.8550     3.4380     3.5550    25.1240     2.3380   -10.6910 
  185.2500    96.3350     3.9520     3.4810     3.7370    25.1540     2.3400   -10.6810 
  185.3750    96.8650     4.1120     3.5790     3.8160    25.1130     2.3360   -10.6960 
  185.5000    98.6740     4.2970     3.6980     3.8050    25.0250     2.3270   -10.7230 
  185.6250   101.1290     4.4610     3.8100     3.7820    24.9150     2.3190   -10.7550 
  185.7500   102.6860     4.5690     3.8970     3.8880    24.9360     2.3160   -10.7940 
  185.8750   101.8080     4.6120     3.9530     4.0980    25.0710     2.3180   -10.8370 
  186.0000   100.0140     4.5970     3.9760     4.2080    25.1660     2.3230   -10.8700 
  186.1250    99.9370     4.5430     3.9620     4.2030    25.1670     2.3300   -10.8760 
  186.2500   101.5330     4.4800     3.9180     4.1010    25.1570     2.3380   -10.8450 
  186.3750   102.3510     4.4260     3.8520     4.0190    25.1610     2.3460   -10.7780 
  186.5000   101.5800     4.3950     3.7740     4.0500    25.1260     2.3530   -10.6790 
  186.6250   100.9480     4.4050     3.7020     4.1710    25.0090     2.3570   -10.5500 
  186.7500   101.8680     4.4580     3.6560     4.2220    24.8810     2.3570   -10.4030 
  186.8750   103.3170     4.5490     3.6450     4.3100    24.7840     2.3540   -10.2720 
  187.0000   104.9680     4.6700     3.6760     4.5020    24.7130     2.3500   -10.1910 
  187.1250   107.4600     4.8350     3.7680     4.6630    24.6910     2.3440   -10.1790 
  187.2500   110.2810     5.0740     3.9310     4.6450    24.7870     2.3360   -10.2420 
  187.3750   111.3770     5.4330     4.1840     4.7480    25.0130     2.3240   -10.3920 
  187.5000   110.2170     5.9480     4.5450     5.1190    25.1680     2.3090   -10.6390 
  187.6250   103.6890     6.6470     5.0450     5.9980    25.1410     2.2890   -10.9730 
  187.7500    95.3710     7.4390     5.6530     7.1930    25.0390     2.2680   -11.3440 
  187.8750    91.2550     8.2210     6.3190     8.3030    24.9310     2.2500   -11.7010 
