~V
VERS. 2.00: Ver 2.00
~W
STRT.M 55.0000:
STOP.M 276.0000:
STEP.M 0.1250:
NULL. -999.2500:
UWI. F10239:
~C
DEPT.M :
SP.MV :
DEN.GM/CC :
GR.API :
RML.OHMM :
RI. :
RXO.OHMM :
CALI.CM :
~A
# ...
  100.0000   -21.5980     2.1390    68.0370     9.9670     8.6300    10.8490    24.3910 
  100.1250   -20.9780     2.1640    73.4770     9.6600     8.3070     9.5220    24.5290 
  100.2500   -20.3990     2.1920    80.1460     9.4190     8.0280     8.8740    24.5680 
  100.3750   -19.8760     2.2130    82.6690     9.2090     7.7830     8.9920    24.5550 
  100.5000   -19.4530     2.2280    81.0650     9.0130     7.5750     8.9590    24.5200 
  100.6250   -19.1860     2.2400    78.5070     8.8650     7.4260     8.6220    24.4690 
  100.7500   -19.1450     2.2500    77.2120     8.8390     7.3860     8.4530    24.3650 
  100.8750   -19.2750     2.2480    76.9550     8.9870     7.4860     8.3610    24.2200 
  101.0000   -19.5310     2.2310    76.3850     9.3310     7.7520     8.9500    24.1100 
  101.1250   -19.8680     2.2060    73.4850     9.8440     8.1790    10.2610    24.0710 
  101.2500   -20.2340     2.1850    69.4460    10.4350     8.7150    11.8450    24.0900 
  101.3750   -20.6090     2.1730    66.6640    10.9730     9.2490    12.9030    24.1130 
  101.5000   -20.9480     2.1700    65.2610    11.3800     9.6930    13.4910    24.1210 
  101.6250   -21.1970     2.1740    65.0730    11.6030     9.9760    13.7360    24.1100 
  101.7500   -21.2970     2.1830    65.9060    11.6110    10.0460    13.7440    24.0780 
  101.8750   -21.2640     2.1940    66.7290    11.4280     9.9210    13.6670    24.0390 
  102.0000   -21.1230     2.2080    68.5060    11.0700     9.6210    13.4300    24.0230 
  102.1250   -20.9110     2.2270    71.8770    10.6000     9.2020    12.9290    24.0320 
  102.2500   -20.6580     2.2450    75.0370    10.1500     8.7790    12.2730    24.0420 
  102.3750   -20.3640     2.2570    75.6760     9.8880     8.4840    11.8810    24.0370 
  102.5000   -20.0390     2.2580    74.0520     9.9240     8.4050    11.8520    23.9900 
  102.6250   -19.6830     2.2460    72.4100    10.2830     8.5820    11.9830    23.8650 
  102.7500   -19.2890     2.2180    70.9250    10.8800     8.9940    12.3660    23.6640 
  102.8750   -18.8790     2.1920    69.4740    11.4980     9.5020    12.4680    23.4750 
  103.0000   -18.4870     2.1810    68.5940    11.9670     9.9710    12.4180    23.4290 
  103.1250   -18.1330     2.1850    68.8010    12.1800    10.2780    12.1890    23.6160 
  103.2500   -17.8410     2.1960    69.6010    12.1250    10.3530    11.6390    23.8090 
  103.3750   -17.6260     2.2030    69.9630    11.9360    10.2670    11.5250    23.8860 
  103.5000   -17.4740     2.2060    70.4210    11.7060    10.0990    11.6010    23.9020 
  103.6250   -17.3870     2.2060    70.9060    11.4920     9.9150    11.6810    23.9320 
  103.7500   -17.3830     2.2030    71.5430    11.3220     9.7530    11.6030    24.0460 
  103.8750   -17.4860     2.1960    72.2850    11.2100     9.6320    11.3520    24.3240 
  104.0000   -17.7170     2.1880    72.1620    11.1690     9.5670    11.1470    24.7380 
  104.1250   -18.0770     2.1760    70.4430    11.2110     9.5750    11.3530    25.1080 
  104.2500   -18.5410     2.1620    66.5290    11.3350     9.6670    11.9200    25.3210 
  104.3750   -19.0600     2.1460    63.2030    11.4970     9.8210    12.5410    25.4670 
  104.5000   -19.6200     2.1340    61.5370    11.6530    10.0040    12.8700    25.5710 
  104.6250   -20.1940     2.1290    62.2720    11.7560    10.1660    13.1170    25.6370 
  104.7500   -20.7540     2.1320    64.2180    11.7620    10.2490    13.5170    25.6640 
  104.8750   -21.2960     2.1390    63.3780    11.6750    10.2320    14.0470    25.6780 
  105.0000   -21.7880     2.1430    59.5600    11.5170    10.1260    14.6810    25.7250 
  105.1250   -22.1910     2.1440    57.4110    11.3260     9.9600    15.3040    25.8260 
  105.2500   -22.4710     2.1450    59.2460    11.1490     9.7800    15.5400    25.9520 
  105.3750   -22.6300     2.1470    61.1200    11.0170     9.6240    15.6650    26.0560 
  105.5000   -22.6810     2.1490    60.0050    10.9420     9.5110    15.7460    26.1150 
  105.6250   -22.6350     2.1500    56.5630    10.9190     9.4500    15.7310    26.1290 
  105.7500   -22.5090     2.1500    54.4110    10.9310     9.4420    15.4490    26.1000 
  105.8750   -22.3050     2.1530    57.4970    10.9600     9.4700    14.8610    26.0510 
  106.0000   -22.0260     2.1580    64.0440    11.0030     9.5270    14.3420    26.0580 
  106.1250   -21.6980     2.1640    66.5660    11.0700     9.6030    14.2360    26.2040 
  106.2500   -21.3450     2.1680    61.8900    11.1770     9.6990    14.3610    26.4430 
  106.3750   -21.0180     2.1680    58.1740    11.3260     9.8160    14.5020    26.7000 
  106.5000   -20.7390     2.1640    58.4120    11.5070     9.9550    14.7970    27.0130 
  106.6250   -20.5330     2.1590    59.6240    11.6900    10.1030    15.0600    27.3250 
  106.7500   -20.3920     2.1570    60.1530    11.8220    10.2250    15.1790    27.4540 
  106.8750   -20.2840     2.1560    61.6390    11.8630    10.2820    15.2000    27.4920 
  107.0000   -20.1980     2.1580    62.6700    11.8020    10.2550    15.1860    27.5080 
  107.1250   -20.1400     2.1610    61.6770    11.6710    10.1570    15.0570    27.5320 
  107.2500   -20.1250     2.1680    59.8000    11.5430    10.0400    14.8390    27.5270 
  107.3750   -20.1260     2.1750    59.9830    11.4970     9.9690    14.3900    27.4600 
  107.5000   -20.1090     2.1780    62.3450    11.5740     9.9810    14.1810    27.3100 
  107.6250   -20.0440     2.1740    64.2190    11.7710    10.0850    14.1540    27.0680 
  107.7500   -19.9170     2.1630    63.8010    12.0370    10.2560    14.2320    26.7750 
  107.8750   -19.7350     2.1540    61.9660    12.2770    10.4200    14.1150    26.5130 
  108.0000   -19.5130     2.1530    60.0450    12.4200    10.5230    14.1310    26.3220 
  108.1250   -19.2650     2.1570    59.2520    12.4450    10.5330    14.1890    26.1920 
  108.2500   -18.9900     2.1620    59.9170    12.3770    10.4570    14.1520    26.2200 
  108.3750   -18.6980     2.1660    62.2890    12.2890    10.3450    13.7960    26.3150 
  108.5000   -18.3980     2.1690    65.7180    12.2250    10.2430    13.5020    26.3490 
  108.6250   -18.1210     2.1700    68.8880    12.2030    10.1820    13.3830    26.3320 
  108.7500   -17.8990     2.1660    70.8060    12.2200    10.1810    13.1890    26.3160 
  108.8750   -17.7290     2.1580    70.8000    12.2580    10.2340    12.9970    26.2730 
  109.0000   -17.5880     2.1510    70.5680    12.3140    10.3280    13.0390    26.1890 
  109.1250   -17.4660     2.1470    71.5770    12.3860    10.4450    13.2380    26.1180 
  109.2500   -17.3620     2.1450    72.4060    12.4620    10.5580    13.3620    26.0510 
  109.3750   -17.2730     2.1430    71.2000    12.5190    10.6470    13.4770    25.9100 
  109.5000   -17.2060     2.1420    68.7870    12.5230    10.6900    13.5150    25.6880 
  109.6250   -17.1630     2.1440    67.8640    12.4350    10.6600    13.4200    25.4750 
  109.7500   -17.1460     2.1490    68.3210    12.2230    10.5270    13.1800    25.3980 
  109.8750   -17.1500     2.1570    68.4410    11.8960    10.2930    12.9530    25.4110 
  110.0000   -17.1630     2.1660    67.1580    11.4650     9.9530    12.6440    25.4610 
  110.1250   -17.1410     2.1780    64.5790    10.9400     9.5120    12.2210    25.5670 
  110.2500   -17.0450     2.1920    62.3350    10.3310     8.9760    11.5420    25.7690 
  110.3750   -16.8870     2.2050    62.3020     9.6740     8.3790    10.7050    26.0070 
  110.5000   -16.6880     2.2100    65.3350     9.0200     7.7750     9.6880    26.1940 
  110.6250   -16.4740     2.2030    70.1960     8.4660     7.2490     8.6650    26.4330 
  110.7500   -16.2920     2.1710    74.4880     8.1400     6.9110     7.7360    26.8320 
  110.8750   -16.1900     2.1120    76.2880     8.1040     6.8080     7.1590    27.2490 
  111.0000   -16.1720     2.0270    75.4790     8.3820     6.9660     7.5510    27.4110 
  111.1250   -16.1900     1.9420    72.9430     8.9260     7.3710     9.2120    27.0790 
