~V
VERS. 2.00: Ver 2.00
~W
STRT.M 60.0000:
STOP.M 276.0000:
STEP.M 0.1250:
NULL. -999.2500:
UWI. F10216:
~C
DEPT.M :
DEN.GM/CC :
GR.API :
RML.OHMM :
RI. :
RXO.OHMM :
CALI.CM :
SP.MV :
~A
# ...
   82.5000     2.3330    53.3360    22.8880    15.0130    40.5290    23.6890   -24.7610 
   82.6250     2.2620    55.6400    20.2280    14.0140    31.8760    23.6570   -24.8710 
   82.7500     2.1850    56.4230    16.5920    12.0940    16.4440    23.4980   -24.9820 
   82.8750     2.1280    55.7790    13.4190    10.1300    11.5030    23.3890   -25.0740 
   83.0000     2.0990    55.9320    11.3710     8.6210    10.6700    23.3390   -25.1670 
   83.1250     2.0920    57.2880    10.6100     7.7940    10.4780    23.3180   -25.2330 
   83.2500     2.0920    57.9480    10.5930     7.4670    10.2190    23.2720   -25.3050 
   83.3750     2.0990    57.1430    10.9420     7.4830    10.2540    23.2070   -25.3500 
   83.5000     2.1100    55.2900    11.3380     7.6710    10.5350    23.1880   -25.3830 
   83.6250     2.1220    53.6290    11.5580     7.8740    10.8790    23.2840   -25.4020 
   83.7500     2.1310    53.2910    11.6080     8.0130    11.1570    23.3550   -25.3970 
   83.8750     2.1380    53.2240    11.5680     8.0910    11.3440    23.3710   -25.3960 
   84.0000     2.1450    52.7430    11.5460     8.1430    11.4600    23.3810   -25.3800 
   84.1250     2.1570    53.6630    11.6440     8.2170    11.7230    23.4240   -25.3590 
   84.2500     2.1730    55.6210    11.8510     8.3220    12.2670    23.5000   -25.3050 
   84.3750     2.1870    56.0070    12.0980     8.4270    13.0450    23.5650   -25.2460 
   84.5000     2.1920    54.0040    12.2740     8.4790    13.5180    23.5310   -25.1570 
   84.6250     2.1820    53.0800    12.2590     8.4120    12.6870    23.4540   -25.0690 
   84.7500     2.1630    55.8830    12.0830     8.2450    11.7150    23.4230   -24.9840 
   84.8750     2.1410    59.5760    11.8240     8.0270    11.1390    23.4360   -24.8950 
   85.0000     2.1230    60.8880    11.5720     7.8110    10.7880    23.3970   -24.7990 
   85.1250     2.1130    58.6220    11.3990     7.6410    10.6840    23.2670   -24.7240 
   85.2500     2.1130    55.9780    11.2940     7.5120    10.6710    23.0710   -24.6790 
   85.3750     2.1220    54.7910    11.2320     7.4070    10.6300    22.9420   -24.6430 
   85.5000     2.1350    55.7050    11.1890     7.3120    10.4680    22.9160   -24.6070 
   85.6250     2.1460    59.8990    11.1600     7.2260    10.1460    22.9850   -24.5660 
   85.7500     2.1510    64.4300    11.1540     7.1620     9.7990    23.0310   -24.5470 
   85.8750     2.1520    65.4790    11.1800     7.1330     9.8150    22.9960   -24.5420 
   86.0000     2.1530    62.4070    11.2430     7.1420    10.0610    22.9040   -24.5490 
   86.1250     2.1550    57.1650    11.3370     7.1830    10.2680    22.8120   -24.5550 
   86.2500     2.1570    52.5260    11.4360     7.2380    10.2190    22.7560   -24.5470 
   86.3750     2.1550    51.0710    11.5240     7.2930    10.2970    22.6530   -24.5340 
   86.5000     2.1480    54.7730    11.5830     7.3430    10.6600    22.4530   -24.5150 
   86.6250     2.1400    58.6140    11.5920     7.3780    10.8520    22.2180   -24.4880 
   86.7500     2.1330    57.7130    11.5460     7.3890    11.1430    22.0810   -24.4160 
   86.8750     2.1280    54.6040    11.4450     7.3640    11.6350    22.0350   -24.2930 
   87.0000     2.1240    53.2180    11.3050     7.3020    12.1070    22.0220   -24.1270 
   87.1250     2.1180    52.0150    11.1670     7.2190    11.7630    22.0110   -23.9280 
   87.2500     2.1120    49.9190    11.0660     7.1430    10.6200    21.9930   -23.7070 
   87.3750     2.1050    49.2510    11.0110     7.0870    10.0720    21.9730   -23.4690 
   87.5000     2.1000    50.4680    10.9790     7.0500    10.0160    21.9620   -23.2140 
   87.6250     2.0950    51.1960    10.9240     7.0120    10.0830    21.9520   -22.9430 
   87.7500     2.0940    52.6390    10.8120     6.9530    10.0710    21.9400   -22.6850 
   87.8750     2.0980    56.7240    10.6410     6.8700    10.0260    21.8840   -22.4400 
   88.0000     2.1080    60.6030    10.4380     6.7690     9.9230    21.7710   -22.2160 
   88.1250     2.1210    61.3880    10.2520     6.6670     9.8850    21.7500   -22.0060 
   88.2500     2.1350    61.5890    10.1070     6.5770    10.2860    21.8730   -21.8060 
   88.3750     2.1470    62.2480     9.9930     6.5010    10.7330    22.0730   -21.6100 
   88.5000     2.1550    61.9690     9.8870     6.4360    11.1660    22.2240   -21.4320 
   88.6250     2.1580    61.6680     9.7790     6.3890    10.1810    22.3010   -21.2450 
   88.7500     2.1550    63.7150     9.6910     6.3710     9.1270    22.3630   -21.0610 
   88.8750     2.1490    65.3960     9.6620     6.4010     8.5400    22.3680   -20.8590 
   89.0000     2.1440    64.2320     9.7190     6.4920     8.9990    22.2360   -20.6590 
   89.1250     2.1400    62.9070     9.8670     6.6530     9.4960    21.9950   -20.4360 
   89.2500     2.1350    62.6780    10.0550     6.8530     9.8020    21.8130   -20.1910 
   89.3750     2.1280    62.1640    10.2260     7.0610     9.9240    21.7250   -19.9230 
   89.5000     2.1220    61.5970    10.3110     7.2320    10.1310    21.7460   -19.6250 
   89.6250     2.1260    62.9990    10.2120     7.2850    10.1800    21.9090   -19.3060 
   89.7500     2.1450    64.4010     9.9190     7.1900     9.9900    22.1560   -18.9520 
   89.8750     2.1700    65.2810     9.4620     6.9470     9.2630    22.4720   -18.5830 
   90.0000     2.1910    67.6710     8.9310     6.6040     8.2140    22.9550   -18.1870 
   90.1250     2.1970    71.1840     8.4840     6.2500     7.0320    23.5770   -17.8150 
   90.2500     2.1910    72.6240     8.2070     5.9630     6.5930    24.0890   -17.4930 
   90.3750     2.1830    71.9360     8.0860     5.7620     6.5100    24.2720   -17.2290 
   90.5000     2.1810    73.1080     8.0270     5.6210     6.6790    24.1380   -17.0240 
   90.6250     2.1920    78.8180     7.8620     5.4700     6.7560    23.8940   -16.8950 
   90.7500     2.2110    85.0680     7.5310     5.2570     6.5850    23.9040   -16.8420 
   90.8750     2.2370    88.1970     7.1510     5.0170     6.3740    24.1310   -16.8680 
   91.0000     2.2700    87.6160     6.9730     4.8680     6.1780    24.2860   -16.9900 
   91.1250     2.3110    85.6120     7.3540     5.0000     6.0840    24.3070   -17.1700 
   91.2500     2.3440    82.9970     8.3720     5.4770     6.6140    24.2480   -17.3880 
   91.3750     2.3480    79.6380     9.9990     6.3220     8.5830    24.0770   -17.6300 
   91.5000     2.3190    75.6800    11.9640     7.4540    13.3610    23.7360   -17.9150 
   91.6250     2.2640    71.7880    13.5760     8.5870    16.6720    23.2620   -18.2010 
   91.7500     2.2070    69.9340    14.2890     9.3520    13.1970    22.8680   -18.4900 
   91.8750     2.1630    70.0260    14.0810     9.6050    10.7370    22.6410   -18.7510 
   92.0000     2.1370    69.7450    13.3810     9.4660    10.0800    22.5370   -18.9730 
   92.1250     2.1260    69.2140    12.7620     9.1950    10.2110    22.5030   -19.1500 
   92.2500     2.1210    68.9010    12.4770     9.0060    10.3190    22.5210   -19.2770 
   92.3750     2.1200    66.7130    12.4700     8.9270    10.2970    22.6340   -19.3490 
   92.5000     2.1210    61.6530    12.5710     8.9040    10.1710    22.8180   -19.3610 
   92.6250     2.1230    56.7580    12.6360     8.8750    10.2030    22.8540   -19.3480 
   92.7500     2.1240    55.2590    12.6310     8.8210    10.4920    22.7570   -19.2980 
   92.8750     2.1240    56.2850    12.5580     8.7410    10.9570    22.5800   -19.2350 
   93.0000     2.1190    58.7270    12.4320     8.6350    11.2430    22.4310   -19.1560 
   93.1250     2.1090    60.2070    12.2760     8.5010    11.2370    22.3740   -19.0730 
   93.2500     2.1000    58.6920    12.1330     8.3530    11.0250    22.3570   -18.9840 
   93.3750     2.0990    56.1990    12.0360     8.2140    10.7980    22.3350   -18.9030 
   93.5000     2.1070    55.0520    12.0090     8.1050    10.6830    22.2980   -18.8290 
   93.6250     2.1230    56.2690    12.0670     8.0510    10.6050    22.2610   -18.7340 
