~V
VERS. 2.00: Ver 2.00
~W
STRT.M 30.0000:
STOP.M 271.0000:
STEP.M 0.1250:
NULL. -999.2500:
UWI. F10210:
~C
DEPT.M :
DEN.GM/CC :
GR.API :
RML.OHMM :
RI. :
RXO.OHMM :
CALI.CM :
SP.MV :
~A
# ...
  255.0000     2.4410    74.5340    18.0160    17.2810    18.6350    23.9150    -3.7640 
  255.1250     2.4380    72.0780    17.9140    17.3160    19.3660    23.9080    -3.8080 
  255.2500     2.4350    69.8370    17.5140    17.0730    19.0150    23.9120    -3.8530 
  255.3750     2.4390    70.3680    16.9450    16.6170    18.5790    23.9110    -3.8840 
  255.5000     2.4410    71.6590    16.3790    16.0870    16.7550    23.8990    -3.8810 
  255.6250     2.4280    70.9210    15.9560    15.6440    15.2990    23.9100    -3.8220 
  255.7500     2.4050    69.9730    15.6710    15.3480    13.0350    23.9040    -3.7510 
  255.8750     2.3860    71.1850    15.4760    15.1780    13.2210    23.9030    -3.6890 
  256.0000     2.3770    71.1720    15.3160    15.0710    14.1140    23.9110    -3.6450 
  256.1250     2.3790    67.7570    15.1690    14.9600    13.8540    23.9120    -3.6090 
  256.2500     2.3830    66.6780    15.0310    14.8170    12.4650    23.9050    -3.6090 
  256.3750     2.3860    69.8870    14.8910    14.6430    11.6430    23.9000    -3.6640 
  256.5000     2.3890    72.0410    14.7310    14.4430    11.6390    23.8920    -3.7810 
  256.6250     2.3970    69.8000    14.5480    14.2380    12.0580    23.7720    -3.9550 
  256.7500     2.4060    66.9550    14.4030    14.0820    11.8060    23.8440    -4.1320 
  256.8750     2.4060    66.0720    14.4110    14.0540    11.7160    23.8290    -4.2870 
  257.0000     2.3920    68.1160    14.7090    14.2510    11.6340    23.8340    -4.4050 
  257.1250     2.3810    69.9290    15.4460    14.7990    12.2380    23.8190    -4.4570 
  257.2500     2.3910    67.4900    16.4890    15.6220    13.6370    23.8210    -4.4360 
  257.3750     2.4230    62.8560    17.6210    16.5680    16.2220    23.8250    -4.3510 
  257.5000     2.4570    61.7260    18.5320    17.3950    19.6580    23.8300    -4.2050 
  257.6250     2.4590    67.6310    18.8490    17.7780    23.6560    23.8330    -4.0220 
  257.7500     2.4320    72.5550    18.6210    17.7000    25.1890    23.8210    -3.8120 
  257.8750     2.3970    70.9000    18.0560    17.2920    21.2100    23.8130    -3.5880 
  258.0000     2.3760    64.1440    17.4450    16.7710    18.7640    23.7500    -3.3950 
  258.1250     2.3840    59.9590    17.0760    16.3630    18.4240    23.6460    -3.2610 
  258.2500     2.4080    62.9150    16.9940    16.1620    16.4450    23.5680    -3.1520 
  258.3750     2.4340    68.2800    17.1480    16.1800    13.9130    23.4990    -3.0470 
  258.5000     2.4510    69.6490    17.4340    16.3760    12.2680    23.4940    -2.9570 
  258.6250     2.4580    66.3400    17.7260    16.6690    11.7610    23.4920    -2.8800 
  258.7500     2.4640    64.0640    17.9200    16.9360    12.1060    23.5180    -2.8110 
  258.8750     2.4730    65.3060    17.9780    17.1030    13.7130    23.5590    -2.7570 
  259.0000     2.4800    68.0190    17.8930    17.1370    14.7780    23.5710    -2.7020 
  259.1250     2.4790    69.0680    17.6560    17.0270    13.8740    23.5730    -2.6290 
  259.2500     2.4690    68.2110    17.3310    16.8260    12.4180    23.5600    -2.5470 
  259.3750     2.4530    66.0060    16.9740    16.5730    12.4840    23.5660    -2.4430 
  259.5000     2.4320    63.5720    16.6350    16.3020    14.3310    23.5760    -2.2890 
  259.6250     2.4170    63.0350    16.3520    16.0450    16.2670    23.5650    -2.1110 
  259.7500     2.4130    63.8960    16.1170    15.8180    16.8490    23.5690    -1.9390 
  259.8750     2.4140    64.4610    15.9260    15.6250    16.7800    23.6060    -1.7990 
  260.0000     2.4090    64.0870    15.7890    15.4690    16.5290    23.8160    -1.7040 
  260.1250     2.4090    64.0250    15.7580    15.3640    16.5820    23.9730    -1.6540 
  260.2500     2.4220    65.4390    15.8360    15.3110    17.3000    24.0060    -1.6440 
  260.3750     2.4410    66.1760    15.9970    15.3150    17.5070    24.0110    -1.6750 
  260.5000     2.4570    66.1760    16.1870    15.3700    15.5320    24.0060    -1.7300 
  260.6250     2.4670    66.1760    16.3330    15.4590    13.2310    24.0010    -1.8090 
  260.7500     2.4780    66.1760    16.3900    15.5360    12.5950    23.9900    -1.9140 
  260.8750     2.4860    66.1760    16.3390    15.5670    12.8040    23.9610    -2.0290 
  261.0000     2.4830    66.1760    16.1880    15.5380    12.7930    23.8900    -2.1290 
  261.1250     2.4670    66.1760    16.0060    15.4780    12.8310    23.4660    -2.2100 
  261.2500     2.4480    66.1760    15.9110    15.4560    13.6020    23.9300    -2.3000 
  261.3750     2.4320    66.1760    16.0170    15.5390    15.2720    23.9900    -2.4230 
  261.5000     2.4220    66.1760    16.4040    15.7790    17.7640    24.0080    -2.5760 
  261.6250     2.4230    66.1760    17.0990    16.2210    21.8820    24.0180    -2.7240 
  261.7500     2.4330    66.1760    17.9390    16.8000    28.9510    24.0210    -2.8610 
  261.8750     2.4480    66.1760    18.7810    17.4540    35.7380    23.9690    -2.9740 
  262.0000     2.4570    66.1760    19.5250    18.1180    42.2910    23.9840    -3.0660 
  262.1250     2.4560    66.1760    20.0960    18.7130    41.9520    23.9830    -3.1240 
  262.2500     2.4520    66.1760    20.4790    19.1660    30.2080    23.9180    -3.1340 
  262.3750     2.4520    66.1760    20.5900    19.3720    25.2280    23.8480    -3.1020 
  262.5000     2.4610    66.1760    20.3320    19.2310    22.3190    23.8240    -3.0610 
  262.6250     2.4740    66.1760    19.6560    18.6930    21.2300    23.8270    -3.0160 
  262.7500     2.4880    66.1760    18.8180    17.9810    20.7920    23.8300    -2.9280 
  262.8750     2.4970    66.1760    18.0720    17.3080    19.5320    23.7850    -2.7760 
  263.0000     2.4980    66.1760    17.6260    16.8510    18.3250    23.7620    -2.6170 
  263.1250     2.4900    66.1760    17.6180    16.7480    20.8750    23.7620    -2.5140 
  263.2500     2.4830    66.1760    17.8840    16.9030    28.0640    23.7850    -2.4380 
  263.3750     2.4840    66.1760    18.2430    17.1900    36.4840    23.8120    -2.3620 
  263.5000     2.4950    66.1760    18.5200    17.4630    33.7730    23.8090    -2.2710 
  263.6250     2.5060    66.1760    18.5930    17.5950    21.6820    23.7980    -2.1520 
  263.7500     2.5080    66.1760    18.5220    17.5920    14.5900    23.7490    -2.0460 
  263.8750     2.5000    66.1760    18.4020    17.5140    12.6670    23.7370    -1.9950 
  264.0000     2.4900    66.1760    18.3300    17.4390    12.8200    23.6770    -1.9310 
  264.1250     2.4840    66.1760    18.4010    17.4430    13.5700    23.6610    -1.7970 
  264.2500     2.4800    66.1760    18.6230    17.5340    14.5880    23.6360    -1.6660 
  264.3750     2.4760    66.1760    18.9540    17.6800    15.9700    23.6570    -1.5630 
  264.5000     2.4700    66.1760    19.3330    17.8210    18.1670    23.6940    -1.4810 
  264.6250     2.4630    66.1760    19.7080    17.8820    23.4850    23.8410    -1.4430 
  264.7500     2.4570    66.1760    20.0340    17.8700    31.3850    23.8460    -1.4540 
  264.8750     2.4560    66.1760    20.2490    17.8360    34.0950    23.8600    -1.4700 
  265.0000     2.4560    66.1760    20.3080    17.8380    29.4070    23.8430    -1.5130 
  265.1250     2.4500    66.1760    20.2550    17.8950    26.5050    23.8210    -1.6030 
  265.2500     2.4400    66.1760    20.1650    17.9630    25.9640    23.7670    -1.6480 
  265.3750     2.4350    66.1760    20.0570    18.0080    25.0510    23.7310    -1.6560 
  265.5000     2.4400    66.1760    19.9630    18.0310    23.5480    23.6760    -1.6610 
  265.6250     2.4490    66.1760    19.9140    18.0420    22.4490    23.5990    -1.6450 
  265.7500     2.4500    66.1760    19.9090    18.0510    22.9890    23.6250    -1.5980 
  265.8750     2.4450    66.1760    19.9360    18.0580    24.3070    23.6700    -1.5510 
  266.0000     2.4420    66.1760    19.9730    18.0630    24.6780    23.7100    -1.4980 
  266.1250     2.4440    66.1760    19.9950    18.0700    23.7550    23.5490    -1.4230 
