~V
VERS. 2.00: Ver 2.00
~W
STRT.M 30.0000:
STOP.M 271.0000:
STEP.M 0.1250:
NULL. -999.2500:
UWI. F10210:
~C
DEPT.M :
DEN.GM/CC :
GR.API :
RML.OHMM :
RI. :
RXO.OHMM :
CALI.CM :
SP.MV :
~A
# ...
  187.5000     2.1660    57.9600   141.3070   133.3090   125.1210    25.5590   -32.1430 
  187.6250     2.1590    59.6900   144.5320   136.3510   134.5340    25.5730   -32.2800 
  187.7500     2.1530    61.6160   146.5570   138.2620   137.8670    25.5710   -32.3790 
  187.8750     2.1520    62.1600   147.3610   139.0200   134.4280    25.5680   -32.4420 
  188.0000     2.1560    62.5820   147.4490   139.1030   126.1490    25.5510   -32.4680 
  188.1250     2.1590    63.2500   147.7710   139.4060   126.9500    25.5700   -32.4380 
  188.2500     2.1600    62.6290   149.0210   140.5850   133.9310    25.5750   -32.3810 
  188.3750     2.1610    62.3570   151.3670   142.7990   141.5170    25.5730   -32.2960 
  188.5000     2.1620    63.5460   154.5290   145.7820   146.3370    25.5580   -32.1650 
  188.6250     2.1630    63.5730   157.6480   148.7240   147.8240    25.5660   -32.0050 
  188.7500     2.1630    62.5700   159.2680   150.2520   149.0730    25.5650   -31.8180 
  188.8750     2.1610    63.1890   157.6810   148.7560   148.4250    25.5760   -31.6030 
  189.0000     2.1590    65.3120   151.3280   142.7620   143.4240    25.5720   -31.3610 
  189.1250     2.1590    64.8590   138.7130   130.8610   132.9370    25.5620   -31.0910 
  189.2500     2.1620    62.7480   121.8520   114.9540   116.5420    25.5640   -30.7730 
  189.3750     2.1730    62.7840   102.8890    97.0650    95.7200    25.5720   -30.4080 
  189.5000     2.1920    66.5460    84.3130    79.5400    72.9130    25.5750   -30.0070 
  189.6250     2.2140    70.1070    68.8880    64.9890    55.5790    25.5830   -29.5960 
  189.7500     2.2360    71.4800    57.3280    54.0830    46.7200    25.5610   -29.2090 
  189.8750     2.2570    72.4430    49.7300    46.9150    38.7290    25.5580   -28.8490 
  190.0000     2.2720    73.9110    45.7570    43.1670    31.0170    25.5700   -28.5320 
  190.1250     2.2690    75.2590    45.3250    42.7600    30.5280    25.5740   -28.2700 
  190.2500     2.2530    75.4660    47.2010    44.5290    36.0860    25.5760   -28.1030 
  190.3750     2.2330    75.1940    50.5550    47.6930    45.6280    25.5670   -28.0360 
  190.5000     2.2170    74.3150    54.4120    51.3320    52.8740    25.5700   -28.0510 
  190.6250     2.2070    70.2660    57.7030    54.4370    54.2010    25.5660   -28.1170 
  190.7500     2.2010    65.5380    60.1720    56.7660    50.0720    25.5510   -28.2230 
  190.8750     2.1980    63.5940    62.3410    58.8120    44.1970    25.5040   -28.3700 
  191.0000     2.1930    64.7590    65.1710    61.4820    41.8420    25.1730   -28.5470 
  191.1250     2.1850    65.2190    69.8620    65.9080    53.8200    25.5170   -28.7550 
  191.2500     2.1790    63.6510    76.5110    72.1800    63.2840    25.5570   -28.9510 
  191.3750     2.1780    64.0860    84.7470    79.9500    68.9430    25.5650   -29.1420 
  191.5000     2.1790    66.6260    93.2490    87.9710    75.3130    25.5620   -29.3300 
  191.6250     2.1780    66.8440    98.7130    93.1260    90.0640    25.5570   -29.5230 
  191.7500     2.1810    64.9530    98.4940    92.9190    99.6910    25.5670   -29.7030 
  191.8750     2.1940    65.0130    91.6630    86.4750    90.3960    25.5700   -29.8700 
  192.0000     2.2160    67.5190    79.9920    75.4640    65.7310    25.5690   -30.0090 
  192.1250     2.2390    67.4690    67.5860    63.7600    46.3630    25.5550   -30.1270 
  192.2500     2.2470    65.9730    58.2420    54.9450    37.3800    25.5660   -30.2420 
  192.3750     2.2350    67.2100    53.5250    50.4950    37.5870    25.5680   -30.3660 
  192.5000     2.2090    68.4620    54.1120    51.0490    42.8620    25.5550   -30.5240 
  192.6250     2.1830    62.9070    61.8530    58.3520    54.9580    25.4890   -30.7280 
  192.7500     2.1660    55.9560    76.8390    72.4890    80.8320    25.2700   -30.9730 
  192.8750     2.1550    53.2550    99.5490    93.9140   113.6530    25.0610   -31.2310 
  193.0000     2.1460    53.6310   128.9150   121.6170   140.2140    24.4900   -31.5020 
  193.1250     2.1420    53.1110   161.5990   152.4520   150.3810    24.2830   -31.7280 
  193.2500     2.1430    52.7520   191.9440   181.0800   149.2600    24.3530   -31.8900 
  193.3750     2.1420    53.2780   216.1450   203.9100   150.0890    24.3690   -31.9610 
  193.5000     2.1370    54.4400   231.5040   218.4000   149.5060    24.3710   -31.9430 
  193.6250     2.1330    55.0240   233.0170   219.8270   146.3550    24.3650   -31.8270 
  193.7500     2.1360    54.9610   220.5150   208.0330   142.5600    24.2970   -31.6350 
  193.8750     2.1480    55.1880   196.0000   184.9060   130.0040    24.1030   -31.3890 
  194.0000     2.1660    56.9180   165.4250   156.0610    99.8140    23.9150   -31.0900 
  194.1250     2.1840    58.8460   136.2330   128.5210    68.5270    23.5610   -30.7610 
  194.2500     2.1950    59.7270   112.3400   105.9810    51.1200    23.1730   -30.4440 
  194.3750     2.2010    60.5340    94.4900    89.1410    45.4230    22.9080   -30.1540 
  194.5000     2.2070    61.0340    81.9870    77.3460    44.5420    22.6320   -29.8830 
  194.6250     2.2140    60.6510    74.1860    69.9870    41.6740    22.5050   -29.6210 
  194.7500     2.2190    60.6820    69.3380    65.4140    37.5150    22.4350   -29.3620 
  194.8750     2.2160    61.9920    66.9530    63.1640    35.0010    22.4150   -29.1030 
  195.0000     2.2080    63.1660    66.9580    63.1680    35.6630    22.4060   -28.8410 
  195.1250     2.1990    62.7860    70.1710    66.1990    36.0890    22.4250   -28.5420 
  195.2500     2.1910    63.4960    76.7160    72.3730    37.7820    22.4300   -28.2160 
  195.3750     2.1770    65.6350    86.8730    81.9550    43.4400    22.4840   -27.8630 
  195.5000     2.1600    66.8600   100.2080    94.5360    53.1490    22.5110   -27.4690 
  195.6250     2.1550    64.9690   115.0660   108.5530    63.1370    22.6170   -27.0070 
  195.7500     2.1720    62.0680   128.2990   121.0360    69.2240    22.7300   -26.4810 
  195.8750     2.2070    60.5300   137.8530   130.0500    75.8350    22.9170   -25.8770 
  196.0000     2.2600    60.6340   143.9800   135.8300    87.6770    23.1980   -25.1880 
  196.1250     2.3360    59.5970   150.4450   141.9290   104.6780    23.5780   -24.4610 
  196.2500     2.4300    55.3850   161.3710   152.2370   122.1080    23.9030   -23.6780 
  196.3750     2.5270    50.8370   175.8200   165.8680   136.7980    23.9750   -22.8460 
  196.5000     2.6070    49.0870   184.5360   174.0900   167.2130    23.9110   -21.9730 
  196.6250     2.6470    49.4580   166.8880   157.4410   238.4040    23.8940   -21.0790 
  196.7500     2.6520    48.3670   125.1910   118.1050   305.0260    23.8770   -20.1580 
  196.8750     2.6260    46.8090    78.9470    74.4790   217.8470    23.8540   -19.2280 
  197.0000     2.5730    46.8850    37.9010    42.1000    74.8860    23.8250   -18.2940 
  197.1250     2.5060    49.5320    22.9180    25.0610    27.7010    23.6570   -17.3730 
  197.2500     2.4500    52.3570    14.9800    16.2330    14.4740    23.6190   -16.5010 
  197.3750     2.4170    52.2440    10.9700    11.7800    11.1560    23.6710   -15.7110 
  197.5000     2.4060    49.3470     9.1130     9.5840     9.6480    23.7990   -15.0240 
  197.6250     2.4140    48.6750     8.6180     8.8530     8.9370    23.8870   -14.4560 
  197.7500     2.4220    50.6410     8.8120     8.9260     9.1420    23.9220   -14.0180 
  197.8750     2.4180    53.2730     9.4810     9.5540     9.7020    23.8490   -13.7130 
  198.0000     2.4010    54.7650    10.4610    10.5410    10.4130    23.8460   -13.5800 
  198.1250     2.3860    53.9520    11.5050    11.6510    12.2340    23.7690   -13.6270 
  198.2500     2.3800    50.7000    12.2500    12.5240    13.3520    23.5580   -13.8180 
  198.3750     2.3760    47.5730    12.4210    12.8670    12.8170    23.4200   -14.1010 
  198.5000     2.3640    47.9610    11.9380    12.5520    11.5860    23.2530   -14.4420 
  198.6250     2.3350    51.3530    10.9460    11.6680    11.1140    23.0320   -14.8330 
