~V
VERS. 2.00: Ver 2.00
~W
STRT.M 50.0000:
STOP.M 258.0000:
STEP.M 0.1250:
NULL. -999.2500:
UWI. F10200:
~C
DEPT.M :
SP.MV :
GR.API :
RML.OHMM :
RI. :
RXO.OHMM :
CALI.CM :
DEN.GM/CC :
~A
# ...
  162.5000    -7.5790    70.2220    18.0040    16.5160    15.1380    23.4640     2.2670 
  162.6250    -7.8720    70.1530    18.0360    16.4720    15.3520    23.1800     2.2650 
  162.7500    -8.2240    71.3420    17.8230    16.1980    15.7100    22.9080     2.2670 
  162.8750    -8.6450    73.4890    17.4740    15.7700    16.1390    22.8120     2.2720 
  163.0000    -9.1130    74.7990    17.2450    15.3800    15.8070    22.8350     2.2790 
  163.1250    -9.6700    74.8700    17.7120    15.4370    14.9220    22.8610     2.2850 
  163.2500   -10.3210    74.3310    19.4130    16.3410    14.4800    22.8680     2.2900 
  163.3750   -11.0530    73.7910    23.0050    18.6200    15.4190    22.8740     2.2930 
  163.5000   -11.8640    73.2200    29.1440    22.9140    17.9610    22.8980     2.2920 
  163.6250   -12.7650    71.5630    38.7140    30.3540    23.5940    23.0200     2.2840 
  163.7500   -13.6940    67.9810    50.6590    40.5480    33.9600    23.2620     2.2710 
  163.8750   -14.6290    64.2300    63.2760    52.4170    51.8550    23.5800     2.2560 
  164.0000   -15.5990    62.8860    74.1060    63.8440    78.7760    23.8630     2.2430 
  164.1250   -16.5790    62.6520    80.0010    71.5300   101.5350    23.9720     2.2400 
  164.2500   -17.5630    62.1720    81.5990    74.9630    99.6160    23.9780     2.2470 
  164.3750   -18.5610    63.5790    81.9670    76.3270    82.7410    23.9760     2.2600 
  164.5000   -19.5440    67.2350    85.5310    79.7490    66.1300    23.9830     2.2710 
  164.6250   -20.5080    68.4900    97.3230    90.4990    65.6810    23.9680     2.2700 
  164.7500   -21.4800    65.7010   117.9260   109.8040    74.1510    23.9020     2.2590 
  164.8750   -22.4670    60.8090   146.8030   137.4160    90.3900    23.7780     2.2410 
  165.0000   -23.4500    56.7360   180.9530   170.5050   112.9040    23.6130     2.2260 
  165.1250   -24.3870    55.1980   213.5870   202.4950   152.8420    23.4680     2.2200 
  165.2500   -25.2690    55.4550   237.2260   226.2040   165.4580    23.4290     2.2210 
  165.3750   -26.1000    56.8220   248.0640   238.1050   156.4360    23.4660     2.2250 
  165.5000   -26.8830    58.1740   248.3880   239.8690   160.6500    23.5350     2.2260 
  165.6250   -27.6220    58.6960   245.9360   237.7860   173.0140    23.6380     2.2230 
  165.7500   -28.3370    58.3100   248.0290   239.1110   181.3380    23.7510     2.2180 
  165.8750   -29.0330    58.0730   256.6690   246.4900   178.4540    23.8450     2.2120 
  166.0000   -29.6940    57.9840   270.8450   259.5860   172.6490    23.9370     2.2070 
  166.1250   -30.3150    56.5220   287.1350   275.7340   172.4490    24.0060     2.2020 
  166.2500   -30.9200    54.6880   300.0570   289.6820   182.6090    24.0470     2.1990 
  166.3750   -31.5000    52.1680   305.6300   297.3430   190.6310    24.0470     2.1980 
  166.5000   -32.0580    50.0270   302.7650   297.0140   204.2280    24.0160     2.2020 
  166.6250   -32.5840    51.1330   294.7260   290.6950   216.8860    23.9840     2.2090 
  166.7500   -33.0470    54.3460   289.3230   285.5830   209.4610    23.9550     2.2160 
  166.8750   -33.4120    56.1070   291.8420   287.1980   178.1750    23.9370     2.2200 
  167.0000   -33.6730    55.8030   304.6160   298.4940   148.8120    23.9230     2.2190 
  167.1250   -33.8230    56.4350   327.6330   319.8320   149.1780    23.8960     2.2170 
  167.2500   -33.8460    57.3660   354.7680   345.2280   152.3400    23.8910     2.2170 
  167.3750   -33.7250    56.7430   380.5620   369.4740   157.3430    23.9150     2.2180 
  167.5000   -33.4370    54.2000   399.8920   387.9140   160.5400    23.9410     2.2200 
  167.6250   -32.8850    52.1640   408.1650   396.4860   161.0050    23.9610     2.2180 
  167.7500   -32.1120    52.1090   408.0860   397.4910   166.6330    23.9750     2.2140 
  167.8750   -31.1560    52.6780   402.9060   393.6270   180.0070    23.9840     2.2100 
  168.0000   -30.0420    52.6310   395.6530   387.4540   186.6180    23.9890     2.2090 
  168.1250   -28.7500    51.4690   388.5010   380.8230   184.7960    23.9890     2.2090 
  168.2500   -27.3420    50.3230   382.5710   375.0020   181.7560    23.9830     2.2100 
  168.3750   -25.8780    50.4270   378.0410   370.4140   185.4090    23.9460     2.2090 
  168.5000   -24.4130    51.7420   374.3350   366.7430   189.8970    23.8530     2.2060 
  168.6250   -23.0530    52.5480   369.8380   362.5980   190.0840    23.7510     2.2040 
  168.7500   -21.8390    51.5130   362.6080   356.0210   189.0150    23.7100     2.2050 
  168.8750   -20.7900    50.1450   350.7960   345.1100   190.1570    23.7060     2.2090 
  169.0000   -19.8900    49.0660   333.0690   328.4350   193.3270    23.7270     2.2150 
  169.1250   -19.1620    47.4040   308.6900   304.9630   199.0400    23.7930     2.2220 
  169.2500   -18.5800    47.1670   281.4460   277.9720   198.3470    23.8860     2.2270 
  169.3750   -18.0960    49.5450   255.8030   251.4890   194.5940    23.9490     2.2300 
  169.5000   -17.6720    53.2870   236.4610   230.1960   188.3060    23.9590     2.2290 
  169.6250   -17.2970    55.9370   228.7350   219.8300   183.8550    23.9380     2.2250 
  169.7500   -16.9270    56.4300   232.3360   220.7630   182.4350    23.8520     2.2180 
  169.8750   -16.5280    54.9670   246.4260   232.4700   192.4130    23.6510     2.2100 
  170.0000   -16.0980    52.6770   267.6570   252.0650   219.1440    23.3900     2.2010 
  170.1250   -15.6540    51.3050   287.9210   272.9390   241.3680    23.2590     2.1920 
  170.2500   -15.2000    50.8130   296.7220   285.6170   248.7950    23.2240     2.1850 
  170.3750   -14.7400    50.6390   285.8370   282.3460   250.2230    23.2240     2.1820 
  170.5000   -14.2970    50.5350   252.6850   259.2500   250.9000    23.2220     2.1840 
  170.6250   -13.8890    51.5480   204.0200   218.1830   246.2010    23.2250     2.1920 
  170.7500   -13.4880    54.3590   156.4500   172.6390   227.7750    23.2490     2.2050 
  170.8750   -13.1100    57.0000   117.1790   131.0480   184.7020    23.3010     2.2200 
  171.0000   -12.7760    59.2950    87.2550    97.2680   128.2100    23.3480     2.2380 
  171.1250   -12.4870    63.0820    65.9140    72.5840    85.6830    23.3990     2.2550 
  171.2500   -12.2130    68.4470    49.7720    54.0180    60.7610    23.4660     2.2730 
  171.3750   -11.9550    71.9030    37.5710    40.1970    46.7290    23.5270     2.2930 
  171.5000   -11.7280    72.1080    28.5340    30.1820    34.9500    23.5560     2.3180 
  171.6250   -11.5120    71.8260    22.4300    23.5820    24.1810    23.5590     2.3470 
  171.7500   -11.3230    72.8080    18.2620    19.0970    16.1500    23.5380     2.3760 
  171.8750   -11.1800    74.5780    15.6310    16.1950    12.6830    23.4730     2.3980 
  172.0000   -11.0840    76.9840    14.2830    14.5610    11.9200    23.3660     2.4130 
  172.1250   -11.0190    79.3170    14.3600    14.2620    12.4430    23.3030     2.4160 
  172.2500   -11.0020    79.2730    15.8150    15.1960    12.6620    23.2820     2.4080 
  172.3750   -11.0390    76.2510    18.8930    17.5820    12.9130    23.2760     2.3880 
  172.5000   -11.1030    72.9600    23.7430    21.6660    15.7790    23.2580     2.3570 
  172.6250   -11.1800    71.1260    30.3380    27.7470    22.9740    23.2100     2.3210 
  172.7500   -11.2710    70.0080    37.5190    34.9420    34.8150    23.1530     2.2920 
  172.8750   -11.3550    69.0130    44.0310    42.0650    46.4430    23.1030     2.2760 
  173.0000   -11.4220    67.0040    48.5450    47.5420    50.7390    23.0580     2.2720 
  173.1250   -11.5060    63.9460    49.6110    49.3710    50.3900    22.9640     2.2740 
  173.2500   -11.5680    62.6240    47.7780    47.8490    49.9890    22.8460     2.2750 
  173.3750   -11.6080    62.9590    43.8550    43.8980    52.2490    22.8290     2.2750 
  173.5000   -11.6340    63.8780    38.8720    38.7510    56.6780    23.0270     2.2750 
  173.6250   -11.6570    64.0880    33.9590    33.6760    56.5790    23.3910     2.2800 
