~V
VERS. 2.00: Ver 2.00
~W
STRT.M 50.0000:
STOP.M 274.0000:
STEP.M 0.1250:
NULL. -999.2500:
UWI. F10206:
~C
DEPT.M :
SP.MV :
DEN.GM/CC :
GR.API :
RML.OHMM :
RI. :
RXO.OHMM :
CALI.CM :
~A
# ...
   61.2500   -20.9460     2.2130    80.8150     4.2830     5.7150     8.5830    23.3910 
   61.3750   -22.1560     2.1840    85.2650     4.1830     5.4490     7.5260    23.8540 
   61.5000   -23.0030     2.1670    89.0910     4.1690     5.2560     6.6560    24.1780 
   61.6250   -23.6710     2.1700    86.9500     4.4330     5.4370     6.6570    24.5870 
   61.7500   -24.2850     2.1940    81.4740     5.0310     6.0860     7.9060    24.8000 
   61.8750   -24.8840     2.2410    79.0630     5.9350     7.1810    11.7920    24.8390 
   62.0000   -25.5720     2.3100    79.8940     6.9470     8.4830    20.8110    24.8260 
   62.1250   -26.3460     2.3880    77.2330     7.5430     9.3630    26.7750    24.6700 
   62.2500   -27.1350     2.4460    71.5630     7.4460     9.4020    21.7160    24.2220 
   62.3750   -27.8960     2.4590    69.0060     6.8320     8.7070    13.4710    23.7810 
   62.5000   -28.5820     2.4240    70.6330     6.1320     7.7560     9.4370    23.4730 
   62.6250   -29.2030     2.3530    71.5400     5.7580     7.0860     8.4170    23.3490 
   62.7500   -29.8020     2.2800    71.8890     5.7660     6.8610     8.6520    23.1380 
   62.8750   -30.3700     2.2210    73.7560     6.0880     7.0210     9.2840    22.9650 
   63.0000   -30.8460     2.1830    74.3350     6.5470     7.3640     9.8900    22.7270 
   63.1250   -31.2490     2.1670    71.2920     6.8250     7.5500    10.1900    22.5900 
   63.2500   -31.6060     2.1660    67.1290     6.7490     7.3990     9.5870    22.6990 
   63.3750   -31.9950     2.1740    66.2360     6.3820     6.9640     8.5970    23.0920 
   63.5000   -32.5000     2.1870    71.3980     5.9120     6.4300     7.4680    23.5130 
   63.6250   -33.0980     2.1970    77.7760     5.5160     5.9840     7.1870    23.5890 
   63.7500   -33.6990     2.2000    77.9880     5.2950     5.7090     7.8900    23.4190 
   63.8750   -34.2870     2.1950    73.0310     5.3510     5.6910     9.2150    23.1240 
   64.0000   -34.8560     2.1840    69.1710     5.7960     6.0550     9.9650    22.9610 
   64.1250   -35.4020     2.1830    68.1070     6.8400     7.0510     9.7220    23.2010 
   64.2500   -36.0160     2.2060    63.7280     8.4850     8.7000    11.1890    23.9120 
   64.3750   -36.6380     2.2580    57.4230    10.6110    10.9100    18.4950    24.5970 
   64.5000   -37.2120     2.3290    53.8660    12.6330    13.1580    34.4310    24.7360 
   64.6250   -37.7280     2.3860    53.9660    13.0990    14.0490    39.9540    24.1990 
   64.7500   -38.1820     2.4010    54.2280    11.7290    13.0620    23.9410    23.3590 
   64.8750   -38.5820     2.3700    54.5240     9.4940    10.9110    14.1080    22.8280 
   65.0000   -38.9760     2.3180    58.1050     7.5530     8.7390    10.6980    22.9480 
   65.1250   -39.3760     2.2830    65.0930     6.5410     7.3230     8.7550    23.4910 
   65.2500   -39.7720     2.2730    71.9470     6.2530     6.6160     7.2880    23.8370 
   65.3750   -40.1920     2.2700    74.8790     6.4790     6.4680     7.3090    23.8170 
   65.5000   -40.5750     2.2550    71.0880     7.0160     6.7300     8.3680    23.3280 
   65.6250   -40.9210     2.2170    64.2890     7.6690     7.2950     9.9910    23.0430 
   65.7500   -41.2430     2.1720    59.1780     8.2270     7.9310    10.6810    22.9550 
   65.8750   -41.5510     2.1360    56.1380     8.5540     8.4310    10.8440    22.9420 
   66.0000   -41.8440     2.1210    54.4920     8.5850     8.6330    10.7650    22.9380 
   66.1250   -42.1080     2.1280    54.7890     8.3250     8.4680    10.8980    22.9190 
   66.2500   -42.3170     2.1440    56.2910     7.9610     8.1260    10.8750    22.8820 
   66.3750   -42.5400     2.1600    57.2720     7.6360     7.7750    10.2600    22.8990 
   66.5000   -42.8270     2.1680    58.0540     7.4620     7.5350     9.5380    23.0310 
   66.6250   -43.1750     2.1620    57.3970     7.5530     7.4830     9.6110    23.1810 
   66.7500   -43.6300     2.1460    53.9960     7.8790     7.6010    10.2700    23.2870 
   66.8750   -44.1440     2.1260    50.9360     8.3870     7.8810    10.8160    23.3690 
   67.0000   -44.6890     2.1090    52.1050     8.9660     8.2690    10.9020    23.3970 
   67.1250   -45.2070     2.1040    54.9760     9.4200     8.6320    10.6900    23.4010 
   67.2500   -45.7020     2.1080    54.7890     9.6070     8.8360    10.7680    23.4010 
   67.3750   -46.0730     2.1120    51.9850     9.5060     8.8150    11.0410    23.4010 
   67.5000   -46.3000     2.1100    50.4160     9.2150     8.5950    11.2200    23.3970 
   67.6250   -46.3820     2.0950    50.1610     8.8980     8.2900    11.1230    23.3650 
   67.7500   -46.2970     2.0730    48.4210     8.6760     8.0400    10.8350    23.2600 
   67.8750   -46.1290     2.0540    46.9190     8.5750     7.8810    10.5100    23.1870 
   68.0000   -45.8790     2.0490    47.3580     8.5620     7.7770    10.3400    23.1720 
   68.1250   -45.6030     2.0630    47.9860     8.5810     7.6870    10.4310    23.1690 
   68.2500   -45.3050     2.0870    46.3940     8.5850     7.5910    10.7110    23.1590 
   68.3750   -45.0120     2.1120    44.9830     8.5650     7.5060    11.0700    23.1170 
   68.5000   -44.7680     2.1330    45.9260     8.5200     7.4540    11.3160    23.0980 
   68.6250   -44.5590     2.1490    47.7430     8.4640     7.4430    11.1470    23.0940 
   68.7500   -44.4170     2.1610    50.5050     8.4270     7.4310    10.6190    23.0940 
   68.8750   -44.3210     2.1680    55.2900     8.4260     7.3960    10.3060    23.0940 
   69.0000   -44.2740     2.1650    58.6170     8.4560     7.3580    10.3390    23.0940 
   69.1250   -44.2550     2.1510    57.8010     8.4890     7.3440    10.4760    23.0940 
   69.2500   -44.2710     2.1320    55.4340     8.4910     7.3320    10.5990    23.0940 
   69.3750   -44.3000     2.1130    53.8060     8.4490     7.2890    10.7130    23.0940 
   69.5000   -44.3100     2.1000    52.7320     8.3770     7.2010    10.9200    23.0940 
   69.6250   -44.3330     2.0930    51.6380     8.3120     7.0890    11.0230    23.1000 
   69.7500   -44.3350     2.0880    51.1030     8.3000     7.0260    10.9440    23.1320 
   69.8750   -44.2770     2.0820    50.2100     8.3950     7.0900    10.6270    23.1630 
   70.0000   -44.1940     2.0790    49.4210     8.6500     7.3120    10.3510    23.1560 
   70.1250   -44.0490     2.0930    51.4280     9.1150     7.6820    10.3820    23.1690 
   70.2500   -43.8310     2.1420    54.5240     9.6810     8.1100    10.5530    23.1700 
   70.3750   -43.5760     2.2310    57.8710    10.1850     8.5130    10.7700    23.1680 
   70.5000   -43.2540     2.3450    61.1610    10.4240     8.7740    10.8650    23.1510 
   70.6250   -42.8900     2.4360    63.8850    10.1920     8.7280    10.6000    23.0540 
   70.7500   -42.5340     2.4640    65.1950     9.6410     8.3980    10.3090    22.9590 
   70.8750   -42.1970     2.4190    66.2730     8.9970     7.8780    10.3760    22.9430 
   71.0000   -41.9120     2.3280    68.1710     8.4810     7.3230    10.2880    22.9410 
   71.1250   -41.7210     2.2360    67.3470     8.2590     6.9340     9.7540    22.9400 
   71.2500   -41.6220     2.1680    62.0720     8.2920     6.7830     9.5580    22.9360 
   71.3750   -41.6140     2.1270    56.1020     8.5040     6.8460    10.1620    22.9350 
   71.5000   -41.6980     2.1090    53.5880     8.7900     7.0350    10.9040    22.9220 
   71.6250   -41.8510     2.1070    54.6360     9.0300     7.2400    11.3770    22.9200 
   71.7500   -42.0000     2.1160    55.4880     9.1560     7.3880    11.6530    22.9150 
   71.8750   -42.1360     2.1340    55.3170     9.1480     7.4660    11.8320    22.8890 
   72.0000   -42.2470     2.1570    55.1710     9.0330     7.4920    11.9740    22.8410 
   72.1250   -42.3280     2.1750    56.6120     8.8770     7.4770    12.0110    22.7890 
   72.2500   -42.3390     2.1830    58.6280     8.7450     7.4150    12.0150    22.7830 
   72.3750   -42.2900     2.1780    59.7100     8.6590     7.3230    11.9300    22.8770 
