~V
VERS. 2.00: Ver 2.00
~W
STRT.M 57.0000:
STOP.M 281.0000:
STEP.M 0.1250:
NULL. -999.2500:
UWI. F10238:
~C
DEPT.M :
GR.API :
RML.OHMM :
RI. :
RXO.OHMM :
CALI.CM :
DEN.GM/CC :
SP.MV :
~A
# ...
  158.2500    61.6350    23.5570    18.0270    15.7540    23.8780     2.2080   -15.4850 
  158.3750    62.0520    23.8850    18.1840    15.6690    23.8050     2.2130   -15.6000 
  158.5000    62.1220    24.7330    18.7250    16.5130    23.7120     2.2150   -15.7190 
  158.6250    60.5600    25.9430    19.5810    17.8290    23.6460     2.2120   -15.8350 
  158.7500    58.0480    27.3480    20.6530    18.4870    23.6450     2.2040   -15.9460 
  158.8750    57.6720    28.8190    21.8450    18.8710    23.7040     2.1930   -16.0670 
  159.0000    59.9130    30.2830    23.0860    19.8730    23.7810     2.1860   -16.1910 
  159.1250    60.9800    31.7010    24.3580    21.2710    23.8340     2.1820   -16.3060 
  159.2500    59.3260    33.0110    25.6300    22.6060    23.8580     2.1780   -16.4190 
  159.3750    59.1580    34.0920    26.8090    23.8410    23.8930     2.1720   -16.5050 
  159.5000    62.7710    34.8320    27.7590    25.4560    24.0100     2.1640   -16.5740 
  159.6250    66.5530    35.1900    28.3740    27.9740    24.2480     2.1570   -16.6320 
  159.7500    66.6730    35.2360    28.6380    30.4230    24.5260     2.1530   -16.6900 
  159.8750    63.2290    35.1320    28.6550    30.3950    24.7120     2.1560   -16.7410 
  160.0000    59.4730    35.0250    28.5800    28.6830    24.7970     2.1620   -16.7800 
  160.1250    58.1490    34.9600    28.4840    28.5520    24.8570     2.1690   -16.8160 
  160.2500    59.5520    34.9330    28.3790    30.5270    24.9280     2.1780   -16.8560 
  160.3750    60.8040    34.9610    28.2870    32.1210    24.9730     2.1860   -16.9110 
  160.5000    59.8290    35.1170    28.2740    32.0050    24.9720     2.1930   -16.9780 
  160.6250    57.8940    35.5410    28.4510    30.2440    24.9590     2.1950   -17.0560 
  160.7500    56.8550    36.4580    28.9970    28.5330    24.9430     2.1930   -17.1320 
  160.8750    57.1580    38.0710    30.0770    29.5060    24.9400     2.1860   -17.2100 
  161.0000    57.9570    40.4070    31.7330    31.9400    24.9400     2.1770   -17.2970 
  161.1250    57.8740    43.4580    33.9750    32.7780    24.8660     2.1680   -17.3820 
  161.2500    56.4340    47.2850    36.8730    32.8460    24.6530     2.1630   -17.4690 
  161.3750    54.9360    52.0990    40.5770    34.4880    24.4190     2.1640   -17.5540 
  161.5000    54.2640    58.2090    45.2880    38.5750    24.4040     2.1690   -17.6240 
  161.6250    53.9610    65.9690    51.2890    46.0710    24.5750     2.1720   -17.6840 
  161.7500    53.8670    74.9790    58.4470    55.9550    24.7370     2.1690   -17.7250 
  161.8750    54.1290    82.7820    65.2150    66.0030    24.8290     2.1570   -17.7470 
  162.0000    54.1780    84.9250    68.3540    76.1970    24.8940     2.1440   -17.7390 
  162.1250    54.4230    77.9420    64.7600    84.3540    24.8970     2.1380   -17.7110 
  162.2500    55.6280    62.8970    54.0960    81.8910    24.8360     2.1520   -17.6560 
  162.3750    57.7980    45.6610    40.3430    63.0380    24.7890     2.1880   -17.5790 
  162.5000    62.1080    31.6470    28.4360    39.1890    24.7520     2.2390   -17.5060 
  162.6250    69.6860    22.1070    20.0110    21.5810    24.7150     2.2920   -17.4320 
  162.7500    77.3220    16.5070    14.8890    13.3070    24.6920     2.3300   -17.3760 
  162.8750    82.0250    13.6650    12.1270    11.0190    24.7070     2.3520   -17.3420 
  163.0000    84.9170    12.3000    10.6620    10.4320    24.7330     2.3640   -17.3370 
  163.1250    86.1370    11.7880    10.0120    10.1940    24.7410     2.3750   -17.3560 
  163.2500    85.5890    11.6840     9.8350     9.9330    24.7160     2.3850   -17.4050 
  163.3750    85.6460    11.6800     9.8560     9.7570    24.6360     2.3900   -17.4930 
  163.5000    87.5260    11.6130     9.8810     9.6690    24.4910     2.3910   -17.6020 
  163.6250    89.0370    11.4590     9.8540     9.5000    24.3140     2.3910   -17.7290 
  163.7500    88.8010    11.2450     9.7680     9.2720    24.2020     2.3890   -17.8690 
  163.8750    87.4780    11.0360     9.6600     9.2330    24.2190     2.3860   -17.9900 
  164.0000    85.7480    10.9330     9.5970     9.4420    24.3350     2.3850   -18.0940 
  164.1250    83.7590    11.0530     9.6650     9.6510    24.5000     2.3860   -18.1780 
  164.2500    80.6740    11.5030     9.9620     9.9020    24.6430     2.3870   -18.2490 
  164.3750    76.3750    12.2880    10.5300    10.5640    24.7150     2.3860   -18.2900 
  164.5000    73.7270    13.2420    11.2780    11.9940    24.7380     2.3810   -18.3060 
  164.6250    74.1860    14.1200    12.0340    14.2650    24.7450     2.3730   -18.3060 
  164.7500    76.8460    14.5910    12.5210    15.6310    24.7290     2.3690   -18.2880 
  164.8750    80.8220    14.4490    12.5230    14.6290    24.6780     2.3720   -18.2900 
  165.0000    84.1780    13.8120    12.0840    12.8720    24.6320     2.3820   -18.3130 
  165.1250    83.8450    12.9260    11.3830    11.2250    24.6260     2.3920   -18.3630 
  165.2500    80.1550    12.0700    10.6500    10.4880    24.6390     2.3970   -18.4320 
  165.3750    78.2900    11.4070    10.0360    10.1620    24.6500     2.3940   -18.5280 
  165.5000    80.1170    10.9330     9.5680     9.9540    24.6500     2.3820   -18.6470 
  165.6250    82.7600    10.5870     9.2120     9.7490    24.6480     2.3620   -18.7820 
  165.7500    84.9740    10.3070     8.9260     9.4610    24.6460     2.3390   -18.9180 
  165.8750    86.1500    10.0640     8.6940     9.1680    24.6480     2.3210   -19.0430 
  166.0000    84.4770     9.8640     8.5200     8.9020    24.6490     2.3140   -19.1510 
  166.1250    80.4320     9.7450     8.4260     8.6520    24.6490     2.3230   -19.2390 
  166.2500    79.3790     9.7810     8.4620     8.4850    24.6540     2.3470   -19.3030 
  166.3750    83.8560    10.0590     8.6830     8.5060    24.6740     2.3730   -19.3480 
  166.5000    87.9990    10.6190     9.1230     8.9230    24.7070     2.3890   -19.3910 
  166.6250    87.5040    11.4850     9.8000     9.8350    24.7290     2.3920   -19.4440 
  166.7500    85.0310    12.6440    10.7040    11.6450    24.7180     2.3900   -19.5260 
  166.8750    85.0830    13.9750    11.7460    14.6130    24.6690     2.3890   -19.6350 
  167.0000    86.7870    15.2420    12.7490    16.4840    24.5900     2.3870   -19.7840 
  167.1250    87.1180    16.2210    13.5370    15.6390    24.5150     2.3820   -19.9660 
  167.2500    86.1180    16.6830    13.9260    14.6580    24.4710     2.3750   -20.1930 
  167.3750    86.0300    16.5510    13.8310    14.5040    24.4180     2.3710   -20.4590 
  167.5000    87.0940    16.0940    13.4150    14.4820    24.2960     2.3740   -20.7620 
  167.6250    87.0880    15.8190    13.0100    14.2980    24.1130     2.3740   -21.0900 
  167.7500    85.1770    16.6380    13.1800    14.1570    23.9880     2.3600   -21.4380 
  167.8750    81.6420    19.7000    14.6580    15.8020    24.0400     2.3210   -21.8220 
  168.0000    76.4710    26.0240    18.2840    23.8120    24.2670     2.2660   -22.2390 
  168.1250    69.5780    36.5930    25.1650    45.1100    24.5410     2.2140   -22.7050 
  168.2500    62.2990    51.8390    36.3970    80.9570    24.6960     2.1860   -23.2150 
  168.3750    57.3070    69.7730    51.1930   109.6390    24.7180     2.1940   -23.7520 
  168.5000    55.3480    85.3310    65.5900   106.4460    24.6920     2.2310   -24.2900 
  168.6250    55.5240    94.4950    75.6430    90.4330    24.6680     2.2760   -24.8300 
  168.7500    56.0070    97.7450    80.4790    78.8790    24.6560     2.3010   -25.3670 
  168.8750    55.6350    99.8470    83.1950    74.1050    24.6610     2.2950   -25.8910 
  169.0000    55.1390   104.8660    87.4480    75.6600    24.6820     2.2690   -26.3890 
  169.1250    55.4040   113.2070    94.2030    84.6590    24.7040     2.2370   -26.8510 
  169.2500    56.7810   123.0040   102.4890    98.9980    24.6890     2.2120   -27.2690 
  169.3750    58.1050   131.3130   110.1730   104.0300    24.6310     2.2000   -27.6510 
