~V
VERS. 2.00: Ver 2.00
~W
STRT.M 30.0000:
STOP.M 271.0000:
STEP.M 0.1250:
NULL. -999.2500:
UWI. F10210:
~C
DEPT.M :
DEN.GM/CC :
GR.API :
RML.OHMM :
RI. :
RXO.OHMM :
CALI.CM :
SP.MV :
~A
# ...
  131.2500     2.4340    53.2410    19.3600    19.0790    16.9670    24.1450    -5.3250 
  131.3750     2.4320    54.1590    18.3720    18.3090    18.8390    24.1270    -5.4220 
  131.5000     2.4370    55.5620    16.9780    17.0950    17.6950    24.1470    -5.5120 
  131.6250     2.4480    57.9660    15.5490    15.7380    14.6930    24.1470    -5.6210 
  131.7500     2.4550    60.3880    14.4800    14.6210    12.3520    24.1250    -5.7240 
  131.8750     2.4500    60.9740    13.9890    13.9720    11.8820    24.0050    -5.8350 
  132.0000     2.4340    59.3130    14.1580    13.9140    11.9560    23.8500    -5.9590 
  132.1250     2.4140    57.5400    15.0320    14.5510    12.2350    23.8010    -6.0900 
  132.2500     2.4070    58.6120    16.3110    15.6470    13.3720    23.7030    -6.2410 
  132.3750     2.4160    62.4220    17.7060    16.9460    15.1890    23.4740    -6.4020 
  132.5000     2.4320    66.0480    18.8420    18.0930    16.4270    23.3950    -6.5590 
  132.6250     2.4380    66.8450    19.1970    18.5820    16.3100    23.3790    -6.6850 
  132.7500     2.4320    65.6350    18.7390    18.3130    15.9680    23.3940    -6.7950 
  132.8750     2.4170    65.2190    17.6670    17.4260    15.3050    23.4510    -6.8920 
  133.0000     2.3930    68.4290    16.3790    16.2640    14.1130    23.7290    -6.9640 
  133.1250     2.3540    73.4740    15.4030    15.2800    12.8710    22.4060    -6.9980 
  133.2500     2.3030    76.6580    15.0450    14.7660    12.1670    22.5410    -6.9860 
  133.3750     2.2500    77.8510    15.4350    14.8640    12.1920    22.7030    -6.9600 
  133.5000     2.2090    78.7510    16.5270    15.5810    12.7360    22.8610    -6.9350 
  133.6250     2.1930    79.6260    18.1120    16.8110    13.5210    23.0470    -6.9600 
  133.7500     2.1970    80.6380    19.6250    18.0940    14.7350    23.2580    -7.0150 
  133.8750     2.2100    82.7700    20.6020    19.0080    16.0550    23.2940    -7.0790 
  134.0000     2.2270    84.6100    20.8240    19.2990    16.3400    23.2850    -7.1440 
  134.1250     2.2470    82.5270    20.5080    19.0760    15.8300    23.2850    -7.2300 
  134.2500     2.2710    77.8020    20.3630    18.9050    16.0020    23.2940    -7.3400 
  134.3750     2.2970    75.1890    20.8540    19.1850    17.3420    23.3560    -7.4410 
  134.5000     2.3230    77.5580    22.1620    20.1040    19.5190    23.5860    -7.5120 
  134.6250     2.3470    80.3110    24.1470    21.6270    24.4630    24.3680    -7.5200 
  134.7500     2.3680    80.1930    26.0890    23.1960    30.2340    24.2830    -7.5000 
  134.8750     2.3860    79.0130    27.3420    24.2460    33.1100    23.8960    -7.4580 
  135.0000     2.4030    79.4870    27.5370    24.4080    32.0330    23.8200    -7.4030 
  135.1250     2.4160    81.1470    26.7390    23.6890    25.9440    24.2490    -7.3140 
  135.2500     2.4240    80.8040    25.6910    22.7070    22.7260    24.5860    -7.2060 
  135.3750     2.4280    79.1800    24.8490    21.8620    22.3550    24.6440    -7.0840 
  135.5000     2.4300    77.2390    24.4060    21.3580    22.5000    24.6650    -6.9650 
  135.6250     2.4320    78.1440    24.3590    21.2410    22.5790    24.6080    -6.8560 
  135.7500     2.4350    81.0560    24.4520    21.2960    21.8520    24.5130    -6.7500 
  135.8750     2.4390    81.3190    24.5070    21.3410    21.4410    24.4290    -6.6480 
  136.0000     2.4390    77.7490    24.4040    21.2450    21.8120    24.3970    -6.5580 
  136.1250     2.4330    76.4760    24.0720    20.9390    22.1680    24.3950    -6.4750 
  136.2500     2.4260    80.0830    23.5560    20.5030    22.6770    24.3480    -6.4030 
  136.3750     2.4250    85.3620    22.9000    20.0120    22.3770    24.3150    -6.3370 
  136.5000     2.4300    88.1180    22.1950    19.5440    21.2770    24.3010    -6.2730 
  136.6250     2.4360    87.4300    21.5650    19.1910    21.2160    24.2080    -6.1920 
  136.7500     2.4370    84.7040    20.9880    18.9180    21.2570    24.0450    -6.0940 
  136.8750     2.4350    82.2650    20.2470    18.5300    19.5910    23.6980    -5.9770 
  137.0000     2.4320    83.3320    18.9810    17.6780    18.0180    23.5690    -5.8290 
  137.1250     2.4250    86.8680    16.7700    15.9340    17.2690    23.5580    -5.6430 
  137.2500     2.3930    87.2250    13.9300    13.5510    15.9530    23.6430    -5.4120 
  137.3750     2.3180    84.2710    11.0010    11.0070    12.8770    23.9870    -5.1530 
  137.5000     2.2140    81.5830     8.5270     8.7860     8.8780    24.5360    -4.8720 
  137.6250     2.1340    83.1040     6.9430     7.2690     6.1630    24.6240    -4.6130 
  137.7500     2.1090    86.4150     6.1000     6.3670     5.3410    24.5660    -4.3820 
  137.8750     2.1270    89.5140     5.8240     5.9770     5.3330    24.4850    -4.1960 
  138.0000     2.1590    90.3870     5.8910     5.9580     5.5780    24.4600    -4.0500 
  138.1250     2.1780    88.2030     6.0730     6.1540     5.7790    24.4230    -3.9560 
  138.2500     2.1860    87.5940     6.1890     6.3590     5.7110    24.2990    -3.9070 
  138.3750     2.1860    89.9870     6.2180     6.4890     5.5560    24.2310    -3.8860 
  138.5000     2.1850    93.2730     6.2130     6.5350     5.4850    24.2360    -3.8930 
  138.6250     2.1900    95.6170     6.2350     6.5290     5.6250    24.2520    -3.8890 
  138.7500     2.1980    96.0840     6.2800     6.5100     5.7010    24.2440    -3.8660 
  138.8750     2.2050    93.9670     6.3120     6.4810     5.7310    24.2280    -3.8020 
  139.0000     2.2120    89.1310     6.2990     6.4350     5.7520    24.2270    -3.7170 
  139.1250     2.2170    85.6220     6.2200     6.3600     5.8260    24.2370    -3.6290 
  139.2500     2.2130    86.7890     6.1160     6.2650     5.8420    24.2430    -3.5320 
  139.3750     2.2050    92.4220     6.0320     6.1600     5.6850    24.2380    -3.4350 
  139.5000     2.2040    98.7140     6.0060     6.0510     5.3910    24.2290    -3.3410 
  139.6250     2.2150    98.1790     6.0310     5.9370     5.3510    24.2400    -3.2720 
  139.7500     2.2290    92.6170     6.0440     5.8200     5.4370    24.2340    -3.2280 
  139.8750     2.2430    88.0630     6.0170     5.7090     5.4320    24.2300    -3.2120 
  140.0000     2.2570    86.8900     5.9600     5.6150     5.2330    24.1670    -3.2020 
  140.1250     2.2700    90.2910     5.9150     5.5520     5.1190    24.1640    -3.1950 
  140.2500     2.2740    96.2510     5.9030     5.5160     5.0840    24.1940    -3.2030 
  140.3750     2.2680    99.4610     5.9080     5.5010     5.1940    24.2320    -3.2150 
  140.5000     2.2540    96.5070     5.8880     5.4980     5.2860    24.2980    -3.2220 
  140.6250     2.2330    91.4020     5.8020     5.5000     5.1530    24.3260    -3.2080 
  140.7500     2.2060    90.5270     5.6810     5.4990     5.0290    24.3290    -3.1740 
  140.8750     2.1820    90.4490     5.5610     5.4920     5.0790    24.3580    -3.1210 
  141.0000     2.1720    87.9120     5.4740     5.4770     5.2190    24.3040    -3.0650 
  141.1250     2.1810    85.5780     5.4560     5.4550     5.3040    24.2800    -3.0090 
  141.2500     2.1900    88.2600     5.5130     5.4390     5.2760    24.2560    -2.9560 
  141.3750     2.1910    93.9480     5.6400     5.4370     5.2370    24.3520    -2.9120 
  141.5000     2.2010    97.3560     5.8100     5.4520     5.2270    24.4270    -2.8830 
  141.6250     2.2300    95.6990     5.9820     5.4780     5.3410    24.3030    -2.8910 
  141.7500     2.2520    93.2300     6.1160     5.5030     5.3590    24.1240    -2.9240 
  141.8750     2.2400    93.2030     6.1870     5.5170     5.4030    24.0910    -2.9830 
  142.0000     2.2090    95.5500     6.1870     5.5200     5.4240    24.0110    -3.0740 
  142.1250     2.1940    99.3540     6.1280     5.5180     5.5570    23.8350    -3.1890 
  142.2500     2.2080   103.2550     6.0580     5.5230     5.5220    23.8170    -3.3160 
  142.3750     2.2340   103.9910     6.0160     5.5390     5.4140    23.8730    -3.4470 
