~V
VERS. 2.00: Ver 2.00
~W
STRT.M 53.0000:
STOP.M 286.0000:
STEP.M 0.1250:
NULL. -999.2500:
UWI. F10262:
~C
DEPT.M :
DEN.GM/CC :
GR.API :
RML.OHMM :
RI. :
RXO.OHMM :
CALI.CM :
SP.MV :
~A
# ...
  233.0000     2.4610    97.6110     8.6240     7.6590     9.4860    24.5560    -6.2860 
  233.1250     2.4630   100.0470     8.9830     7.8510     9.3080    24.5670    -6.7450 
  233.2500     2.4480   101.8230     9.3840     8.0730     9.4570    24.6190    -7.3180 
  233.3750     2.4280    99.3420     9.7830     8.3080    10.2500    24.6430    -7.9050 
  233.5000     2.4150    93.3440    10.1000     8.5010    10.8980    24.6420    -8.4710 
  233.6250     2.4120    87.8770    10.2790     8.6020    11.1910    24.6390    -8.9920 
  233.7500     2.4120    88.2510    10.3050     8.5920    10.5210    24.6560    -9.4420 
  233.8750     2.4110    94.7520    10.2140     8.4810    10.1680    24.6830    -9.8690 
  234.0000     2.4050   100.2170    10.1160     8.3490    10.0120    24.7140   -10.1830 
  234.1250     2.3970   101.1980    10.0710     8.2480    10.1010    24.7450   -10.4150 
  234.2500     2.3910    98.4160    10.0820     8.1990    10.3470    24.7340   -10.5340 
  234.3750     2.3900    96.6560    10.0890     8.1770    10.3290    24.7010   -10.5770 
  234.5000     2.3920    98.3060    10.0510     8.1510    10.2210    24.6510   -10.5190 
  234.6250     2.3960   100.8830    10.0210     8.1420    10.3600    24.6120   -10.4060 
  234.7500     2.4010   100.8290    10.1290     8.2290    10.3870    24.6420   -10.2350 
  234.8750     2.4020    97.9060    10.5660     8.5470    10.6330    24.6700   -10.0400 
  235.0000     2.3970    95.5850    11.3240     9.1110    10.6910    24.6650    -9.8110 
  235.1250     2.3860    93.0070    12.2740     9.8670    11.9130    24.5800    -9.5910 
  235.2500     2.3780    89.8780    13.1300    10.6370    15.5010    24.4680    -9.3680 
  235.3750     2.3810    88.6020    13.4260    11.0660    16.8510    24.4590    -9.1900 
  235.5000     2.3900    89.9990    13.0790    11.0090    14.5680    24.5910    -9.0790 
  235.6250     2.3970    93.3430    12.2710    10.5540    12.4050    24.7900    -8.9810 
  235.7500     2.3950    97.6670    11.3410     9.9370    10.7030    25.0700    -8.9590 
  235.8750     2.3840    98.9330    10.6530     9.4240    10.1930    25.3740    -8.9350 
  236.0000     2.3730    97.2300    10.2970     9.1230    10.2100    25.4670    -8.9750 
  236.1250     2.3660    97.3640    10.2130     9.0230    10.5190    25.3840    -9.0140 
  236.2500     2.3660   101.3200    10.2790     9.0540    10.4160    25.3140    -9.0820 
  236.3750     2.3700   103.5450    10.4230     9.1540    10.2720    25.2320    -9.1360 
  236.5000     2.3750    98.8780    10.6130     9.2850    10.1950    25.1220    -9.2190 
  236.6250     2.3810    91.1100    10.8450     9.4370    10.2370    25.0750    -9.3200 
  236.7500     2.3880    86.5590    11.0900     9.5860    10.1420    25.1200    -9.4230 
  236.8750     2.3970    88.9330    11.2610     9.6670    10.2780    25.1040    -9.5000 
  237.0000     2.4060    95.7070    11.2520     9.6060    10.4590    24.9850    -9.5120 
  237.1250     2.4150   101.4800    10.9880     9.3440    10.5650    24.8280    -9.4920 
  237.2500     2.4240   102.5750    10.4920     8.8980    10.6100    24.7170    -9.4600 
  237.3750     2.4280    99.5600     9.9800     8.4260    10.1250    24.6640    -9.4680 
  237.5000     2.4270    97.9630     9.8220     8.1840     9.8660    24.6700    -9.4630 
  237.6250     2.4200   100.9510    10.3800     8.3990     9.9390    24.7220    -9.5270 
  237.7500     2.4070   104.0550    12.0110     9.3060    10.9020    24.7670    -9.6670 
  237.8750     2.3910   100.9720    15.3190    11.3980    14.7960    24.7050    -9.9730 
  238.0000     2.3730    91.9640    20.2320    14.8320    24.1010    24.5950   -10.3660 
  238.1250     2.3530    81.8470    26.4830    19.6610    34.1900    24.5690   -10.8470 
  238.2500     2.3300    75.5790    33.1730    25.3840    40.2470    24.6480   -11.3400 
  238.3750     2.3030    73.6930    38.5080    30.5780    40.4580    24.8990   -11.8490 
  238.5000     2.2760    74.8350    41.5990    34.0850    43.1100    25.1490   -12.3290 
  238.6250     2.2510    77.6250    42.7150    35.7870    45.6520    25.2260   -12.7760 
  238.7500     2.2330    78.8010    42.7780    36.2730    45.4630    25.1990   -13.1280 
  238.8750     2.2250    77.6270    42.4950    36.1070    43.8380    25.1360   -13.3490 
  239.0000     2.2250    77.6840    42.1550    35.7080    42.2360    24.9960   -13.5340 
  239.1250     2.2290    79.5730    41.8500    35.2570    42.3800    24.8330   -13.6500 
  239.2500     2.2360    81.2320    41.7010    34.9330    43.0490    24.8740   -13.7510 
  239.3750     2.2410    81.2230    41.8410    34.9420    42.8110    24.9200   -13.7770 
  239.5000     2.2440    81.3910    42.2250    35.3010    43.1000    24.8080   -13.8480 
  239.6250     2.2460    80.7590    42.8060    35.9980    44.5510    24.6010   -13.8880 
  239.7500     2.2480    79.3300    43.5910    37.0240    46.6580    24.4860   -13.9640 
  239.8750     2.2470    77.4470    44.8100    38.5530    47.7960    24.4910   -14.0350 
  240.0000     2.2410    75.9130    46.5360    40.6300    48.3880    24.5370   -14.0890 
  240.1250     2.2340    74.8840    48.3760    43.0080    48.6160    24.5670   -14.1220 
  240.2500     2.2360    74.6410    49.2080    44.8020    50.9780    24.6080   -14.1290 
  240.3750     2.2580    73.5360    47.0730    44.2250    57.1350    24.7370   -14.0770 
  240.5000     2.2940    71.9330    44.8400    40.9380    60.9800    24.7840   -13.9220 
  240.6250     2.3280    72.7700    40.4660    35.7000    50.2050    24.7190   -13.6840 
  240.7500     2.3460    77.1700    33.0240    29.9300    32.0480    24.6620   -13.3360 
  240.8750     2.3430    81.1370    27.0710    24.9840    21.8330    24.6390   -12.9010 
  241.0000     2.3340    82.4430    22.6120    21.1420    20.7610    24.5930   -12.4020 
  241.1250     2.3370    84.0130    19.3710    18.2650    21.5580    24.5280   -11.8890 
  241.2500     2.3580    88.9130    17.0320    16.1300    18.8120    24.4940   -11.3580 
  241.3750     2.3950    94.3160    15.4240    14.6260    14.1660    24.4570   -10.9080 
  241.5000     2.4320    96.0040    14.2510    13.5110    12.3090    24.4190   -10.4730 
  241.6250     2.4580    94.8110    13.3980    12.6720    12.1640    24.3650   -10.1300 
  241.7500     2.4670    94.5530    12.7780    12.0200    12.3930    24.2940    -9.8320 
  241.8750     2.4580    96.9460    12.3100    11.4900    11.3960    24.2550    -9.6450 
  242.0000     2.4430    99.1490    11.8860    11.0100    10.2670    24.2090    -9.5390 
  242.1250     2.4340    99.7100    11.4840    10.5640     9.5740    24.1940    -9.5350 
  242.2500     2.4410    99.1690    11.1690    10.1980     9.3400    24.1760    -9.6430 
  242.3750     2.4640    96.3150    11.1800    10.0910     9.9810    24.0960    -9.8540 
  242.5000     2.4850    91.0030    11.7580    10.4140    11.5390    24.0590   -10.1830 
  242.6250     2.4900    85.6500    13.2400    11.4110    13.5410    24.0800   -10.5590 
  242.7500     2.4670    83.4380    16.0540    13.4300    14.6460    24.0940   -11.0350 
  242.8750     2.4180    84.4490    21.0470    17.2990    21.9860    24.0300   -11.5960 
  243.0000     2.3590    83.0160    28.2690    23.2960    38.4380    23.9860   -12.2490 
  243.1250     2.3060    77.7710    37.5100    31.4010    54.0450    24.0370   -12.9020 
  243.2500     2.2660    73.2730    47.6720    40.6470    58.8970    24.1160   -13.5430 
  243.3750     2.2430    72.2890    56.2950    48.7420    59.5360    24.1980   -14.1030 
  243.5000     2.2310    74.2130    61.9750    54.2210    60.0340    24.3160   -14.6390 
  243.6250     2.2310    77.0690    65.1590    57.2600    61.5040    24.4340   -15.1240 
  243.7500     2.2390    78.4480    67.3350    59.0190    64.6090    24.5160   -15.5760 
  243.8750     2.2510    76.2730    69.6460    60.5170    66.1890    24.5210   -15.9170 
  244.0000     2.2570    73.7580    72.1500    62.0570    66.9470    24.4750   -16.1310 
  244.1250     2.2520    73.4220    74.5850    63.5440    67.1650    24.4620   -16.2530 
