~V
VERS. 2.00: Ver 2.00
~W
STRT.M 48.0000:
STOP.M 276.0000:
STEP.M 0.1250:
NULL. -999.2500:
UWI. F10244:
~C
DEPT.M :
GR.API :
RML.OHMM :
RI. :
RXO.OHMM :
CALI.CM :
DEN.GM/CC :
SP.MV :
~A
# ...
  261.7500    66.0250     8.2400     7.2520     9.7720    24.8050     2.4870   -13.1650 
  261.8750    65.7980     8.0810     7.1090     9.7640    24.8100     2.4770   -13.2880 
  262.0000    63.7830     7.9400     6.9840     9.8340    24.8030     2.4700   -13.4750 
  262.1250    60.7120     7.8200     6.8840     9.7980    24.8050     2.4650   -13.6750 
  262.2500    59.2570     7.7100     6.8020     9.4110    24.8110     2.4620   -13.8420 
  262.3750    61.5130     7.6120     6.7270     9.4100    24.8180     2.4580   -13.9670 
  262.5000    63.0360     7.5370     6.6640     9.3490    24.8220     2.4550   -14.0710 
  262.6250    62.2440     7.5080     6.6360     9.0210    24.8370     2.4540   -14.2060 
  262.7500    61.6010     7.5360     6.6610     8.7490    24.8800     2.4580   -14.3570 
  262.8750    63.1970     7.6160     6.7460     8.8140    24.9300     2.4650   -14.4520 
  263.0000    65.0160     7.7040     6.8540     8.9260    24.9430     2.4710   -14.5190 
  263.1250    65.1450     7.7600     6.9450     8.7950    24.9160     2.4750   -14.6090 
  263.2500    63.1790     7.7540     6.9820     8.6970    24.8810     2.4760   -14.7040 
  263.3750    61.4040     7.6760     6.9420     8.6510    24.8940     2.4760   -14.7440 
  263.5000    62.0780     7.5660     6.8540     8.5180    24.9220     2.4750   -14.8370 
  263.6250    64.8810     7.4650     6.7530     8.2180    24.9250     2.4710   -14.9420 
  263.7500    67.2200     7.4030     6.6720     8.0610    24.8920     2.4630   -15.0660 
  263.8750    67.8000     7.3930     6.6360     8.1080    24.8720     2.4540   -15.2300 
  264.0000    67.1870     7.4100     6.6380     8.1220    24.8680     2.4470   -15.3400 
  264.1250    66.6220     7.4280     6.6650     7.9720    24.8690     2.4440   -15.4330 
  264.2500    66.6910     7.4300     6.7040     7.7470    24.8690     2.4450   -15.5820 
  264.3750    67.7940     7.4110     6.7470     7.6640    24.8680     2.4520   -15.7670 
  264.5000    67.9500     7.3940     6.7900     7.6550    24.8640     2.4610   -15.9200 
  264.6250    66.3120     7.4030     6.8370     7.6840    24.8510     2.4730   -16.0430 
  264.7500    65.0300     7.4600     6.8970     7.7110    24.8240     2.4840   -16.1380 
  264.8750    66.1470     7.5730     6.9820     8.0380    24.8020     2.4900   -16.2690 
  265.0000    65.7830     7.7060     7.0800     8.1180    24.7690     2.4870   -16.4480 
  265.1250    62.0820     7.8200     7.1670     8.0230    24.6880     2.4710   -16.6030 
  265.2500    59.3850     7.8860     7.2180     7.8390    24.5220     2.4450   -16.6940 
  265.3750    60.7380     7.8850     7.2110     7.6980    24.3360     2.4210   -16.7380 
  265.5000    61.9570     7.8470     7.1660     7.6850    24.3860     2.4110   -16.7660 
  265.6250    63.4040     7.8030     7.1080     7.8580    24.5740     2.4200   -16.8250 
  265.7500    67.3450     7.7760     7.0680     8.3810    24.6860     2.4400   -16.8950 
  265.8750    70.8360     7.7860     7.0720     9.3000    24.7340     2.4590   -16.9110 
  266.0000    70.8360     7.8220     7.1130     9.0480    24.7470     2.4720   -16.8630 
  266.1250    70.8360     7.8720     7.1800     8.5520    24.7530     2.4770   -16.8270 
  266.2500    70.8360     7.9230     7.2540     8.4250    24.7550     2.4790   -16.8070 
  266.3750    70.8360     7.9730     7.3200     8.7180    24.7610     2.4810   -16.7910 
  266.5000    70.8360     8.0280     7.3830     9.1670    24.7640     2.4830   -16.7780 
  266.6250    70.8360     8.0880     7.4440     9.4630    24.7670     2.4820   -16.7600 
  266.7500    70.8360     8.1420     7.4990     9.5490    24.7930     2.4800   -16.8070 
  266.8750    70.8360     8.1630     7.5260     9.5710    24.8290     2.4770   -16.8510 
  267.0000    70.8360     8.1430     7.5190     9.7880    24.8670     2.4750   -16.9320 
  267.1250    70.8360     8.0910     7.4830    10.1140    24.9040     2.4760   -17.0180 
  267.2500    70.8360     8.0310     7.4350    10.5420    24.9210     2.4800   -17.0810 
  267.3750    70.8360     8.0020     7.4100    11.2820    24.9380     2.4900   -17.1930 
  267.5000    70.8360     8.0280     7.4340    11.5320    24.9130     2.5020   -17.2940 
  267.6250    70.8360     8.1180     7.5180    11.2280    24.9020     2.5120   -17.3520 
  267.7500    70.8360     8.2620     7.6530    11.1600    24.9300     2.5170   -17.4030 
  267.8750    70.8360     8.4240     7.8080    11.2440    24.9440     2.5130   -17.4910 
  268.0000    70.8360     8.5490     7.9360    10.5990    24.9120     2.5030   -17.6080 
  268.1250    70.8360     8.5970     8.0010     9.9210    24.8910     2.4920   -17.7130 
  268.2500    70.8360     8.5520     7.9890     9.9320    24.9170     2.4860   -17.8380 
  268.3750    70.8360     8.4220     7.8980    10.1870    24.9530     2.4880   -17.9530 
  268.5000    70.8360     8.2580     7.7670    10.2240    24.9330     2.4970   -18.0630 
  268.6250    70.8360     8.0970     7.6220     9.9360    24.8870     2.5080   -18.2110 
  268.7500    70.8360     7.9590     7.4860     9.9570    24.8940     2.5150   -18.3620 
  268.8750    70.8360     7.8610     7.3810     9.7590    24.8930     2.5150   -18.5050 
  269.0000    70.8360     7.7980     7.3070     9.3770    24.8960     2.5080   -18.6070 
  269.1250    70.8360     7.7680     7.2650     9.0620    24.8940     2.4970   -18.6980 
  269.2500    70.8360     7.7670     7.2510     9.1030    24.9160     2.4860   -18.7810 
  269.3750    70.8360     7.7890     7.2610     9.3560    24.9320     2.4800   -18.8890 
  269.5000    70.8360     7.8200     7.2830     9.6890    24.9370     2.4810   -19.0340 
  269.6250    70.8360     7.8470     7.3070     9.4320    24.9370     2.4880   -19.1790 
  269.7500    70.8360     7.8630     7.3250     9.0390    24.9330     2.4970   -19.2960 
  269.8750    70.8360     7.8570     7.3280     8.9080    24.9190     2.5060   -19.4090 
  270.0000    70.8360     7.8300     7.3160     8.9850    24.9020     2.5110   -19.5380 
  270.1250    70.8360     7.7890     7.2920     8.9310    24.9000     2.5110   -19.6970 
  270.2500    70.8360     7.7500     7.2680     8.6780    24.8950     2.5080   -19.8920 
  270.3750    70.8360     7.7390     7.2610     8.5140    24.8780     2.5060   -20.1060 
  270.5000    70.8360     7.7650     7.2800     8.5360    24.8680     2.5050   -20.3350 
  270.6250    70.8360     7.8220     7.3250     8.7050    24.8660     2.5070   -20.5650 
  270.7500    70.8360     7.8950     7.3880     8.7760    24.8600     2.5110   -20.7540 
  270.8750    70.8360     7.9620     7.4510     8.7130    24.8490     2.5130   -20.9800 
  271.0000    70.8360     8.0100     7.4990     8.5640    24.8480     2.5130   -21.2140 
  271.1250    70.8360     8.0360     7.5260     8.5400    24.8590     2.5110   -21.4650 
  271.2500    70.8360     8.0450     7.5370     8.7270    24.8660     2.5070   -21.7210 
  271.3750    70.8360     8.0430     7.5370     9.0640    24.8750     2.5040   -21.9650 
  271.5000    70.8360     8.0360     7.5360     9.4460    24.8900     2.5020   -22.2050 
  271.6250    70.8360     8.0290     7.5370     9.5160    24.8890     2.5010   -22.4200 
  271.7500    70.8360     8.0230     7.5400     9.3950    24.8730     2.5020   -22.6150 
  271.8750    70.8360     8.0220     7.5400     9.1990    24.8530     2.5030   -22.8410 
  272.0000    70.8360     8.0210     7.5400     9.1130    24.8330     2.5040   -23.0160 
  272.1250    70.8360     8.0220     7.5400     9.1830    24.8210     2.5050   -23.1590 
  272.2500    70.8360     8.0220     7.5400     9.2470    24.8290     2.5060   -23.2720 
  272.3750    70.8360     8.0220     7.5400     9.3060    24.8400     2.5070   -23.4450 
  272.5000    70.8360     8.0220     7.5400     9.3660    24.8390     2.5080   -23.6190 
  272.6250    70.8360     8.0220     7.5400     9.4540    24.8410     2.5100   -23.6310 
  272.7500    70.8360     8.0220     7.5400     9.5350    24.8360     2.5110   -23.6670 
  272.8750    70.8360     8.0220     7.5400     9.6810    24.8160     2.5110   -23.7680 
