~V
VERS. 2.00: Ver 2.00
~W
STRT.M 60.0000:
STOP.M 271.0000:
STEP.M 0.1250:
NULL. -999.2500:
UWI. F10237:
~C
DEPT.M :
GR.API :
RML.OHMM :
RI. :
RXO.OHMM :
CALI.CM :
DEN.GM/CC :
SP.MV :
~A
# ...
  240.0000    58.7900    27.3950    25.5770    25.6330    24.9160     2.3330    -9.9240 
  240.1250    62.6220    26.9850    24.8650    22.6050    24.8590     2.3230    -9.8530 
  240.2500    62.8100    27.5980    25.1180    23.2090    24.8220     2.3030    -9.7260 
  240.3750    59.8570    28.9840    26.1500    26.2480    24.7430     2.2820    -9.5920 
  240.5000    56.5960    30.8130    27.6990    28.1100    24.6120     2.2680    -9.5460 
  240.6250    54.4290    32.7220    29.4590    28.7260    24.4640     2.2600    -9.5260 
  240.7500    52.4760    34.3910    31.0780    30.1310    24.4080     2.2550    -9.4300 
  240.8750    52.7070    35.6270    32.3370    32.9820    24.4780     2.2530    -9.3260 
  241.0000    54.9600    36.2880    33.0800    36.4450    24.6830     2.2530    -9.2770 
  241.1250    55.4440    36.1320    33.0720    37.5180    24.7990     2.2610    -9.2100 
  241.2500    54.6500    35.2410    32.3640    37.8040    24.8730     2.2720    -9.1290 
  241.3750    55.4690    33.7730    31.0710    35.8750    24.9300     2.2820    -9.0750 
  241.5000    59.4870    32.0430    29.4620    32.1970    24.9650     2.2850    -9.0260 
  241.6250    61.9590    30.4470    27.9010    28.5670    24.9700     2.2860    -8.9270 
  241.7500    60.9180    29.2120    26.6440    26.5460    24.9690     2.2870    -8.8370 
  241.8750    58.8100    28.3990    25.7810    25.7460    24.9680     2.2920    -8.7880 
  242.0000    61.0850    27.9640    25.2880    25.4280    24.9450     2.2990    -8.7300 
  242.1250    68.4910    27.8250    25.0920    25.0290    24.8100     2.3060    -8.6190 
  242.2500    71.2530    27.7880    25.0170    24.6030    24.6180     2.3100    -8.5130 
  242.3750    65.2340    27.7240    24.9570    24.6250    24.6170     2.3110    -8.4410 
  242.5000    57.3810    27.5170    24.8120    24.7640    24.8580     2.3060    -8.3610 
  242.6250    56.9190    27.0380    24.4390    24.5610    25.0060     2.2990    -8.2700 
  242.7500    59.2100    26.3070    23.8170    23.9560    25.0430     2.2920    -8.2080 
  242.8750    59.3080    25.3940    22.9850    23.0100    25.0270     2.2890    -8.1310 
  243.0000    59.4070    24.4260    22.0590    21.5260    25.0000     2.2910    -8.0370 
  243.1250    62.0110    23.6360    21.2390    20.2390    25.0060     2.2970    -7.9790 
  243.2500    64.0680    23.2260    20.7050    19.9740    25.0320     2.3010    -7.9250 
  243.3750    64.0300    23.3540    20.5950    20.7170    25.0540     2.3010    -7.8240 
  243.5000    62.9270    24.1060    21.0040    21.5530    25.0760     2.2980    -7.7310 
  243.6250    61.5650    25.5640    22.0600    22.1180    25.1020     2.2960    -7.7240 
  243.7500    59.8120    27.4970    23.6190    23.8030    25.1090     2.2940    -7.6840 
  243.8750    57.5880    29.7220    25.5480    26.8840    25.1040     2.2910    -7.6100 
  244.0000    56.7400    31.9750    27.6150    30.4820    25.1000     2.2880    -7.5720 
  244.1250    58.9560    33.7660    29.3920    32.4250    25.1080     2.2860    -7.5780 
  244.2500    61.6290    34.6890    30.4710    33.2890    25.1120     2.2870    -7.5840 
  244.3750    60.0870    34.4620    30.5550    34.0710    25.1140     2.2860    -7.6040 
  244.5000    54.3380    33.0940    29.5860    34.6760    25.1150     2.2840    -7.6330 
  244.6250    51.6200    30.8610    27.7440    32.5190    25.1160     2.2860    -7.6460 
  244.7500    54.3820    28.5020    25.6770    28.0850    25.1160     2.2890    -7.7140 
  244.8750    57.5210    26.4990    23.8160    24.0830    25.1160     2.2920    -7.7950 
  245.0000    56.8480    25.1450    22.4480    21.3620    25.1160     2.2940    -7.7850 
  245.1250    53.3740    24.6360    21.8130    19.9500    25.1160     2.2960    -7.7850 
  245.2500    51.0200    24.7190    21.7680    20.1020    25.1150     2.2970    -7.8660 
  245.3750    51.2290    25.1550    22.1410    21.9730    25.1070     2.2980    -7.9680 
  245.5000    53.5260    25.6830    22.6900    23.7050    25.0850     2.3000    -8.0200 
  245.6250    57.6600    26.0870    23.1750    23.7180    25.0500     2.3020    -8.0010 
  245.7500    61.4880    26.3320    23.5100    23.2480    25.0240     2.3030    -7.9870 
  245.8750    64.5100    26.4570    23.7200    22.7680    25.0000     2.3040    -8.0410 
  246.0000    64.1060    26.5040    23.8600    22.2930    24.9750     2.3050    -8.1540 
  246.1250    59.5030    26.4600    23.9420    22.2610    24.9070     2.3080    -8.2010 
  246.2500    55.4220    26.3060    23.9450    22.9810    24.7640     2.3110    -8.1710 
  246.3750    53.9250    26.0340    23.8380    23.5730    24.5860     2.3100    -8.1200 
  246.5000    53.0630    25.6730    23.6210    22.8670    24.5180     2.3040    -8.1050 
  246.6250    51.5440    25.2850    23.3160    21.4090    24.6310     2.2930    -8.1870 
  246.7500    52.8740    24.9200    22.9890    21.5320    24.7580     2.2840    -8.2820 
  246.8750    57.2510    24.5830    22.6790    23.0990    24.8670     2.2790    -8.3160 
  247.0000    61.1200    24.2490    22.3900    23.7810    24.9110     2.2800    -8.3030 
  247.1250    61.9950    23.8830    22.0890    22.8180    24.9030     2.2860    -8.3300 
  247.2500    61.6310    23.4820    21.7370    21.4530    24.8930     2.2950    -8.4110 
  247.3750    63.0640    23.0440    21.3070    20.9790    24.8920     2.3080    -8.5340 
  247.5000    66.6080    22.5700    20.7950    20.9460    24.8730     2.3270    -8.6300 
  247.6250    69.8920    22.1690    20.2930    20.8080    24.8210     2.3540    -8.6290 
  247.7500    70.1310    22.0750    20.0160    21.5230    24.7480     2.3820    -8.6050 
  247.8750    67.5820    22.5630    20.2070    22.6300    24.7070     2.3990    -8.6160 
  248.0000    65.7270    23.8830    21.1010    23.6690    24.7210     2.4010    -8.6990 
  248.1250    65.8100    26.3350    23.0420    22.9150    24.7400     2.3990    -8.8180 
  248.2500    66.7720    29.6520    25.9110    29.5160    24.7600     2.4040    -8.9080 
  248.3750    68.8250    33.5310    29.5230    39.5880    24.7910     2.4060    -8.9370 
  248.5000    71.4120    37.6300    33.5590    44.0150    24.8190     2.3890    -8.9340 
  248.6250    72.6420    41.8310    37.7700    44.9190    24.7930     2.3600    -8.9720 
  248.7500    71.1200    46.3450    42.1790    42.7290    24.8500     2.3440    -9.0610 
  248.8750    69.5770    51.2580    46.9280    43.3140    24.9030     2.3460    -9.1770 
  249.0000    68.7840    55.7990    51.5690    51.2270    24.9350     2.3600    -9.2790 
  249.1250    67.5400    57.0990    53.8190    65.6600    24.9390     2.3820    -9.3580 
  249.2500    64.9950    53.2010    51.5570    75.8450    24.8700     2.4150    -9.3960 
  249.3750    63.0510    44.5810    44.5020    73.1270    24.7410     2.4590    -9.4070 
  249.5000    64.7430    34.2360    34.9610    49.7290    24.5860     2.5020    -9.4130 
  249.6250    71.0490    25.7490    26.4660    27.3790    24.6100     2.5290    -9.4300 
  249.7500    76.8640    20.1330    20.5580    16.1150    24.6360     2.5420    -9.4430 
  249.8750    78.8440    17.2270    17.2310    14.8570    24.5790     2.5460    -9.4290 
  250.0000    79.6250    16.7230    16.1010    14.1840    24.4870     2.5460    -9.3450 
  250.1250    79.5090    19.0350    17.4330    14.2870    24.4530     2.5650    -9.1910 
  250.2500    74.7710    24.0230    21.2380    21.9510    24.4270     2.6110    -9.0510 
  250.3750    66.1990    31.8210    27.9420    41.3550    24.3990     2.6680    -8.9580 
  250.5000    58.0580    41.9410    37.4880    50.0380    24.3630     2.7060    -8.9210 
  250.6250    52.0520    51.7570    47.9380    48.4530    24.3520     2.7140    -8.8990 
  250.7500    46.3490    56.3370    54.3190    53.4410    24.4490     2.7120    -8.8460 
  250.8750    40.9620    52.2920    52.4280    66.7750    24.5220     2.7010    -8.7580 
  251.0000    34.3690    41.3070    42.7390    62.5040    24.5500     2.6680    -8.6700 
  251.1250    27.3930    29.0860    30.6460    47.2230    24.5450     2.5930    -8.6100 
