~V
VERS. 2.00: Ver 2.00
~W
STRT.M 53.0000:
STOP.M 296.0000:
STEP.M 0.1250:
NULL. -999.2500:
UWI. F10258:
~C
DEPT.M :
GR.API :
RML.OHMM :
RI. :
RXO.OHMM :
CALI.CM :
DEN.GM/CC :
SP.MV :
~A
# ...
  199.2500    98.4170     5.7690     4.9740     5.0310    25.4230     2.2850    -9.6570 
  199.3750    98.3010     5.6190     4.8460     5.1720    25.3960     2.2810    -9.6730 
  199.5000    97.9300     5.4510     4.6610     5.3090    25.3940     2.2830    -9.6840 
  199.6250    98.9560     5.4000     4.5160     5.3080    25.4190     2.2920    -9.7010 
  199.7500   102.0890     5.5800     4.5200     5.1940    25.4800     2.3040    -9.7190 
  199.8750   105.9490     6.0890     4.7700     5.2690    25.6140     2.3130    -9.7450 
  200.0000   107.2480     6.9940     5.3430     6.0150    25.8350     2.3130    -9.7900 
  200.1250   102.5590     8.3950     6.3700     8.2750    26.0750     2.3030    -9.8780 
  200.2500    94.9770    10.1820     7.8120    11.2100    26.2410     2.2920   -10.0220 
  200.3750    90.1200    12.2310     9.6380    13.4660    26.3290     2.2850   -10.2370 
  200.5000    89.8850    14.2990    11.6990    15.2330    26.3660     2.2840   -10.5100 
  200.6250    90.2350    15.9080    13.5910    17.3650    26.3670     2.2810   -10.8330 
  200.7500    88.9040    16.7180    14.8370    19.7750    26.3640     2.2730   -11.1810 
  200.8750    87.8630    16.5620    15.1320    23.0550    26.3310     2.2640   -11.5350 
  201.0000    89.8850    15.5500    14.4760    24.3590    26.1730     2.2630   -11.8860 
  201.1250    94.9560    14.0340    13.1560    15.9130    25.7480     2.2780   -12.2150 
  201.2500    99.7720    12.5900    11.7890    10.4410    25.2580     2.3050   -12.5140 
  201.3750   101.1070    11.5370    10.6890     8.9710    24.8700     2.3330   -12.7760 
  201.5000   100.3980    11.0410    10.0020     9.4300    24.6350     2.3520   -13.0130 
  201.6250   103.2180    11.2310     9.8750    10.0160    24.5720     2.3590   -13.2500 
  201.7500   106.7910    11.9310    10.2400    10.1810    24.5940     2.3620   -13.4790 
  201.8750   106.9540    12.9790    11.0300    10.7450    24.6490     2.3680   -13.6940 
  202.0000   103.6820    14.1260    12.0890    12.0670    24.7030     2.3800   -13.9030 
  202.1250    98.8180    15.0060    13.1240    13.8360    24.7980     2.3970   -14.1060 
  202.2500    93.4230    15.4190    13.8060    15.8190    24.9380     2.4120   -14.2970 
  202.3750    89.0730    15.3830    13.9960    16.0500    25.1050     2.4190   -14.4670 
  202.5000    87.7290    15.1480    13.8460    14.0730    25.2720     2.4180   -14.6010 
  202.6250    86.2830    15.1300    13.7760    12.5610    25.4080     2.4050   -14.6860 
  202.7500    83.2440    15.7080    14.1240    13.3460    25.5170     2.3830   -14.7470 
  202.8750    81.5320    17.1080    15.0280    16.3220    25.5860     2.3560   -14.8020 
  203.0000    80.6430    19.1510    16.4500    22.2120    25.6180     2.3330   -14.8580 
  203.1250    79.3280    21.2380    18.1670    26.6960    25.7000     2.3230   -14.9400 
  203.2500    78.8200    22.9330    19.7540    27.9410    25.7760     2.3260   -15.0560 
  203.3750    79.1410    24.2950    21.0400    24.9480    25.8840     2.3370   -15.2070 
  203.5000    78.8870    25.5590    22.1430    22.7420    25.9880     2.3450   -15.4040 
  203.6250    78.2050    26.8700    23.3440    24.8680    26.0440     2.3390   -15.6590 
  203.7500    77.6100    28.1630    24.6770    27.6120    26.0650     2.3230   -15.9600 
  203.8750    76.6970    29.1790    25.8910    29.0620    26.0690     2.3030   -16.2910 
  204.0000    77.7590    29.6620    26.6230    29.7340    26.0720     2.2890   -16.6340 
  204.1250    82.1720    29.5500    26.6190    30.5320    26.0780     2.2880   -16.9570 
  204.2500    85.0510    29.3490    26.3250    28.1220    26.0460     2.2950   -17.2480 
  204.3750    84.5600    29.5660    26.2810    26.2740    26.0150     2.3050   -17.4990 
  204.5000    82.6900    30.5530    26.9340    27.1470    26.0140     2.3100   -17.7020 
  204.6250    80.9600    32.4050    28.5800    31.3300    26.0540     2.3040   -17.8600 
  204.7500    78.0690    34.5230    30.7790    38.8850    26.1290     2.2920   -18.0040 
  204.8750    75.4720    36.3080    32.9260    42.8230    26.2080     2.2810   -18.1580 
  205.0000    75.9190    37.3120    34.3870    39.8650    26.2530     2.2750   -18.3210 
  205.1250    80.3730    37.4160    34.7920    36.8130    26.2470     2.2790   -18.4930 
  205.2500    84.7880    37.2580    34.7240    35.9450    26.2560     2.2890   -18.6730 
  205.3750    85.3370    37.4120    34.8140    33.7430    26.2880     2.3000   -18.8570 
  205.5000    81.7040    38.2420    35.5490    33.7120    26.3490     2.3070   -19.0340 
  205.6250    77.9960    39.8380    37.1720    38.7950    26.4420     2.3030   -19.1820 
  205.7500    76.3500    41.7100    39.2340    44.0020    26.5120     2.2940   -19.2930 
  205.8750    77.1620    43.4230    41.2590    47.2390    26.5320     2.2850   -19.3620 
  206.0000    79.8470    44.6570    42.8210    48.2500    26.5260     2.2790   -19.3920 
  206.1250    81.7970    45.2350    43.6290    49.7420    26.4880     2.2800   -19.3950 
  206.2500    80.8400    45.6800    44.0280    47.9420    26.4450     2.2820   -19.3850 
  206.3750    77.8610    46.6210    44.4740    44.5190    26.4020     2.2810   -19.3850 
  206.5000    74.7550    48.3390    45.3940    44.2890    26.3880     2.2750   -19.4080 
  206.6250    72.2220    50.6960    47.1720    46.9790    26.3980     2.2630   -19.4690 
  206.7500    72.0670    53.3610    49.6950    52.9670    26.3810     2.2480   -19.5700 
  206.8750    74.4730    56.3110    52.7710    60.6610    26.3370     2.2350   -19.7170 
  207.0000    75.9890    59.4080    56.0870    66.7280    26.2650     2.2280   -19.9100 
  207.1250    74.9200    62.1970    59.2210    70.4190    26.2120     2.2280   -20.1320 
  207.2500    73.4130    64.4270    61.8670    70.7350    26.2280     2.2310   -20.3650 
  207.3750    72.8490    65.9740    63.8650    68.2830    26.2830     2.2340   -20.5920 
  207.5000    72.8400    66.8240    65.1830    66.1110    26.3310     2.2360   -20.8150 
  207.6250    72.2200    66.9390    65.7450    70.0700    26.3250     2.2370   -21.0240 
  207.7500    71.6370    66.5810    65.7020    70.7380    26.3180     2.2370   -21.2110 
  207.8750    71.3820    66.0330    65.2280    66.7370    26.3810     2.2390   -21.3770 
  208.0000    71.3950    65.7360    64.7310    64.4980    26.4660     2.2420   -21.5490 
  208.1250    70.1290    66.4510    65.0000    63.3050    26.5100     2.2440   -21.7410 
  208.2500    68.5330    68.5430    66.5890    61.4750    26.5050     2.2450   -21.9540 
  208.3750    67.2200    74.5540    69.8350    59.7310    26.5140     2.2390   -22.1810 
  208.5000    66.4370    80.4630    74.6730    68.4990    26.5520     2.2290   -22.4180 
  208.6250    68.4730    86.4100    80.6220    86.9180    26.5900     2.2160   -22.6620 
  208.7500    71.5920    92.1760    86.5960    99.8070    26.6130     2.2070   -22.8960 
  208.8750    71.5130    97.2100    91.9240   105.2340    26.6120     2.2020   -23.0940 
  209.0000    67.9000   101.3800    96.3580   103.6950    26.6030     2.2000   -23.2300 
  209.1250    67.4150   104.9130   100.1630   102.7990    26.6450     2.1990   -23.3130 
  209.2500    69.5580   108.2300   103.9760   103.7820    26.7070     2.1980   -23.3500 
  209.3750    69.6300   111.1750   107.8410   104.9320    26.7610     2.1970   -23.3460 
  209.5000    67.2750   113.0850   111.0870   106.1460    26.8190     2.1960   -23.3120 
  209.6250    64.0660   112.6080   112.2050   108.5620    26.9030     2.1960   -23.2800 
  209.7500    62.6960   109.3310   110.5740   105.9890    26.9980     2.1920   -23.2660 
  209.8750    64.8170   103.1360   105.7910   103.8850    27.1010     2.1870   -23.2910 
  210.0000    69.1770    94.5320    97.9740    98.9470    27.1960     2.1810   -23.3690 
  210.1250    71.0330    84.7250    87.9780    92.1610    27.1470     2.1820   -23.5040 
  210.2500    72.8640    75.7170    78.0960    84.4510    26.9420     2.1930   -23.6840 
  210.3750    77.8060    69.0050    70.0800    77.3180    26.6700     2.2110   -23.8990 
