~V
VERS. 2.00: Ver 2.00
~W
STRT.M 50.0000:
STOP.M 275.0000:
STEP.M 0.1250:
NULL. -999.2500:
UWI. F10202:
~C
DEPT.M :
GR.API :
RML.OHMM :
RI. :
RXO.OHMM :
CALI.CM :
SP.MV :
DEN.GM/CC :
~A
# ...
  207.5000    96.0610     7.6530     6.8380     6.1460    24.9190   -10.1010     2.3670 
  207.6250    92.7290     7.7920     6.9470     6.8980    24.7440    -9.5230     2.3670 
  207.7500    87.8640     8.0100     7.0510     8.0320    24.5450    -8.9690     2.3630 
  207.8750    81.2820     8.4830     7.1360     8.5950    24.3800    -8.4840     2.3550 
  208.0000    76.0420     9.4040     7.5870     8.8400    24.2550    -8.1660     2.3450 
  208.1250    76.0070    10.8930     9.0360    10.4840    24.1350    -7.9910     2.3330 
  208.2500    77.4110    12.7290    11.1760    14.0560    23.8170    -7.8580     2.3200 
  208.3750    77.7300    14.8120    13.4750    17.1000    23.2160    -7.6520     2.3090 
  208.5000    76.8780    17.1480    15.7300    18.8490    22.7160    -7.3490     2.2990 
  208.6250    76.7570    19.8390    18.2550    20.8880    23.3480    -7.0510     2.2870 
  208.7500    76.0680    22.8220    21.1010    22.1560    24.2470    -6.8540     2.2690 
  208.8750    73.5890    26.0250    24.1610    24.2250    24.8750    -6.6850     2.2460 
  209.0000    72.5080    29.3280    27.3390    28.3630    25.3050    -6.5000     2.2240 
  209.1250    73.8050    32.4920    30.4140    35.4050    25.4050    -6.4330     2.2140 
  209.2500    74.4090    35.2350    33.1020    39.7360    25.1650    -6.5640     2.2190 
  209.3750    71.0260    37.2790    35.1090    38.6780    24.8060    -6.8420     2.2310 
  209.5000    67.8110    38.4320    36.2090    37.7120    24.4880    -7.2020     2.2390 
  209.6250    77.3890    38.6070    36.2610    34.7820    24.2120    -7.5760     2.2340 
  209.7500    90.3110    38.3660    35.8270    30.1830    23.9650    -7.8860     2.2210 
  209.8750    92.4890    38.3890    35.5910    25.3100    23.6640    -8.0630     2.2120 
  210.0000    83.9220    39.5330    36.3990    23.0810    23.0620    -8.1660     2.2140 
  210.1250    78.1730    43.1830    39.6100    26.6450    22.1670    -8.3860     2.2240 
  210.2500    77.3120    49.7830    45.7450    37.6460    21.8730    -8.6360     2.2270 
  210.3750    72.4450    59.4410    55.0730    62.8820    22.2140    -8.9230     2.2170 
  210.5000    66.9040    71.2650    66.9210    86.0900    22.9870    -9.2900     2.1980 
  210.6250    66.8810    82.5550    78.7420    85.5570    24.0410    -9.8360     2.1790 
  210.7500    69.1820    89.7770    86.5760    86.1140    24.7220   -10.5990     2.1680 
  210.8750    70.0960    90.4120    87.3750    83.5000    24.9140   -11.4440     2.1690 
  211.0000    68.4290    83.9810    80.4680    79.2550    24.8300   -12.1700     2.1800 
  211.1250    65.3390    72.1830    67.9750    73.9890    24.6920   -12.5880     2.2000 
  211.2500    63.6040    59.8210    55.2880    61.9020    24.5480   -12.8360     2.2210 
  211.3750    66.7240    50.0320    45.5730    40.6650    24.3950   -12.9590     2.2390 
  211.5000    73.7740    44.7540    40.4520    25.9010    24.2770   -12.9760     2.2470 
  211.6250    76.6310    45.8550    41.4200    27.0470    24.2140   -12.8450     2.2420 
  211.7500    72.9930    52.6370    47.8610    40.1360    24.1780   -12.5700     2.2340 
  211.8750    67.3390    64.4680    59.5350    57.4710    24.2480   -12.3500     2.2340 
  212.0000    64.1710    79.3440    74.8180    40.9220    23.6000   -12.3230     2.2460 
  212.1250    62.9510    92.9490    89.1930    27.5680    23.6000   -12.4390     2.2640 
  212.2500    61.0460   101.1100    97.6330    24.3630    23.6000   -12.6530     2.2770 
  212.3750    60.8840   102.0060    97.9940    39.1660    23.6000   -13.0310     2.2800 
  212.5000    63.1460    96.6080    91.6520    74.4550    23.7330   -13.5500     2.2780 
  212.6250    66.6270    87.9310    82.3940    64.9040    23.7330   -14.0400     2.2800 
  212.7500    68.4620    79.9610    74.4000    61.3570    23.7330   -14.4650     2.2870 
  212.8750    67.7770    74.3360    69.1420    59.7550    23.8330   -14.7540     2.2900 
  213.0000    67.2640    71.1860    66.5380    56.4670    23.8670   -14.8800     2.2810 
  213.1250    69.5450    69.6790    65.5390    53.0120    23.9000   -14.9690     2.2610 
  213.2500    71.2100    68.2980    64.4460    56.6410    24.0000   -15.0730     2.2440 
  213.3750    70.1510    66.4900    62.6180    70.5160    24.0000   -15.0940     2.2430 
  213.5000    67.5160    64.5610    60.4000    78.9380    24.1330   -14.9720     2.2630 
  213.6250    67.0850    63.9770    59.3650    68.7740    24.1330   -14.8560     2.2910 
  213.7500    66.1520    66.1100    61.0420    56.1870    24.1330   -14.8930     2.3060 
  213.8750    63.3640    71.8830    66.4680    59.9930    24.1330   -15.2130     2.2980 
  214.0000    60.8810    81.2390    75.7370    71.3220    24.1330   -15.7230     2.2680 
  214.1250    61.0410    92.8630    87.6110    82.5170    24.1330   -16.2410     2.2300 
  214.2500    64.1350   103.7040    98.6950    91.3280    24.2000   -16.6560     2.2000 
  214.3750    68.5970   111.6040   106.4480    93.6040    24.2670   -16.9430     2.1880 
  214.5000    71.3430   115.7440   109.9430    87.1760    24.2670   -17.1870     2.1930 
  214.6250    70.4510   116.8250   110.1820    74.6870    24.2670   -17.4240     2.2100 
  214.7500    68.3530   117.5240   110.2760    61.4470    24.2670   -17.5900     2.2260 
  214.8750    66.9080   119.4520   111.9730    61.8880    24.2670   -17.5740     2.2350 
  215.0000    67.1110   123.0860   115.7290    75.9680    24.2670   -17.4870     2.2330 
  215.1250    71.5730   127.5490   120.5610    96.9570    24.4000   -17.3420     2.2210 
  215.2500    74.1590   130.9110   124.2430   112.0970    24.4000   -17.1230     2.2090 
  215.3750    70.2690   131.8840   125.2520   135.8200    24.4000   -16.9050     2.2000 
  215.5000    62.5350   130.2280   123.2850   155.3740    24.5330   -16.7050     2.1960 
  215.6250    60.1470   126.9790   119.5270   134.6440    24.5330   -16.6720     2.1980 
  215.7500    62.3720   124.4700   116.5950   100.4220    24.5330   -17.0040     2.2030 
  215.8750    63.0210   124.2850   116.2180    89.9030    24.6890   -17.5890     2.2070 
  216.0000    60.2160   127.0140   119.0520    98.4990    24.7530   -18.2430     2.2070 
  216.1250    56.8510   131.9700   124.4650   108.0220    24.7960   -18.7450     2.2030 
  216.2500    57.7430   136.4710   129.5700   118.9170    24.7860   -19.1040     2.1980 
  216.3750    61.7100   138.1690   131.7230   124.5120    24.6520   -19.4810     2.1950 
  216.5000    65.2780   135.5670   129.1810    96.5450    24.5730   -19.8910     2.1990 
  216.6250    64.6790   128.2480   121.5620   102.9170    24.6260   -20.2470     2.2130 
  216.7500    61.6590   118.8370   111.9000   102.1560    24.8580   -20.3370     2.2310 
  216.8750    59.4820   109.4880   102.5690   103.0780    24.9590   -20.2440     2.2420 
  217.0000    60.1520   101.8270    95.1750   103.1500    24.9130   -20.1170     2.2420 
  217.1250    62.6640    97.0300    90.7290    94.7320    24.7830   -20.3460     2.2290 
  217.2500    64.3910    94.6250    88.5910    90.6510    24.6910   -20.9810     2.2130 
  217.3750    66.1640    94.2670    88.3470    89.4840    24.6580   -21.7160     2.2040 
  217.5000    68.0800    95.6710    89.6940    87.8420    24.6460   -22.3330     2.2060 
  217.6250    67.5720    99.0030    92.8050    85.1200    24.6820   -22.7460     2.2170 
  217.7500    63.1710   104.0130    97.5310    83.1790    24.6100   -23.1020     2.2280 
  217.8750    58.0820   110.6250   103.8800    86.4010    24.4610   -23.4570     2.2360 
  218.0000    57.1560   118.4720   111.5400    97.7020    24.3720   -23.8280     2.2390 
  218.1250    60.7490   126.8000   119.7250   100.5180    24.3060   -23.9850     2.2380 
  218.2500    62.9340   134.5730   127.2890    96.7170    24.3110   -23.8520     2.2360 
  218.3750    61.2000   141.1880   133.5780    88.9280    24.4600   -23.6190     2.2340 
  218.5000    58.1510   146.4520   138.4570    89.3820    24.7730   -23.4560     2.2290 
  218.6250    57.3330   150.3330   142.0480    92.1770    25.0160   -23.2480     2.2180 
