~V
VERS. 2.00: Ver 2.00
~W
STRT.M 40.0000:
STOP.M 276.0000:
STEP.M 0.1250:
NULL. -999.2500:
UWI. F10236:
~C
DEPT.M :
SP.MV :
GR.API :
RML.OHMM :
RI. :
RXO.OHMM :
CALI.CM :
DEN.GM/CC :
~A
# ...
   85.0000    -7.5300    83.5520    13.5360    10.8420    30.8770    24.5570     2.5170 
   85.1250    -6.9670    88.3480     9.9490     8.2920    15.2600    24.5210     2.4500 
   85.2500    -6.4820    90.8730     7.6490     6.4440     8.8270    24.5530     2.3860 
   85.3750    -6.0940    92.8740     6.4960     5.3240     6.5870    24.6340     2.3530 
   85.5000    -5.7760    95.8440     6.1270     4.7840     5.9990    24.7190     2.3470 
   85.6250    -5.6070    98.9130     6.2210     4.6710     5.7510    24.6620     2.3500 
   85.7500    -5.5190   101.6570     6.4630     4.7430     5.6880    24.5880     2.3530 
   85.8750    -5.5230   102.7920     6.7620     4.9110     5.6470    24.5760     2.3540 
   86.0000    -5.5850   102.5850     7.0780     5.1340     5.6470    24.6340     2.3500 
   86.1250    -5.6960   101.5410     7.3440     5.3730     5.7690    24.6850     2.3340 
   86.2500    -5.8380    99.0670     7.4650     5.5540     5.8900    24.7280     2.3130 
   86.3750    -5.9880    95.8700     7.3740     5.6050     6.0500    24.7840     2.2960 
   86.5000    -6.1750    94.8850     7.0700     5.4900     6.2720    24.8400     2.2920 
   86.6250    -6.3310    98.0790     6.6350     5.2230     6.0450    24.9180     2.3070 
   86.7500    -6.4920   100.6590     6.2340     4.9280     5.6340    25.0160     2.3330 
   86.8750    -6.6530   100.2960     5.9750     4.7010     5.4150    25.0710     2.3560 
   87.0000    -6.8140    99.4010     5.9180     4.6030     5.4910    25.0610     2.3600 
   87.1250    -7.0050    99.6880     6.0980     4.6860     5.7960    24.9380     2.3410 
   87.2500    -7.2190    99.9510     6.4330     4.8930     6.0310    24.7730     2.3120 
   87.3750    -7.4750   100.0750     6.8390     5.1670     6.2420    24.5740     2.2800 
   87.5000    -7.7160    99.0870     7.2220     5.4360     6.5510    24.3290     2.2510 
   87.6250    -7.9940    94.7260     7.4720     5.6200     6.8480    24.2350     2.2320 
   87.7500    -8.2460    89.7210     7.5580     5.6920     6.9680    24.2690     2.2230 
   87.8750    -8.4700    88.2140     7.4820     5.6450     6.8950    24.4030     2.2280 
   88.0000    -8.6660    90.4880     7.2680     5.4900     6.7280    24.5790     2.2450 
   88.1250    -8.8130    92.9560     6.9450     5.2400     6.4220    24.6620     2.2760 
   88.2500    -8.9370    93.5830     6.6010     4.9700     6.1600    24.6940     2.3110 
   88.3750    -9.0320    93.5760     6.3240     4.7510     5.9730    24.6910     2.3420 
   88.5000    -9.1830    94.3510     6.1890     4.6370     5.9570    24.6720     2.3610 
   88.6250    -9.3350    95.0020     6.2960     4.6910     6.1810    24.5890     2.3640 
   88.7500    -9.5330    93.2640     6.6920     4.9420     7.0980    24.3720     2.3560 
   88.8750    -9.7630    88.6600     7.4560     5.4500     9.2090    24.0570     2.3370 
   89.0000    -9.9800    82.3160     8.6070     6.2540    10.4200    23.8060     2.3070 
   89.1250   -10.1260    74.0900    10.0280     7.3230    10.7240    23.7500     2.2830 
   89.2500   -10.1350    67.1000    11.2860     8.3590    12.2890    23.8430     2.2880 
   89.3750   -10.0160    67.6310    11.8780     8.9780    18.1760    24.1070     2.3290 
   89.5000    -9.6980    77.4220    11.4240     8.8550    30.3630    24.4970     2.3910 
   89.6250    -9.3070    90.1200     9.9540     7.9440    23.8600    24.7120     2.4250 
   89.7500    -8.8420    97.9340     8.2960     6.8030    12.3060    24.7550     2.4050 
   89.8750    -8.3640   100.2100     6.9840     5.8000     7.1040    24.7300     2.3570 
   90.0000    -7.9320    98.1140     6.2350     5.1230     5.7580    24.6910     2.3260 
   90.1250    -7.6190    93.5150     6.0840     4.8730     5.7840    24.6840     2.3250 
   90.2500    -7.4730    91.8940     6.2680     4.9190     6.0620    24.6880     2.3260 
   90.3750    -7.4700    93.3450     6.6120     5.1490     6.3880    24.6910     2.3210 
   90.5000    -7.6310    93.3850     7.0000     5.4520     6.6570    24.6590     2.3110 
   90.6250    -7.8870    89.8090     7.3840     5.7570     6.7750    24.5580     2.3010 
   90.7500    -8.2190    86.2530     7.7190     6.0210     7.2340    24.3890     2.2900 
   90.8750    -8.5790    83.7360     7.9370     6.1970     7.7230    24.2560     2.2790 
   91.0000    -8.9290    81.3030     7.9750     6.2420     7.9960    24.2060     2.2720 
   91.1250    -9.2540    81.6200     7.7820     6.1120     7.8330    24.2410     2.2770 
   91.2500    -9.5440    86.1160     7.4380     5.8570     7.4540    24.3220     2.2930 
   91.3750    -9.8310    90.5340     7.0500     5.5500     6.9730    24.4030     2.3180 
   91.5000   -10.1290    90.5530     6.7950     5.3010     6.9100    24.4900     2.3450 
   91.6250   -10.4550    88.8660     6.9880     5.3000     7.1780    24.5460     2.3600 
   91.7500   -10.8090    85.9370     7.8260     5.6830     7.3870    24.5680     2.3700 
   91.8750   -11.1670    79.8800     9.4600     6.5920     7.8390    24.5260     2.3840 
   92.0000   -11.5680    71.4880    11.8390     8.1050     9.5020    24.4750     2.4160 
   92.1250   -12.0240    65.0210    14.4920    10.1210    12.9110    24.3870     2.4710 
   92.2500   -12.5100    62.4750    16.4080    11.9510    16.0950    24.2320     2.5260 
   92.3750   -13.0010    61.9160    16.7810    12.8410    18.3230    24.0580     2.5520 
   92.5000   -13.4640    63.3790    15.5240    12.4310    18.0130    23.8750     2.5230 
   92.6250   -13.8730    65.5190    13.3860    11.0460    13.8180    23.7170     2.4320 
   92.7500   -14.2050    67.1420    11.4760     9.5790    11.3440    23.6160     2.3270 
   92.8750   -14.4730    68.8640    10.1740     8.4030    10.5740    23.5700     2.2510 
   93.0000   -14.6590    68.8030     9.4680     7.6090    10.3150    23.5400     2.2170 
   93.1250   -14.7570    65.4960     9.2090     7.1720     9.8290    23.4810     2.2160 
   93.2500   -14.8040    62.0910     9.1120     6.9170     9.2090    23.3790     2.2240 
   93.3750   -14.8190    61.7290     9.0610     6.7620     8.8430    23.2600     2.2310 
   93.5000   -14.8150    66.6310     9.0310     6.6730     8.5660    23.0920     2.2350 
   93.6250   -14.8000    75.0690     9.0880     6.6840     8.4910    22.7800     2.2360 
   93.7500   -14.8300    80.6970     9.2470     6.8010     8.6920    22.5100     2.2310 
   93.8750   -14.8960    78.9890     9.4750     7.0110     9.2900    22.4420     2.2210 
   94.0000   -15.0030    72.3020     9.7480     7.2900     9.9410    22.5250     2.2090 
   94.1250   -15.1440    67.3690    10.1390     7.6560    10.3350    22.7580     2.2060 
   94.2500   -15.3010    66.5170    10.7440     8.1440    10.6490    23.0220     2.2160 
   94.3750   -15.4620    68.7200    11.6110     8.7900    11.0100    23.2610     2.2430 
   94.5000   -15.6170    71.3450    12.6740     9.5760    11.8380    23.4870     2.2890 
   94.6250   -15.7780    71.3080    13.6370    10.3390    14.7220    23.6090     2.3600 
   94.7500   -15.8910    68.6610    14.0950    10.7960    19.9030    23.6020     2.4350 
   94.8750   -15.9890    65.3770    13.7960    10.7300    21.1740    23.4330     2.4630 
   95.0000   -16.0670    64.2120    12.8180    10.1360    15.4070    23.1960     2.4080 
   95.1250   -16.1180    64.1620    11.5620     9.2410    11.6570    23.0810     2.3050 
   95.2500   -16.1510    64.3200    10.5180     8.4050    10.5270    23.0600     2.2280 
   95.3750   -16.1710    64.8450     9.8820     7.7940    10.3600    23.0700     2.1900 
   95.5000   -16.1990    66.3530     9.6550     7.4570    10.2290    23.0830     2.1790 
   95.6250   -16.1910    68.5840     9.7290     7.3740     9.9970    23.1070     2.1840 
   95.7500   -16.2130    68.7320     9.8930     7.4170     9.8990    23.1450     2.1920 
   95.8750   -16.2040    66.8290    10.0520     7.5200     9.8930    23.1840     2.1990 
   96.0000   -16.1790    66.3660    10.1630     7.6400     9.8250    23.1940     2.2030 
   96.1250   -16.1340    68.7710    10.1990     7.7380     9.6430    23.1670     2.2060 
