~V
VERS. 2.00: Ver 2.00
~W
STRT.M 52.0000:
STOP.M 254.0000:
STEP.M 0.1250:
NULL. -999.2500:
UWI. F10213:
~C
DEPT.M :
DEN.GM/CC :
GR.API :
RML.OHMM :
RI. :
RXO.OHMM :
CALI.CM :
SP.MV :
~A
# ...
  153.2500     2.2270    69.5740    15.6940    14.5710    16.2780    25.1550   -12.8110 
  153.3750     2.2010    69.0120    15.8850    14.8330    17.4500    25.0250   -12.8490 
  153.5000     2.1680    67.6700    15.0650    14.3290    16.5700    24.6150   -12.8600 
  153.6250     2.1460    66.5570    13.2970    12.9390    13.3740    24.0940   -12.8620 
  153.7500     2.1430    68.0370    11.4280    11.3340    10.4070    23.6700   -12.8230 
  153.8750     2.1510    71.7400    10.0020     9.9980     8.8020    23.5740   -12.7580 
  154.0000     2.1530    77.6910     9.2710     9.1890     8.2120    23.9030   -12.7440 
  154.1250     2.1480    82.5200     9.3800     9.0910     7.8800    24.2120   -12.7990 
  154.2500     2.1510    82.9080    10.0340     9.5400     8.2310    24.2150   -12.8660 
  154.3750     2.1660    80.5180    10.8940    10.3160     9.5120    24.0460   -12.9420 
  154.5000     2.1880    79.4830    11.5080    11.0370    11.6350    23.8470   -13.0130 
  154.6250     2.2130    81.1700    11.4020    11.1950    12.6430    23.7340   -13.0800 
  154.7500     2.2310    83.4570    10.7400    10.7860    11.9450    23.6720   -13.1290 
  154.8750     2.2330    84.7510     9.9220    10.0900     9.9800    23.6280   -13.1640 
  155.0000     2.2250    83.8260     9.3430     9.4560     7.8880    23.5630   -13.2140 
  155.1250     2.2170    80.7340     9.1650     9.0910     7.4230    23.4980   -13.2370 
  155.2500     2.2160    79.5040     9.1040     8.8540     8.4270    23.4880   -13.2200 
  155.3750     2.2170    80.9190     8.8990     8.5620     9.5690    23.5000   -13.1900 
  155.5000     2.2200    83.2220     8.4440     8.1140     9.7040    23.4980   -13.1710 
  155.6250     2.2330    84.1620     7.9060     7.6030     8.2420    23.4650   -13.2020 
  155.7500     2.2500    85.0010     7.6580     7.2850     6.8600    23.4130   -13.3210 
  155.8750     2.2620    86.9780     7.9570     7.3700     6.7710    23.3280   -13.4770 
  156.0000     2.2620    87.7390     8.8780     7.9790     8.4370    23.2540   -13.6170 
  156.1250     2.2510    83.4000    10.6440     9.2250    10.7420    23.2240   -13.7270 
  156.2500     2.2420    76.2490    13.2450    10.9070    12.3160    23.2000   -13.8150 
  156.3750     2.2370    71.6470    15.1470    12.7960    13.9820    23.1220   -13.9180 
  156.5000     2.2320    72.7330    16.7520    14.5850    15.7450    22.9510   -14.0500 
  156.6250     2.2240    74.8850    17.7830    15.9100    16.1960    22.7640   -14.1310 
  156.7500     2.2220    72.3240    18.2290    16.6690    15.8030    22.7120   -14.1020 
  156.8750     2.2340    67.5940    18.0730    16.8030    15.6990    22.7200   -14.0090 
  157.0000     2.2560    67.4230    17.4210    16.3690    15.6270    22.6860   -13.9040 
  157.1250     2.2720    71.6990    16.5440    15.5730    15.2040    22.6400   -13.8200 
  157.2500     2.2780    73.2210    15.7980    14.7800    13.9590    22.5370   -13.7240 
  157.3750     2.2760    72.1850    15.2850    14.1290    12.5990    22.3760   -13.6090 
  157.5000     2.2740    70.6460    14.9050    13.5940    12.5910    22.2440   -13.5010 
  157.6250     2.2750    68.4310    14.4660    13.0780    13.1590    22.3960   -13.4520 
  157.7500     2.2750    67.9990    13.9250    12.5530    12.9880    22.7050   -13.5250 
  157.8750     2.2730    71.5180    13.4230    12.1170    12.0100    22.9570   -13.6950 
  158.0000     2.2730    75.1750    13.1960    11.9190    10.5990    23.0370   -13.9280 
  158.1250     2.2770    74.5550    13.5690    12.1930     9.8110    22.8010   -14.2170 
  158.2500     2.2790    73.6030    14.5520    12.9990    12.2850    22.5290   -14.5320 
  158.3750     2.2790    73.6180    16.0730    14.3760    15.6830    22.4480   -14.8250 
  158.5000     2.2740    72.4330    17.9530    16.2640    17.1990    22.6880   -15.0630 
  158.6250     2.2690    69.0990    19.9560    18.4770    17.4380    23.2820   -15.2540 
  158.7500     2.2670    67.3970    21.8440    20.6520    18.7600    23.9000   -15.4020 
  158.8750     2.2660    69.5550    23.4130    22.5070    22.0310    24.2260   -15.5000 
  159.0000     2.2630    72.3900    24.2990    23.6770    24.4920    24.1680   -15.4970 
  159.1250     2.2570    71.2080    23.6890    23.3270    23.3750    23.9800   -15.3950 
  159.2500     2.2530    67.6760    21.5150    21.3480    21.6320    23.7260   -15.2830 
  159.3750     2.2550    67.2880    18.2670    18.2350    20.7210    23.3270   -15.1990 
  159.5000     2.2590    71.1070    14.8540    14.8960    17.1000    22.9290   -15.1730 
  159.6250     2.2680    74.8450    12.2210    12.2080    11.5560    22.7600   -15.1810 
  159.7500     2.2810    76.5490    10.6080    10.3920     9.2330    22.9220   -15.1890 
  159.8750     2.2920    78.1950    10.0600     9.4780     9.6120    23.3570   -15.2190 
  160.0000     2.2970    80.1530    10.6370     9.4870     9.9460    23.8930   -15.3200 
  160.1250     2.2960    79.1920    12.7110    10.7100     9.2900    23.9160   -15.5060 
  160.2500     2.2870    73.5990    16.1780    13.1730    11.2210    23.3390   -15.7530 
  160.3750     2.2710    64.9570    20.9070    16.9910    18.2620    22.7230   -16.0090 
  160.5000     2.2520    57.6390    26.3840    21.9840    27.7730    22.4190   -16.2170 
  160.6250     2.2400    59.0830    31.3210    27.2140    33.0790    22.3220   -16.4080 
  160.7500     2.2380    67.4350    34.3800    31.0510    33.3570    22.2800   -16.5950 
  160.8750     2.2430    74.5200    35.0440    32.5440    33.5150    22.3850   -16.7460 
  161.0000     2.2510    73.3340    33.9010    31.9660    35.0170    22.6610   -16.8150 
  161.1250     2.2560    67.5900    32.1220    30.3350    35.1400    23.2810   -16.7690 
  161.2500     2.2560    64.8960    30.6840    28.7370    32.6080    24.0940   -16.6500 
  161.3750     2.2500    64.7570    29.9290    27.5910    29.4680    24.8910   -16.5270 
  161.5000     2.2410    66.1560    29.9950    27.1180    27.6530    25.3540   -16.4370 
  161.6250     2.2330    68.9100    30.9930    27.5190    28.2410    25.4000   -16.3740 
  161.7500     2.2260    69.2660    32.5930    28.5820    30.2870    25.2080   -16.2900 
  161.8750     2.2210    66.0760    34.4870    30.0920    32.3690    24.9910   -16.1790 
  162.0000     2.2170    64.9190    36.2900    31.7400    33.5880    24.9010   -16.0770 
  162.1250     2.2170    68.7220    37.4720    33.0780    34.0810    24.9430   -16.0170 
  162.2500     2.2180    72.0330    37.8010    33.7960    34.1600    25.0100   -16.0030 
  162.3750     2.2210    71.4720    37.1780    33.7150    33.7320    25.0360   -15.9850 
  162.5000     2.2240    69.7070    35.6680    32.8100    32.8240    25.0700   -15.9060 
  162.6250     2.2250    70.3000    33.4040    31.1260    31.4710    25.1880   -15.7640 
  162.7500     2.2230    71.0180    30.8790    29.0910    29.7790    25.3690   -15.6130 
  162.8750     2.2200    68.4650    28.5150    27.0750    27.9020    25.4800   -15.4980 
  163.0000     2.2180    63.7030    26.6650    25.4100    26.2560    25.5380   -15.4110 
  163.1250     2.2180    62.2520    25.5620    24.3410    24.9570    25.6190   -15.3110 
  163.2500     2.2190    63.8560    24.9210    23.6940    24.4510    25.7770   -15.1580 
  163.3750     2.2180    64.1380    24.3820    23.2010    25.0300    25.9390   -14.9960 
  163.5000     2.2150    63.3930    23.5010    22.4620    25.6180    25.8700   -14.8740 
  163.6250     2.2190    65.9540    21.8160    20.9950    23.9290    25.3170   -14.7780 
  163.7500     2.2320    69.3360    19.5160    18.9150    20.2020    24.6810   -14.6880 
  163.8750     2.2530    71.3010    16.9960    16.5800    16.7540    24.3180   -14.5840 
  164.0000     2.2760    74.2210    14.7140    14.4040    14.5800    24.2320   -14.4960 
  164.1250     2.2950    79.0810    13.1430    12.7860    12.6900    24.2180   -14.4320 
  164.2500     2.3090    83.0940    12.3320    11.7860    11.2060    23.9430   -14.3980 
  164.3750     2.3150    84.3440    12.2260    11.3960    10.4950    23.2290   -14.4010 
