~V
VERS. 2.00: Ver 2.00
~W
STRT.M 57.0000:
STOP.M 281.0000:
STEP.M 0.1250:
NULL. -999.2500:
UWI. F10238:
~C
DEPT.M :
GR.API :
RML.OHMM :
RI. :
RXO.OHMM :
CALI.CM :
DEN.GM/CC :
SP.MV :
~A
# ...
   68.2500    63.6140    10.1400     7.1440     8.8380    23.8490     2.0630   -21.7310 
   68.3750    64.4370    10.1630     7.1430     8.7870    23.8630     2.0610   -21.8330 
   68.5000    68.2330    10.2200     7.1650     8.7070    23.8600     2.0650   -21.8970 
   68.6250    71.8990    10.2960     7.1940     8.7530    23.8420     2.0740   -21.9140 
   68.7500    70.7840    10.3700     7.2210     8.8760    23.7900     2.0850   -21.8690 
   68.8750    66.1600    10.4310     7.2480     8.8950    23.6960     2.0920   -21.7860 
   69.0000    63.2470    10.4820     7.2770     8.8290    23.6020     2.0950   -21.7010 
   69.1250    62.0720    10.5310     7.3100     8.7310    23.5580     2.0960   -21.6280 
   69.2500    61.3010    10.5770     7.3400     8.7820    23.5620     2.0950   -21.5700 
   69.3750    60.9570    10.6090     7.3590     9.0580    23.5920     2.0940   -21.5140 
   69.5000    61.0260    10.6110     7.3600     9.3450    23.6180     2.0960   -21.4770 
   69.6250    61.4670    10.5820     7.3430     9.4440    23.6170     2.0980   -21.4740 
   69.7500    62.8580    10.5430     7.3170     9.3910    23.5890     2.1020   -21.5200 
   69.8750    65.3150    10.5280     7.2970     9.3340    23.5580     2.1060   -21.6310 
   70.0000    66.2590    10.5570     7.2950     9.3540    23.5690     2.1090   -21.7650 
   70.1250    64.8740    10.6280     7.3160     9.3900    23.6370     2.1120   -21.8980 
   70.2500    63.5630    10.7130     7.3490     9.2910    23.7370     2.1130   -22.0370 
   70.3750    63.9240    10.7760     7.3780     9.1320    23.8040     2.1130   -22.2060 
   70.5000    63.9190    10.7890     7.3820     9.1900    23.8190     2.1110   -22.3880 
   70.6250    62.5310    10.7480     7.3530     9.4470    23.7940     2.1090   -22.5550 
   70.7500    61.7670    10.6710     7.2980     9.5000    23.7360     2.1110   -22.6920 
   70.8750    62.4890    10.5940     7.2420     9.2550    23.6710     2.1220   -22.7870 
   71.0000    63.3820    10.5670     7.2200     9.1380    23.6450     2.1420   -22.8620 
   71.1250    64.5740    10.6310     7.2560     9.1840    23.6420     2.1610   -22.9300 
   71.2500    66.4760    10.7980     7.3600     9.1900    23.6380     2.1640   -22.9920 
   71.3750    66.6330    11.0310     7.5050     9.0950    23.6160     2.1460   -23.0270 
   71.5000    63.9940    11.2410     7.6370     9.0450    23.5870     2.1180   -23.0350 
   71.6250    62.1120    11.3430     7.7100     9.1000    23.5730     2.0890   -23.0400 
   71.7500    62.5530    11.2830     7.6940     9.1280    23.5660     2.0700   -23.0470 
   71.8750    62.5330    11.0960     7.6040     9.0740    23.5500     2.0600   -23.0400 
   72.0000    61.0220    10.8880     7.4910     8.9550    23.5480     2.0550   -23.0160 
   72.1250    60.5310    10.7410     7.4000     8.7540    23.5500     2.0550   -22.9660 
   72.2500    61.4630    10.7050     7.3630     8.6580    23.5410     2.0650   -22.9010 
   72.3750    61.5900    10.7640     7.3840     8.8220    23.4880     2.0820   -22.8230 
   72.5000    61.2740    10.8510     7.4390     9.0790    23.3860     2.0970   -22.7340 
   72.6250    62.1860    10.9120     7.5020     9.2200    23.2770     2.1030   -22.6230 
   72.7500    63.0640    10.9210     7.5480     9.2770    23.2370     2.0980   -22.4870 
   72.8750    62.3660    10.8820     7.5630     9.3170    23.3020     2.0870   -22.3360 
   73.0000    61.4620    10.8210     7.5470     9.2680    23.3700     2.0780   -22.1810 
   73.1250    61.9480    10.7540     7.5010     9.1740    23.4140     2.0740   -22.0210 
   73.2500    63.8780    10.6910     7.4330     8.9310    23.4710     2.0730   -21.8530 
   73.3750    66.8560    10.6340     7.3550     8.4960    23.5890     2.0740   -21.6780 
   73.5000    69.8160    10.5810     7.2770     8.0700    23.7320     2.0770   -21.4960 
   73.6250    69.7340    10.5400     7.2030     7.9110    23.8140     2.0810   -21.3200 
   73.7500    65.9900    10.5150     7.1360     8.0330    23.8020     2.0880   -21.1590 
   73.8750    63.8610    10.4980     7.0700     8.1970    23.7220     2.0990   -21.0200 
   74.0000    67.1700    10.4690     6.9960     8.1840    23.6590     2.1130   -20.8890 
   74.1250    72.0740    10.4420     6.9210     8.1900    23.6760     2.1270   -20.7790 
   74.2500    72.9470    10.5080     6.9030     8.4060    23.7430     2.1390   -20.7150 
   74.3750    69.4600    10.8060     7.0240     8.4710    23.8050     2.1530   -20.7120 
   74.5000    65.9990    11.3960     7.3320     8.3700    23.8430     2.1770   -20.7780 
   74.6250    65.5010    12.2250     7.8160     8.3560    23.8770     2.2140   -20.9130 
   74.7500    67.6830    13.0670     8.3700     8.7060    23.9030     2.2540   -21.1290 
   74.8750    69.0500    13.5750     8.7950     9.1700    23.8870     2.2740   -21.4310 
   75.0000    66.5140    13.5140     8.9070     9.3690    23.8390     2.2610   -21.7810 
   75.1250    62.4090    12.9090     8.6660     9.3550    23.8280     2.2200   -22.1480 
   75.2500    60.8820    12.0590     8.1960     9.3890    23.8450     2.1700   -22.4850 
   75.3750    61.7090    11.3370     7.7080     9.5120    23.8580     2.1290   -22.7620 
   75.5000    61.5490    10.9430     7.3610     9.6050    23.8630     2.1060   -22.9680 
   75.6250    60.2370    10.8630     7.1960     9.7260    23.8640     2.0990   -23.0930 
   75.7500    60.2380    10.9530     7.1720     9.8980    23.8610     2.1000   -23.1060 
   75.8750    61.5510    11.0340     7.1970     9.8750    23.8540     2.1040   -22.9790 
   76.0000    61.0210    11.0050     7.1900     9.5380    23.8480     2.1100   -22.7710 
   76.1250    58.9010    10.8760     7.1320     9.1590    23.8400     2.1120   -22.5030 
   76.2500    58.7400    10.7130     7.0440     8.9810    23.8370     2.1100   -22.1970 
   76.3750    61.3240    10.5880     6.9640     9.0070    23.8410     2.1100   -21.8690 
   76.5000    63.6290    10.5570     6.9290     8.9410    23.8330     2.1160   -21.5270 
   76.6250    64.7600    10.6490     6.9630     8.8270    23.8090     2.1270   -21.1820 
   76.7500    66.4680    10.8650     7.0780     8.9120    23.7630     2.1390   -20.8610 
   76.8750    68.2800    11.1650     7.2630     9.2190    23.6990     2.1440   -20.5900 
   77.0000    67.4870    11.4660     7.4780     9.4580    23.6380     2.1390   -20.3400 
   77.1250    63.9440    11.6820     7.6780     9.4880    23.6060     2.1270   -20.1010 
   77.2500    60.2450    11.7260     7.8050     9.5150    23.6190     2.1150   -19.8720 
   77.3750    58.3960    11.5690     7.8220     9.6360    23.6530     2.1100   -19.6300 
   77.5000    58.1680    11.2890     7.7510     9.6810    23.6910     2.1130   -19.3620 
   77.6250    59.1740    10.9820     7.6350     9.5770    23.7170     2.1250   -19.0590 
   77.7500    61.3900    10.7540     7.5270     9.4380    23.7150     2.1400   -18.6970 
   77.8750    63.8190    10.6640     7.4640     9.3890    23.6710     2.1480   -18.2740 
   78.0000    65.4150    10.6800     7.4450     9.3840    23.6070     2.1480   -17.7860 
   78.1250    66.5730    10.7080     7.4300     9.3290    23.5740     2.1450   -17.2310 
   78.2500    68.4670    10.5870     7.3350     9.0260    23.6030     2.1470   -16.6020 
   78.3750    70.7150    10.1820     7.0740     8.4650    23.6390     2.1600   -15.9160 
   78.5000    73.1750     9.4940     6.6340     8.0220    23.5800     2.1850   -15.2360 
   78.6250    78.5910     8.6120     6.0570     7.6280    23.4300     2.2190   -14.5840 
   78.7500    87.2800     7.7110     5.4430     6.5960    23.4250     2.2560   -13.9990 
   78.8750    94.3840     6.9960     4.9160     5.4170    23.7080     2.2930   -13.5060 
   79.0000    96.6860     6.6080     4.5640     5.0540    23.9960     2.3230   -13.1630 
   79.1250    94.9730     6.6240     4.4430     5.0590    24.1150     2.3400   -13.0120 
   79.2500    90.5570     7.0680     4.5900     5.2570    24.0800     2.3400   -13.0940 
   79.3750    84.9910     7.8330     4.9770     5.8440    23.9480     2.3230   -13.4190 
