~V
VERS. 2.00: Ver 2.00
~W
STRT.M 56.0000:
STOP.M 281.0000:
STEP.M 0.1250:
NULL. -999.2500:
UWI. F10232:
~C
DEPT.M :
SP.MV :
GR.API :
RML.OHMM :
RI. :
RXO.OHMM :
CALI.CM :
DEN.GM/CC :
~A
# ...
   67.2500   -23.4270    85.2500     4.6930     5.9620     5.3450    24.3300     2.2980 
   67.3750   -24.0340    80.3470     4.7420     5.8360     5.1830    24.6620     2.2920 
   67.5000   -24.6440    72.0410     5.0700     6.0700     5.4930    25.2040     2.2580 
   67.6250   -25.2440    65.3500     5.5420     6.5090     6.0820    25.8790     2.2040 
   67.7500   -25.8170    60.8410     6.0350     7.0080     6.7010    26.4790     2.1520 
   67.8750   -26.3500    58.8670     6.4200     7.4300     6.9970    26.5930     2.1280 
   68.0000   -26.8390    57.5180     6.6590     7.7250     7.1160    26.3730     2.1270 
   68.1250   -27.2370    55.5860     6.7680     7.8990     7.1970    26.1250     2.1380 
   68.2500   -27.4740    54.5300     6.8020     7.9890     7.2830    25.9730     2.1430 
   68.3750   -27.4770    56.0260     6.8000     8.0160     7.4250    25.8240     2.1380 
   68.5000   -27.3280    58.3550     6.7650     7.9800     7.5650    25.5750     2.1330 
   68.6250   -27.0720    59.6080     6.6690     7.8500     7.6190    25.2190     2.1410 
   68.7500   -26.7740    61.5160     6.4920     7.6080     7.4890    24.8290     2.1640 
   68.8750   -26.4940    66.3690     6.2450     7.2700     7.2470    24.5040     2.2010 
   69.0000   -26.2670    72.0280     6.0100     6.9280     6.9300    24.3040     2.2410 
   69.1250   -26.1250    77.0220     5.8720     6.6740     6.5960    24.1990     2.2780 
   69.2500   -26.1260    79.7060     5.9120     6.5990     6.3160    24.1680     2.3050 
   69.3750   -26.3220    75.9020     6.2340     6.8150     6.4070    24.1510     2.3110 
   69.5000   -26.6780    67.9530     6.8030     7.2960     6.9170    24.1140     2.2880 
   69.6250   -27.1710    60.1100     7.5560     7.9860     8.1740    24.0480     2.2330 
   69.7500   -27.7710    56.0490     8.3580     8.7550    10.5790    23.9800     2.1510 
   69.8750   -28.4600    55.3360     8.9660     9.3800    13.9880    23.9820     2.0580 
   70.0000   -29.1560    55.4040     9.2210     9.6930    17.4370    24.1230     1.9790 
   70.1250   -29.8180    54.6430     9.0820     9.6350    19.0140    24.3800     1.9330 
   70.2500   -30.3990    53.3090     8.6660     9.2810    16.2700    24.6890     1.9300 
   70.3750   -30.8770    53.6240     8.2070     8.8170    12.1790    24.8660     1.9750 
   70.5000   -31.2610    55.7350     7.8990     8.4470     9.0180    24.8210     2.0450 
   70.6250   -31.5760    58.8570     7.7960     8.2490     8.1250    24.7590     2.1180 
   70.7500   -31.8480    61.5130     7.8680     8.2160     8.1340    24.7910     2.1740 
   70.8750   -32.0810    62.6260     8.0390     8.2950     8.2570    24.9250     2.1980 
   71.0000   -32.2980    61.7690     8.2080     8.3820     8.3250    25.0870     2.2000 
   71.1250   -32.5040    58.2050     8.3230     8.4280     8.4250    25.2170     2.1930 
   71.2500   -32.6990    54.3480     8.3710     8.4120     8.4940    25.2830     2.1840 
   71.3750   -32.8680    53.6150     8.3620     8.3360     8.4270    25.2760     2.1810 
   71.5000   -33.0080    55.4710     8.3410     8.2360     8.2150    25.2400     2.1810 
   71.6250   -33.1210    56.9930     8.3370     8.1340     7.9100    25.2130     2.1820 
   71.7500   -33.1980    55.9170     8.3650     8.0450     7.5970    25.2050     2.1820 
   71.8750   -33.2180    53.8690     8.4330     7.9790     7.4680    25.2040     2.1810 
   72.0000   -33.1810    52.7950     8.5170     7.9270     7.5620    25.2000     2.1810 
   72.1250   -33.0960    54.3070     8.5980     7.8780     7.8310    25.1940     2.1820 
   72.2500   -32.9600    58.3770     8.6530     7.8220     8.1970    25.1850     2.1850 
   72.3750   -32.7710    59.6060     8.6690     7.7480     8.4450    25.1730     2.1890 
   72.5000   -32.5430    55.6150     8.6750     7.6710     8.4880    25.1520     2.1950 
   72.6250   -32.2640    49.1230     8.7290     7.6300     8.4060    25.1080     2.2020 
   72.7500   -31.9260    45.4010     8.9200     7.6860     8.4260    25.0120     2.2080 
   72.8750   -31.5620    47.8730     9.3810     7.9440     8.4670    24.8280     2.2140 
   73.0000   -31.1930    53.0590    10.0960     8.4130     8.7220    24.5670     2.2220 
   73.1250   -30.8390    57.0500    10.9600     9.0390     9.5400    24.2450     2.2380 
   73.2500   -30.5150    56.2440    11.7600     9.6830    10.7840    23.8470     2.2600 
   73.3750   -30.2670    52.5290    12.1480    10.0880    11.9890    23.4170     2.2760 
   73.5000   -30.0740    51.3320    11.9880    10.1040    12.1630    23.0800     2.2720 
   73.6250   -29.9130    52.8740    11.3110     9.6990    10.1500    22.9310     2.2420 
   73.7500   -29.7910    52.9520    10.3470     9.0090     7.4220    23.0360     2.1920 
   73.8750   -29.6960    50.0100     9.4740     8.3010     6.3930    23.4040     2.1440 
   74.0000   -29.6430    49.2410     8.9260     7.7930     6.0890    23.9300     2.1140 
   74.1250   -29.6180    51.3790     8.7390     7.5450     6.0490    24.4770     2.1100 
   74.2500   -29.6070    54.6750     8.8250     7.5190     6.2550    24.8570     2.1290 
   74.3750   -29.5560    57.1070     9.0350     7.6250     6.8610    25.0010     2.1600 
   74.5000   -29.4660    57.3480     9.2120     7.7260     7.4550    25.1430     2.1850 
   74.6250   -29.3470    55.0080     9.2920     7.7590     7.7780    25.2820     2.1950 
   74.7500   -29.1770    52.1620     9.2590     7.6980     7.7730    25.2880     2.1890 
   74.8750   -28.9420    53.8050     9.0990     7.5350     7.5270    25.0430     2.1710 
   75.0000   -28.6490    57.4550     8.8590     7.3130     7.1520    24.5930     2.1510 
   75.1250   -28.3140    58.8180     8.5990     7.0800     6.8410    24.0230     2.1340 
   75.2500   -27.9580    56.9010     8.4300     6.9110     6.6950    23.4960     2.1270 
   75.3750   -27.6150    52.9160     8.6020     6.9720     6.7210    23.0980     2.1310 
   75.5000   -27.2840    51.5640     9.2680     7.3770     7.2180    22.8200     2.1490 
   75.6250   -26.9880    52.7480    10.4810     8.1980     9.0300    22.7270     2.1870 
   75.7500   -26.7390    53.1480    12.0770     9.3710    13.6120    22.8250     2.2520 
   75.8750   -26.5430    50.5550    13.5790    10.6140    20.0580    23.1140     2.3390 
   76.0000   -26.3870    48.2850    14.4210    11.4780    26.5730    23.5200     2.4180 
   76.1250   -26.2680    49.6950    14.2440    11.6170    30.6030    23.9270     2.4540 
   76.2500   -26.1690    51.9050    13.0660    10.9270    24.7730    24.1910     2.4280 
   76.3750   -26.0610    51.4520    11.3560     9.6710    14.1320    24.2890     2.3550 
   76.5000   -25.9530    50.0850     9.8900     8.4760     9.1020    24.3330     2.2800 
   76.6250   -25.8560    50.0720     9.0130     7.6450     7.9650    24.3650     2.2270 
   76.7500   -25.7870    51.4120     8.7370     7.2470     7.8650    24.4060     2.1990 
   76.8750   -25.7400    52.3960     8.9050     7.2270     7.8600    24.4580     2.1900 
   77.0000   -25.6880    53.2430     9.1810     7.3590     7.8630    24.4970     2.1850 
   77.1250   -25.5960    54.8340     9.3910     7.5090     7.8900    24.5140     2.1800 
   77.2500   -25.4490    55.2740     9.4520     7.5940     7.9060    24.5150     2.1750 
   77.3750   -25.2150    52.8040     9.3450     7.5790     7.9170    24.5050     2.1720 
   77.5000   -24.9240    50.2290     9.1680     7.5110     7.9410    24.4810     2.1730 
   77.6250   -24.5860    50.8900     9.0210     7.4510     7.9950    24.4430     2.1760 
   77.7500   -24.1840    54.2660     9.0170     7.4690     8.0770    24.3950     2.1790 
   77.8750   -23.6930    53.8530     9.2780     7.6500     8.2460    24.3360     2.1830 
   78.0000   -23.1080    49.9760     9.7220     7.9570     8.6270    24.2720     2.1960 
   78.1250   -22.4290    48.2180    10.1850     8.2920     9.5450    24.1950     2.2290 
   78.2500   -21.6710    52.5740    10.4400     8.5010    10.6270    24.0750     2.2810 
   78.3750   -20.8990    61.9230    10.2240     8.3860    11.8930    23.9050     2.3410 
