~V
VERS. 2.00: Ver 2.00
~W
STRT.M 56.0000:
STOP.M 281.0000:
STEP.M 0.1250:
NULL. -999.2500:
UWI. F10232:
~C
DEPT.M :
SP.MV :
GR.API :
RML.OHMM :
RI. :
RXO.OHMM :
CALI.CM :
DEN.GM/CC :
~A
# ...
  202.2500    -9.6840    45.1490     6.3830     5.8090     5.4180    23.3740     2.4220 
  202.3750    -9.8390    42.1350     6.3500     5.6670     5.3170    23.3940     2.4260 
  202.5000    -9.9920    39.5320     6.3320     5.5390     5.2050    23.3990     2.4300 
  202.6250   -10.1760    37.4810     6.3630     5.4470     5.1040    23.3590     2.4350 
  202.7500   -10.4020    37.1350     6.4550     5.4080     5.0280    23.2610     2.4430 
  202.8750   -10.6980    40.7790     6.6480     5.4510     5.0180    23.1240     2.4520 
  203.0000   -11.0540    47.2370     6.9800     5.5810     5.1250    23.0160     2.4580 
  203.1250   -11.4710    54.7600     7.3620     5.8050     5.4080    22.9920     2.4610 
  203.2500   -11.9550    64.1080     7.8560     6.1200     5.9160    23.0960     2.4570 
  203.3750   -12.4940    75.0400     8.4170     6.5020     6.6290    23.3520     2.4480 
  203.5000   -13.0760    81.5890     8.9430     6.8790     7.4250    23.7020     2.4340 
  203.6250   -13.6600    82.1530     9.3470     7.1860     8.1250    24.0690     2.4200 
  203.7500   -14.2220    81.0990     9.5680     7.3710     8.6290    24.3520     2.4100 
  203.8750   -14.7470    83.8230     9.5720     7.3950     8.8900    24.4610     2.4080 
  204.0000   -15.2520    87.1850     9.4670     7.3200     8.8150    24.4690     2.4120 
  204.1250   -15.7360    86.5350     9.3580     7.2180     8.5970    24.4480     2.4190 
  204.2500   -16.1790    83.4630     9.3470     7.1610     8.4340    24.4430     2.4230 
  204.3750   -16.5880    80.2610     9.5180     7.2150     8.4650    24.4680     2.4190 
  204.5000   -16.9620    78.5930     9.8270     7.3710     8.7090    24.4990     2.4130 
  204.6250   -17.2940    77.9060    10.2010     7.5960     9.1120    24.5300     2.4090 
  204.7500   -17.5820    77.1190    10.5490     7.8400     9.5510    24.5520     2.4110 
  204.8750   -17.7980    77.7410    10.7770     8.0440     9.8270    24.5350     2.4190 
  205.0000   -17.9180    78.7290    10.8940     8.1970     9.9440    24.4970     2.4260 
  205.1250   -17.9410    78.6440    10.9680     8.3250     9.9730    24.4480     2.4250 
  205.2500   -17.8700    76.4710    11.1120     8.4870    10.0170    24.4060     2.4190 
  205.3750   -17.6300    73.3060    11.4670     8.7690    10.2710    24.3860     2.4130 
  205.5000   -17.2280    69.4430    11.9950     9.1600    10.7850    24.3670     2.4140 
  205.6250   -16.6650    64.4510    12.5400     9.5720    11.6170    24.3320     2.4230 
  205.7500   -15.9460    61.2140    12.8560     9.8490    12.5380    24.2780     2.4370 
  205.8750   -15.0580    63.0770    12.6230     9.7600    13.2080    24.1900     2.4430 
  206.0000   -14.0630    67.1470    11.8850     9.2990    13.1530    24.0800     2.4370 
  206.1250   -12.9970    68.9500    10.8550     8.5870    11.6790    23.9830     2.4220 
  206.2500   -11.9080    67.9690     9.8740     7.8530     9.1810    23.9090     2.4090 
  206.3750   -10.9080    65.6700     9.3230     7.3690     7.4440    23.8590     2.4110 
  206.5000   -10.0500    64.3450     9.2360     7.2010     7.4210    23.8300     2.4280 
  206.6250    -9.3600    65.7750     9.5180     7.3240     8.0480    23.8380     2.4520 
  206.7500    -8.8430    67.9880     9.9990     7.6470     8.7450    23.8740     2.4720 
  206.8750    -8.5300    68.5670    10.4900     8.0530     9.2110    23.9390     2.4770 
  207.0000    -8.3500    69.8480    10.8620     8.4160     9.4060    24.0350     2.4690 
  207.1250    -8.2610    71.9040    11.0600     8.6680     9.4230    24.1480     2.4540 
  207.2500    -8.2090    71.9680    11.0420     8.7600     9.4590    24.2420     2.4420 
  207.3750    -8.1220    71.5670    10.7180     8.6110     9.4100    24.2880     2.4380 
  207.5000    -7.9570    75.7860    10.1260     8.2450     9.1220    24.2730     2.4400 
  207.6250    -7.7060    82.0430     9.3340     7.7050     8.4450    24.1950     2.4420 
  207.7500    -7.3920    82.6390     8.4780     7.0850     7.3830    24.0750     2.4410 
  207.8750    -7.0190    76.1170     7.7540     6.5240     6.2870    23.9270     2.4370 
  208.0000    -6.6310    70.8190     7.2620     6.1140     5.6840    23.8000     2.4330 
  208.1250    -6.2500    70.3400     7.0100     5.8800     5.6030    23.7340     2.4310 
  208.2500    -5.8970    72.1750     6.9370     5.7980     5.6640    23.7150     2.4310 
  208.3750    -5.5920    71.7220     6.9610     5.8250     5.6900    23.7020     2.4290 
  208.5000    -5.3500    70.6250     6.9840     5.8800     5.7200    23.6730     2.4230 
  208.6250    -5.1760    70.7670     6.9690     5.9210     5.7440    23.6370     2.4140 
  208.7500    -5.0550    70.0820     6.9170     5.9320     5.7620    23.6050     2.4070 
  208.8750    -4.9980    69.3950     6.8570     5.9200     5.8030    23.5990     2.4030 
  209.0000    -4.9970    71.8620     6.8210     5.9120     5.8720    23.6220     2.4010 
  209.1250    -5.0520    74.9920     6.8350     5.9290     5.8890    23.6770     2.4000 
  209.2500    -5.1430    75.9000     6.9160     5.9900     5.9050    23.7480     2.3950 
  209.3750    -5.2480    74.5240     7.0840     6.1070     6.0140    23.8070     2.3870 
  209.5000    -5.3590    73.9100     7.3130     6.2660     6.2980    23.8350     2.3770 
  209.6250    -5.4680    75.5790     7.5740     6.4470     6.6650    23.8500     2.3680 
  209.7500    -5.5790    78.6950     7.8380     6.6310     7.0500    23.8560     2.3620 
  209.8750    -5.6880    77.7450     8.0990     6.8130     7.4980    23.8420     2.3610 
  210.0000    -5.7940    71.4390     8.4080     7.0250     7.8790    23.7980     2.3620 
  210.1250    -5.8910    65.7960     8.8590     7.3330     8.2390    23.7370     2.3650 
  210.2500    -6.0060    66.0390     9.5830     7.8300     8.8430    23.6790     2.3670 
  210.3750    -6.1760    68.8910    10.8160     8.6960     9.9330    23.6600     2.3690 
  210.5000    -6.3980    69.6710    12.6380    10.0120    11.9820    23.6810     2.3720 
  210.6250    -6.6830    69.1830    15.1540    11.8890    14.8650    23.7300     2.3810 
  210.7500    -7.0180    69.7720    18.4270    14.4210    18.4150    23.7940     2.3930 
  210.8750    -7.3930    69.7420    22.5350    17.7590    22.6640    23.8500     2.4050 
  211.0000    -7.8100    68.6990    27.1330    21.6800    27.6420    23.8830     2.4110 
  211.1250    -8.2440    67.9510    31.8250    25.9060    32.7620    23.9000     2.4050 
  211.2500    -8.6860    67.8940    36.0950    30.0060    37.6340    23.9090     2.3830 
  211.3750    -9.1230    65.1140    39.2260    33.3170    40.8400    23.9210     2.3490 
  211.5000    -9.5320    60.7890    41.1560    35.5960    41.6690    23.9340     2.3130 
  211.6250    -9.9030    59.5480    42.1630    36.9280    40.0470    23.9440     2.2830 
  211.7500   -10.2540    62.2380    42.9080    37.7860    38.8440    23.9560     2.2630 
  211.8750   -10.5900    64.0200    45.0440    38.9700    39.3680    23.9670     2.2550 
  212.0000   -10.8860    62.5390    48.6900    41.0350    41.0390    23.9880     2.2550 
  212.1250   -11.1600    60.1990    54.0720    44.1810    43.2820    24.0260     2.2590 
  212.2500   -11.4180    58.5180    61.5080    48.2330    45.7670    24.0750     2.2650 
  212.3750   -11.6480    56.0560    66.6730    52.5980    48.4930    24.1190     2.2700 
  212.5000   -11.8720    54.4510    70.7200    56.3640    51.4570    24.1520     2.2720 
  212.6250   -12.0940    54.6960    72.9820    58.8940    56.1740    24.1640     2.2720 
  212.7500   -12.3130    54.3490    73.4250    59.9800    59.4570    24.1600     2.2700 
  212.8750   -12.5270    52.5120    72.7820    59.9780    58.5110    24.1450     2.2670 
  213.0000   -12.7360    52.6750    72.5640    60.0520    54.9450    24.1310     2.2650 
  213.1250   -12.9470    55.0780    73.7120    61.0210    52.7220    24.1300     2.2620 
  213.2500   -13.1550    55.6600    76.6080    63.3250    52.7750    24.1500     2.2570 
  213.3750   -13.3920    53.3600    81.2080    67.1050    55.7450    24.1870     2.2470 
