~V
VERS. 2.00: Ver 2.00
~W
STRT.M 50.0000:
STOP.M 273.0000:
STEP.M 0.1250:
NULL. -999.2500:
UWI. F10249:
~C
DEPT.M :
DEN.GM/CC :
GR.API :
RML.OHMM :
RI. :
RXO.OHMM :
CALI.CM :
SP.MV :
~A
# ...
  252.5000     2.4500    65.4140     9.5570     9.4120     9.9740    24.4830     0.7470 
  252.6250     2.4110    67.8570     9.6750     9.5500    10.2290    24.5460     0.7360 
  252.7500     2.3880    69.8190     9.7170     9.6040    10.7230    24.5860     0.7380 
  252.8750     2.3910    71.6000     9.6840     9.5790    11.5220    24.6040     0.7060 
  253.0000     2.4160    71.8660     9.5790     9.4790    11.5400    24.5890     0.6520 
  253.1250     2.4440    69.7150     9.3950     9.2910    11.1860    24.4800     0.6120 
  253.2500     2.4570    67.2880     9.1660     9.0400    10.2980    24.3170     0.6200 
  253.3750     2.4530    66.2290     8.9280     8.7590     9.5560    24.2610     0.6470 
  253.5000     2.4400    66.5070     8.7290     8.4960     8.5530    24.3260     0.6520 
  253.6250     2.4280    67.3400     8.6320     8.3170     8.0550    24.4900     0.6500 
  253.7500     2.4180    68.0210     8.6480     8.2480     7.9800    24.5520     0.6900 
  253.8750     2.4050    68.1170     8.7660     8.2900     8.2340    24.4980     0.7580 
  254.0000     2.3890    67.7500     8.9470     8.4170     8.5400    24.4090     0.7910 
  254.1250     2.3780    67.0590     9.1290     8.5760     9.5290    24.3960     0.7790 
  254.2500     2.3830    67.0500     9.2590     8.7000    10.4360    24.4120     0.7440 
  254.3750     2.4100    67.3060     9.3180     8.7540    10.6250    24.4020     0.7330 
  254.5000     2.4550    65.5170     9.3230     8.7380    10.2290    24.4400     0.7850 
  254.6250     2.5050    61.3390     9.3170     8.6890    10.3980    24.4920     0.8770 
  254.7500     2.5410    59.4800     9.3440     8.6610    11.2410    24.5150     0.9470 
  254.8750     2.5570    61.7520     9.4170     8.6820    11.7650    24.5000     1.0120 
  255.0000     2.5520    65.8710     9.5270     8.7510    11.1370    24.4620     1.1220 
  255.1250     2.5350    66.0300     9.6500     8.8480     9.8820    24.4250     1.2530 
  255.2500     2.5180    63.7390     9.7610     8.9390     9.5700    24.4660     1.4200 
  255.3750     2.5040    62.3980     9.8480     9.0100     9.8570    24.4900     1.6010 
  255.5000     2.4910    62.8700     9.9100     9.0600    10.0730    24.4560     1.7370 
  255.6250     2.4720    62.7390     9.9380     9.0890    10.8340    24.4220     1.8130 
  255.7500     2.4490    62.1870     9.9280     9.0960    13.5460    24.4140     1.8830 
  255.8750     2.4300    63.5930     9.8670     9.0690    18.5160    24.4070     1.9910 
  256.0000     2.4240    65.8310     9.7460     8.9900    22.2710    24.3680     2.1440 
  256.1250     2.4340    66.7230     9.5640     8.8400    13.9120    24.3150     2.2830 
  256.2500     2.4470    66.6060     9.3600     8.6490    10.4830    24.2980     2.3590 
  256.3750     2.4530    65.1750     9.1710     8.4540     9.7720    24.3550     2.4120 
  256.5000     2.4470    62.8120     9.0340     8.2970     9.7120    24.3880     2.4930 
  256.6250     2.4370    63.6840     8.9750     8.2150     9.4050    24.3410     2.5640 
  256.7500     2.4310    67.2810     8.9630     8.1900     9.2410    24.2900     2.6070 
  256.8750     2.4310    68.4240     8.9570     8.1840     9.1500    24.2620     2.6450 
  257.0000     2.4320    66.2290     8.9120     8.1540     8.7830    24.2910     2.6640 
  257.1250     2.4270    64.8080     8.7870     8.0540     8.1640    24.2990     2.7150 
  257.2500     2.4140    64.8210     8.6020     7.8930     7.1600    24.3340     2.7690 
  257.3750     2.3990    63.0720     8.3910     7.6960     6.1700    24.3990     2.7890 
  257.5000     2.3880    60.2570     8.2020     7.5020     6.2120    24.4360     2.7850 
  257.6250     2.3880    58.8010     8.0850     7.3590     6.7050    24.4170     2.8100 
  257.7500     2.3990    59.1630     8.0450     7.2820     7.1600    24.3860     2.8740 
  257.8750     2.4140    62.5890     8.0700     7.2650     7.4390    24.3550     2.9270 
  258.0000     2.4270    65.5590     8.1280     7.2880     7.1990    24.3470     2.9560 
  258.1250     2.4300    64.3520     8.1750     7.3140     6.8980    24.3520     2.9290 
  258.2500     2.4260    61.4870     8.1770     7.3040     6.6480    24.3010     2.8990 
  258.3750     2.4180    61.1030     8.1200     7.2410     6.4600    24.1540     2.8930 
  258.5000     2.4120    63.3000     8.0070     7.1210     6.2120    23.9580     2.8990 
  258.6250     2.4090    62.9250     7.8490     6.9490     6.1170    23.8920     2.8990 
  258.7500     2.4120    60.4600     7.6730     6.7560     6.2140    23.9990     2.8480 
  258.8750     2.4200    58.9650     7.4970     6.5600     6.4470    24.1800     2.7590 
  259.0000     2.4270    59.6030     7.3420     6.3780     6.7090    24.3080     2.6890 
  259.1250     2.4300    61.3240     7.2650     6.2480     6.4910    24.3140     2.6990 
  259.2500     2.4290    61.6500     7.3090     6.2050     6.4840    24.3650     2.7430 
  259.3750     2.4320    60.3180     7.5050     6.2830     6.6180    24.4510     2.7690 
  259.5000     2.4420    58.0750     7.8420     6.4960     6.7620    24.5110     2.7780 
  259.6250     2.4610    56.3860     8.2410     6.8150     6.9900    24.5620     2.8040 
  259.7500     2.4770    56.5750     8.5500     7.1160     6.8820    24.6300     2.8860 
  259.8750     2.4820    57.4660     8.6530     7.2770     6.7230    24.6840     2.9930 
  260.0000     2.4710    59.5610     8.4990     7.2140     6.4340    24.7020     3.0640 
  260.1250     2.4500    63.7800     8.1150     6.9100     6.1180    24.7040     3.1290 
  260.2500     2.4270    65.1660     7.6750     6.5130     6.0810    24.7020     3.2000 
  260.3750     2.4090    62.4190     7.3090     6.1400     6.1260    24.6970     3.2720 
  260.5000     2.3990    60.7980     7.1040     5.8790     6.2640    24.6900     3.3110 
  260.6250     2.3960    64.5140     7.1100     5.7930     6.6420    24.6980     3.2830 
  260.7500     2.3990    66.7390     7.2580     5.8480     7.0070    24.6990     3.2380 
  260.8750     2.4080    64.7120     7.4800     5.9980     6.9050    24.6940     3.2180 
  261.0000     2.4200    62.4920     7.6970     6.1840     6.8890    24.6990     3.2350 
  261.1250     2.4330    61.6420     7.8210     6.3240     6.9640    24.7030     3.2290 
  261.2500     2.4410    60.4140     7.8250     6.3740     7.0890    24.7060     3.1910 
  261.3750     2.4410    60.1330     7.7130     6.3210     7.0020    24.7060     3.1290 
  261.5000     2.4320    61.7690     7.5230     6.1880     6.8600    24.7060     3.0830 
  261.6250     2.4190    62.0620     7.3100     6.0110     6.5580    24.7060     3.0850 
  261.7500     2.4080    59.9170     7.1290     5.8420     6.1630    24.7060     3.0930 
  261.8750     2.4020    58.1030     7.0030     5.7030     5.7370    24.7060     3.0910 
  262.0000     2.3970    59.1610     6.9340     5.6050     5.5580    24.7040     3.0580 
  262.1250     2.3870    61.4210     6.9140     5.5520     5.6530    24.7190     3.0270 
  262.2500     2.3690    61.4210     6.9130     5.5270     5.7650    24.7450     3.0580 
  262.3750     2.3470    61.4210     6.9180     5.5190     5.7290    24.7400     3.1500 
  262.5000     2.3270    61.4210     6.9150     5.5180     5.6580    24.7010     3.2540 
  262.6250     2.3190    61.4210     6.8970     5.5130     5.4920    24.6460     3.3160 
  262.7500     2.3220    61.4210     6.8630     5.5010     5.2810    24.6100     3.3750 
  262.8750     2.3330    61.4210     6.8200     5.4810     5.1850    24.5830     3.4430 
  263.0000     2.3470    61.4210     6.7760     5.4560     5.1820    24.5740     3.5340 
  263.1250     2.3650    61.4210     6.7450     5.4300     5.1570    24.5710     3.6160 
  263.2500     2.3830    61.4210     6.7320     5.4100     5.1110    24.5710     3.6380 
  263.3750     2.3970    61.4210     6.7360     5.3980     5.0090    24.5730     3.6510 
  263.5000     2.3990    61.4210     6.7520     5.3950     4.9560    24.5720     3.6350 
  263.6250     2.3850    61.4210     6.7740     5.4030     5.0200    24.5720     3.6320 
