~V
VERS. 2.00: Ver 2.00
~W
STRT.M 55.0000:
STOP.M 274.0000:
STEP.M 0.1250:
NULL. -999.2500:
UWI. F10255:
~C
DEPT.M :
GR.API :
RML.OHMM :
RI. :
RXO.OHMM :
CALI.CM :
DEN.GM/CC :
SP.MV :
~A
# ...
  257.5000    48.4530     8.1080     7.0010     6.0170    25.1910     2.2760    -4.4060 
  257.6250    48.0210     8.0080     6.9150     5.8520    25.2260     2.2990    -4.4000 
  257.7500    47.7210     7.9550     6.8750     5.9640    24.9210     2.3340    -4.3540 
  257.8750    47.7260     7.9490     6.8780     6.1330    24.6910     2.3790    -4.2770 
  258.0000    47.9910     7.9800     6.9150     6.2250    24.9580     2.4230    -4.1990 
  258.1250    49.0340     8.0380     6.9740     6.3440    25.5420     2.4520    -4.1160 
  258.2500    49.9840     8.1040     7.0410     6.3120    26.0130     2.4640    -4.0000 
  258.3750    50.9970     8.1670     7.1080     6.1850    26.0110     2.4630    -3.8710 
  258.5000    51.4480     8.2150     7.1680     6.1820    25.6910     2.4590    -3.7590 
  258.6250    53.1000     8.2450     7.2170     6.4540    25.4750     2.4590    -3.6630 
  258.7500    54.5870     8.2640     7.2530     6.7360    25.4340     2.4670    -3.5790 
  258.8750    53.7960     8.2790     7.2800     6.9700    25.5210     2.4800    -3.4770 
  259.0000    51.1130     8.2930     7.3010     7.0970    25.7860     2.4950    -3.3500 
  259.1250    48.5620     8.3050     7.3160     7.3100    26.1180     2.5040    -3.2540 
  259.2500    48.7010     8.3110     7.3250     7.3720    26.4020     2.5020    -3.2220 
  259.3750    51.5740     8.3040     7.3200     7.2450    26.5040     2.4820    -3.2400 
  259.5000    53.9930     8.2790     7.2960     7.1530    26.6340     2.4450    -3.2590 
  259.6250    51.9180     8.2350     7.2480     7.0990    26.9990     2.4020    -3.2560 
  259.7500    49.3850     8.1820     7.1840     7.0000    27.2170     2.3730    -3.2370 
  259.8750    49.5470     8.1310     7.1210     6.8750    26.6960     2.3700    -3.2330 
  260.0000    51.1770     8.0990     7.0760     6.7830    25.7520     2.3930    -3.2470 
  260.1250    51.8760     8.1130     7.0720     6.5220    25.4400     2.4280    -3.2500 
  260.2500    51.4080     8.1720     7.1120     6.2990    25.5960     2.4580    -3.2650 
  260.3750    50.0260     8.2640     7.1860     6.2180    25.8570     2.4760    -3.2710 
  260.5000    48.0080     8.3650     7.2780     6.4890    25.9740     2.4830    -3.2770 
  260.6250    46.6790     8.4550     7.3730     6.8440    26.1980     2.4790    -3.2940 
  260.7500    46.5810     8.5480     7.4780     7.0190    26.4840     2.4670    -3.3200 
  260.8750    46.6370     8.6830     7.6270     6.9230    26.4230     2.4480    -3.3500 
  261.0000    46.0670     8.9040     7.8530     6.5580    25.9980     2.4310    -3.4050 
  261.1250    44.5180     9.2360     8.1900     6.9780    25.4680     2.4210    -3.4830 
  261.2500    42.8390     9.6150     8.5870     8.6630    25.1800     2.4170    -3.5300 
  261.3750    42.3740     9.9600     8.9680    12.5380    25.0300     2.4170    -3.5780 
  261.5000    44.6070    10.1840     9.2450    14.5020    24.9270     2.4180    -3.6250 
  261.6250    47.7830    10.2020     9.3310    12.0710    24.9460     2.4250    -3.6570 
  261.7500    48.6280    10.0670     9.2590    10.4200    25.0230     2.4410    -3.7010 
  261.8750    46.6680     9.8570     9.0860     9.9260    25.0770     2.4620    -3.7550 
  262.0000    44.4140     9.6490     8.8760     8.9920    25.0510     2.4790    -3.7900 
  262.1250    43.9810     9.4970     8.6910     7.5540    25.0610     2.4850    -3.7820 
  262.2500    43.9520     9.3970     8.5570     7.0400    25.2060     2.4850    -3.7380 
  262.3750    43.6420     9.3460     8.4820     6.8650    25.4050     2.4840    -3.7070 
  262.5000    43.6640     9.3400     8.4700     6.8450    25.4040     2.4810    -3.7230 
  262.6250    43.9920     9.3790     8.5170     7.1570    25.5380     2.4600    -3.7470 
  262.7500    45.1810     9.4260     8.5850     7.5820    25.8730     2.4150    -3.7810 
  262.8750    46.9920     9.4490     8.6410     7.6640    26.1470     2.3550    -3.8100 
  263.0000    47.8480     9.4180     8.6490     8.2760    25.8630     2.3030    -3.8080 
  263.1250    45.8540     9.3170     8.5840    10.2960    25.4570     2.2880    -3.7930 
  263.2500    42.2620     9.1870     8.4760    11.6100    25.0980     2.3080    -3.8170 
  263.3750    39.9490     9.0780     8.3740     9.9970    25.0290     2.3500    -3.8280 
  263.5000    40.2790     9.0350     8.3260     8.5260    25.1620     2.3970    -3.8080 
  263.6250    42.5760     9.1000     8.3740     8.9290    25.2290     2.4400    -3.8280 
  263.7500    43.4690     9.2460     8.4970    10.3010    25.2100     2.4810    -3.8110 
  263.8750    41.7760     9.4380     8.6700    10.4650    25.3570     2.5190    -3.7490 
  264.0000    39.7140     9.6370     8.8630     8.8410    25.6390     2.5520    -3.6920 
  264.1250    39.7140     9.8070     9.0540     7.8830    25.8980     2.5700    -3.6510 
  264.2500    39.7140     9.9480     9.2390     8.0650    25.8130     2.5740    -3.5910 
  264.3750    39.7140    10.0760     9.4230     8.9190    25.5580     2.5660    -3.5460 
  264.5000    39.7140    10.2060     9.5990     9.6760    25.3550     2.5530    -3.5030 
  264.6250    39.7140    10.3230     9.7320     9.5640    25.4650     2.5410    -3.3880 
  264.7500    39.7140    10.3890     9.7960     9.1490    25.8140     2.5340    -3.2950 
  264.8750    39.7140    10.3750     9.7820     8.9320    26.1670     2.5310    -3.2340 
  265.0000    39.7140    10.2790     9.7050     8.9920    26.4190     2.5280    -3.1550 
  265.1250    39.7140    10.1320     9.5950    10.2440    26.4190     2.5180    -3.0760 
  265.2500    39.7140     9.9850     9.4860    13.7020    26.2560     2.5010    -2.9750 
  265.3750    39.7140     9.8600     9.3920    18.3930    26.0530     2.4850    -2.8510 
  265.5000    39.7140     9.7590     9.3160    19.9020    25.8210     2.4760    -2.7460 
  265.6250    39.7140     9.6760     9.2580    15.8170    26.2000     2.4770    -2.6970 
  265.7500    39.7140     9.6040     9.2170    11.1360    27.2610     2.4770    -2.6670 
  265.8750    39.7140     9.5460     9.1920     9.2420    28.3550     2.4610    -2.6450 
  266.0000    39.7140     9.5000     9.1770     9.2190    28.4860     2.4170    -2.6730 
  266.1250    39.7140     9.4580     9.1640     8.8730    28.5210     2.3420    -2.7190 
  266.2500    39.7140     9.4080     9.1410     7.9850    29.1280     2.2490    -2.7740 
  266.3750    39.7140     9.3440     9.1030     7.0850    30.2220     2.1540    -2.8380 
  266.5000    39.7140     9.2730     9.0590     6.5720    30.7490     2.0710    -2.8560 
  266.6250    39.7140     9.2130     9.0250     6.0920    31.6740     2.0210    -2.8320 
  266.7500    39.7140     9.1740     9.0070     5.9570    33.2800     2.0100    -2.8010 
  266.8750    39.7140     9.1500     8.9960     6.0530    34.5100     2.0420    -2.7800 
  267.0000    39.7140     9.1260     8.9730     6.1670    34.9350     2.1120    -2.7580 
  267.1250    39.7140     9.0850     8.9100     6.0960    34.8050     2.2080    -2.7080 
  267.2500    39.7140     9.0290     8.8120     6.0280    34.2760     2.3040    -2.6700 
  267.3750    39.7140     8.9810     8.7060     5.8850    33.1030     2.3840    -2.6130 
  267.5000    39.7140     8.9800     8.6420     5.6950    31.1180     2.4430    -2.5690 
  267.6250    39.7140     9.0750     8.6860     5.9780    29.3720     2.4800    -2.5970 
  267.7500    39.7140     9.2630     8.8370     7.3310    27.6310     2.5040    -2.6360 
  267.8750    39.7140     9.5230     9.0720     9.7580    26.3400     2.5170    -2.6530 
  268.0000    39.7140     9.8200     9.3510    10.4300    25.7930     2.5210    -2.6240 
  268.1250    39.7140    10.1090     9.6370     9.5080    25.8840     2.5190    -2.6120 
  268.2500    39.7140    10.3700     9.9100     8.4470    26.2760     2.5160    -2.6030 
  268.3750    39.7140    10.5970    10.1730     8.0730    26.3980     2.5150    -2.5930 
  268.5000    39.7140    10.7940    10.4290     8.7750    26.1380     2.5180    -2.6060 
  268.6250    39.7140    10.9460    10.6650    10.5880    25.7990     2.5270    -2.5870 
