~V
VERS. 2.00: Ver 2.00
~W
STRT.M 50.0000:
STOP.M 274.0000:
STEP.M 0.1250:
NULL. -999.2500:
UWI. F10208:
~C
DEPT.M :
SP.MV :
DEN.GM/CC :
GR.API :
RML.OHMM :
RI. :
RXO.OHMM :
CALI.CM :
~A
# ...
  196.2500   -30.7510     2.1310    62.9640    57.4490    53.4600    54.4720    25.1650 
  196.3750   -30.4630     2.1120    63.5300    54.1460    49.9740    51.7240    25.2430 
  196.5000   -30.2720     2.1040    65.3710    53.6720    48.7700    50.3020    25.0560 
  196.6250   -30.1680     2.1130    68.4560    56.9240    50.7800    48.1950    23.8480 
  196.7500   -30.0710     2.1330    71.9170    63.1770    55.4590    50.6220    23.0780 
  196.8750   -29.9690     2.1540    71.3800    71.8880    62.3160    55.5440    22.7280 
  197.0000   -29.8330     2.1650    65.8320    82.0640    70.4750    61.5210    22.5690 
  197.1250   -29.6850     2.1610    61.0700    91.9500    78.5260    66.9090    22.5490 
  197.2500   -29.5610     2.1520    60.4680    99.8120    85.2200    71.0270    22.9040 
  197.3750   -29.4510     2.1460    62.0520   104.8100    89.9600    76.1710    23.6220 
  197.5000   -29.3510     2.1470    63.3390   106.9120    92.5210    81.9430    24.5370 
  197.6250   -29.2330     2.1580    61.7510   106.2270    92.6050    86.3480    24.6880 
  197.7500   -29.1090     2.1740    59.8560   103.9750    91.0180    88.7450    24.6230 
  197.8750   -29.0230     2.1880    61.6450   101.0790    88.5380    86.9430    24.5660 
  198.0000   -28.9540     2.1980    65.4930    98.6120    86.1450    80.7230    24.6170 
  198.1250   -28.8730     2.2080    64.4490    97.7990    84.9620    77.1620    24.6770 
  198.2500   -28.8350     2.2250    60.1430    98.6950    85.2260    80.0060    24.6880 
  198.3750   -28.7830     2.2500    58.3530   101.0980    86.7930    86.6180    24.5670 
  198.5000   -28.7100     2.2710    59.9750   104.6390    89.3200   100.3320    24.4110 
  198.6250   -28.6010     2.2680    61.0580   108.5370    92.3320   120.3850    24.3690 
  198.7500   -28.4720     2.2400    61.2940   110.4270    94.2560   136.6800    24.5270 
  198.8750   -28.2960     2.2110    61.1430   105.8100    91.6230   133.2700    24.7350 
  199.0000   -28.1240     2.2140    58.0600    90.3530    80.1760   120.3120    24.5480 
  199.1250   -27.9670     2.2850    52.6070    65.5260    59.6100    99.8440    24.1100 
  199.2500   -27.7880     2.4010    50.8770    42.1020    39.1300    69.7320    24.0350 
  199.3750   -27.5820     2.5170    55.8700    23.4860    24.0380    34.1830    24.1620 
  199.5000   -27.3670     2.5790    63.0810    13.9340    14.9420    15.2580    24.4030 
  199.6250   -27.2130     2.5520    65.3930    10.0990    10.5930     8.6600    24.6290 
  199.7500   -27.0950     2.4850    61.3810     8.3850     8.4480     7.1580    24.5880 
  199.8750   -27.0190     2.4200    55.6070     7.7890     7.5310     7.6140    24.0650 
  200.0000   -26.9640     2.3850    53.3620     7.7850     7.3190     9.0030    23.5450 
  200.1250   -26.8500     2.3880    54.2110     8.0540     7.5110     9.3280    23.2700 
  200.2500   -26.7200     2.4050    54.3720     8.2660     7.7700     8.9780    23.1360 
  200.3750   -26.6590     2.4200    52.7240     8.2720     7.9390     8.5770    23.0870 
  200.5000   -26.6470     2.4240    51.4860     8.1000     7.9700     8.3210    23.1200 
  200.6250   -26.6570     2.4170    52.7320     7.8700     7.8660     8.2350    23.0930 
  200.7500   -26.7290     2.4070    54.4970     7.6250     7.6730     8.0410    22.9420 
  200.8750   -26.8330     2.3960    54.6380     7.3300     7.4090     7.3460    22.8530 
  201.0000   -26.9760     2.3860    53.1850     6.9960     7.1040     6.7730    22.9990 
  201.1250   -27.2050     2.3810    51.4700     6.7100     6.7970     6.6600    23.5650 
  201.2500   -27.4520     2.3830    50.1660     6.4920     6.5020     6.6190    23.8100 
  201.3750   -27.6260     2.3910    48.5870     6.2860     6.2070     6.1870    23.9340 
  201.5000   -27.7270     2.4030    47.7830     6.0040     5.8880     5.8990    23.8460 
  201.6250   -27.7880     2.4140    48.5480     5.5940     5.5050     7.0790    23.7190 
  201.7500   -27.8120     2.4180    48.9810     5.1450     5.0590     8.6890    23.6340 
  201.8750   -27.8140     2.4160    48.5020     4.7710     4.5950     8.7150    23.8520 
  202.0000   -27.7330     2.4070    46.6760     4.5720     4.1920     7.8910    23.9400 
  202.1250   -27.5550     2.3970    45.7090     4.6550     3.9760     6.9720    23.8380 
  202.2500   -27.3610     2.3880    47.0670     4.9980     3.9980     6.3530    23.7590 
  202.3750   -27.1950     2.3840    48.9220     5.5560     4.2830     6.6020    23.6710 
  202.5000   -27.1170     2.3850    48.7840     6.2270     4.8050     7.6240    23.7210 
  202.6250   -27.1080     2.3870    47.6120     6.8740     5.4820     8.2690    23.7350 
  202.7500   -27.0920     2.3870    49.0060     7.3970     6.1490     8.8500    23.7140 
  202.8750   -27.1090     2.3820    51.6840     7.7590     6.6910     9.3050    23.7630 
  203.0000   -27.1960     2.3730    51.8450     7.9830     7.0530     9.2610    23.7750 
  203.1250   -27.3320     2.3640    48.9970     8.1540     7.2600     8.9410    23.8230 
  203.2500   -27.4620     2.3580    46.1620     8.3770     7.4200     8.7000    23.8290 
  203.3750   -27.6050     2.3560    46.0870     8.6640     7.5740     8.7380    23.7720 
  203.5000   -27.7640     2.3570    48.4990     8.9450     7.7170     8.9330    23.6120 
  203.6250   -27.8740     2.3560    51.6750     9.1170     7.7980     9.6040    23.6730 
  203.7500   -27.9710     2.3520    53.7880     9.2060     7.8050     9.7080    23.7580 
  203.8750   -28.0870     2.3480    53.3540     9.3020     7.7590     9.4990    23.7320 
  204.0000   -28.2340     2.3450    51.5690     9.4800     7.7200     9.2900    23.5450 
  204.1250   -28.4410     2.3440    50.2230     9.7350     7.7630     9.3770    23.5130 
  204.2500   -28.6790     2.3430    50.3450     9.9610     7.9010     9.8630    23.5210 
  204.3750   -28.8670     2.3400    51.1920    10.0710     8.1080    11.2130    23.5760 
  204.5000   -28.9840     2.3370    53.2190    10.0580     8.3300    13.1200    23.6140 
  204.6250   -29.0990     2.3400    63.7160    10.0450     8.5130    13.3510    23.5810 
  204.7500   -29.2500     2.3520    80.2080    10.1580     8.6380    11.9950    23.6100 
  204.8750   -29.4010     2.3690    91.2860    10.3890     8.7160    11.5850    23.7190 
  205.0000   -29.5030     2.3880    91.8970    10.6480     8.7770    12.6240    23.8980 
  205.1250   -29.5640     2.3990    91.8740    10.8460     8.8670    14.3810    23.8390 
  205.2500   -29.6800     2.3980    94.8760    10.9890     8.9920    15.2050    23.8620 
  205.3750   -29.8510     2.3870    93.3730    11.0850     9.1270    14.5120    24.0070 
  205.5000   -30.0220     2.3730    85.6150    11.0850     9.2240    14.2900    24.0740 
  205.6250   -30.1410     2.3640    79.7280    10.9070     9.2020    14.3460    23.9330 
  205.7500   -30.2050     2.3620    79.2900    10.6360     9.0320    14.1840    23.8820 
  205.8750   -30.2330     2.3640    81.1650    10.3700     8.7280    13.6350    23.9330 
  206.0000   -30.2360     2.3620    84.7650    10.1570     8.3450    12.5360    24.0380 
  206.1250   -30.1930     2.3520    88.1590     9.9940     7.9820    11.2110    24.0550 
  206.2500   -30.0250     2.3390    89.9810     9.8940     7.7370    10.4830    24.0600 
  206.3750   -29.7610     2.3280    91.5980     9.8990     7.6640    10.1310    24.0650 
  206.5000   -29.4790     2.3220    93.4080     9.9980     7.7710     9.9790    24.0890 
  206.6250   -29.2130     2.3190    94.7170    10.1320     8.0430    10.7220    24.1690 
  206.7500   -28.9290     2.3160    96.9090    10.2750     8.4060    11.3450    24.1490 
  206.8750   -28.5680     2.3110   100.6980    10.5510     8.8250    11.6770    24.0450 
  207.0000   -28.1660     2.3020   103.2380    11.1910     9.3020    11.9620    23.9370 
  207.1250   -27.7900     2.2920   100.4440    12.4640     9.9400    12.9050    23.9500 
  207.2500   -27.4490     2.2900    96.2620    14.2410    10.8470    14.5010    23.9090 
  207.3750   -27.1460     2.3060    91.8620    16.2870    12.0600    15.9120    23.7850 
