~V
VERS. 2.00: Ver 2.00
~W
STRT.M 57.0000:
STOP.M 259.0000:
STEP.M 0.1250:
NULL. -999.2500:
UWI. F10209:
~C
DEPT.M :
SP.MV :
DEN.GM/CC :
GR.API :
RML.OHMM :
RI. :
RXO.OHMM :
CALI.CM :
~A
# ...
  113.2500   -14.6130     2.2470    75.3630    18.6230    13.7970    20.2740    24.1480 
  113.3750   -12.3470     2.3120    74.2360    19.9290    15.1090    28.8250    23.9820 
  113.5000   -10.0810     2.3710    74.8310    18.5420    14.5010    29.0940    23.8530 
  113.6250    -7.9520     2.4050    80.1990    14.9730    12.1280    17.2950    23.8350 
  113.7500    -6.0250     2.4070    89.7570    10.9460     9.2350     7.9850    23.9880 
  113.8750    -4.4120     2.3840    99.9210     8.0590     7.0010     5.3340    24.2220 
  114.0000    -3.1620     2.3550   107.2420     6.4800     5.6080     4.9990    24.4150 
  114.1250    -2.3060     2.3330   111.3550     6.0460     4.9880     5.1570    24.5650 
  114.2500    -1.8070     2.3300   112.4990     6.5350     5.0470     5.2080    24.6880 
  114.3750    -1.5980     2.3570   110.8050     7.7530     5.7650     5.4300    24.6860 
  114.5000    -1.5300     2.4070   104.1330     9.1800     6.8370     6.7110    24.5480 
  114.6250    -1.5390     2.4590    94.7270    10.3210     7.9040     9.1730    24.3520 
  114.7500    -1.6060     2.4870    89.3320    10.7160     8.5240    11.1110    24.2550 
  114.8750    -1.7170     2.4660    93.2000    10.1010     8.3220     9.4520    24.3190 
  115.0000    -1.8500     2.4110   101.6990     9.0180     7.6380     6.5530    24.4160 
  115.1250    -1.9740     2.3450   108.5750     7.9640     6.8490     5.4660    24.3280 
  115.2500    -2.0820     2.2910   110.2640     7.2450     6.2080     5.5610    24.2120 
  115.3750    -2.2450     2.2640   109.2640     6.9680     5.8390     5.6920    23.9940 
  115.5000    -2.4570     2.2600   107.9050     6.9190     5.6480     5.5710    23.7310 
  115.6250    -2.6510     2.2740   105.8970     6.9250     5.5400     5.5000    23.5020 
  115.7500    -2.7780     2.2960   104.1830     6.8740     5.4360     5.3110    23.4040 
  115.8750    -2.8510     2.3180   105.9380     6.7490     5.3090     5.1920    23.4110 
  116.0000    -2.9000     2.3330   111.3150     6.6280     5.1940     5.0290    23.4290 
  116.1250    -2.9120     2.3420   116.4070     6.5630     5.1220     4.9020    23.4520 
  116.2500    -2.8940     2.3520   117.3460     6.5720     5.1080     4.9210    23.5020 
  116.3750    -2.7990     2.3670   115.2690     6.6470     5.1590     5.0270    23.5860 
  116.5000    -2.5890     2.3830   112.9040     6.7530     5.2490     5.2270    23.6290 
  116.6250    -2.2820     2.3890   112.0170     6.8770     5.3650     5.6930    23.6580 
  116.7500    -1.9480     2.3820   112.4740     7.0260     5.5040     6.1320    23.6720 
  116.8750    -1.6320     2.3640   112.6860     7.2200     5.6750     5.8550    23.7940 
  117.0000    -1.3400     2.3500   113.1310     7.4380     5.8640     5.4250    23.9860 
  117.1250    -1.0770     2.3460   114.0470     7.6440     6.0470     5.3140    24.1160 
  117.2500    -0.8490     2.3520   112.4010     7.7840     6.1850     5.3790    24.1170 
  117.3750    -0.6600     2.3570   106.3520     7.7790     6.2150     5.3260    24.1260 
  117.5000    -0.5440     2.3560   102.3110     7.6240     6.1240     5.2610    24.1480 
  117.6250    -0.5380     2.3490   105.7390     7.3410     5.9200     5.1780    24.0870 
  117.7500    -0.6110     2.3390   111.4700     6.9950     5.6460     5.0930    24.0150 
  117.8750    -0.6900     2.3320   113.3600     6.6780     5.3650     4.9950    24.1440 
  118.0000    -0.7640     2.3290   114.0920     6.4420     5.1280     4.8680    24.3120 
  118.1250    -0.8740     2.3320   114.7680     6.2950     4.9500     4.7080    24.4140 
  118.2500    -1.0140     2.3400   113.8260     6.2230     4.8280     4.6080    24.4390 
  118.3750    -1.2060     2.3520   113.4160     6.2080     4.7560     4.7910    24.3950 
  118.5000    -1.4440     2.3600   116.5430     6.2130     4.7120     4.9820    24.4280 
  118.6250    -1.7050     2.3640   121.0790     6.2180     4.6850     5.0550    24.4840 
  118.7500    -1.9840     2.3650   122.3220     6.2200     4.6700     4.9770    24.5040 
  118.8750    -2.2940     2.3650   118.6350     6.2600     4.6900     4.8900    24.4550 
  119.0000    -2.6160     2.3640   116.5430     6.3970     4.7750     4.8540    24.3930 
  119.1250    -2.9430     2.3570   118.2020     6.6750     4.9560     4.9850    24.3340 
  119.2500    -3.3090     2.3410   118.1680     7.0730     5.2330     5.3410    24.3010 
  119.3750    -3.6870     2.3160   111.8180     7.4900     5.5610     6.2910    24.3020 
  119.5000    -4.0470     2.2910   104.8550     7.7980     5.8560     7.3940    24.3060 
  119.6250    -4.3850     2.2740    99.3090     7.9760     6.0880     8.1080    24.3270 
  119.7500    -4.7130     2.2730    92.6270     8.1320     6.3010     7.9590    24.3720 
  119.8750    -5.1310     2.2950    87.7840     8.5280     6.6320     7.4500    24.4530 
  120.0000    -5.7590     2.3360    89.1960     9.2920     7.1760     8.6600    24.4910 
  120.1250    -6.6810     2.3820    91.7860    10.3860     7.9490    11.8010    24.5190 
  120.2500    -7.8990     2.4140    88.8040    11.5790     8.8580    15.3210    24.4200 
  120.3750    -9.4310     2.4120    81.1940    12.4210     9.6260    19.5000    24.2250 
  120.5000   -11.1460     2.3780    74.8270    12.6710    10.0130    20.0150    24.1000 
  120.6250   -12.9250     2.3240    71.8780    12.3770     9.9720    16.3030    24.1030 
  120.7500   -14.6740     2.2640    71.9830    11.8150     9.6510    13.6790    24.1090 
  120.8750   -16.2440     2.2100    71.6960    11.3030     9.2710    13.0020    23.9900 
  121.0000   -17.4750     2.1580    70.0110    10.9790     8.9880    12.4480    23.9290 
  121.1250   -18.2030     2.1050    68.6690    10.8860     8.8670    11.6240    24.0500 
  121.2500   -18.3300     2.0500    68.2670    11.1070     8.9730    11.5020    24.2440 
  121.3750   -17.7630     2.0190    66.9980    11.8560     9.4470    12.3910    24.3060 
  121.5000   -16.7180     2.0380    65.1880    13.0570    10.2640    13.1890    24.2430 
  121.6250   -15.3020     2.1190    63.2850    14.4490    11.2970    14.1290    24.1770 
  121.7500   -13.6480     2.2440    60.5150    15.5010    12.2190    16.2940    24.0550 
  121.8750   -11.9040     2.3570    60.4720    15.3600    12.3850    18.8740    23.9450 
  122.0000   -10.2180     2.4140    66.7630    13.9930    11.6240    17.4530    23.9940 
  122.1250    -8.7060     2.4070    76.5610    11.9120    10.2280    11.1930    24.0540 
  122.2500    -7.4350     2.3610    83.6560     9.8880     8.7490     7.9090    24.0850 
  122.3750    -6.4660     2.3160    84.8680     8.5960     7.6950     7.2460    24.0380 
  122.5000    -5.7230     2.2930    84.0480     8.0900     7.1730     7.1750    23.9230 
  122.6250    -5.2180     2.2890    82.8070     8.3230     7.2080     7.0130    23.7970 
  122.7500    -4.9260     2.2990    79.7810     9.1700     7.7720     7.5650    23.6430 
  122.8750    -4.7250     2.3250    75.9350    10.4330     8.7940     9.1390    23.4300 
  123.0000    -4.4870     2.3620    73.7190    11.6640     9.9250    10.4510    23.2820 
  123.1250    -4.1800     2.3950    73.8730    12.4540    10.7990    11.5260    23.4170 
  123.2500    -3.8400     2.4100    75.4820    12.4720    11.0600    12.6550    23.7710 
  123.3750    -3.5270     2.3930    77.9360    11.5620    10.4770    13.9270    24.1170 
  123.5000    -3.2660     2.3580    77.8980    10.2950     9.4990    10.7700    24.3180 
  123.6250    -3.0420     2.3250    74.5400     9.2320     8.5880     8.9730    24.4660 
  123.7500    -2.7900     2.3120    72.4640     8.7980     8.0900     8.6180    24.6080 
  123.8750    -2.5320     2.3360    74.3710     9.3270     8.2930     8.4510    24.7370 
  124.0000    -2.3380     2.3880    73.6900    10.6670     9.1610     9.3610    24.6900 
  124.1250    -2.2130     2.4500    66.2490    12.6820    10.6820    12.7970    24.4890 
  124.2500    -2.1250     2.5030    57.3180    15.1420    12.7560    20.3760    24.2920 
  124.3750    -2.0410     2.5310    54.3840    18.6670    15.2030    23.7470    24.2390 
