~V
VERS. 2.00: Ver 2.00
~W
STRT.M 60.0000:
STOP.M 271.0000:
STEP.M 0.1250:
NULL. -999.2500:
UWI. F10205:
~C
DEPT.M :
DEN.GM/CC :
GR.API :
RML.OHMM :
RI. :
RXO.OHMM :
CALI.CM :
SP.MV :
~A
# ...
  195.0000     2.4230   125.3010    12.2300    11.5580     8.7700    24.7100   -16.2180 
  195.1250     2.4340   124.2810    12.9650    11.7790     9.3800    24.9440   -15.8710 
  195.2500     2.4420   114.4740    14.6970    13.0800    11.3070    25.1940   -15.5830 
  195.3750     2.4440   102.9790    17.1570    15.2860    14.2780    25.3770   -15.3080 
  195.5000     2.4400    95.3960    19.9820    18.1140    16.0870    25.4560   -15.1070 
  195.6250     2.4300    91.9410    22.6270    21.0610    19.0380    25.4790   -15.0410 
  195.7500     2.4230    89.5270    24.6250    23.4950    21.9040    25.4500   -15.0240 
  195.8750     2.4220    86.9580    25.7410    25.0030    22.8130    25.4280   -14.9890 
  196.0000     2.4270    85.9270    26.0140    25.4610    21.3000    25.3990   -14.9180 
  196.1250     2.4290    87.1430    25.7400    24.9920    21.1070    25.3330   -14.8200 
  196.2500     2.4280    88.0660    25.5910    24.2600    21.7970    25.2510   -14.7380 
  196.3750     2.4230    87.5320    26.1680    23.8210    21.6280    25.2640   -14.7150 
  196.5000     2.4150    86.6730    28.1040    24.2450    20.5030    25.2760   -14.7220 
  196.6250     2.3980    86.9540    32.5550    26.5340    20.5240    25.3820   -14.7680 
  196.7500     2.3690    87.7390    40.2460    31.4090    22.5760    25.3850   -14.8570 
  196.8750     2.3320    89.3890    51.2800    40.0120    29.4350    25.1890   -14.9950 
  197.0000     2.3000    91.6790    65.3370    53.4490    43.5940    24.8260   -15.1800 
  197.1250     2.2840    92.2930    83.5980    72.8660    64.2330    24.5300   -15.3880 
  197.2500     2.2730    90.0080   105.4380    95.6420    83.4200    24.4280   -15.5620 
  197.3750     2.2540    87.0940   127.0400   117.8900   102.9260    24.4530   -15.6940 
  197.5000     2.2270    85.3790   141.0450   134.0770   114.0190    24.5700   -15.7970 
  197.6250     2.2190    86.3360   138.1690   136.3450   111.3890    24.7660   -15.7940 
  197.7500     2.2470    85.5590   121.0850   124.9670   108.0970    24.9950   -15.7320 
  197.8750     2.3050    84.1630    96.2670   103.8270   112.8690    25.1580   -15.6070 
  198.0000     2.3670    87.8990    72.0150    79.8920   105.3060    25.1720   -15.4000 
  198.1250     2.4050    96.0210    55.3690    60.8540    67.5160    25.0530   -15.1010 
  198.2500     2.4290    99.9730    46.2510    48.9790    39.5650    25.0690   -14.7530 
  198.3750     2.4580    96.9760    43.0110    43.6210    33.2460    25.2600   -14.3780 
  198.5000     2.5070    90.9550    43.2740    42.6360    40.2960    25.3840   -13.9530 
  198.6250     2.5690    85.1230    44.0640    43.0230    58.1900    25.2910   -13.5060 
  198.7500     2.6190    77.9820    42.5780    41.6030    79.0400    25.1660   -13.0100 
  198.8750     2.6410    71.0460    37.8360    37.1470    82.0600    25.0490   -12.5190 
  199.0000     2.6320    66.6960    30.7150    30.3170    52.6130    24.9110   -12.0490 
  199.1250     2.5990    65.3390    23.5010    23.2520    26.7910    24.7570   -11.6070 
  199.2500     2.5620    63.2630    17.9720    17.7250    18.2410    24.5300   -11.2100 
  199.3750     2.5330    61.0300    14.4730    14.1070    14.6800    24.2970   -10.8220 
  199.5000     2.5180    61.1010    12.6450    12.0930    12.0080    24.1510   -10.4560 
  199.6250     2.5150    63.2500    12.0390    11.3260    10.8700    24.1420   -10.1050 
  199.7500     2.5140    63.1200    11.9210    11.1450    11.0850    24.1540    -9.8210 
  199.8750     2.5110    61.4540    11.9010    11.1750    11.6180    24.2590    -9.5600 
  200.0000     2.5090    60.1540    11.7030    11.1030    11.5020    24.5180    -9.3270 
  200.1250     2.5080    59.8910    11.1580    10.6880    11.0790    24.8930    -9.1330 
  200.2500     2.5080    60.4850    10.3900     9.9950     9.8490    25.2330    -8.9670 
  200.3750     2.5080    61.3770     9.5710     9.1750     7.9680    25.4920    -8.8600 
  200.5000     2.5070    61.7200     8.8730     8.4050     6.2570    25.5690    -8.8320 
  200.6250     2.4980    62.3530     8.4470     7.8490     5.8760    25.4570    -8.9380 
  200.7500     2.4730    63.7240     8.2700     7.5120     6.3530    25.3000    -9.0860 
  200.8750     2.4300    63.8580     8.2910     7.3630     6.6110    25.2560    -9.2930 
  201.0000     2.3810    61.5720     8.3190     7.3440     6.9950    25.3120    -9.5590 
  201.1250     2.3550    59.8050     8.1650     7.3970     8.1620    25.4980    -9.8720 
  201.2500     2.3670    59.5490     7.9570     7.4610     8.8530    25.6370   -10.2210 
  201.3750     2.4120    58.1380     7.8770     7.5110     9.0480    25.5940   -10.5930 
  201.5000     2.4620    54.9890     7.9500     7.5420     9.5840    25.3480   -10.9690 
  201.6250     2.4790    53.5950     8.0600     7.5670     9.8740    25.1470   -11.3230 
  201.7500     2.4620    55.2060     8.1910     7.6120     8.1500    25.0450   -11.6980 
  201.8750     2.4320    57.3640     8.3810     7.7000     7.0120    24.9910   -12.0960 
  202.0000     2.4150    57.4220     8.6250     7.8370     7.1990    24.7940   -12.4640 
  202.1250     2.4230    54.8810     8.8960     8.0180     7.7280    24.5060   -12.7910 
  202.2500     2.4350    53.3450     9.1500     8.2120     8.0750    24.4420   -13.0710 
  202.3750     2.4370    55.2700     9.3730     8.4000     8.3610    24.4180   -13.3110 
  202.5000     2.4260    60.2250     9.5780     8.5780     9.0010    24.4380   -13.5260 
  202.6250     2.4130    64.8810     9.8130     8.7760     8.8790    24.4910   -13.7180 
  202.7500     2.4140    65.5200    10.1080     9.0250     9.0850    24.5390   -13.9260 
  202.8750     2.4310    61.9770    10.4340     9.3260     9.0570    24.6120   -14.1290 
  203.0000     2.4530    59.2710    10.6950     9.6130     9.2440    24.7320   -14.3680 
  203.1250     2.4640    61.7010    10.6980     9.7140    10.4340    24.6810   -14.6410 
  203.2500     2.4570    65.2010    10.3790     9.5200    12.8480    24.4690   -14.8990 
  203.3750     2.4380    65.5400     9.7630     9.0120    12.9590    24.3280   -15.1390 
  203.5000     2.4190    63.9660     8.9820     8.2880     9.4320    24.4960   -15.3570 
  203.6250     2.4150    68.1380     8.2500     7.5350     7.1990    24.8740   -15.6060 
  203.7500     2.4280    79.5500     7.7240     6.9270     6.3200    25.1430   -15.8940 
  203.8750     2.4520    93.6880     7.4560     6.5400     6.4040    25.3090   -16.3200 
  204.0000     2.4730   104.4270     7.4180     6.3750     6.8560    25.4320   -16.9620 
  204.1250     2.4790   109.0610     7.5520     6.4110     7.2370    25.4990   -17.9010 
  204.2500     2.4700   109.9320     7.7650     6.5590     7.2790    25.4630   -19.0860 
  204.3750     2.4560   108.7600     8.0490     6.7930     7.6440    25.3900   -20.4000 
  204.5000     2.4480   108.1950     8.4370     7.1190     7.7520    25.3120   -21.7230 
  204.6250     2.4560   108.7540     8.9990     7.5860     7.6010    25.1440   -22.9210 
  204.7500     2.4730   105.8820     9.7080     8.1850     7.9640    24.9120   -23.9450 
  204.8750     2.4920   100.1420    10.4930     8.8830     9.6990    24.7400   -24.6890 
  205.0000     2.5080    96.4380    11.2140     9.5840    11.9500    24.6390   -25.0620 
  205.1250     2.5190    97.0280    11.6150    10.0740    12.7880    24.7020   -24.9240 
  205.2500     2.5240    98.8000    11.5790    10.1970    11.7340    24.7820   -24.3510 
  205.3750     2.5220   101.3780    11.0950     9.8880    12.0390    24.8670   -23.4430 
  205.5000     2.5130   104.3040    10.3150     9.2390    12.9430    24.9300   -22.3520 
  205.6250     2.4980   103.9720     9.5520     8.4920    11.7610    25.0160   -21.1880 
  205.7500     2.4890   103.9630     9.1210     7.9450     9.1790    25.1460   -20.0540 
  205.8750     2.4910   106.9110     9.2070     7.7870     7.8100    25.2170   -19.0710 
  206.0000     2.5050   108.0010     9.8650     8.1190     8.3040    25.2360   -18.2870 
  206.1250     2.5250   103.2220    11.0260     9.0030    10.6470    25.2410   -17.7570 
