~V
VERS. 2.00: Ver 2.00
~W
STRT.M 55.0000:
STOP.M 274.0000:
STEP.M 0.1250:
NULL. -999.2500:
UWI. F10255:
~C
DEPT.M :
GR.API :
RML.OHMM :
RI. :
RXO.OHMM :
CALI.CM :
DEN.GM/CC :
SP.MV :
~A
# ...
  212.5000    65.5760    27.4140    22.6090    27.7660    24.8510     2.3760   -12.3290 
  212.6250    65.2920    28.8370    23.8650    27.8290    24.5830     2.3590   -12.5280 
  212.7500    64.9410    29.4560    24.4080    25.8400    24.2440     2.3350   -12.6890 
  212.8750    66.6490    29.7470    24.5960    24.7050    24.0210     2.3120   -12.8120 
  213.0000    68.9470    30.4180    25.0330    25.8150    23.9700     2.3000   -12.9020 
  213.1250    66.7590    32.4740    26.6130    26.7190    23.9730     2.3060   -12.9530 
  213.2500    62.6480    36.3890    29.7840    32.4700    24.0420     2.3220   -12.9940 
  213.3750    61.6540    42.5790    34.9110    44.8250    24.2050     2.3370   -13.0530 
  213.5000    63.0840    51.1090    42.0350    64.2750    24.3380     2.3390   -13.1160 
  213.6250    61.0710    61.2870    50.5920    72.5040    24.4190     2.3210   -13.1600 
  213.7500    54.4990    70.7830    58.6600    77.3950    24.5610     2.2940   -13.1980 
  213.8750    48.8300    77.5600    64.5270    79.5020    24.8770     2.2690   -13.2460 
  214.0000    49.0230    80.6590    67.3410    81.4830    25.1390     2.2520   -13.3110 
  214.1250    54.0160    80.5060    67.4040    80.5570    25.2610     2.2450   -13.4010 
  214.2500    57.3020    79.4720    66.6880    78.1610    25.2910     2.2440   -13.5100 
  214.3750    57.6660    78.9110    66.3420    74.4440    25.2950     2.2460   -13.5770 
  214.5000    57.6510    79.4530    66.9380    72.2850    25.2850     2.2460   -13.6100 
  214.6250    58.0430    81.2950    68.7610    76.1440    25.2640     2.2450   -13.6550 
  214.7500    57.6950    83.8170    71.3870    83.5250    25.2570     2.2430   -13.7450 
  214.8750    55.8870    86.3190    74.3110    89.6040    25.2730     2.2430   -13.8900 
  215.0000    52.8430    87.8890    76.7930    93.8890    25.2880     2.2480   -14.0500 
  215.1250    51.3800    86.9680    77.5950    95.4580    25.2950     2.2550   -14.1890 
  215.2500    52.3120    83.6130    76.1300    90.4760    25.2920     2.2600   -14.3060 
  215.3750    54.3570    78.4800    72.1520    80.8880    25.2800     2.2590   -14.4600 
  215.5000    55.3120    72.0460    65.9840    70.3060    25.2510     2.2530   -14.6540 
  215.6250    55.3290    64.4140    58.5020    55.6410    25.1850     2.2460   -14.8420 
  215.7500    54.7220    56.8450    51.3580    42.8290    25.0880     2.2430   -14.9960 
  215.8750    55.0250    50.9180    45.7020    37.7010    25.0500     2.2450   -15.0810 
  216.0000    58.0120    47.6290    42.2640    36.4650    25.1450     2.2520   -15.1480 
  216.1250    61.7500    47.5080    41.8690    35.0990    25.2850     2.2550   -15.2520 
  216.2500    63.0760    50.1010    44.1880    38.1440    25.3940     2.2510   -15.3830 
  216.3750    61.8060    55.2020    48.9770    46.7220    25.4870     2.2410   -15.5330 
  216.5000    59.0770    62.1390    55.4990    59.4200    25.5830     2.2290   -15.6670 
  216.6250    57.5010    69.4350    62.2780    67.1310    25.6490     2.2190   -15.7720 
  216.7500    57.7300    75.2760    67.6240    71.9810    25.7000     2.2140   -15.8780 
  216.8750    58.3400    78.8110    70.7670    70.3000    25.7160     2.2120   -16.0060 
  217.0000    56.6260    80.2520    71.9440    65.6500    25.6940     2.2110   -16.1310 
  217.1250    53.5390    80.4860    71.9880    70.6070    25.6610     2.2130   -16.2390 
  217.2500    52.6480    80.6460    71.8610    79.0350    25.6400     2.2150   -16.3510 
  217.3750    53.9900    81.1610    71.8880    82.0510    25.6560     2.2170   -16.4260 
  217.5000    56.4740    82.2900    72.3480    77.8110    25.6900     2.2170   -16.4670 
  217.6250    60.5440    84.5800    73.8670    71.8210    25.6480     2.2140   -16.5380 
  217.7500    63.8190    88.3770    76.8460    72.7180    25.5600     2.2100   -16.6320 
  217.8750    62.7920    94.0950    81.6980    83.5600    25.5100     2.2060   -16.7610 
  218.0000    58.5760   101.8850    88.5930   114.0870    25.5110     2.2040   -16.9310 
  218.1250    57.4900   111.5480    97.4740   133.8090    25.5610     2.2050   -17.0820 
  218.2500    58.7400   121.5120   107.1180   128.2270    25.6310     2.2050   -17.1870 
  218.3750    58.6300   129.8750   116.1100   121.9660    25.7040     2.2040   -17.2970 
  218.5000    56.3610   134.3860   122.5190   125.7980    25.7420     2.2050   -17.4490 
  218.6250    55.0060   132.1680   123.4090   136.6430    25.7240     2.2170   -17.6110 
  218.7500    55.6220   124.1310   118.7350   138.7580    25.6350     2.2430   -17.7820 
  218.8750    56.6840   112.1050   109.5210   112.7100    25.4590     2.2790   -17.9480 
  219.0000    56.6240    98.7890    97.9450    73.3870    25.2400     2.3100   -18.0840 
  219.1250    55.1590    87.0510    86.8040    52.0040    25.0100     2.3190   -18.1850 
  219.2500    55.0750    78.0010    77.8690    48.0870    24.8450     2.3060   -18.3100 
  219.3750    57.3700    71.7320    71.6260    46.9950    24.7360     2.2810   -18.4760 
  219.5000    60.3290    67.8450    67.9120    45.9090    24.6360     2.2560   -18.6270 
  219.6250    61.9220    66.0740    66.5420    52.2010    24.6940     2.2410   -18.7370 
  219.7500    63.0960    65.6870    66.6420    61.1370    24.8960     2.2350   -18.8170 
  219.8750    63.3310    66.4610    67.8830    65.9440    25.1600     2.2330   -18.8410 
  220.0000    62.0800    68.2360    70.0610    66.6350    25.3160     2.2330   -18.8170 
  220.1250    60.0200    70.8560    73.0120    71.2330    25.3550     2.2320   -18.8330 
  220.2500    58.3470    73.7280    76.1270    78.8090    25.3440     2.2310   -18.8840 
  220.3750    57.1990    76.3240    78.8430    85.6730    25.3200     2.2300   -18.8970 
  220.5000    57.4650    78.2090    80.6940    84.4780    25.2990     2.2310   -18.8720 
  220.6250    60.2980    79.1170    81.3480    79.9120    25.2900     2.2330   -18.8590 
  220.7500    61.9040    79.5140    81.2730    76.7140    25.2970     2.2370   -18.8590 
  220.8750    60.3090    79.9440    81.0310    76.8420    25.3190     2.2410   -18.8910 
  221.0000    57.8580    80.9650    81.2420    81.2720    25.3540     2.2420   -18.9940 
  221.1250    56.9300    83.2230    82.6180    85.8950    25.3870     2.2380   -19.0960 
  221.2500    56.4550    86.8420    85.3480    88.2230    25.4130     2.2300   -19.1250 
  221.3750    55.4640    92.0220    89.6580    90.2380    25.4230     2.2230   -19.1260 
  221.5000    54.7620    98.9380    95.7110    95.4590    25.4240     2.2240   -19.1640 
  221.6250    54.3720   107.8560   103.7140   107.9980    25.4140     2.2320   -19.2360 
  221.7500    53.6440   117.9040   112.7770   127.5810    25.3650     2.2380   -19.3230 
  221.8750    53.5860   127.8820   121.7550   148.4980    25.2830     2.2350   -19.4100 
  222.0000    54.9380   136.1900   129.1490   151.2450    25.2510     2.2230   -19.4820 
  222.1250    57.0830   140.8080   133.0570   149.4540    25.4020     2.2060   -19.5400 
  222.2500    57.6970   141.8800   133.5860   146.3770    25.5530     2.1940   -19.6280 
  222.3750    56.3620   140.1200   131.3700   141.4810    25.5330     2.1880   -19.7310 
  222.5000    55.0630   136.7160   127.5460   133.2100    25.2410     2.1880   -19.8180 
  222.6250    55.3390   132.9020   123.3780   125.4700    24.7930     2.1920   -19.8830 
  222.7500    55.2410   129.6520   119.8680   117.5840    24.5230     2.1980   -19.9240 
  222.8750    54.3700   127.4530   117.4910   113.2560    24.6390     2.2040   -19.9150 
  223.0000    53.6350   126.5910   116.4860   116.3840    25.0430     2.2100   -19.8720 
  223.1250    54.1610   127.3730   117.1330   121.7390    25.3550     2.2090   -19.8480 
  223.2500    55.9850   129.2580   118.9530   127.6940    25.4550     2.2030   -19.8140 
  223.3750    58.0200   131.5150   121.3290   130.6860    25.4480     2.1940   -19.7810 
  223.5000    58.3090   133.0110   123.2240   126.1980    25.4290     2.1870   -19.7320 
  223.6250    56.6980   132.0190   122.9820   125.3940    25.3970     2.1890   -19.6190 
