~V
VERS. 2.00: Ver 2.00
~W
STRT.M 50.0000:
STOP.M 275.0000:
STEP.M 0.1250:
NULL. -999.2500:
UWI. F10202:
~C
DEPT.M :
GR.API :
RML.OHMM :
RI. :
RXO.OHMM :
CALI.CM :
SP.MV :
DEN.GM/CC :
~A
# ...
   83.7500    56.8540    10.4720     8.5520    14.3470    26.3710   -26.4310     2.1890 
   83.8750    60.8090    10.5940     8.7350    16.5650    26.4620   -25.4350     2.1930 
   84.0000    63.4290    10.5800     8.8390    20.2200    26.5490   -24.6460     2.1970 
   84.1250    63.6040    10.3890     8.7970    19.6560    26.6660   -24.0490     2.1960 
   84.2500    61.1060    10.0740     8.6180    16.9130    26.7860   -23.5140     2.1930 
   84.3750    57.5100     9.6910     8.3350    14.6320    26.8420   -22.9780     2.1880 
   84.5000    57.0870     9.3030     8.0030    12.8730    26.8340   -22.2960     2.1850 
   84.6250    60.4830     8.9900     7.6950    11.5700    26.7650   -21.5260     2.1840 
   84.7500    62.8900     8.7840     7.4640    11.0860    26.6760   -20.7180     2.1830 
   84.8750    62.6570     8.6890     7.3310    11.3540    26.6230   -19.8290     2.1830 
   85.0000    64.1150     8.6740     7.2870    11.4360    26.6060   -18.6710     2.1840 
   85.1250    68.9980     8.6570     7.2750    11.1440    26.6030   -17.2240     2.1860 
   85.2500    72.4730     8.5440     7.2040    10.8290    26.6130   -15.6890     2.1910 
   85.3750    75.0630     8.2820     7.0080    10.3690    26.6610   -14.0760     2.2010 
   85.5000    80.3590     7.8690     6.6670     9.3840    26.7860   -12.4510     2.2170 
   85.6250    86.6420     7.3570     6.2140     7.7610    26.9790   -10.7760     2.2380 
   85.7500    90.6190     6.8610     5.7530     6.4330    27.1710    -9.0090     2.2570 
   85.8750    92.6210     6.4600     5.3570     5.9300    27.2780    -7.2190     2.2740 
   86.0000    92.8370     6.2020     5.0780     5.7050    27.3080    -5.6760     2.2860 
   86.1250    89.8640     6.1300     4.9630     5.4810    27.2990    -4.4600     2.2930 
   86.2500    87.0900     6.1940     4.9840     5.3640    27.2700    -3.3080     2.2930 
   86.3750    85.9400     6.3500     5.1150     5.4990    27.1990    -2.3760     2.2870 
   86.5000    86.8580     6.5410     5.3120     5.8360    27.0530    -1.6850     2.2760 
   86.6250    95.3370     6.7030     5.5150     6.4130    26.8860    -1.2410     2.2660 
   86.7500   103.8220     6.8120     5.6740     7.0100    26.8100    -0.9430     2.2610 
   86.8750   103.3110     6.8800     5.7730     7.0700    26.8770    -0.7920     2.2610 
   87.0000    93.3360     6.9470     5.8260     6.4230    27.0060    -0.6900     2.2600 
   87.1250    83.8090     7.0740     5.8750     6.2120    26.9180    -0.7340     2.2530 
   87.2500    79.5840     7.2710     5.9620     6.5740    26.6250    -0.9550     2.2380 
   87.3750    84.1270     7.5210     6.1030     7.1880    26.3290    -1.3230     2.2210 
   87.5000    95.8480     7.7840     6.2950     7.7850    26.0760    -1.7270     2.2050 
   87.6250    98.4280     8.0090     6.5170     8.1220    25.8230    -2.0830     2.1930 
   87.7500    90.2920     8.1810     6.7350     8.2690    25.5930    -2.4750     2.1860 
   87.8750    83.3350     8.3090     6.9250     8.3160    25.4860    -2.9170     2.1810 
   88.0000    83.2510     8.4130     7.0750     8.4810    25.4160    -3.3810     2.1780 
   88.1250    83.0160     8.5090     7.1700     8.7680    25.3050    -3.7430     2.1780 
   88.2500    81.6320     8.5950     7.2150     9.0640    25.1790    -3.9760     2.1830 
   88.3750    82.7550     8.6480     7.2110     9.1030    25.1150    -4.0590     2.1920 
   88.5000    85.0610     8.6270     7.1450     8.6880    25.1010    -4.0650     2.2010 
   88.6250    85.6800     8.4550     6.9680     8.5890    25.1030    -4.0710     2.2100 
   88.7500    84.8070     8.1320     6.6610     8.7830    25.1360    -4.0590     2.2190 
   88.8750    83.5880     7.7160     6.2400     9.0080    25.2570    -3.9640     2.2300 
   89.0000    83.6030     7.3500     5.7990     8.5570    25.5060    -3.7900     2.2440 
   89.1250    88.0640     7.3190     5.5460     7.1430    25.8150    -3.5580     2.2710 
   89.2500    95.4450     7.7810     5.6450     6.2410    26.0620    -3.3170     2.3160 
   89.3750    98.9880     8.7760     6.2150     7.4200    26.1940    -3.1490     2.3780 
   89.5000    93.5500    10.1490     7.2680    12.5340    26.2490    -3.2170     2.4440 
   89.6250    81.7860    11.4540     8.6260    28.4030    26.1890    -3.6160     2.4830 
   89.7500    77.7750    12.1920     9.7690    29.9070    25.9530    -4.2360     2.4740 
   89.8750    82.9060    12.1080    10.2750    19.1090    25.5580    -5.0610     2.4180 
   90.0000    87.1810    11.2830    10.0040    12.3180    25.2360    -6.0550     2.3350 
   90.1250    82.3130    10.1010     9.1620    10.8880    25.1620    -7.1530     2.2590 
   90.2500    75.7430     9.0890     8.2880    10.5520    25.2180    -8.2790     2.2120 
   90.3750    74.8430     8.4750     7.6500    10.4130    25.3080    -9.3230     2.1950 
   90.5000    78.0180     8.2840     7.3310    10.3160    25.4090   -10.1560     2.2000 
   90.6250    79.1360     8.4460     7.3280    10.4040    25.5020   -10.7910     2.2180 
   90.7500    77.8300     8.7680     7.5110    10.5670    25.5890   -11.3680     2.2350 
   90.8750    74.7300     9.1480     7.8030    11.0460    25.6820   -11.8440     2.2420 
   91.0000    71.4620     9.5110     8.1360    13.1480    25.7820   -12.1520     2.2320 
   91.1250    70.0230     9.7730     8.4240    19.8890    25.8290   -12.3340     2.2040 
   91.2500    70.8340     9.8950     8.6080    26.5580    25.7670   -12.4180     2.1690 
   91.3750    71.1850     9.8610     8.6520    19.5960    25.6170   -12.4280     2.1420 
   91.5000    71.3710     9.6850     8.5520    12.7970    25.4810   -12.3660     2.1300 
   91.6250    71.7800     9.4160     8.3220    11.1920    25.4280   -12.2540     2.1390 
   91.7500    71.1480     9.1590     8.0470    10.9620    25.4190   -12.0940     2.1570 
   91.8750    68.9150     8.9920     7.8020    10.5650    25.4260   -11.8790     2.1770 
   92.0000    67.6570     8.9640     7.6500     9.8510    25.4320   -11.6700     2.1910 
   92.1250    70.4830     9.0850     7.6480     9.9760    25.4320   -11.5200     2.1960 
   92.2500    72.8640     9.2530     7.7430    10.2920    25.4320   -11.4350     2.1970 
   92.3750    72.0280     9.3590     7.8490    10.7210    25.4300   -11.3490     2.1960 
   92.5000    70.2050     9.3080     7.8580    11.1750    25.4380   -11.1390     2.1950 
   92.6250    71.0160     9.0430     7.6700    11.1750    25.4690   -10.6580     2.1940 
   92.7500    74.4150     8.6780     7.3440    10.5330    25.5280   -10.0560     2.1900 
   92.8750    76.5010     8.3530     6.9950     9.3590    25.5740    -9.5080     2.1860 
   93.0000    74.5890     8.2030     6.7550     8.4740    25.6150    -9.0940     2.1820 
   93.1250    70.9090     8.3260     6.7410     8.5670    25.6640    -8.7070     2.1790 
   93.2500    68.7010     8.6030     6.8880     9.3680    25.7230    -8.3650     2.1740 
   93.3750    69.7610     8.8710     7.0710    10.2550    25.7810    -8.0370     2.1680 
   93.5000    72.4820     8.9530     7.1310    10.9370    25.8580    -7.6540     2.1620 
   93.6250    74.0200     8.6960     6.9180    10.2420    26.0020    -7.0500     2.1670 
   93.7500    77.1010     8.2020     6.5050     8.2990    26.1730    -6.2190     2.1860 
   93.8750    84.0810     7.6250     6.0250     6.5200    26.2830    -5.2380     2.2130 
   94.0000    92.8260     7.1320     5.6210     5.8290    26.3280    -4.1500     2.2370 
   94.1250    97.0810     6.8610     5.4100     6.1900    26.3450    -3.0230     2.2440 
   94.2500    95.3690     6.7770     5.3640     6.7300    26.3510    -1.8400     2.2360 
   94.3750    92.2480     6.8110     5.4250     7.0160    26.3230    -0.7170     2.2220 
   94.5000    90.3610     6.8820     5.5230     6.8300    26.2920     0.2140     2.2100 
   94.6250    89.1280     6.9320     5.5970     6.4710    26.3860     0.7830     2.2040 
   94.7500    87.3410     6.9560     5.6380     6.1820    26.4690     1.0590     2.2000 
   94.8750    83.5500     6.9790     5.6700     6.3040    26.4820     1.0280     2.1940 
