~V
VERS. 2.00: Ver 2.00
~W
STRT.M 55.0000:
STOP.M 276.0000:
STEP.M 0.1250:
NULL. -999.2500:
UWI. F10239:
~C
DEPT.M :
SP.MV :
DEN.GM/CC :
GR.API :
RML.OHMM :
RI. :
RXO.OHMM :
CALI.CM :
~A
# ...
  212.5000   -11.9660     2.3450    71.5840     6.3210     5.7330     5.7810    24.6480 
  212.6250   -11.8190     2.3330    72.5850     5.9810     5.4400     5.4320    24.7140 
  212.7500   -11.7080     2.3250    72.5160     5.7010     5.1760     5.1990    24.7470 
  212.8750   -11.6720     2.3230    73.7130     5.5560     5.0050     5.0870    24.7540 
  213.0000   -11.6930     2.3270    74.9470     5.6330     4.9910     5.0970    24.7400 
  213.1250   -11.7370     2.3390    73.1350     6.0150     5.1960     5.2640    24.7000 
  213.2500   -11.7550     2.3540    68.2870     6.7430     5.6690     5.8620    24.6340 
  213.3750   -11.7280     2.3640    64.9000     7.6770     6.3430     7.0700    24.5840 
  213.5000   -11.6820     2.3610    65.1180     8.6400     7.1190     8.9070    24.5500 
  213.6250   -11.6450     2.3480    68.1470     9.4280     7.8440    10.6080    24.5430 
  213.7500   -11.6360     2.3350    70.8840     9.9030     8.3660    10.6490    24.5610 
  213.8750   -11.6450     2.3290    70.0590    10.1740     8.6890     9.8730    24.5870 
  214.0000   -11.6700     2.3270    66.2850    10.4150     8.9160     9.6400    24.6030 
  214.1250   -11.7010     2.3280    63.0550    10.8010     9.1910    10.2790    24.6150 
  214.2500   -11.7490     2.3220    63.0520    11.4430     9.6450    11.4990    24.6300 
  214.3750   -11.8240     2.3070    65.5080    12.2880    10.2880    12.7520    24.6570 
  214.5000   -11.9250     2.2880    67.8860    13.2530    11.0720    13.6100    24.7020 
  214.6250   -12.0460     2.2750    69.0180    14.2470    11.9200    14.3890    24.7640 
  214.7500   -12.1700     2.2710    70.6600    15.2170    12.7720    15.5140    24.7880 
  214.8750   -12.2600     2.2710    73.6360    16.1790    13.6240    16.7380    24.8060 
  215.0000   -12.3220     2.2740    74.1330    17.1810    14.5130    17.7870    24.8220 
  215.1250   -12.3850     2.2790    69.4890    18.2680    15.4970    18.8700    24.8340 
  215.2500   -12.4650     2.2830    63.6370    19.4520    16.6130    20.1160    24.8450 
  215.3750   -12.5700     2.2860    62.7170    20.6810    17.8270    20.9460    24.8660 
  215.5000   -12.6730     2.2870    64.8810    21.8940    19.0820    22.1180    24.9040 
  215.6250   -12.7450     2.2870    65.1880    22.9780    20.2710    23.3860    24.9480 
  215.7500   -12.7780     2.2900    62.6190    23.7090    21.1750    23.9650    24.9660 
  215.8750   -12.8320     2.2940    62.0420    23.8840    21.5760    23.7840    24.9440 
  216.0000   -12.9130     2.2900    63.8350    23.3640    21.3140    23.9540    24.9150 
  216.1250   -12.9950     2.2760    66.0190    22.1650    20.3770    24.3450    24.9170 
  216.2500   -13.0690     2.2610    68.9610    20.4930    18.9280    22.6570    24.9740 
  216.3750   -13.1190     2.2590    72.6770    18.7650    17.3660    18.6530    25.0710 
  216.5000   -13.1580     2.2680    74.5530    17.2920    15.9830    15.7820    25.1560 
  216.6250   -13.2200     2.2820    73.1190    16.3760    15.0430    15.3150    25.2160 
  216.7500   -13.3500     2.2980    70.5790    16.3530    14.8240    15.4090    25.2420 
  216.8750   -13.5080     2.3210    69.9100    17.3240    15.4270    15.6830    25.2240 
  217.0000   -13.6530     2.3510    69.1680    19.3860    16.9800    16.5210    25.1530 
  217.1250   -13.7700     2.3900    65.9790    22.5350    19.5890    19.7860    25.0230 
  217.2500   -13.8430     2.4200    61.3560    26.5700    23.2630    28.1100    24.8810 
  217.3750   -13.8940     2.4120    59.8500    30.7450    27.4510    39.2500    24.8120 
  217.5000   -13.9310     2.3610    61.8090    34.1850    31.3630    44.8660    24.8050 
  217.6250   -13.9410     2.3040    63.7270    35.9150    33.9450    40.3130    24.8390 
  217.7500   -13.9090     2.2780    62.7730    35.2490    34.2740    36.5580    24.8870 
  217.8750   -13.8380     2.2780    60.9390    32.7610    32.6480    35.3780    24.9400 
  218.0000   -13.7570     2.2850    60.2630    29.1650    29.6630    34.0570    25.0100 
  218.1250   -13.7010     2.2820    61.5550    25.6850    26.1640    29.8120    25.0740 
  218.2500   -13.6910     2.2640    64.6600    23.9120    23.0670    23.2970    25.0800 
  218.3750   -13.6950     2.2450    67.9190    21.7220    20.9290    18.2810    25.0520 
  218.5000   -13.7070     2.2350    69.7670    20.8420    19.8740    15.8980    24.9900 
  218.6250   -13.7260     2.2330    68.3820    20.8360    19.6350    15.9260    24.9350 
  218.7500   -13.7740     2.2330    63.4880    20.7930    19.5250    19.1210    24.9120 
  218.8750   -13.8780     2.2340    59.3670    19.7520    18.6490    23.7930    24.9080 
  219.0000   -14.0330     2.2360    59.9220    17.4180    16.6420    23.0630    24.9090 
  219.1250   -14.1970     2.2370    65.0300    14.3340    13.9360    15.5560    24.9040 
  219.2500   -14.3500     2.2350    70.8480    11.5830    11.4590     9.6740    24.8650 
  219.3750   -14.5070     2.2310    74.3970     9.9030     9.8270     7.8350    24.7290 
  219.5000   -14.6810     2.2220    75.9150     9.5090     9.2190     7.4420    24.4880 
  219.6250   -14.8740     2.2080    74.9340    10.3820     9.6840     8.3080    24.2930 
  219.7500   -15.0580     2.1930    71.6720    12.3830    11.2580    11.6450    24.3780 
  219.8750   -15.1920     2.1860    68.9150    14.9260    13.5920    16.9340    24.6100 
  220.0000   -15.2450     2.1970    66.1880    17.4000    16.2120    20.2330    24.8110 
  220.1250   -15.2320     2.2340    62.2070    19.0900    18.3560    19.2430    24.8920 
  220.2500   -15.1930     2.2880    58.2580    19.4400    19.2370    17.4280    24.8270 
  220.3750   -15.1560     2.3300    57.4570    18.7550    18.9340    17.3880    24.6760 
  220.5000   -15.1310     2.3400    60.2550    17.5490    17.9160    18.2170    24.4750 
  220.6250   -15.1300     2.3150    63.6460    16.3390    16.7210    18.2450    24.3570 
  220.7500   -15.1520     2.2810    65.5210    15.4860    15.7320    16.2080    24.3870 
  220.8750   -15.2040     2.2590    66.9020    15.0970    15.0970    13.8480    24.4540 
  221.0000   -15.3020     2.2490    68.7480    15.2260    14.8860    13.4290    24.4540 
  221.1250   -15.4550     2.2480    70.8360    15.8560    15.1360    14.5740    24.4330 
  221.2500   -15.6570     2.2560    72.4020    16.8920    15.8320    15.9350    24.4620 
  221.3750   -15.8840     2.2680    73.7860    18.0400    16.7530    17.0890    24.4900 
  221.5000   -16.1050     2.2800    73.3240    19.0300    17.6610    18.3540    24.4480 
  221.6250   -16.3060     2.2880    69.8170    19.6430    18.3070    19.3750    24.3690 
  221.7500   -16.5010     2.2920    67.0800    19.8450    18.5730    19.5300    24.2650 
  221.8750   -16.6940     2.2920    68.9590    19.9380    18.6610    19.2220    24.1840 
  222.0000   -16.9020     2.2840    73.7090    20.2620    18.8350    18.7860    24.1750 
  222.1250   -17.1250     2.2690    75.8790    21.1930    19.4150    19.3150    24.2580 
  222.2500   -17.3330     2.2520    71.9280    23.1430    20.7730    21.6990    24.3670 
  222.3750   -17.5160     2.2390    66.0120    26.2080    23.0600    26.0110    24.4340 
  222.5000   -17.6990     2.2260    62.4380    30.4660    26.4020    30.0820    24.4470 
  222.6250   -17.9050     2.2130    62.8470    35.9350    30.8610    34.1450    24.3900 
  222.7500   -18.1290     2.1970    64.5560    42.5730    36.4510    40.7620    24.3170 
  222.8750   -18.3510     2.1860    64.2310    49.9080    42.7870    50.9630    24.3890 
  223.0000   -18.5270     2.1820    62.0120    57.4780    49.4980    60.4770    24.5090 
  223.1250   -18.6510     2.1820    60.4790    64.7990    56.1900    66.8520    24.4990 
  223.2500   -18.7490     2.2000    61.4360    71.5210    62.5720    76.8570    24.5290 
  223.3750   -18.8480     2.2490    62.3040    77.6800    68.5740    85.7610    24.6210 
  223.5000   -18.9430     2.3280    62.0390    83.4260    74.2050    89.4920    24.6700 
  223.6250   -19.0230     2.4040    62.1740    88.7470    79.4060    90.0990    24.5390 
