~V
VERS. 2.00: Ver 2.00
~W
STRT.M 57.0000:
STOP.M 259.0000:
STEP.M 0.1250:
NULL. -999.2500:
UWI. F10209:
~C
DEPT.M :
SP.MV :
DEN.GM/CC :
GR.API :
RML.OHMM :
RI. :
RXO.OHMM :
CALI.CM :
~A
# ...
  147.0000    -1.9750     2.3420    88.2360     7.5440     5.7620     6.0340    24.3120 
  147.1250    -1.8580     2.3360    91.4550     7.3610     5.6290     5.8630    24.2830 
  147.2500    -1.7770     2.3320    92.7570     7.1790     5.4820     5.7860    24.2200 
  147.3750    -1.6730     2.3340    93.3300     7.0480     5.3590     5.8000    24.1450 
  147.5000    -1.5600     2.3380    97.9770     6.9830     5.2790     5.7030    24.1060 
  147.6250    -1.4660     2.3420   102.7300     6.9830     5.2490     5.5100    24.1110 
  147.7500    -1.4110     2.3450   103.1630     7.0340     5.2630     5.4160    24.1390 
  147.8750    -1.4520     2.3440    98.9950     7.1140     5.3130     5.3830    24.1940 
  148.0000    -1.5510     2.3430    92.6820     7.1960     5.3750     5.3790    24.2410 
  148.1250    -1.6910     2.3410    89.5820     7.2600     5.4320     5.4470    24.2620 
  148.2500    -1.8500     2.3390    91.7300     7.2910     5.4660     5.5680    24.2380 
  148.3750    -1.9920     2.3380    96.6870     7.2660     5.4580     5.6280    24.1970 
  148.5000    -2.1130     2.3370    99.1300     7.1900     5.4080     5.5430    24.1760 
  148.6250    -2.2190     2.3370    97.5800     7.0700     5.3220     5.4020    24.1750 
  148.7500    -2.3380     2.3410    95.2090     6.9230     5.2100     5.2610    24.1600 
  148.8750    -2.4570     2.3490    93.9270     6.7780     5.0860     5.1370    24.0860 
  149.0000    -2.5400     2.3580    93.2350     6.6630     4.9720     5.0290    23.9640 
  149.1250    -2.5400     2.3650    92.5180     6.5950     4.8880     4.9250    23.8900 
  149.2500    -2.4600     2.3680    91.4430     6.5810     4.8470     4.7750    23.9150 
  149.3750    -2.3370     2.3660    92.0200     6.6210     4.8610     4.6890    24.0390 
  149.5000    -2.2100     2.3600    92.7730     6.6880     4.9090     4.6960    24.1410 
  149.6250    -2.1200     2.3520    92.4160     6.7580     4.9670     4.7540    24.2190 
  149.7500    -2.0760     2.3440    90.8810     6.8020     5.0090     4.6900    24.2850 
  149.8750    -2.0550     2.3380    93.0660     6.7960     5.0110     4.5730    24.3520 
  150.0000    -2.0270     2.3350    98.6350     6.7490     4.9800     4.5810    24.3790 
  150.1250    -1.9680     2.3370   102.4440     6.6800     4.9260     4.6170    24.3840 
  150.2500    -1.9050     2.3430   100.9640     6.6120     4.8630     4.5090    24.3800 
  150.3750    -1.8870     2.3480    98.6880     6.5640     4.8080     4.4170    24.3810 
  150.5000    -1.9510     2.3520   100.2960     6.5340     4.7640     4.4280    24.3930 
  150.6250    -2.0840     2.3530   101.7690     6.5050     4.7270     4.4890    24.3980 
  150.7500    -2.2350     2.3540    98.7910     6.4630     4.6900     4.5630    24.3930 
  150.8750    -2.3890     2.3560    93.8310     6.4250     4.6690     4.6580    24.3560 
  151.0000    -2.5640     2.3570    92.0850     6.4470     4.6950     4.6640    24.2830 
  151.1250    -2.7900     2.3540    93.8280     6.5950     4.8060     4.6000    24.1670 
  151.2500    -3.0650     2.3460    95.0210     6.9210     5.0310     4.6390    23.9230 
  151.3750    -3.3680     2.3370    92.9200     7.4740     5.4020     5.0410    23.8280 
  151.5000    -3.6450     2.3340    91.2180     8.1280     5.8560     5.8010    23.8000 
  151.6250    -3.8430     2.3400    91.3370     8.7010     6.2850     6.3820    23.8220 
  151.7500    -3.9440     2.3530    91.2600     8.9850     6.5420     6.4040    23.8280 
  151.8750    -3.9530     2.3640    90.7960     8.7810     6.4560     6.5530    23.8340 
  152.0000    -3.9410     2.3660    92.0680     8.2190     6.0920     6.8600    23.7900 
  152.1250    -3.9330     2.3590    93.8730     7.4880     5.5760     5.7420    23.7430 
  152.2500    -3.9310     2.3460    94.0520     6.8040     5.0630     4.5560    23.6980 
  152.3750    -3.9330     2.3350    93.9870     6.3870     4.7110     4.1710    23.6780 
  152.5000    -3.9040     2.3300    96.0870     6.3020     4.5800     4.3970    23.7260 
  152.6250    -3.8840     2.3310    98.2010     6.5950     4.7120     4.6160    23.7540 
  152.7500    -3.9070     2.3350    98.5020     7.2780     5.1340     5.0150    23.7420 
  152.8750    -3.9700     2.3300    97.8210     8.3260     5.8690     6.2540    23.6170 
  153.0000    -4.0440     2.3150    96.6970     9.5030     6.7760     8.3170    23.4020 
  153.1250    -4.1560     2.2950    95.6070    10.5620     7.6900     9.4550    23.2800 
  153.2500    -4.2920     2.2790    94.6920    11.2350     8.3930     8.9290    23.3380 
  153.3750    -4.3710     2.2730    93.0490    11.2360     8.6100     8.1200    23.4170 
  153.5000    -4.3740     2.2740    92.6910    10.6980     8.3710     7.4980    23.5090 
  153.6250    -4.2900     2.2770    92.2640     9.8380     7.8130     7.5360    23.7320 
  153.7500    -4.1390     2.2780    92.6240     8.9140     7.1340     7.2380    24.0780 
  153.8750    -3.9820     2.2810    94.2510     8.1870     6.5390     6.0640    24.3000 
  154.0000    -3.8460     2.2850    95.9380     7.7730     6.1410     5.1740    24.4210 
  154.1250    -3.7380     2.2870    95.8160     7.7320     5.9940     5.0370    24.4700 
  154.2500    -3.6570     2.2860    93.8390     8.0530     6.1150     5.8860    24.5160 
  154.3750    -3.6490     2.2820    93.8220     8.6810     6.4990     6.9870    24.4860 
  154.5000    -3.7180     2.2780    94.4970     9.4140     7.0150     7.2330    24.3980 
  154.6250    -3.8190     2.2770    93.8730    10.0930     7.5520     7.4970    24.3010 
  154.7500    -3.9440     2.2780    92.3560    10.5580     7.9850     8.0910    24.3140 
  154.8750    -4.0810     2.2810    89.6640    10.6120     8.1520     8.7090    24.3880 
  155.0000    -4.2120     2.2850    86.0580    10.3120     8.0580     8.5480    24.4780 
  155.1250    -4.2980     2.2930    84.4450     9.8230     7.8020     8.1190    24.5410 
  155.2500    -4.3100     2.3040    87.2950     9.4340     7.5680     7.4920    24.5620 
  155.3750    -4.2580     2.3170    90.9790     9.6150     7.6430     6.7840    24.5040 
  155.5000    -4.1940     2.3230    89.3820    10.5680     8.1830     7.3710    24.4800 
  155.6250    -4.1890     2.3150    83.9520    12.2800     9.2580    10.1170    24.5180 
  155.7500    -4.2430     2.2910    79.8840    14.3800    10.7410    15.6550    24.5550 
  155.8750    -4.3510     2.2560    76.8870    15.8760    12.0630    20.6650    24.5280 
  156.0000    -4.4960     2.2260    74.3110    15.9370    12.4940    23.8980    24.4830 
  156.1250    -4.6500     2.2110    74.6870    14.5510    11.8450    19.5900    24.4560 
  156.2500    -4.8410     2.2120    77.1960    12.5730    10.6130    12.0650    24.4180 
  156.3750    -5.1290     2.2230    78.0370    11.1660     9.5790     8.3180    24.3720 
  156.5000    -5.5430     2.2360    78.9420    10.7660     9.1310     7.4390    24.2810 
  156.6250    -6.0620     2.2490    82.1660    11.3610     9.3630     8.6370    24.1480 
  156.7500    -6.6720     2.2650    84.0050    12.6550    10.2040    10.4590    23.9890 
  156.8750    -7.3100     2.2840    80.3520    14.0320    11.3650    11.1010    23.9700 
  157.0000    -7.8740     2.3020    76.9590    14.7600    12.2330    10.6280    24.0770 
  157.1250    -8.3380     2.3110    77.4100    14.5000    12.3870    11.8710    24.1640 
  157.2500    -8.6980     2.3070    80.7320    13.3790    11.7700    13.8920    24.1620 
  157.3750    -8.9350     2.2930    83.7510    11.8700    10.6740    12.1760    24.1440 
  157.5000    -9.0890     2.2780    84.1140    10.5550     9.6210     8.2570    24.2010 
  157.6250    -9.1930     2.2700    84.8900     9.6970     8.8670     6.9300    24.2420 
  157.7500    -9.2660     2.2720    87.6450     9.3980     8.5300     6.4190    24.2420 
  157.8750    -9.3120     2.2820    87.8710     9.7010     8.6870     6.1600    24.2250 
  158.0000    -9.3450     2.2880    83.6120    10.2920     9.1410     6.9330    24.2200 
  158.1250    -9.3380     2.2940    78.7850    10.8130     9.6320     8.4630    24.1880 
