~V
VERS. 2.00: Ver 2.00
~W
STRT.M 57.0000:
STOP.M 281.0000:
STEP.M 0.1250:
NULL. -999.2500:
UWI. F10238:
~C
DEPT.M :
GR.API :
RML.OHMM :
RI. :
RXO.OHMM :
CALI.CM :
DEN.GM/CC :
SP.MV :
~A
# ...
  270.7500    54.1050     7.7680     5.8640     6.3990    24.6000     2.3500    -6.7800 
  270.8750    53.8300     7.8170     5.9150     6.4670    24.6010     2.3780    -6.7390 
  271.0000    54.7470     7.9000     5.9740     6.5880    24.6010     2.4030    -6.6720 
  271.1250    55.2160     7.9900     6.0300     6.7350    24.6010     2.4240    -6.5970 
  271.2500    55.2160     8.0450     6.0690     6.8310    24.5990     2.4380    -6.5270 
  271.3750    55.2160     8.0430     6.0820     6.8430    24.5980     2.4460    -6.4580 
  271.5000    55.2160     7.9980     6.0690     6.7470    24.5980     2.4500    -6.3710 
  271.6250    55.2160     7.9320     6.0320     6.4790    24.5960     2.4500    -6.2780 
  271.7500    55.2160     7.8620     5.9800     6.1390    24.5760     2.4440    -6.2140 
  271.8750    55.2160     7.8000     5.9300     5.9360    24.5260     2.4300    -6.1940 
  272.0000    55.2160     7.7600     5.9020     5.9040    24.4670     2.4120    -6.1840 
  272.1250    55.2160     7.7510     5.9010     5.9620    24.4300     2.3970    -6.1730 
  272.2500    55.2160     7.7680     5.9190     6.1030    24.4170     2.3900    -6.1660 
  272.3750    55.2160     7.7890     5.9390     6.3850    24.4170     2.3920    -6.1510 
  272.5000    55.2160     7.7900     5.9400     6.7480    24.4180     2.3940    -6.1260 
  272.6250    55.2160     7.7580     5.9150     6.9410    24.4290     2.3920    -6.1080 
  272.7500    55.2160     7.6910     5.8620     6.7380    24.4850     2.3850    -6.0990 
  272.8750    55.2160     7.6000     5.7920     6.3210    24.5980     2.3800    -6.1030 
  273.0000    55.2160     7.5080     5.7250     5.9700    24.6540     2.3810    -6.1180 
  273.1250    55.2160     7.4360     5.6740     5.8190    24.5780     2.3890    -6.1270 
  273.2500    55.2160     7.3990     5.6490     5.8380    24.4520     2.4000    -6.1170 
  273.3750    55.2160     7.4030     5.6480     5.9510    24.3570     2.4070    -6.1070 
  273.5000    55.2160     7.4310     5.6610     6.2180    24.3320     2.4110    -6.1020 
  273.6250    55.2160     7.4620     5.6760     6.5300    24.3340     2.4130    -6.0970 
  273.7500    55.2160     7.4700     5.6840     6.5290    24.3460     2.4160    -6.0950 
  273.8750    55.2160     7.4510     5.6810     6.2500    24.3650     2.4220    -6.0830 
  274.0000    55.2160     7.4220     5.6740     6.0350    24.4010     2.4280    -6.0600 
  274.1250    55.2160     7.4110     5.6760     5.8050    24.4370     2.4320    -6.0370 
  274.2500    55.2160     7.4440     5.7090     5.6830    24.4210     2.4300    -6.0170 
  274.3750    55.2160     7.5350     5.7800     5.7360    24.3670     2.4230    -6.0180 
  274.5000    55.2160     7.6680     5.8790     6.0640    24.2980     2.4140    -6.0390 
  274.6250    55.2160     7.8170     5.9880     6.7830    24.2550     2.4040    -6.0700 
  274.7500    55.2160     7.9480     6.0820     7.7860    24.2540     2.3930    -6.0860 
  274.8750    55.2160     8.0360     6.1460     8.6940    24.2810     2.3840    -6.0870 
  275.0000    55.2160     8.0820     6.1800     8.9880    24.3060     2.3790    -6.0980 
  275.1250    55.2160     8.0960     6.1940     8.5040    24.3100     2.3770    -6.1300 
  275.2500    55.2160     8.0990     6.1980     8.0500    24.2870     2.3760    -6.1690 
  275.3750    55.2160     8.1050     6.1990     7.7260    24.2540     2.3750    -6.1840 
  275.5000    55.2160     8.1130     6.2000     7.1840    24.2510     2.3740    -6.1680 
  275.6250    55.2160     8.1180     6.2000     7.0900    24.2760     2.3730    -6.1350 
  275.7500    55.2160     8.1150     6.2000     7.0910    24.2730     2.3720    -6.1010 
  275.8750    55.2160     8.1050     6.1990     7.4110    24.2470     2.3720    -6.0730 
  276.0000    55.2160     8.0930     6.1980     8.0020    24.2360     2.3730    -6.0420 
  276.1250    55.2160     8.0840     6.2000     8.4290    24.2350     2.3740    -5.9950 
  276.2500    55.2160     8.0800     6.2020     8.5650    24.2340     2.3790    -5.9470 
  276.3750    55.2160     8.0790     6.2050     8.9470    24.2330     2.3900    -5.9240 
  276.5000    55.2160     8.0760     6.2060     9.6520    24.2340     2.4040    -6.3000 
  276.6250    55.2160     8.0700     6.2070    10.1700    24.2340     2.4200  -999.2500 
  276.7500    55.2160     8.0590     6.2070    10.5100    24.2350     2.4360  -999.2500 
  276.8750    55.2160     8.0460     6.2070    11.0580    24.2360     2.4520  -999.2500 
  277.0000    55.2160     8.0400     6.2060    11.2760    24.2360     2.4640  -999.2500 
  277.1250    55.2160     8.0400     6.2060    10.8140    24.2360     2.4690  -999.2500 
  277.2500    55.2160     8.0400     6.2060    10.2350    24.2360     2.4660  -999.2500 
  277.3750    55.2160     8.0400     6.2060     9.5120    24.2380     2.4530  -999.2500 
  277.5000    55.2160     8.0400     6.2060     8.6910    24.2460     2.4390  -999.2500 
  277.6250    55.2160     8.0400     6.2060     7.9270    24.2640     2.4350  -999.2500 
  277.7500    55.2160     8.0400     6.2060     7.5540    24.2820     2.4450  -999.2500 
  277.8750    55.2160     8.0400     6.2060     7.4860    24.2880     2.4630  -999.2500 
  278.0000    55.2160     8.0400     6.2060     7.6280    24.2800     2.4770  -999.2500 
  278.1250    55.2160     8.0400     6.2060     8.0590    24.2140     2.4810  -999.2500 
  278.2500    55.2160     8.0400     6.2060     8.7190    24.1120     2.4750  -999.2500 
  278.3750    55.2160     8.0400     6.2060     9.3840    24.0590     2.4640  -999.2500 
  278.5000    55.2160     8.0400     6.2060     9.8410    24.0450     2.4540  -999.2500 
  278.6250    55.2160     8.0400     6.2060     9.5090    24.0460     2.4450  -999.2500 
  278.7500    55.2160     8.0400     6.2060     8.6660    24.0420     2.4390  -999.2500 
  278.8750    55.2160     8.0400     6.2060     8.4580    24.0030     2.4390  -999.2500 
  279.0000    55.2160     8.0400     6.2060     8.4970    23.8640     2.4450  -999.2500 
  279.1250    55.2160     8.0400     6.2060     8.4410    23.6540     2.4380  -999.2500 
  279.2500    55.2160     8.0400     6.2060     8.1800    23.4840     2.3920  -999.2500 
  279.3750    55.2160     8.0400     6.2060     7.9340    23.2330     2.3020  -999.2500 
  279.5000    55.2160     8.0400     6.2060     7.3790    22.4050     2.1930  -999.2500 
  279.6250    55.2160     8.0400     6.2060     6.4970    20.4080     2.0910  -999.2500 
  279.7500    55.2160     8.0400     6.2060     5.6170    18.0480     2.0120  -999.2500 
  279.8750    55.2160     8.0400     6.2060     5.2520    16.8800     1.9670  -999.2500 
  280.0000    55.2160     8.0400     6.2060     5.1500    16.5430     1.9480  -999.2500 
  280.1250    55.2160     8.0400     6.2060     5.1480    16.5270     1.9440  -999.2500 
  280.2500    55.2160     8.0400     6.2060     5.1490    16.5270     1.9440  -999.2500 
  280.3750    55.2160     8.0400     6.2060     5.1500    16.5270     1.9430  -999.2500 
  280.5000    55.2160     8.0400     6.2060     5.1490    16.5230     1.9460  -999.2500 
  280.6250    55.2160     8.0400     6.2060     5.1480    16.5190     1.9500  -999.2500 
  280.7500    55.2160     8.0400     6.2060     5.1490    16.5210     1.9530  -999.2500 
  280.8750    55.2160     8.0400     6.2060     5.1500    16.5250     1.9550  -999.2500 
  281.0000    55.2160     8.0400     6.2060     5.1510    16.5300     1.9520  -999.2500 
