~V
VERS. 2.00: Ver 2.00
~W
STRT.M 50.0000:
STOP.M 281.0000:
STEP.M 0.1250:
NULL. -999.2500:
UWI. F10222:
~C
DEPT.M :
GR.API :
RML.OHMM :
RI. :
RXO.OHMM :
CALI.CM :
DEN.GM/CC :
SP.MV :
~A
# ...
  230.0000   112.2890     8.7450     8.0970     8.2100    25.9410     2.3840   -21.4490 
  230.1250   113.0430     8.8720     8.2150     8.5200    25.9740     2.3770   -21.6270 
  230.2500   111.9820     9.1110     8.4360     9.1310    26.0170     2.3740   -21.8070 
  230.3750   110.3520     9.5350     8.8290     9.6100    26.0420     2.3680   -22.0110 
  230.5000   110.9450    10.2540     9.4940     9.4770    26.0570     2.3610   -22.1960 
  230.6250   108.8930    12.1130    10.6530    10.9940    26.0540     2.3620   -22.4150 
  230.7500    99.4130    16.0800    12.3740    15.2050    26.0780     2.3640   -22.5880 
  230.8750    88.8040    19.2860    14.7100    20.3970    26.1250     2.3600   -22.7650 
  231.0000    82.2370    22.9970    17.6090    23.4350    26.1720     2.3440   -22.9000 
  231.1250    77.8840    27.0050    20.9270    23.8700    26.2120     2.3250   -22.9950 
  231.2500    72.4830    31.0520    24.3320    24.4630    26.2500     2.3120   -23.0880 
  231.3750    69.0710    35.0490    27.6820    27.4470    26.2830     2.3070   -23.1200 
  231.5000    67.2690    38.8760    30.8990    32.8530    26.3100     2.3090   -23.1160 
  231.6250    65.5360    41.9750    33.6330    39.1130    26.3490     2.3140   -23.0250 
  231.7500    65.2990    43.7370    35.3980    42.0670    26.3860     2.3150   -22.9070 
  231.8750    67.1130    43.8020    35.8320    40.6390    26.3800     2.3120   -22.7380 
  232.0000    69.3390    42.4250    35.0410    37.9300    26.4150     2.3060   -22.5330 
  232.1250    71.1940    40.4570    33.5900    33.4090    26.3340     2.3020   -22.3030 
  232.2500    73.3180    39.0330    32.3910    29.7330    26.2370     2.3000   -22.0150 
  232.3750    74.2810    38.7590    31.9720    28.1820    26.1970     2.3040   -21.7360 
  232.5000    73.7270    39.8750    32.6100    28.6080    26.2450     2.3120   -21.4000 
  232.6250    71.7240    42.4990    34.5340    30.4060    26.2560     2.3250   -21.0600 
  232.7500    69.6450    45.8920    37.2860    33.2320    26.2060     2.3370   -20.7080 
  232.8750    67.7720    49.1380    40.2270    37.1630    26.1220     2.3490   -20.3010 
  233.0000    65.6880    51.1040    42.4400    42.7100    26.0860     2.3590   -19.9010 
  233.1250    64.5510    50.5320    42.7630    42.7020    26.0070     2.3680   -19.4650 
  233.2500    65.4740    47.8300    41.2690    39.6260    25.9140     2.3740   -19.0260 
  233.3750    67.0010    43.7860    38.4560    35.0040    25.9090     2.3820   -18.5590 
  233.5000    67.3640    39.3580    35.0760    31.8090    25.9600     2.3930   -18.1020 
  233.6250    68.2210    35.3710    31.8510    29.7710    25.9590     2.4000   -17.6770 
  233.7500    70.4070    32.0560    29.1020    28.2160    25.8730     2.4010   -17.2490 
  233.8750    71.3060    29.4040    26.8790    25.4080    25.8240     2.3960   -16.8710 
  234.0000    71.2340    27.3240    25.1380    22.2390    25.9130     2.3810   -16.4810 
  234.1250    73.6030    25.7570    23.8610    20.4210    26.1430     2.3550   -16.1400 
  234.2500    75.0980    24.5380    22.9160    19.4650    26.2200     2.3320   -15.8320 
  234.3750    71.4460    23.6110    22.2460    18.6770    26.0250     2.3260   -15.5470 
  234.5000    66.0320    22.9040    21.7840    18.0300    25.6500     2.3320   -15.3360 
  234.6250    67.1740    22.3330    21.4490    18.8050    25.3900     2.3370   -15.1150 
  234.7500    71.6720    21.7920    21.1310    20.1070    25.3400     2.3410   -14.9530 
  234.8750    74.1740    21.2460    20.7900    20.1560    25.4680     2.3500   -14.8040 
  235.0000    73.7150    20.7030    20.4220    18.6140    25.7090     2.3570   -14.6970 
  235.1250    73.6420    20.2180    20.0420    16.7590    25.8650     2.3430   -14.6450 
  235.2500    75.4700    19.8380    19.6880    15.7330    25.9020     2.3170   -14.5830 
  235.3750    77.3150    19.5890    19.3870    15.5950    25.8720     2.3010   -14.5530 
  235.5000    75.2740    19.4060    19.1150    15.9250    25.8430     2.3020   -14.4920 
  235.6250    70.9840    19.0210    18.6750    16.3310    25.7940     2.3110   -14.4760 
  235.7500    71.1820    18.1990    17.8540    16.3570    25.6770     2.3170   -14.4720 
  235.8750    76.0660    16.9160    16.6280    15.9840    25.5110     2.3200   -14.4680 
  236.0000    80.0460    15.4680    15.2630    15.2950    25.3240     2.3260   -14.4940 
  236.1250    80.6260    14.5140    14.2940    13.7000    25.0970     2.3410   -14.4900 
  236.2500    79.7460    14.5360    14.0470    11.6780    24.9310     2.3640   -14.5540 
  236.3750    79.0500    15.8080    14.7150    11.4260    24.9650     2.3790   -14.6260 
  236.5000    79.4290    18.3270    16.3840    14.0500    25.1920     2.3710   -14.7290 
  236.6250    76.4110    21.7940    19.1040    19.5290    25.5330     2.3420   -14.8470 
  236.7500    69.1890    25.1640    22.1990    24.4660    25.7790     2.3150   -14.9430 
  236.8750    63.0910    27.4000    24.7130    25.5260    25.8560     2.2950   -15.0910 
  237.0000    63.6930    27.8020    25.6830    24.1360    25.8680     2.2830   -15.2130 
  237.1250    68.2330    26.4170    24.7970    23.6440    25.8700     2.2790   -15.3530 
  237.2500    70.4900    24.6320    23.2860    23.0540    25.8650     2.2790   -15.4800 
  237.3750    71.9500    23.4180    22.0390    21.0110    25.8250     2.2830   -15.5800 
  237.5000    74.4460    23.3660    21.5860    18.8470    25.7220     2.2940   -15.7040 
  237.6250    78.0160    24.9670    22.3720    19.0080    25.5880     2.3130   -15.8310 
  237.7500    79.3750    27.8590    24.2690    23.3590    25.4960     2.3350   -15.9830 
  237.8750    77.0440    31.5780    27.1020    29.0460    25.4650     2.3520   -16.0930 
  238.0000    73.6010    35.3400    30.3830    32.0600    25.4650     2.3580   -16.1880 
  238.1250    73.1630    37.9890    33.1540    30.5080    25.4670     2.3520   -16.2790 
  238.2500    74.3800    39.1780    34.7880    30.0900    25.4670     2.3380   -16.3240 
  238.3750    74.8000    39.1760    35.2910    29.9020    25.4670     2.3190   -16.4100 
  238.5000    74.5380    38.5790    35.0860    30.7350    25.4670     2.2980   -16.4530 
  238.6250    74.4700    37.8330    34.5620    31.6770    25.4580     2.2890   -16.4400 
  238.7500    74.6750    37.0130    33.8910    32.4830    25.5140     2.2930   -16.4420 
  238.8750    74.3810    35.9340    32.9690    32.3800    26.0110     2.3020   -16.4530 
  239.0000    73.8030    34.4110    31.6650    30.9580    26.1270     2.3120   -16.4680 
  239.1250    73.2490    32.3740    29.9240    28.6820    25.8030     2.3260   -16.4820 
  239.2500    72.1470    30.1750    28.0300    26.5340    25.5490     2.3440   -16.4840 
  239.3750    69.8120    28.1600    26.2600    24.4810    25.4080     2.3530   -16.4590 
  239.5000    67.7160    26.6060    24.8440    21.4160    25.3540     2.3440   -16.4270 
  239.6250    69.4440    25.7090    23.9780    19.8200    25.4250     2.3200   -16.3960 
  239.7500    70.7710    25.2550    23.5370    20.6010    25.5280     2.2990   -16.3550 
  239.8750    68.2770    25.0450    23.3770    22.8660    25.6950     2.2880   -16.3050 
  240.0000    64.4790    24.8010    23.3350    24.3970    26.1190     2.2830   -16.2830 
  240.1250    63.3950    24.7080    23.2900    23.7140    26.4050     2.2840   -16.2450 
  240.2500    63.7350    24.5630    23.2000    22.6570    26.5410     2.2870   -16.2260 
  240.3750    63.3730    24.5390    23.0560    22.4150    26.4930     2.2890   -16.2160 
  240.5000    62.3380    24.3660    22.8420    23.2860    26.4330     2.2870   -16.2120 
  240.6250    60.3870    24.0220    22.4800    23.8690    26.4530     2.2830   -16.2480 
  240.7500    58.5260    23.6040    21.9550    22.8840    26.4270     2.2830   -16.2410 
  240.8750    58.1620    23.1520    21.3190    20.6650    26.3220     2.2880   -16.2520 
  241.0000    60.3770    22.6900    20.6970    19.2190    26.1850     2.2940   -16.2390 
  241.1250    63.8520    22.0740    20.2510    18.8600    26.1330     2.2980   -16.2090 
