~V
VERS. 2.00: Ver 2.00
~W
STRT.M 60.0000:
STOP.M 271.0000:
STEP.M 0.1250:
NULL. -999.2500:
UWI. F10205:
~C
DEPT.M :
DEN.GM/CC :
GR.API :
RML.OHMM :
RI. :
RXO.OHMM :
CALI.CM :
SP.MV :
~A
# ...
  240.0000     2.4100    68.4340    28.1880    25.9960    28.8430    25.0140    -3.1200 
  240.1250     2.3600    67.3370    28.8920    26.9710    29.5590    25.0960    -3.0910 
  240.2500     2.2960    68.3460    28.5810    26.8480    29.5530    25.3170    -3.0220 
  240.3750     2.2490    69.4270    27.5930    25.9450    29.7240    25.4420    -2.9170 
  240.5000     2.2290    67.4550    26.3020    24.6590    29.8640    25.4100    -2.7900 
  240.6250     2.2290    64.1180    25.0390    23.3490    27.7960    25.3350    -2.6630 
  240.7500     2.2340    64.1800    24.0120    22.2390    25.7800    25.3130    -2.5520 
  240.8750     2.2400    65.9550    23.3530    21.4450    24.3460    25.3220    -2.4680 
  241.0000     2.2450    66.4880    23.1840    21.0670    23.2600    25.3100    -2.4180 
  241.1250     2.2490    66.6320    23.7090    21.3060    23.5610    25.3010    -2.3670 
  241.2500     2.2480    68.2430    24.8500    22.1510    24.0920    25.2990    -2.2900 
  241.3750     2.2410    69.4470    26.4780    23.5740    24.8450    25.3040    -2.1800 
  241.5000     2.2280    68.6060    28.2550    25.3540    26.7780    25.3190    -2.0580 
  241.6250     2.2160    65.4290    29.3930    26.8180    29.8360    25.3060    -1.9710 
  241.7500     2.2120    62.8350    29.1730    27.1290    33.4740    25.2860    -1.9110 
  241.8750     2.2230    64.7190    27.2280    25.7480    32.9780    25.2150    -1.8840 
  242.0000     2.2490    70.2120    23.8290    22.7880    29.9970    25.0920    -1.8930 
  242.1250     2.2820    76.0950    19.8990    19.0610    24.7310    25.0220    -1.8900 
  242.2500     2.3070    82.1500    16.5870    15.7480    18.2690    25.0210    -1.8710 
  242.3750     2.3200    88.7900    14.4240    13.3990    13.1400    25.0950    -1.8390 
  242.5000     2.3170    94.8430    13.5080    12.1510    11.6460    25.1550    -1.7710 
  242.6250     2.2990    94.4300    13.8410    12.0640    14.0860    25.1960    -1.6640 
  242.7500     2.2660    87.7500    14.9880    12.8200    18.1150    25.2580    -1.5570 
  242.8750     2.2240    77.8620    16.6710    14.2530    20.2130    25.3250    -1.4270 
  243.0000     2.1930    69.9430    18.4830    16.0560    17.7990    25.3520    -1.2340 
  243.1250     2.2000    68.7380    19.6920    17.5550    17.2450    25.3390    -1.0340 
  243.2500     2.2480    73.4540    19.7630    18.0540    20.6010    25.2930    -0.8700 
  243.3750     2.3160    80.4570    18.5140    17.2050    25.3170    25.1490    -0.7480 
  243.5000     2.3730    85.4030    16.2030    15.1930    26.9050    24.7820    -0.6480 
  243.6250     2.3910    83.8860    13.2530    12.6640    15.6150    24.3250    -0.5240 
  243.7500     2.3830    77.5410    10.4440    10.4230     8.1150    24.2970    -0.3550 
  243.8750     2.3670    71.2320     8.3980     8.7990     5.7340    24.4100    -0.1900 
  244.0000     2.3580    69.8680     7.4000     7.8440     5.5610    24.3980    -0.0980 
  244.1250     2.3590    73.4460     7.2830     7.5260     6.1120    24.3350    -0.1260 
  244.2500     2.3640    76.8760     7.4340     7.5670     6.6950    24.3510    -0.2170 
  244.3750     2.3720    77.2410     7.6720     7.7980     7.2610    24.3830    -0.3550 
  244.5000     2.3810    76.1690     7.9070     8.0730     7.9750    24.3540    -0.5620 
  244.6250     2.3890    75.5080     8.0670     8.2860     9.0370    24.2890    -0.8250 
  244.7500     2.3920    74.3120     8.1640     8.4240     9.7240    24.2760    -1.0960 
  244.8750     2.3910    73.0040     8.2270     8.5110     9.8010    24.3410    -1.3400 
  245.0000     2.3900    73.3620     8.2960     8.5820     9.7190    24.4810    -1.5200 
  245.1250     2.4000    78.3650     8.4210     8.6720     9.7410    24.6000    -1.5950 
  245.2500     2.4210    84.1280     8.6170     8.7890    10.1440    24.5800    -1.5780 
  245.3750     2.4460    86.1890     8.8740     8.9260    10.5060    24.4330    -1.4980 
  245.5000     2.4640    84.6810     9.1640     9.0710    10.7300    24.3040    -1.3430 
  245.6250     2.4650    81.1960     9.4460     9.2090    11.4630    24.2850    -1.1620 
  245.7500     2.4540    77.1600     9.6930     9.3310    12.5180    24.3510    -0.9890 
  245.8750     2.4430    74.3330     9.9010     9.4370    13.2220    24.5010    -0.8350 
  246.0000     2.4380    75.5670    10.0750     9.5280    12.9380    24.7470    -0.6970 
  246.1250     2.4440    81.4130    10.2180     9.6080    12.2750    24.9390    -0.5500 
  246.2500     2.4560    84.7570    10.3300     9.6790    11.9700    25.0560    -0.4040 
  246.3750     2.4690    83.4220    10.4010     9.7350    11.9360    25.0180    -0.2710 
  246.5000     2.4790    81.0620    10.4240     9.7670    11.5060    24.8450    -0.1410 
  246.6250     2.4820    81.0820    10.3960     9.7600    10.8520    24.6520     0.0070 
  246.7500     2.4760    81.0190    10.3490     9.7240    10.3990    24.5680     0.1730 
  246.8750     2.4640    77.5920    10.3080     9.6770    10.0690    24.5880     0.3720 
  247.0000     2.4510    73.6520    10.2950     9.6410     9.8150    24.5990     0.5910 
  247.1250     2.4480    74.9350    10.3300     9.6480     9.6330    24.5620     0.7900 
  247.2500     2.4540    78.3330    10.4130     9.7070     9.0610    24.5340     0.9510 
  247.3750     2.4650    80.8890    10.5430     9.8190     8.8830    24.3960     1.0900 
  247.5000     2.4740    81.5580    10.7170     9.9760     8.7640    23.9540     1.1770 
  247.6250     2.4730    82.2140    10.9300    10.1640     8.4780    23.2790     1.2350 
  247.7500     2.4640    82.5630    11.1560    10.3590     8.2610    22.4310     1.2540 
  247.8750     2.4490    80.5910    11.3760    10.5520     8.4550    21.6100     1.1940 
  248.0000     2.4350    77.0600    11.5700    10.7360     8.5470    21.0340     1.0800 
  248.1250     2.4280    72.5740    11.7140    10.9040     8.6420    20.9800     0.9470 
  248.2500     2.4300    71.1210    11.8030    11.0430     9.5080    21.1950     0.8420 
  248.3750     2.4370    74.3800    11.8400    11.1410    10.4680    21.5510     0.7770 
  248.5000     2.4410    80.7780    11.8430    11.1950    11.0690    21.7730     0.7680 
  248.6250     2.4370    86.0950    11.8480    11.2110    10.6150    22.1520     0.7610 
  248.7500     2.4290    87.3400    11.8900    11.2230     9.5990    22.4380     0.7290 
  248.8750     2.4230    85.9020    11.9900    11.2620     9.3060    22.7080     0.7190 
  249.0000     2.4250    83.6080    12.1540    11.3540     9.7420    23.0240     0.7380 
  249.1250     2.4300    82.3720    12.3740    11.5220    10.2480    23.2980     0.7790 
  249.2500     2.4330    80.9470    12.6050    11.7390    10.6910    23.5530     0.7870 
  249.3750     2.4350    79.2860    12.8060    11.9690    11.4930    23.8530     0.7440 
  249.5000     2.4400    79.5550    12.9420    12.1710    12.2200    24.1600     0.6520 
  249.6250     2.4510    82.5510    12.9860    12.3030    12.7480    24.2170     0.5210 
  249.7500     2.4640    85.1930    12.9740    12.3700    12.7070    24.0820     0.4300 
  249.8750     2.4770    86.3010    12.9430    12.3920    12.7620    23.9920     0.3520 
  250.0000     2.4850    87.4550    12.9230    12.3950    13.1280    24.0720     0.3170 
  250.1250     2.4910    88.1680    12.9320    12.4030    13.0520    24.1150     0.1550 
  250.2500     2.4970    85.5250    12.9510    12.4180    12.7800    24.1370     0.0460 
  250.3750     2.5020    82.7040    12.9640    12.4300    12.9670    24.1520    -0.0050 
  250.5000     2.5070    83.5510    12.9590    12.4240    13.5160    24.1660    -0.0550 
  250.6250     2.5120    85.2350    12.9410    12.3960    13.7110    24.1650    -0.1510 
  250.7500     2.5150    82.8640    12.9240    12.3600    13.4550    24.0330    -0.2630 
  250.8750     2.5130    77.7450    12.9200    12.3260    13.0290    23.7050    -0.3470 
  251.0000     2.5030    76.7840    12.9310    12.3000    12.9710    23.4040    -0.3850 
  251.1250     2.4840    80.5560    12.9500    12.2820    13.9230    23.3510    -0.3880 
