~V
VERS. 2.00: Ver 2.00
~W
STRT.M 40.0000:
STOP.M 276.0000:
STEP.M 0.1250:
NULL. -999.2500:
UWI. F10236:
~C
DEPT.M :
SP.MV :
GR.API :
RML.OHMM :
RI. :
RXO.OHMM :
CALI.CM :
DEN.GM/CC :
~A
# ...
  163.7500   -13.0390    77.9560    18.0790    17.6750    13.3580    24.4160     2.3130 
  163.8750   -12.9880    83.3140    15.7280    15.2870    10.8830    23.9660     2.3370 
  164.0000   -12.9620    87.8550    14.7140    14.0500    11.6110    23.4440     2.3450 
  164.1250   -12.9490    88.7220    14.8850    13.9010    12.9250    23.3210     2.3330 
  164.2500   -12.9880    87.1480    15.6850    14.4280    14.4900    23.6580     2.3180 
  164.3750   -13.0320    85.0750    16.7290    15.3430    16.5110    24.1510     2.3100 
  164.5000   -13.1120    82.9880    17.6470    16.3050    18.7860    24.5070     2.3090 
  164.6250   -13.1730    81.6250    18.1640    16.9750    18.0260    24.6350     2.3070 
  164.7500   -13.2640    81.0310    18.4060    17.3610    17.4890    24.6640     2.2980 
  164.8750   -13.3640    81.7490    18.5800    17.6080    16.9680    24.6620     2.2840 
  165.0000   -13.4700    82.7130    18.8670    17.8720    16.6410    24.6500     2.2710 
  165.1250   -13.5630    81.3050    19.3470    18.2390    17.1080    24.6380     2.2630 
  165.2500   -13.6530    80.0780    19.8480    18.5940    18.6440    24.6170     2.2600 
  165.3750   -13.7510    81.6940    20.1440    18.7490    20.2790    24.4860     2.2580 
  165.5000   -13.8410    85.9920    20.0670    18.5660    20.3160    24.0960     2.2580 
  165.6250   -13.9530    89.1800    19.5940    18.0410    18.8610    23.6660     2.2620 
  165.7500   -14.0500    89.3410    19.0320    17.4430    17.3960    23.6000     2.2690 
  165.8750   -14.1430    88.4710    18.6560    16.9880    16.3980    23.8470     2.2780 
  166.0000   -14.2300    89.0980    18.6490    16.8220    16.5940    24.0030     2.2830 
  166.1250   -14.3280    90.5970    19.0940    17.0350    17.6340    23.9580     2.2800 
  166.2500   -14.4060    90.1810    19.7970    17.5060    18.4730    23.9070     2.2750 
  166.3750   -14.4740    88.3490    20.6170    18.1330    18.9120    23.9230     2.2720 
  166.5000   -14.5330    86.9130    21.4640    18.8270    19.0170    24.0680     2.2730 
  166.6250   -14.6090    84.4580    22.3280    19.5420    19.3500    24.2510     2.2780 
  166.7500   -14.6810    80.0600    23.2310    20.2730    20.1240    24.3690     2.2830 
  166.8750   -14.7540    76.3610    24.1700    21.0240    21.0610    24.3600     2.2850 
  167.0000   -14.8180    76.1180    25.0920    21.7720    22.0240    24.2560     2.2800 
  167.1250   -14.8860    77.9740    25.8830    22.4340    22.9580    24.0920     2.2620 
  167.2500   -14.9570    78.4800    26.5120    22.9650    23.6330    24.0240     2.2350 
  167.3750   -15.0370    79.2180    27.0660    23.4090    24.0210    24.0410     2.2110 
  167.5000   -15.1210    83.0560    27.7680    23.9220    24.5270    24.0850     2.1980 
  167.6250   -15.1980    85.2150    28.9890    24.7850    24.8660    24.1010     2.1950 
  167.7500   -15.2730    81.0070    30.8350    26.1210    25.5340    24.1280     2.1960 
  167.8750   -15.3470    73.7050    33.2880    27.9710    27.4550    24.2460     2.1980 
  168.0000   -15.4240    69.1180    36.1330    30.2410    31.3780    24.4140     2.2030 
  168.1250   -15.4790    66.7050    38.8820    32.6430    35.5000    24.4130     2.2080 
  168.2500   -15.5270    63.8160    41.0290    34.7340    35.9640    24.2740     2.2120 
  168.3750   -15.5520    62.4350    42.3000    36.2140    34.2470    24.1630     2.2200 
  168.5000   -15.5870    63.5130    42.6380    36.9390    33.7350    24.2730     2.2350 
  168.6250   -15.5610    65.7580    41.9960    36.7770    35.7890    24.4820     2.2490 
  168.7500   -15.5370    68.1790    40.6520    35.9410    35.1570    24.5920     2.2570 
  168.8750   -15.4960    70.1760    38.7380    34.5410    32.9020    24.6020     2.2610 
  169.0000   -15.4570    70.5440    36.4720    32.7690    30.7500    24.5270     2.2650 
  169.1250   -15.4090    70.4050    34.3130    31.0030    27.6380    24.3990     2.2700 
  169.2500   -15.3800    71.5830    32.6810    29.6180    25.2820    24.2850     2.2730 
  169.3750   -15.3360    73.1240    31.6670    28.7390    24.3960    24.1250     2.2700 
  169.5000   -15.2900    73.7950    31.0660    28.2590    23.6340    24.0640     2.2610 
  169.6250   -15.2670    72.3140    30.4910    27.9370    25.5750    24.3440     2.2500 
  169.7500   -15.2460    69.7110    29.6090    27.4840    28.8220    24.7150     2.2380 
  169.8750   -15.2350    67.5870    28.3720    26.7870    27.2070    24.8790     2.2310 
  170.0000   -15.2150    68.3200    27.0020    25.9280    23.5970    24.9140     2.2350 
  170.1250   -15.2240    70.1100    25.9420    25.1820    22.0600    24.9420     2.2490 
  170.2500   -15.2350    70.1520    25.4150    24.7650    22.0330    24.9600     2.2600 
  170.3750   -15.2930    69.9690    25.4400    24.7490    22.5040    24.9740     2.2650 
  170.5000   -15.3470    71.8530    25.8620    25.0680    22.8730    24.9730     2.2680 
  170.6250   -15.4720    75.1540    26.3780    25.5120    23.2990    24.9520     2.2730 
  170.7500   -15.6060    76.9020    26.6480    25.7580    23.2100    24.9260     2.2800 
  170.8750   -15.7620    76.2950    26.4960    25.6020    22.6690    24.9090     2.2860 
  171.0000   -15.9370    75.7060    25.9060    24.9980    22.3010    24.8410     2.2900 
  171.1250   -16.1370    76.2610    25.1110    24.1270    23.1210    24.7850     2.2940 
  171.2500   -16.3480    77.5210    24.7160    23.5150    23.9990    24.7510     2.3040 
  171.3750   -16.5830    78.8860    25.4630    23.7400    23.5490    24.6990     2.3210 
  171.5000   -16.8330    80.1450    28.2350    25.4730    22.0090    24.6430     2.3410 
  171.6250   -17.0660    78.8850    34.5750    30.0790    24.2820    24.6280     2.3530 
  171.7500   -17.3140    74.3030    44.6760    38.1200    31.3320    24.5950     2.3450 
  171.8750   -17.5620    67.9040    58.2790    49.8460    42.8100    24.4350     2.3200 
  172.0000   -17.8070    62.9320    73.4250    63.9020    48.0640    24.1240     2.2860 
  172.1250   -18.0280    61.4320    84.8090    75.7290    42.0510    23.8300     2.2630 
  172.2500   -18.2370    63.5340    88.6670    81.2310    35.8340    23.6340     2.2600 
  172.3750   -18.3990    67.7290    85.5330    80.0110    32.7730    23.5950     2.2730 
  172.5000   -18.5620    71.1790    79.2720    74.9410    31.2540    23.6680     2.2930 
  172.6250   -18.6930    72.7310    74.0820    69.8310    32.6740    23.7870     2.3070 
  172.7500   -18.8210    73.8510    71.5780    66.8180    34.0570    23.9910     2.3110 
  172.8750   -18.9480    74.1060    72.0510    66.4450    34.9540    24.2500     2.3080 
  173.0000   -19.0910    71.2310    75.4430    68.7860    36.8590    24.4810     2.2970 
  173.1250   -19.2480    65.9410    81.9800    74.2300    44.4350    24.6690     2.2840 
  173.2500   -19.4110    62.7400    90.6090    81.9840    63.0260    24.8630     2.2720 
  173.3750   -19.5690    62.6130   100.1920    91.1270    85.8130    25.0820     2.2620 
  173.5000   -19.7180    62.8250   109.0990   100.1880   100.4730    25.3770     2.2530 
  173.6250   -19.8630    61.7190   115.0340   107.0110   103.2010    25.5660     2.2490 
  173.7500   -19.9950    61.2330   117.3140   110.6390   107.4760    25.6190     2.2500 
  173.8750   -20.1000    61.3450   115.9210   110.7970   106.7650    25.5990     2.2510 
  174.0000   -20.1680    61.2460   111.4570   107.8540   103.4400    25.5800     2.2530 
  174.1250   -20.2020    60.6800   104.6130   102.2200   108.7300    25.5800     2.2550 
  174.2500   -20.2190    60.1720    96.9760    95.3290   108.6830    25.5410     2.2590 
  174.3750   -20.2490    59.6850    89.7190    88.3130    94.8740    25.4910     2.2670 
  174.5000   -20.2630    60.8540    83.7800    82.2200    78.0860    25.4570     2.2770 
  174.6250   -20.3070    64.5300    79.9290    77.9700    70.5130    25.4430     2.2870 
  174.7500   -20.3110    66.2040    77.7930    75.4040    68.5990    25.4180     2.2950 
  174.8750   -20.3200    64.4400    76.9500    74.2450    70.1700    25.3630     2.2970 
