~V
VERS. 2.00: Ver 2.00
~W
STRT.M 55.0000:
STOP.M 276.0000:
STEP.M 0.1250:
NULL. -999.2500:
UWI. F10239:
~C
DEPT.M :
SP.MV :
DEN.GM/CC :
GR.API :
RML.OHMM :
RI. :
RXO.OHMM :
CALI.CM :
~A
# ...
  201.2500   -23.7960     2.5710    55.2690   105.4300   102.8440   118.6130    24.4790 
  201.3750   -23.4070     2.6100    55.3150    94.0950    92.2590    96.2640    24.5820 
  201.5000   -23.0270     2.6300    54.4960    86.4440    84.2150    68.6930    24.6940 
  201.6250   -22.6650     2.6490    53.5210    81.6550    78.9620    55.9990    24.8180 
  201.7500   -22.3520     2.6680    53.0780    75.1530    72.4390    60.5400    24.8670 
  201.8750   -22.0960     2.6750    53.9860    62.7950    60.1970    79.5680    24.8010 
  202.0000   -21.8840     2.6530    56.2800    45.6930    43.3890    94.3470    24.6290 
  202.1250   -21.6990     2.5780    57.3950    29.2590    27.6740    71.9590    24.5310 
  202.2500   -21.4940     2.4540    55.7960    18.0870    17.2250    29.3610    24.6650 
  202.3750   -21.2430     2.3430    53.5470    11.6150    11.0620    11.5680    25.0820 
  202.5000   -20.9980     2.2790    52.8990     8.1190     7.7330     6.1760    25.6010 
  202.6250   -20.7960     2.2470    54.0120     6.4090     6.1040     5.4990    25.9030 
  202.7500   -20.6250     2.2060    55.1510     5.7870     5.5120     5.9150    25.9550 
  202.8750   -20.4700     2.1520    54.8310     5.6800     5.4100     5.7610    26.0710 
  203.0000   -20.3380     2.1000    52.9610     5.8400     5.5620     5.4030    26.3070 
  203.1250   -20.2400     2.0570    50.8820     6.0880     5.7970     5.3520    26.5590 
  203.2500   -20.2160     2.0300    49.2270     6.3150     6.0150     5.4730    26.7030 
  203.3750   -20.2660     2.0130    47.8720     6.4910     6.1810     5.4710    26.8330 
  203.5000   -20.3410     1.9890    47.3820     6.6060     6.2920     5.5800    27.2130 
  203.6250   -20.3780     1.9490    47.0480     6.6590     6.3420     5.6690    27.9710 
  203.7500   -20.3640     1.9050    46.2020     6.6470     6.3310     5.5640    28.6820 
  203.8750   -20.3270     1.8750    45.9790     6.5920     6.2780     5.5610    28.9910 
  204.0000   -20.2940     1.8590    46.6220     6.5090     6.1990     5.6040    29.1430 
  204.1250   -20.2880     1.8580    46.5450     6.4080     6.1030     5.6050    29.2660 
  204.2500   -20.3180     1.8770    43.6610     6.3010     6.0010     5.6280    29.4310 
  204.3750   -20.3860     1.9150    40.5440     6.2020     5.9070     5.8250    29.7190 
  204.5000   -20.4830     1.9810    39.5410     6.1200     5.8290     5.8020    29.8700 
  204.6250   -20.6260     2.0810    40.1440     6.0590     5.7720     5.5640    29.8840 
  204.7500   -20.8390     2.2010    40.4810     6.0140     5.7350     5.2900    29.6360 
  204.8750   -21.1160     2.2940    39.9300     5.9800     5.7010     5.1300    29.2890 
  205.0000   -21.4510     2.3370    39.7410     5.9500     5.6570     5.0380    28.8340 
  205.1250   -21.8440     2.3420    40.7140     5.9670     5.5990     5.0030    28.2770 
  205.2500   -22.3110     2.3350    43.2720     6.0160     5.5360     4.9590    27.6630 
  205.3750   -22.8600     2.3210    47.3900     6.0920     5.4950     5.0400    27.2000 
  205.5000   -23.5270     2.2890    51.1920     6.1980     5.5080     5.2810    27.0590 
  205.6250   -24.3320     2.2370    52.7890     6.4360     5.6100     5.6220    27.2420 
  205.7500   -25.2620     2.1890    54.1810     6.8390     5.8370     5.9320    27.4860 
  205.8750   -26.2630     2.1680    59.3510     7.3520     6.1700     6.4490    27.6730 
  206.0000   -27.3160     2.1750    67.3400     7.8930     6.5630     7.3980    27.7260 
  206.1250   -28.4270     2.1940    73.8680     8.3320     6.9230     8.4670    27.6420 
  206.2500   -29.5710     2.1990    77.2650     8.5290     7.1310     8.6910    27.4710 
  206.3750   -30.7070     2.1750    81.5440     8.4870     7.1540     8.1300    27.0800 
  206.5000   -31.8070     2.1370    86.6730     8.2930     7.0370     7.1950    26.2840 
  206.6250   -32.8470     2.1280    89.3160     8.1070     6.8890     6.3070    25.4190 
  206.7500   -33.7840     2.1820    88.3170     8.0930     6.8400     5.9080    25.3670 
  206.8750   -34.6770     2.2680    86.4870     8.2940     6.9490     6.3320    25.9660 
  207.0000   -35.5430     2.3420    85.8180     8.6660     7.2120     7.2470    26.7280 
  207.1250   -36.3440     2.3780    85.0410     9.1070     7.5720     8.1290    27.2660 
  207.2500   -37.0480     2.3850    81.7650     9.4770     7.9200     8.7250    27.4450 
  207.3750   -37.6420     2.3850    77.1220     9.6730     8.1440     9.0080    27.4640 
  207.5000   -38.0920     2.3760    73.9000     9.6570     8.1780     9.0660    27.4340 
  207.6250   -38.3920     2.3510    74.7770     9.4490     8.0190     8.9260    27.3730 
  207.7500   -38.5850     2.3170    78.5560     9.1130     7.7170     8.5020    27.2600 
  207.8750   -38.7050     2.2950    81.7560     8.7630     7.3870     7.9090    27.1380 
  208.0000   -38.7540     2.2960    84.0960     8.4790     7.1050     7.5740    27.0900 
  208.1250   -38.7290     2.3090    85.9060     8.3200     6.9270     7.6180    27.0800 
  208.2500   -38.6080     2.3120    85.9240     8.3160     6.8870     7.8110    26.9910 
  208.3750   -38.3860     2.3060    82.8810     8.4470     6.9590     8.0360    26.8600 
  208.5000   -38.0670     2.3070    77.1300     8.7290     7.1440     8.2110    26.7260 
  208.6250   -37.6280     2.3290    71.1640     9.2320     7.4830     8.4210    26.5880 
  208.7500   -36.9970     2.3700    67.9220    10.0410     8.0430     8.8570    26.4490 
  208.8750   -36.1310     2.4180    69.6010    11.0580     8.7810     9.7360    26.3190 
  209.0000   -35.0210     2.4580    74.2780    12.0490     9.5540    11.1650    26.2010 
  209.1250   -33.7350     2.4690    77.1090    12.6350    10.0950    13.3750    26.0910 
  209.2500   -32.3810     2.4360    76.8130    12.4210    10.0860    15.6970    26.0100 
  209.3750   -31.0250     2.3810    78.1730    11.5050     9.5310    14.5860    26.0280 
  209.5000   -29.6890     2.3320    82.0360    10.2330     8.6380    10.7950    26.2240 
  209.6250   -28.4070     2.3000    85.3850     9.0630     7.7270     8.4410    26.5420 
  209.7500   -27.2190     2.2940    85.8670     8.3650     7.0780     7.8010    26.7450 
  209.8750   -26.1910     2.3180    85.0040     8.1830     6.7830     7.7280    26.6750 
  210.0000   -25.3740     2.3670    83.2390     8.4530     6.8510     7.8280    26.3150 
  210.1250   -24.7240     2.4160    80.5280     9.0150     7.2130     8.2400    25.8420 
  210.2500   -24.1210     2.4400    78.6370     9.6310     7.7240     8.7340    25.5400 
  210.3750   -23.4910     2.4380    78.6260    10.0300     8.1550     9.3610    25.2780 
  210.5000   -22.8060     2.4130    78.9400    10.0390     8.3270     9.7910    25.0010 
  210.6250   -22.0260     2.3670    77.9020     9.5950     8.1400     9.3400    24.7260 
  210.7500   -21.1580     2.3050    74.2500     8.7890     7.6120     8.2750    24.5020 
  210.8750   -20.2260     2.2260    68.6330     7.9080     6.9490     7.3150    24.4520 
  211.0000   -19.2080     2.1290    61.9290     7.1350     6.3100     6.7660    24.6060 
  211.1250   -18.1070     2.0410    56.2950     6.5700     5.8050     6.2190    24.9260 
  211.2500   -17.0020     2.0040    54.8800     6.2480     5.4980     5.6980    25.3830 
  211.3750   -15.9660     2.0170    56.8850     6.1070     5.3630     5.3940    25.7530 
  211.5000   -15.0700     2.0710    60.9960     6.1140     5.3730     5.2330    25.6510 
  211.6250   -14.3530     2.1580    67.0120     6.2430     5.4990     5.1870    25.2400 
  211.7500   -13.7820     2.2570    72.9760     6.4650     5.7040     5.3480    24.6350 
  211.8750   -13.2750     2.3340    76.6880     6.7090     5.9290     5.6290    24.3300 
  212.0000   -12.8400     2.3700    77.3650     6.9020     6.1170     6.0170    24.3480 
  212.1250   -12.5070     2.3770    75.8850     6.9750     6.2120     6.3720    24.5400 
  212.2500   -12.2770     2.3690    73.1000     6.8770     6.1640     6.4620    24.6270 
  212.3750   -12.1130     2.3570    71.2520     6.6420     5.9920     6.1790    24.6240 
