~V
VERS. 2.00: Ver 2.00
~W
STRT.M 57.0000:
STOP.M 281.0000:
STEP.M 0.1250:
NULL. -999.2500:
UWI. F10238:
~C
DEPT.M :
GR.API :
RML.OHMM :
RI. :
RXO.OHMM :
CALI.CM :
DEN.GM/CC :
SP.MV :
~A
# ...
  203.2500    52.1780    10.7410     8.3520     9.0480    24.2010     2.4120   -16.9410 
  203.3750    51.4450    11.0910     8.6860     9.0510    24.0220     2.3910   -17.0110 
  203.5000    48.9780    11.0490     8.7360     9.1700    23.9290     2.3690   -17.1200 
  203.6250    46.6010    10.7110     8.5360     9.2460    23.8770     2.3480   -17.2580 
  203.7500    46.3370    10.2560     8.2000     8.8270    23.8990     2.3370   -17.4170 
  203.8750    47.5690     9.8760     7.8730     7.9040    24.0730     2.3470   -17.5770 
  204.0000    47.6250     9.6840     7.6600     7.1690    24.3460     2.3760   -17.7260 
  204.1250    47.0910     9.6740     7.5780     7.2410    24.5640     2.4100   -17.8540 
  204.2500    48.1570     9.7270     7.5630     8.4180    24.6490     2.4220   -17.9640 
  204.3750    50.1770     9.6770     7.5070     9.7920    24.6340     2.3990   -18.0490 
  204.5000    51.2500     9.4440     7.3380    10.0080    24.6000     2.3590   -18.1200 
  204.6250    51.7910     9.0930     7.0770     8.6010    24.5790     2.3250   -18.1940 
  204.7500    53.2460     8.8030     6.8210     6.9760    24.4910     2.3200   -18.2740 
  204.8750    57.0560     8.7440     6.6750     6.5320    24.2830     2.3510   -18.3750 
  205.0000    64.9030     8.9420     6.6830     7.1220    24.0280     2.3920   -18.5020 
  205.1250    75.4450     9.3280     6.8300     8.1850    23.8430     2.4140   -18.6800 
  205.2500    83.0460     9.7740     7.0580     8.6640    23.8360     2.4030   -18.8920 
  205.3750    84.3210    10.1650     7.3000     8.3590    23.9970     2.3720   -19.1400 
  205.5000    82.8480    10.4710     7.5130     7.9670    24.2330     2.3460   -19.4170 
  205.6250    82.8590    10.7200     7.6960     8.1440    24.4740     2.3360   -19.7120 
  205.7500    83.2000    10.9640     7.8640     8.8700    24.6370     2.3440   -20.0240 
  205.8750    80.5530    11.2300     8.0360     9.6540    24.6880     2.3590   -20.3480 
  206.0000    75.7280    11.5230     8.2200    10.2260    24.6620     2.3670   -20.6690 
  206.1250    72.3760    11.8490     8.4210    10.6580    24.6110     2.3690   -20.9790 
  206.2500    72.0690    12.2240     8.6480    11.3360    24.5660     2.3710   -21.2770 
  206.3750    72.9960    12.6160     8.8890    12.2420    24.5330     2.3790   -21.5550 
  206.5000    73.3940    12.9060     9.0770    13.2810    24.4980     2.3920   -21.8210 
  206.6250    73.2900    12.9520     9.1220    13.9650    24.4740     2.4050   -22.0790 
  206.7500    72.9890    12.6620     8.9530    13.7390    24.4600     2.4080   -22.3270 
  206.8750    73.8680    12.1040     8.5940    12.1960    24.4350     2.3990   -22.5720 
  207.0000    76.4880    11.5170     8.1870    10.1570    24.3950     2.3820   -22.8620 
  207.1250    78.8680    11.1120     7.8730     9.0950    24.3280     2.3570   -23.2060 
  207.2500    79.9610    11.0520     7.7730     9.5470    24.1670     2.3240   -23.6200 
  207.3750    80.9830    11.3760     7.9390    10.8960    23.9110     2.2840   -24.0830 
  207.5000    82.9050    11.9730     8.3090    12.1660    23.7270     2.2480   -24.5390 
  207.6250    83.1870    12.6900     8.7800    13.1520    23.6560     2.2310   -24.9340 
  207.7500    79.4340    13.2860     9.1790    14.0260    23.4960     2.2390   -25.2120 
  207.8750    75.2890    13.5200     9.3270    14.5860    23.1940     2.2640   -25.3390 
  208.0000    74.2180    13.3120     9.1640    14.0640    23.0610     2.2860   -25.2750 
  208.1250    74.0710    12.7330     8.7350    12.4630    23.3140     2.2970   -25.0230 
  208.2500    73.6960    12.0060     8.1770    11.0450    23.7730     2.2980   -24.6060 
  208.3750    75.8480    11.4090     7.6660    10.3240    24.1670     2.2960   -24.0910 
  208.5000    80.8290    11.1390     7.3410     9.6780    24.4210     2.2960   -23.5710 
  208.6250    84.1960    11.2840     7.2840     9.4270    24.5120     2.2930   -23.1160 
  208.7500    83.2620    11.9000     7.5690    10.1900    24.4540     2.2850   -22.7850 
  208.8750    79.5100    13.0270     8.2490    12.2180    24.3080     2.2750   -22.5740 
  209.0000    75.4800    14.7100     9.3370    15.2430    24.1660     2.2720   -22.4170 
  209.1250    73.0580    17.1450    10.9190    18.7180    24.0820     2.2860   -22.2530 
  209.2500    72.7220    20.6550    13.1860    22.1100    24.0610     2.3280   -21.9830 
  209.3750    71.4430    25.2510    16.2430    26.5490    24.1250     2.4040   -21.5210 
  209.5000    67.1010    30.0020    19.6770    32.8320    24.2470     2.4990   -20.8300 
  209.6250    62.3900    33.1240    22.4190    40.8340    24.3650     2.5740   -19.8960 
  209.7500    61.2430    32.3330    22.7490    49.1890    24.4350     2.5930   -18.7340 
  209.8750    64.1780    27.2520    20.0120    47.9950    24.4630     2.5520   -17.3830 
  210.0000    67.4030    20.5180    15.7670    31.5160    24.4890     2.4880   -15.9590 
  210.1250    66.5560    14.5830    11.6950    15.0130    24.5430     2.4310   -14.5440 
  210.2500    60.2640    10.6790     8.7570     7.7280    24.6060     2.4040   -13.2400 
  210.3750    53.3500     8.7200     7.0500     6.2880    24.6330     2.4030   -12.1090 
  210.5000    52.4230     7.9510     6.1990     6.2970    24.6300     2.4060   -11.1750 
  210.6250    58.6370     7.8910     5.9470     6.4050    24.6030     2.4030   -10.4460 
  210.7500    67.7680     8.1280     6.0520     6.3330    24.5740     2.3940    -9.9150 
  210.8750    74.9020     8.3390     6.2720     6.2020    24.5690     2.3810    -9.5760 
  211.0000    78.8930     8.3820     6.4270     6.0940    24.5710     2.3640    -9.3750 
  211.1250    79.7710     8.2790     6.4710     5.9590    24.5650     2.3440    -9.2720 
  211.2500    77.3190     8.0980     6.4220     5.8410    24.5610     2.3250    -9.2330 
  211.3750    73.4020     7.8880     6.3130     5.8630    24.5700     2.3140    -9.2360 
  211.5000    71.6450     7.6700     6.1680     5.9620    24.5640     2.3120    -9.2650 
  211.6250    72.1610     7.4440     5.9910     5.9660    24.4990     2.3160    -9.3070 
  211.7500    71.7930     7.2050     5.7810     5.7940    24.4360     2.3160    -9.3490 
  211.8750    69.9920     6.9620     5.5570     5.5360    24.4680     2.3100    -9.3920 
  212.0000    69.7860     6.7480     5.3550     5.3020    24.5210     2.2990    -9.4450 
  212.1250    71.6200     6.6020     5.2080     5.1800    24.5450     2.2870    -9.5150 
  212.2500    72.7710     6.5580     5.1460     5.2530    24.5500     2.2790    -9.5950 
  212.3750    71.5390     6.6300     5.1730     5.4600    24.5490     2.2770    -9.6900 
  212.5000    69.8330     6.7960     5.2620     5.6120    24.5400     2.2790    -9.7980 
  212.6250    69.0600     7.0320     5.3960     5.7470    24.5140     2.2820    -9.9040 
  212.7500    69.8550     7.2990     5.5530     5.9420    24.4840     2.2840   -10.0170 
  212.8750    72.1750     7.5520     5.7080     6.1980    24.4720     2.2850   -10.1280 
  213.0000    73.7160     7.7730     5.8430     6.5680    24.4680     2.2860   -10.2410 
  213.1250    72.9530     7.9920     5.9610     6.9400    24.4650     2.2860   -10.3440 
  213.2500    71.3210     8.2790     6.0890     7.0460    24.4610     2.2870   -10.4540 
  213.3750    71.0180     8.6840     6.2610     6.8940    24.4600     2.2880   -10.5630 
  213.5000    70.5000     9.1570     6.4740     6.9960    24.4630     2.2870   -10.6720 
  213.6250    68.5590     9.5900     6.6860     7.6900    24.4650     2.2850   -10.8040 
  213.7500    68.0480     9.8730     6.8340     8.8310    24.4650     2.2830   -10.9540 
  213.8750    69.8300    10.0240     6.9130     9.4610    24.4630     2.2840   -11.1200 
  214.0000    71.2600    10.2340     7.0150     8.7710    24.4580     2.2860   -11.2950 
  214.1250    71.1180    10.7600     7.2790     7.6690    24.4320     2.2850   -11.4880 
  214.2500    69.8130    11.9020     7.8890     8.0270    24.3390     2.2760   -11.6880 
  214.3750    68.2280    13.8080     8.9860    10.8170    24.1590     2.2600   -11.8880 
