~V
VERS. 2.00: Ver 2.00
~W
STRT.M 56.0000:
STOP.M 275.0000:
STEP.M 0.1250:
NULL. -999.2500:
UWI. F10253:
~C
DEPT.M :
GR.API :
RML.OHMM :
RI. :
RXO.OHMM :
CALI.CM :
DEN.GM/CC :
SP.MV :
~A
# ...
  258.5000    47.2350     6.2720     5.0990     5.1140    24.2680     2.3570    -5.8790 
  258.6250    48.5280     6.2890     5.1280     5.2620    24.3650     2.3470    -5.8940 
  258.7500    50.0830     6.3250     5.1710     5.3290    24.4090     2.3360    -5.9510 
  258.8750    49.7180     6.4490     5.2760     5.3800    24.3370     2.3250    -6.0490 
  259.0000    49.3390     6.6990     5.4720     5.5760    24.2360     2.3150    -6.1360 
  259.1250    50.5730     7.0810     5.7720     6.2660    24.2480     2.3090    -6.1440 
  259.2500    51.7250     7.5550     6.1550     8.0430    24.3030     2.3120    -6.1130 
  259.3750    50.2700     8.0240     6.5600    11.2870    24.2110     2.3270    -6.1210 
  259.5000    48.9000     8.3780     6.9020    15.1600    24.0690     2.3500    -6.1840 
  259.6250    49.7850     8.5620     7.1230    18.5270    24.0290     2.3740    -6.2290 
  259.7500    51.7470     8.5760     7.2100    19.3530    24.0480     2.3920    -6.2440 
  259.8750    51.1230     8.4720     7.1810    17.4320    24.0210     2.3960    -6.2840 
  260.0000    49.1650     8.3490     7.1160    15.5500    23.9410     2.3900    -6.3150 
  260.1250    49.0600     8.2530     7.0550    14.2800    23.9140     2.3810    -6.3740 
  260.2500    51.3430     8.1910     7.0120    12.9330    23.9460     2.3750    -6.4850 
  260.3750    53.4870     8.1410     6.9800    10.8260    24.0110     2.3780    -6.5510 
  260.5000    54.5210     8.0740     6.9400     7.9060    24.0400     2.3860    -6.5960 
  260.6250    54.5820     7.9840     6.8850     6.5790    24.0380     2.3950    -6.6460 
  260.7500    53.9020     7.8790     6.8170     6.2390    24.0140     2.4020    -6.7070 
  260.8750    52.8880     7.7730     6.7450     6.1660    23.9770     2.4050    -6.7170 
  261.0000    52.4810     7.6810     6.6800     6.1180    23.9520     2.4050    -6.7300 
  261.1250    53.4120     7.6140     6.6320     6.0650    23.9620     2.4040    -6.7340 
  261.2500    54.6510     7.5760     6.6080     5.9710    24.0140     2.4030    -6.7160 
  261.3750    54.7650     7.5660     6.6110     5.7620    24.0990     2.4050    -6.7140 
  261.5000    53.6450     7.5610     6.6250     5.4430    24.1700     2.4080    -6.7120 
  261.6250    52.0760     7.5450     6.6360     5.1920    24.1790     2.4100    -6.7050 
  261.7500    51.0000     7.5090     6.6350     5.1680    24.1380     2.4110    -6.6830 
  261.8750    50.7870     7.4620     6.6240     5.3590    24.1200     2.4160    -6.6730 
  262.0000    51.4960     7.4230     6.6160     5.6530    24.1330     2.4230    -6.6630 
  262.1250    52.2710     7.4050     6.6210     6.0120    24.1850     2.4300    -6.6710 
  262.2500    52.2050     7.4080     6.6430     6.2630    24.2870     2.4310    -6.6860 
  262.3750    51.9950     7.4260     6.6810     6.2000    24.4210     2.4190    -6.6740 
  262.5000    52.8360     7.4520     6.7270     5.9890    24.4710     2.3980    -6.6660 
  262.6250    54.3500     7.4810     6.7780     5.8060    24.3950     2.3770    -6.6710 
  262.7500    55.8340     7.5120     6.8310     5.7060    24.3570     2.3640    -6.7070 
  262.8750    56.3970     7.5470     6.8850     5.6550    24.4100     2.3650    -6.7610 
  263.0000    55.6820     7.5950     6.9480     5.6020    24.4630     2.3730    -6.7970 
  263.1250    53.3460     7.6670     7.0280     5.4980    24.4500     2.3800    -6.7960 
  263.2500    50.7710     7.7750     7.1400     5.4050    24.5380     2.3810    -6.7950 
  263.3750    50.3800     7.9350     7.3020     5.3150    24.8010     2.3700    -6.8360 
  263.5000    51.6580     8.1410     7.5110     5.2250    25.0080     2.3470    -6.8760 
  263.6250    52.7220     8.3950     7.7720     5.2020    25.0260     2.3180    -6.9080 
  263.7500    52.4000     8.7040     8.0920     5.2720    24.9260     2.2880    -6.8840 
  263.8750    51.9960     9.0850     8.4850     5.4160    24.7970     2.2690    -6.8370 
  264.0000    53.2010     9.5120     8.9230     5.5610    24.6540     2.2680    -6.8180 
  264.1250    54.7480     9.9410     9.3680     5.7630    24.4440     2.2880    -6.8360 
  264.2500    55.4290    10.3190     9.7710     6.0910    24.1990     2.3230    -6.8500 
  264.3750    54.9620    10.5880    10.0740     6.4320    24.1320     2.3580    -6.8110 
  264.5000    54.9620    10.7640    10.2880     6.6610    24.2530     2.3760    -6.7630 
  264.6250    54.9620    10.8810    10.4430     6.8450    24.4310     2.3690    -6.7330 
  264.7500    54.9620    10.9810    10.5750     7.0110    24.3480     2.3440    -6.7190 
  264.8750    54.9620    11.0930    10.7180     7.1010    24.0490     2.3200    -6.7180 
  265.0000    54.9620    11.2230    10.8800     6.7260    23.9340     2.3130    -6.6990 
  265.1250    54.9620    11.3640    11.0570     6.3950    24.0350     2.3220    -6.6840 
  265.2500    54.9620    11.5050    11.2380     6.3270    24.1680     2.3360    -6.6420 
  265.3750    54.9620    11.6260    11.4040     6.5250    24.1270     2.3400    -6.6100 
  265.5000    54.9620    11.7120    11.5400     7.0060    24.0230     2.3320    -6.6130 
  265.6250    54.9620    11.7540    11.6340     7.8390    23.9000     2.3220    -6.6170 
  265.7500    54.9620    11.7440    11.6810     8.6380    23.7990     2.3180    -6.6270 
  265.8750    54.9620    11.6810    11.6770     9.2510    23.7620     2.3290    -6.6460 
  266.0000    54.9620    11.5920    11.6440     9.7470    23.7450     2.3450    -6.6530 
  266.1250    54.9620    11.4980    11.6040    10.3990    23.7110     2.3630    -6.6320 
  266.2500    54.9620    11.4210    11.5750    11.4180    23.6780     2.3800    -6.6420 
  266.3750    54.9620    11.3850    11.5840    12.3780    23.6570     2.3960    -6.7240 
  266.5000    54.9620    11.3880    11.6310    13.3790    23.6430     2.4080    -6.7960 
  266.6250    54.9620    11.4240    11.7130    13.9010    23.6300     2.4180    -6.8410 
  266.7500    54.9620    11.4790    11.8180    12.7100    23.5910     2.4250    -6.8770 
  266.8750    54.9620    11.5360    11.9270    11.2700    23.5260     2.4310    -6.8990 
  267.0000    54.9620    11.5800    12.0260    10.6350    23.4330     2.4370    -6.9820 
  267.1250    54.9620    11.6070    12.1040    10.7170    23.4550     2.4430    -7.0880 
  267.2500    54.9620    11.6190    12.1590    11.1480    23.5820     2.4500    -7.1550 
  267.3750    54.9620    11.6180    12.1940    11.9400    23.6550     2.4570    -7.1660 
  267.5000    54.9620    11.6110    12.2140    12.6450    23.6580     2.4640    -7.1680 
  267.6250    54.9620    11.6000    12.2250    13.1090    23.6420     2.4670    -7.1750 
  267.7500    54.9620    11.5870    12.2280    13.1620    23.6660     2.4650    -7.2310 
  267.8750    54.9620    11.5750    12.2240    12.5060    23.7590     2.4540    -7.2680 
  268.0000    54.9620    11.5650    12.2170    11.7540    23.8240     2.4380    -7.2810 
  268.1250    54.9620    11.5560    12.2100    11.2370    23.8760     2.4210    -7.2710 
  268.2500    54.9620    11.5490    12.2040    10.8080    23.8970     2.4110    -7.2770 
  268.3750    54.9620    11.5420    12.2000    10.3040    23.8220     2.4100    -7.3060 
  268.5000    54.9620    11.5370    12.1970    10.0770    23.7040     2.4160    -7.2870 
  268.6250    54.9620    11.5350    12.1960    10.3100    23.4440     2.4220    -7.2770 
  268.7500    54.9620    11.5350    12.1950    10.9850    23.0160     2.4220    -7.2430 
  268.8750    54.9620    11.5370    12.1960    12.4900    22.5100     2.4150    -7.2180 
  269.0000    54.9620    11.5370    12.1990    13.4920    21.7460     2.4060    -7.2020 
  269.1250    54.9620    11.5350    12.2030    13.2220    20.7030     2.3990    -7.2130 
  269.2500    54.9620    11.5320    12.2060    11.6840    19.7110     2.3930    -7.2220 
  269.3750    54.9620    11.5280    12.2060     9.7630    18.7880     2.3840    -7.1990 
  269.5000    54.9620    11.5270    12.2050     8.5460    17.9160     2.3680    -7.2380 
  269.6250    54.9620    11.5280    12.2010     7.8720    17.1480     2.3530    -7.2680 
