~V
VERS. 2.00: Ver 2.00
~W
STRT.M 50.0000:
STOP.M 284.0000:
STEP.M 0.1250:
NULL. -999.2500:
UWI. F10254:
~C
DEPT.M :
GR.API :
RML.OHMM :
RI. :
RXO.OHMM :
CALI.CM :
DEN.GM/CC :
SP.MV :
~A
# ...
  275.0000    82.6980     5.5080     5.2810     6.0540    25.2480     2.3640     3.3190 
  275.1250    82.6980     5.5250     5.3350     5.9780    25.2190     2.3640     3.1910 
  275.2500    82.6980     5.5500     5.3980     5.9780    25.1920     2.3650     3.0690 
  275.3750    82.6980     5.5750     5.4600     6.1040    25.1610     2.3690     2.9270 
  275.5000    82.6980     5.5980     5.5170     6.2550    25.1420     2.3760     2.7720 
  275.6250    82.6980     5.6170     5.5700     6.2930    25.1240     2.3820     2.7040 
  275.7500    82.6980     5.6390     5.6240     6.2910    25.0880     2.3840     2.7010 
  275.8750    82.6980     5.6620     5.6800     6.3270    25.0360     2.3800     2.7360 
  276.0000    82.6980     5.6840     5.7340     6.4350    25.0000     2.3730     2.7920 
  276.1250    82.6980     5.7040     5.7770     6.5210    25.0110     2.3630     2.8470 
  276.2500    82.6980     5.7270     5.8100     6.5700    25.0330     2.3560     2.8960 
  276.3750    82.6980     5.7670     5.8420     6.5840    25.0440     2.3510     2.9550 
  276.5000    82.6980     5.8280     5.8780     6.4670    25.0260     2.3510     3.0000 
  276.6250    82.6980     5.8990     5.9090     6.7030    25.0210     2.3560     2.9690 
  276.7500    82.6980     5.9500     5.9190     7.0890    25.0380     2.3690     2.8630 
  276.8750    82.6980     5.9560     5.8900     7.3950    25.0590     2.3870     2.7380 
  277.0000    82.6980     5.9060     5.8190     7.4300    25.0680     2.4090     2.6290 
  277.1250    82.6980     5.8480     5.7510     7.1770    25.0480     2.4240     2.5200 
  277.2500    82.6980     5.9180     5.7920     7.0880    25.0100     2.4310     2.3880 
  277.3750    82.6980     6.2860     6.0760     7.5670    25.0120     2.4340     2.2270 
  277.5000    82.6980     7.1350     6.7490     8.8560    25.1230     2.4450     2.0490 
  277.6250    82.6980     8.7730     8.0950    12.9910    25.1900     2.4710     1.8540 
  277.7500    82.6980    11.2000    10.1970    20.3000    25.0970     2.5020     1.6590 
  277.8750    82.6980    14.3030    13.0840    25.2050    24.9470     2.5270     1.4490 
  278.0000    82.6980    17.6740    16.5040    27.1930    24.8570     2.5330     1.2290 
  278.1250    82.6980    20.4780    19.7270    28.9000    24.9100     2.5160     1.0190 
  278.2500    82.6980    22.2240    22.0640    29.3490    24.9290     2.4860     0.8060 
  278.3750    82.6980    22.9370    23.3340    30.4940    24.9160     2.4550     0.5630 
  278.5000    82.6980    22.9810    23.8030    31.7500    24.9230     2.4370     0.3300 
  278.6250    82.6980    22.7680    23.8590    38.8460    24.8920     2.4530     0.1710 
  278.7500    82.6980    22.5810    23.8320    44.0900    24.8030     2.5010     0.0660 
  278.8750    82.6980    22.4760    23.7970    50.8980    24.7180     2.5700    -0.0040 
  279.0000    82.6980    22.4560    23.7810    80.2510    24.6630     2.6340    -0.0350 
  279.1250    82.6980    22.4860    23.7830   112.4320    24.6850     2.6550    -0.0520 
  279.2500    82.6980    22.5180    23.7900   117.4920    24.7150     2.6220    -0.0670 
  279.3750    82.6980    22.5420    23.7960    85.9460    24.7300     2.5440    -0.0520 
  279.5000    82.6980    22.5590    23.8010    54.2470    24.7070     2.4430    -0.0090 
  279.6250    82.6980    22.5590    23.8010    26.4410    24.6620     2.3610     0.0790 
  279.7500    82.6980    22.5590    23.8010    12.6040    24.6710     2.3200     0.2130 
  279.8750    82.6980    22.5590    23.8010     6.9590    24.7390     2.3260     0.3900 
  280.0000    82.6980    22.5590    23.8010     5.8860    24.8130     2.3640     0.5710 
  280.1250    82.6980    22.5590    23.8010     6.4870    24.8250     2.4090     0.7680 
  280.2500    82.6980    22.5590    23.8010     7.4350    24.8380     2.4430     1.0070 
  280.3750    82.6980    22.5590    23.8010     7.5450    24.8430     2.4580     1.2570 
  280.5000    82.6980    22.5590    23.8010     6.4280    24.8160     2.4600     1.4960 
  280.6250    82.6980    22.5590    23.8010     6.0880    24.7810     2.4530     1.6640 
  280.7500    82.6980    22.5590    23.8010     6.7320    24.7600     2.4410     1.7660 
  280.8750    82.6980    22.5590    23.8010     7.4720    24.7830     2.4240     1.8150 
  281.0000    82.6980    22.5590    23.8010     7.7760    24.8220     2.4020     1.8210 
  281.1250    82.6980    22.5590    23.8010     8.1730    24.8520     2.3800     1.7790 
  281.2500    82.6980    22.5590    23.8010     8.6430    24.8400     2.3620     1.7070 
  281.3750    82.6980    22.5590    23.8010     9.2830    24.8030     2.3530     1.6650 
  281.5000    82.6980    22.5590    23.8010     9.9330    24.7950     2.3540     1.6000 
  281.6250    82.6980    22.5590    23.8010     9.4190    24.7570     2.3650     1.5460 
  281.7500    82.6980    22.5590    23.8010     8.9640    24.6660     2.3810     1.4860 
  281.8750    82.6980    22.5590    23.8010     9.6060    24.5730     2.3990     1.4060 
  282.0000    82.6980    22.5590    23.8010     9.5470    24.5180     2.4130     1.3530 
  282.1250    82.6980    22.5590    23.8010    11.1490    24.4890     2.4170     1.3310 
  282.2500    82.6980    22.5590    23.8010    12.7660    24.4850     2.4100     1.3100 
  282.3750    82.6980    22.5590    23.8010    12.7290    24.4810     2.3970     1.2700 
  282.5000    82.6980    22.5590    23.8010    11.4270    24.4360     2.3840     1.2290 
  282.6250    82.6980    22.5590    23.8010    10.7680    24.3320     2.3800     1.1820 
  282.7500    82.6980    22.5590    23.8010     8.9320    24.2540     2.3750     1.1570 
  282.8750    82.6980    22.5590    23.8010     6.2840    24.2140     2.3450     1.1570 
  283.0000    82.6980    22.5590    23.8010     4.8120    24.0690     2.2640     1.1570 
  283.1250    82.6980    22.5590    23.8010     4.6740    23.4940     2.1130  -999.2500 
  283.2500    82.6980    22.5590    23.8010     5.1260    22.6030     1.9290  -999.2500 
  283.3750    82.6980    22.5590    23.8010     5.5370    21.9780     1.7530  -999.2500 
  283.5000    82.6980    22.5590    23.8010     5.7000    21.7610     1.6220  -999.2500 
  283.6250    82.6980    22.5590    23.8010     5.6970    21.7440     1.5570  -999.2500 
  283.7500    82.6980    22.5590    23.8010     5.6960    21.7300     1.5320  -999.2500 
  283.8750    82.6980    22.5590    23.8010     5.6950    21.7190     1.5280  -999.2500 
  284.0000    82.6980    22.5590    23.8010     5.6960    21.7080     1.5290  -999.2500 
