~V
VERS. 2.00: Ver 2.00
~W
STRT.M 54.0000:
STOP.M 277.0000:
STEP.M 0.1250:
NULL. -999.2500:
UWI. F10247:
~C
DEPT.M :
GR.API :
RML.OHMM :
RI. :
RXO.OHMM :
CALI.CM :
DEN.GM/CC :
SP.MV :
~A
# ...
  144.0000    73.5450    23.2420    20.1130    24.1870    24.0920     2.4630   -19.1690 
  144.1250    76.2570    21.9810    18.9840    22.2480    24.2390     2.4430   -19.3020 
  144.2500    78.5200    21.5160    18.3220    21.7310    24.4020     2.4160   -19.4400 
  144.3750    79.8820    21.8380    18.2490    23.4320    24.4940     2.3860   -19.5680 
  144.5000    79.3530    22.7760    18.7450    24.4650    24.4830     2.3700   -19.7110 
  144.6250    76.1000    24.0560    19.6780    24.4610    24.3610     2.3830   -19.8350 
  144.7500    71.8920    25.3440    20.8370    26.8590    24.1370     2.4290   -19.9450 
  144.8750    72.1180    26.3420    21.9000    29.5320    23.9960     2.4760   -20.0530 
  145.0000    75.6100    26.8730    22.6430    29.8660    23.9120     2.5000   -20.1560 
  145.1250    77.2260    26.8300    22.9110    26.6630    23.9170     2.4950   -20.2520 
  145.2500    75.8410    26.0900    22.5320    24.2350    23.9830     2.4770   -20.3210 
  145.3750    76.1600    24.8720    21.6510    24.5350    24.0340     2.4650   -20.3660 
  145.5000    80.3230    23.4040    20.4470    25.5690    24.0570     2.4590   -20.3740 
  145.6250    84.5650    21.9290    19.1390    24.3470    24.0530     2.4570   -20.3640 
  145.7500    83.8920    20.7030    17.9560    22.4340    24.0730     2.4490   -20.3110 
  145.8750    80.6440    19.8800    17.0570    21.3340    24.1740     2.4340   -20.2430 
  146.0000    78.4340    19.5850    16.5690    23.1600    24.2960     2.4140   -20.1520 
  146.1250    78.6120    19.8700    16.5640    22.0790    24.2880     2.4010   -20.0490 
  146.2500    79.3340    20.7250    17.0910    20.1580    24.1920     2.4050   -19.9410 
  146.3750    79.8600    21.8170    17.9070    19.9510    24.2080     2.4210   -19.8150 
  146.5000    80.1890    22.8640    18.7890    22.4740    24.2630     2.4350   -19.6940 
  146.6250    78.6490    23.6460    19.5300    26.1540    24.2850     2.4290   -19.5690 
  146.7500    74.9850    24.0290    19.9750    27.7160    24.4590     2.3970   -19.4540 
  146.8750    72.3270    24.1310    20.1720    25.6110    24.8380     2.3600   -19.3110 
  147.0000    70.3840    24.0700    20.1860    22.8160    25.1790     2.3450   -19.1770 
  147.1250    67.8960    23.9670    20.1020    23.1590    25.2430     2.3690   -19.0460 
  147.2500    66.9620    23.8740    19.9790    24.1780    25.0930     2.4160   -18.9280 
  147.3750    68.4980    23.7260    19.8090    23.0890    25.0480     2.4350   -18.8400 
  147.5000    70.5260    23.4280    19.5310    21.2100    25.1130     2.4080   -18.7700 
  147.6250    71.7450    22.9340    19.0940    20.3730    25.2100     2.3560   -18.7190 
  147.7500    71.2070    22.2500    18.4890    20.9650    25.1920     2.3170   -18.6900 
  147.8750    70.1750    21.4750    17.8020    21.3810    25.1620     2.3080   -18.6920 
  148.0000    68.9190    20.6720    17.1060    20.6060    25.1990     2.3210   -18.7080 
  148.1250    68.4300    19.9160    16.4780    19.2320    25.1150     2.3390   -18.7510 
  148.2500    69.3800    19.3600    16.0360    18.3940    25.1060     2.3390   -18.8050 
  148.3750    70.0640    19.1510    15.8550    17.8440    25.1250     2.3270   -18.8560 
  148.5000    69.8660    19.4330    16.0180    17.7530    25.0650     2.3110   -18.9120 
  148.6250    68.1060    20.2410    16.5730    18.7190    24.9950     2.3070   -18.9670 
  148.7500    68.2060    21.4030    17.4760    20.8920    24.9610     2.3270   -19.0460 
  148.8750    71.0590    22.2980    18.3080    21.4610    24.9100     2.3650   -19.1150 
  149.0000    73.1200    22.2150    18.5040    22.2310    24.7360     2.4030   -19.1840 
  149.1250    72.3900    20.6230    17.5460    23.3030    24.4070     2.4220   -19.2260 
  149.2500    70.5090    17.4990    15.2780    21.7720    24.2270     2.4100   -19.2400 
  149.3750    70.6810    14.0230    12.5860    15.6160    24.2230     2.3830   -19.2480 
  149.5000    72.6420    11.0570    10.1400    10.3220    24.4710     2.3550   -19.2290 
  149.6250    74.5640     9.0150     8.2910     7.3500    24.9050     2.3340   -19.2030 
  149.7500    77.1050     7.9980     7.1820     6.6260    25.2000     2.3170   -19.1540 
  149.8750    79.9000     7.5700     6.5700     6.7480    25.1490     2.3030   -19.1340 
  150.0000    81.2570     7.4540     6.2920     7.2230    24.8450     2.2920   -19.1060 
  150.1250    81.9590     7.4300     6.1850     7.6430    24.6050     2.2890   -19.0900 
  150.2500    84.9430     7.3520     6.1220     7.2750    24.5740     2.2950   -19.0700 
  150.3750    89.4790     7.2270     6.0450     6.5440    24.6780     2.3110   -19.0600 
  150.5000    90.6330     7.1200     5.9710     6.0400    24.7780     2.3330   -19.0680 
  150.6250    87.6190     7.0970     5.9300     6.1450    24.7750     2.3540   -19.0920 
  150.7500    85.3740     7.2120     5.9530     6.6310    24.6530     2.3600   -19.1490 
  150.8750    85.2690     7.4160     6.0270     7.0320    24.5370     2.3480   -19.2150 
  151.0000    85.5900     7.6450     6.1250     7.3270    24.5210     2.3230   -19.3220 
  151.1250    83.9890     7.8430     6.2170     7.4440    24.5360     2.2910   -19.4660 
  151.2500    81.8110     7.9850     6.2800     7.5890    24.5230     2.2630   -19.6570 
  151.3750    81.7680     8.0940     6.3240     7.7200    24.5010     2.2400   -19.8730 
  151.5000    82.5790     8.1830     6.3570     7.5860    24.5070     2.2200   -20.1210 
  151.6250    81.5570     8.2620     6.3850     7.5110    24.4650     2.2050   -20.3900 
  151.7500    77.9550     8.3350     6.4050     7.7290    24.3290     2.1990   -20.6060 
  151.8750    74.9410     8.4090     6.4170     7.9370    24.2470     2.2020   -20.7480 
  152.0000    73.7860     8.4750     6.4170     7.8760    24.2950     2.2110   -20.7670 
  152.1250    73.2360     8.5010     6.3950     7.4630    24.3470     2.2250   -20.6850 
  152.2500    73.0080     8.4110     6.3110     7.4610    24.2650     2.2390   -20.4900 
  152.3750    73.7010     8.1980     6.1540     7.9640    24.1470     2.2540   -20.1980 
  152.5000    75.3870     7.8930     5.9270     8.4800    24.0360     2.2680   -19.7860 
  152.6250    77.2370     7.5660     5.6610     8.3610    23.9580     2.2780   -19.2890 
  152.7500    78.4740     7.3390     5.4210     7.1890    23.9540     2.2760   -18.7570 
  152.8750    80.5450     7.2870     5.2780     6.4290    24.0780     2.2630   -18.2830 
  153.0000    83.3150     7.4120     5.2710     6.3450    24.1910     2.2440   -17.8920 
  153.1250    83.0530     7.6470     5.3960     6.3880    24.1870     2.2320   -17.5640 
  153.2500    77.9410     7.8600     5.5940     6.7630    24.0900     2.2400   -17.2800 
  153.3750    72.4470     7.9260     5.7430     7.6530    24.0070     2.2640   -17.0040 
  153.5000    71.4200     7.7870     5.7560     8.2830    23.9870     2.2910   -16.7240 
  153.6250    75.4840     7.4750     5.6080     7.8910    24.0960     2.3060   -16.4130 
  153.7500    81.2730     7.0990     5.3440     6.2850    24.5590     2.3020   -16.0850 
  153.8750    84.1980     6.7770     5.0690     5.5510    25.3020     2.2880   -15.7300 
  154.0000    82.7690     6.5510     4.8410     5.2080    25.8260     2.2740   -15.3620 
  154.1250    80.2180     6.4120     4.6840     5.0120    25.7760     2.2680   -15.0170 
  154.2500    78.4260     6.3210     4.6020     4.9220    25.4470     2.2700   -14.7100 
  154.3750    76.7740     6.2290     4.5580     4.8870    25.3690     2.2760   -14.4630 
  154.5000    77.8210     6.1450     4.5330     4.9330    25.4000     2.2860   -14.2940 
  154.6250    82.4060     6.1000     4.5200     5.0220    25.2000     2.2950   -14.2200 
  154.7500    86.4320     6.1160     4.5230     5.1680    24.9490     2.3010   -14.2020 
  154.8750    86.1010     6.1580     4.5340     5.3100    24.8420     2.3010   -14.2090 
  155.0000    84.0750     6.1920     4.5500     5.3180    24.8140     2.2970   -14.2340 
  155.1250    82.8480     6.2040     4.5680     5.3310    24.7930     2.2950   -14.2340 
