~V
VERS. 2.00: Ver 2.00
~W
STRT.M 50.0000:
STOP.M 284.0000:
STEP.M 0.1250:
NULL. -999.2500:
UWI. F10254:
~C
DEPT.M :
GR.API :
RML.OHMM :
RI. :
RXO.OHMM :
CALI.CM :
DEN.GM/CC :
SP.MV :
~A
# ...
  218.7500    62.6870    50.8770    49.0190    56.4790    24.8890     2.2080   -18.6730 
  218.8750    63.2720    46.1900    44.5730    46.4880    24.5570     2.2150   -18.7010 
  219.0000    64.5890    43.1640    41.5220    41.3750    24.4040     2.2340   -18.7320 
  219.1250    63.8480    43.0590    40.9690    41.7090    24.3990     2.2540   -18.7790 
  219.2500    62.5850    45.6610    42.8200    45.7660    24.4880     2.2650   -18.7680 
  219.3750    63.6780    50.5960    46.9140    55.9200    24.6490     2.2660   -18.7610 
  219.5000    66.3280    56.9050    52.5850    73.8530    24.9060     2.2560   -18.8560 
  219.6250    65.1790    62.7520    58.3570    85.5270    25.0250     2.2420   -18.9760 
  219.7500    60.3700    66.4660    62.5250    81.7230    25.0240     2.2290   -19.1130 
  219.8750    57.2600    67.4740    64.3120    75.0840    24.9690     2.2240   -19.3030 
  220.0000    58.0440    66.3260    63.9580    71.5260    24.9280     2.2280   -19.4810 
  220.1250    58.0680    64.1130    62.2740    70.3780    24.9150     2.2400   -19.6080 
  220.2500    55.5070    61.8980    60.3240    69.0280    24.9140     2.2510   -19.7970 
  220.3750    54.3360    59.9470    58.4470    68.5240    24.9140     2.2590   -20.0830 
  220.5000    56.0480    58.2980    56.7400    67.2610    24.9140     2.2620   -20.3600 
  220.6250    58.2790    57.1000    55.3640    62.5590    24.9140     2.2600   -20.5420 
  220.7500    59.6150    56.4260    54.4290    58.8480    24.9140     2.2570   -20.6690 
  220.8750    61.0980    56.3020    54.0030    60.7070    24.9140     2.2550   -20.8300 
  221.0000    62.1910    56.6110    54.0210    65.8850    24.9140     2.2550   -21.0760 
  221.1250    60.6860    57.1370    54.3320    69.8470    24.9140     2.2570   -21.3470 
  221.2500    58.6290    57.6570    54.7140    71.7530    24.9140     2.2600   -21.5260 
  221.3750    57.8660    58.2490    55.2030    71.2640    24.9140     2.2620   -21.6560 
  221.5000    58.2620    59.3290    56.1210    68.5580    24.9080     2.2600   -21.8320 
  221.6250    59.7620    61.8570    58.2940    67.6020    24.8890     2.2480   -22.0530 
  221.7500    60.5980    66.3000    62.1730    68.8950    24.8630     2.2280   -22.2260 
  221.8750    58.9750    72.8240    67.9790    77.5600    24.8580     2.2020   -22.3540 
  222.0000    56.0030    80.9150    75.3370   100.0060    24.8730     2.1780   -22.4440 
  222.1250    56.4030    88.9430    82.8870   131.5430    24.8860     2.1660   -22.4570 
  222.2500    59.1300    94.7410    88.6370   138.8930    24.8860     2.1690   -22.5160 
  222.3750    59.6170    97.0260    91.3320   131.4030    24.8900     2.1830   -22.6180 
  222.5000    56.5290    95.9260    90.9060   121.6630    24.8860     2.2000   -22.6720 
  222.6250    54.2240    92.4040    88.0780   111.9360    24.8640     2.2100   -22.6560 
  222.7500    54.5540    87.6080    84.0030   106.5430    24.8540     2.2130   -22.6850 
  222.8750    55.6720    81.3610    78.6640   103.7240    24.8460     2.2140   -22.7040 
  223.0000    56.3880    73.6090    72.0400   104.2450    24.8370     2.2200   -22.6720 
  223.1250    57.7910    65.2700    64.8210    93.9390    24.8280     2.2330   -22.6160 
  223.2500    60.2840    58.0490    58.4240    63.8760    24.8420     2.2460   -22.4600 
  223.3750    61.5020    53.0700    53.8530    41.0730    24.8710     2.2520   -22.2210 
  223.5000    60.6370    50.7480    51.5690    44.0780    24.8960     2.2490   -22.0010 
  223.6250    58.7020    50.7960    51.4760    64.0610    24.8950     2.2420   -21.8950 
  223.7500    56.8900    51.3220    51.9420    76.0670    24.8750     2.2420   -21.8060 
  223.8750    56.5750    50.6420    51.3630    69.7550    24.8550     2.2540   -21.6770 
  224.0000    59.5230    47.5170    48.4140    61.3290    24.8460     2.2790   -21.5650 
  224.1250    64.1400    41.7170    42.6980    49.7840    24.8460     2.3090   -21.5780 
  224.2500    66.5390    35.2810    36.2420    37.5880    24.8530     2.3330   -21.7310 
  224.3750    67.0370    29.8800    30.7430    28.8670    24.8720     2.3450   -21.8740 
  224.5000    68.6090    26.5980    27.2220    26.8350    24.8920     2.3420   -21.9420 
  224.6250    71.9970    26.5400    26.5650    29.1820    24.8830     2.3220   -22.0450 
  224.7500    73.4100    29.8050    28.8420    31.8110    24.8620     2.2960   -22.2130 
  224.8750    70.5060    36.9300    34.7390    37.0240    24.8630     2.2690   -22.3800 
  225.0000    64.4580    48.1720    44.8470    58.3980    24.8900     2.2470   -22.5020 
  225.1250    58.9440    63.0370    59.0050   110.6500    24.9060     2.2350   -22.6290 
  225.2500    56.1950    77.7630    73.3630   152.0610    24.9000     2.2310   -22.7210 
  225.3750    56.2430    88.3660    83.8770   142.0210    24.8730     2.2310   -22.7680 
  225.5000    57.3060    92.5960    88.2790   116.9870    24.8610     2.2320   -22.8410 
  225.6250    58.3730    91.1540    86.9570   101.9950    24.9250     2.2270   -22.9160 
  225.7500    59.4480    87.9960    83.5700   110.5460    25.0740     2.2150   -22.9000 
  225.8750    60.8950    84.8140    79.8810   124.4310    25.2130     2.2000   -22.8390 
  226.0000    62.0930    82.0530    76.5640   122.8000    25.2410     2.1850   -22.8540 
  226.1250    61.0980    79.7030    73.8020   106.8400    25.1360     2.1780   -22.8900 
  226.2500    58.6740    77.7140    71.5370    99.3050    24.9800     2.1780   -22.9260 
  226.3750    56.7920    76.1450    69.8030    99.0160    24.8080     2.1840   -23.0200 
  226.5000    57.2120    74.7370    68.4110   104.5370    24.6700     2.1910   -23.1280 
  226.6250    59.4560    72.2780    66.4270   101.3030    24.7270     2.1960   -23.2090 
  226.7500    60.4430    67.6550    62.7900    92.9040    24.7930     2.2010   -23.3650 
  226.8750    59.4330    60.6220    57.0930    86.3010    24.8250     2.2090   -23.6140 
  227.0000    58.5030    52.1080    49.9410    77.1400    24.8210     2.2240   -23.8240 
  227.1250    59.7750    43.8960    42.7950    56.1980    24.7970     2.2430   -23.8850 
  227.2500    62.4300    37.2660    36.9030    40.1980    24.7830     2.2620   -23.9120 
  227.3750    64.2490    32.5810    32.6810    33.7110    24.7740     2.2760   -24.0330 
  227.5000    64.5290    29.6320    30.0030    32.7100    24.7720     2.2850   -24.2350 
  227.6250    65.2950    28.0450    28.5840    32.6160    24.7520     2.2900   -24.3390 
  227.7500    67.2280    26.9980    27.6990    32.6030    24.7100     2.2960   -24.3260 
  227.8750    67.8290    26.0180    26.8960    31.3960    24.6690     2.3050   -24.3030 
  228.0000    66.9520    24.8090    25.8530    28.3590    24.6320     2.3150   -24.2930 
  228.1250    67.7200    23.3000    24.4260    24.5060    24.5670     2.3230   -24.2900 
  228.2500    70.1010    21.7180    22.8280    22.4930    24.5030     2.3260   -24.2580 
  228.3750    69.7510    20.2720    21.2780    21.2400    24.4640     2.3270   -24.1760 
  228.5000    66.4700    19.1180    19.9550    20.7210    24.4420     2.3280   -24.0520 
  228.6250    65.9460    18.3820    18.9910    19.3280    24.4290     2.3320   -23.9220 
  228.7500    67.2270    17.9850    18.3290    18.9830    24.4380     2.3380   -23.8470 
  228.8750    65.5700    17.9420    17.9850    20.5300    24.4530     2.3450   -23.8410 
  229.0000    61.3410    18.3700    18.0630    20.8510    24.4610     2.3500   -23.8770 
  229.1250    61.5570    19.6780    18.9080    20.8910    24.4600     2.3550   -23.9890 
  229.2500    65.7760    22.1720    20.7640    22.8950    24.4490     2.3570   -24.2220 
  229.3750    68.6330    26.2980    24.0430    30.0850    24.4240     2.3540   -24.5030 
  229.5000    67.3820    32.3870    29.1450    50.9930    24.4040     2.3460   -24.7880 
  229.6250    63.5940    40.6120    36.4540    75.1480    24.4050     2.3330   -25.1070 
  229.7500    60.0170    49.7230    44.9170    86.7470    24.4390     2.3180   -25.4200 
  229.8750    57.7720    58.3140    53.1950    95.5760    24.5140     2.3020   -25.6890 
