~V
VERS. 2.00: Ver 2.00
~W
STRT.M 50.0000:
STOP.M 274.0000:
STEP.M 0.1250:
NULL. -999.2500:
UWI. F10206:
~C
DEPT.M :
SP.MV :
DEN.GM/CC :
GR.API :
RML.OHMM :
RI. :
RXO.OHMM :
CALI.CM :
~A
# ...
  263.7500   -18.0560     2.4890    55.7540    20.3840    17.4350    33.7680    25.0900 
  263.8750   -18.1140     2.5070    55.7540    20.5140    17.2730    31.2120    25.1000 
  264.0000   -18.1750     2.5250    55.7540    20.6350    17.2240    27.0210    25.0600 
  264.1250   -18.2210     2.5370    55.7540    20.8010    17.2560    22.9160    24.9970 
  264.2500   -18.2670     2.5430    55.7540    21.0450    17.3490    20.4590    24.9060 
  264.3750   -18.3120     2.5420    55.7540    21.4550    17.5110    20.0020    24.8910 
  264.5000   -18.3580     2.5360    55.7540    22.1580    17.7270    21.0500    24.8850 
  264.6250   -18.3840     2.5240    55.7540    23.1600    17.9330    22.1890    24.8390 
  264.7500   -18.3890     2.5070    55.7540    24.0910    18.0450    23.9010    24.6710 
  264.8750   -18.3930     2.4870    55.7540    24.5700    18.0080    25.1610    24.5280 
  265.0000   -18.4190     2.4670    55.7540    24.3430    17.8200    26.9680    24.5090 
  265.1250   -18.4730     2.4540    55.7540    23.3500    17.5320    31.5510    24.5970 
  265.2500   -18.5230     2.4480    55.7540    22.0720    17.2210    32.8140    24.8710 
  265.3750   -18.5600     2.4480    55.7540    20.8840    16.8860    25.4400    25.0590 
  265.5000   -18.5780     2.4520    55.7540    19.9650    16.4960    19.1010    25.1280 
  265.6250   -18.6300     2.4590    55.7540    19.2820    16.0370    19.1010    25.1650 
  265.7500   -18.7060     2.4700    55.7540    18.7260    15.5860    20.6030    25.2240 
  265.8750   -18.7780     2.4810    55.7540    18.3320    15.2440    18.4070    25.1410 
  266.0000   -18.8280     2.4870    55.7540    18.1580    15.0840    13.9230    25.0620 
  266.1250   -18.8400     2.4780    55.7540    18.2860    15.1460    12.9230    25.0360 
  266.2500   -18.8430     2.4560    55.7540    18.6110    15.3340    14.3660    24.8790 
  266.3750   -18.8690     2.4330    55.7540    18.9920    15.5590    15.2300    24.8850 
  266.5000   -18.9140     2.4220    55.7540    19.2740    15.7380    12.7030    25.0040 
  266.6250   -18.9700     2.4340    55.7540    19.3270    15.7800    11.7900    25.1750 
  266.7500   -19.0360     2.4620    55.7540    19.2110    15.7120    11.4660    25.1050 
  266.8750   -19.1010     2.4940    55.7540    19.0030    15.5800    11.0770    24.8980 
  267.0000   -19.1640     2.5190    55.7540    18.7630    15.4280    10.8270    24.8140 
  267.1250   -19.2280     2.5270    55.7540    18.5350    15.3000    10.6440    24.7580 
  267.2500   -19.2950     2.5210    55.7540    18.3510    15.2110    10.3120    24.6860 
  267.3750   -19.3300     2.5090    55.7540    18.2590    15.1630    10.0430    24.7290 
  267.5000   -19.3590     2.4950    55.7540    18.3340    15.1620     9.9320    24.7980 
  267.6250   -19.3840     2.4810    55.7540    18.6500    15.1990     9.8520    24.8120 
  267.7500   -19.3800     2.4670    55.7540    19.0550    15.2410     9.5500    24.8280 
  267.8750   -19.3680     2.4530    55.7540    19.3640    15.2750     9.0890    24.9040 
  268.0000   -19.3710     2.4410    55.7540    19.4460    15.3060     8.7060    25.0270 
  268.1250   -19.4170     2.4340    55.7540    19.3040    15.3450     8.6410    25.0460 
  268.2500   -19.4660     2.4310    55.7540    19.0790    15.3790     8.9340    25.0340 
  268.3750   -19.5150     2.4340    55.7540    18.8900    15.3800     9.3680    25.0020 
  268.5000   -19.5670     2.4400    55.7540    18.8460    15.3450     9.7620    25.0320 
  268.6250   -19.6090     2.4470    55.7540    18.9870    15.3100     9.5970    25.0280 
  268.7500   -19.6860     2.4540    55.7540    19.2120    15.3120     9.3060    25.0340 
  268.8750   -19.8950     2.4600    55.7540    19.4150    15.3500     9.1280    24.9980 
  269.0000   -20.1460     2.4630    55.7540    19.4890    15.3930     9.1450    24.9800 
  269.1250   -20.3600     2.4620    55.7540    19.4020    15.4070     9.2650    24.9760 
  269.2500   -20.5800     2.4560    55.7540    19.2600    15.3900     9.1640    24.9720 
  269.3750   -20.8130     2.4420    55.7540    19.1700    15.3570     9.2960    24.9700 
  269.5000   -21.0500     2.4260    55.7540    19.1460    15.3340     9.3860    24.9820 
  269.6250   -21.2740     2.4130    55.7540    19.1340    15.3270     9.3350    25.0160 
  269.7500   -21.4160     2.4080    55.7540    19.1340    15.3270     9.3110    25.0390 
  269.8750   -21.4160     2.4100    55.7540    19.1340    15.3270     9.7890    25.0420 
  270.0000   -21.4160     2.4160    55.7540    19.1340    15.3270    10.8820    25.0430 
  270.1250  -999.2500     2.4210    55.7540    19.1340    15.3270    11.7590    25.0440 
  270.2500  -999.2500     2.4260    55.7540    19.1340    15.3270    13.5990    25.0540 
  270.3750  -999.2500     2.4320    55.7540    19.1340    15.3270    17.8350    25.0900 
  270.5000  -999.2500     2.4420    55.7540    19.1340    15.3270    20.5870    25.1060 
  270.6250  -999.2500     2.4540    55.7540    19.1340    15.3270    20.3170    25.1060 
  270.7500  -999.2500     2.4640    55.7540    19.1340    15.3270    16.2260    25.0850 
  270.8750  -999.2500     2.4640    55.7540    19.1340    15.3270    10.7580    24.9560 
  271.0000  -999.2500     2.4550    55.7540    19.1340    15.3270     8.6090    24.9060 
  271.1250  -999.2500     2.4380    55.7540    19.1340    15.3270     9.0920    24.9670 
  271.2500  -999.2500     2.4210    55.7540    19.1340    15.3270     9.6480    25.2090 
  271.3750  -999.2500     2.4110    55.7540    19.1340    15.3270     9.8860    25.0210 
  271.5000  -999.2500     2.4070    55.7540    19.1340    15.3270    10.4740    24.5560 
  271.6250  -999.2500     2.4100    55.7540    19.1340    15.3270    10.5890    23.6410 
  271.7500  -999.2500     2.4110    55.7540    19.1340    15.3270     8.3600    19.6050 
  271.8750  -999.2500     2.4020    55.7540    19.1340    15.3270     6.2870    15.8180 
  272.0000  -999.2500     2.3840    55.7540    19.1340    15.3270     5.5500    15.1180 
  272.1250  -999.2500     2.3610    55.7540    19.1340    15.3270     5.5500    15.1150 
  272.2500  -999.2500     2.3420    55.7540    19.1340    15.3270     5.5490    15.1150 
  272.3750  -999.2500     2.3310    55.7540    19.1340    15.3270     5.5480    15.1150 
  272.5000  -999.2500     2.3270    55.7540    19.1340    15.3270     5.5490    15.1150 
  272.6250  -999.2500     2.3260    55.7540    19.1340    15.3270     5.5500    15.1150 
  272.7500  -999.2500     2.3260    55.7540    19.1340    15.3270     5.5490    15.1150 
  272.8750  -999.2500     2.3260    55.7540    19.1340    15.3270     5.5490    15.1150 
  273.0000  -999.2500     2.3270    55.7540    19.1340    15.3270     5.5490    15.1150 
  273.1250  -999.2500     2.3290    55.7540    19.1340    15.3270     5.5480    15.1150 
  273.2500  -999.2500     2.3210    55.7540    19.1340    15.3270     5.5460    15.1150 
  273.3750  -999.2500  -999.2500    55.7540    19.1340    15.3270     5.5450    15.1150 
  273.5000  -999.2500  -999.2500    55.7540    19.1340    15.3270     5.5450    15.1140 
  273.6250  -999.2500  -999.2500    55.7540    19.1340    15.3270     5.5450    15.1130 
  273.7500  -999.2500  -999.2500    55.7540    19.1340    15.3270     5.5440    15.1050 
  273.8750  -999.2500  -999.2500    55.7540    19.1340    15.3270     5.5440    15.1030 
  274.0000  -999.2500  -999.2500    55.7540    19.1340    15.3270     5.5430    15.0950 
