~V
VERS. 2.00: Ver 2.00
~W
STRT.M 55.0000:
STOP.M 276.0000:
STEP.M 0.1250:
NULL. -999.2500:
UWI. F10239:
~C
DEPT.M :
SP.MV :
DEN.GM/CC :
GR.API :
RML.OHMM :
RI. :
RXO.OHMM :
CALI.CM :
~A
# ...
   88.7500    -8.9380     2.2980    99.9870     6.1310     5.1230     5.5920    25.9990 
   88.8750    -9.2010     2.2930   101.4360     6.0700     4.9970     5.3580    26.0720 
   89.0000    -9.5320     2.2840   100.5660     6.0610     4.9230     4.9630    26.1450 
   89.1250    -9.9760     2.2760    98.5980     6.0630     4.8660     4.8140    26.1240 
   89.2500   -10.5610     2.2800    99.2530     6.0350     4.7990     5.1420    26.0000 
   89.3750   -11.2760     2.2930   102.3180     5.9810     4.7220     5.4930    25.8710 
   89.5000   -12.1380     2.3090   105.1450     5.9650     4.6820     5.5470    25.7930 
   89.6250   -13.1860     2.3200   104.7680     6.1030     4.7470     5.3870    25.7580 
   89.7500   -14.4680     2.3210    99.2280     6.5160     4.9970     5.6380    25.7250 
   89.8750   -15.8790     2.3100    89.3250     7.1680     5.4300     7.2520    25.7130 
   90.0000   -17.3010     2.2790    78.0460     7.9220     5.9900    10.2930    25.8700 
   90.1250   -18.5840     2.2240    68.7410     8.5370     6.5490    12.1560    26.3330 
   90.2500   -19.5860     2.1600    63.1650     8.8000     6.9500    12.2150    26.8840 
   90.3750   -20.2710     2.1180    61.3000     8.8570     7.2080    11.6860    27.2940 
   90.5000   -20.5860     2.1090    61.7540     9.0740     7.5080    11.5400    27.4460 
   90.6250   -20.4600     2.1280    62.8030     9.9230     8.1370    11.9750    27.3750 
   90.7500   -19.8190     2.1790    65.7460    11.8030     9.4120    14.6660    27.0070 
   90.8750   -18.7770     2.2700    69.8600    14.4870    11.3290    24.4650    26.3940 
   91.0000   -17.4420     2.3980    73.4400    17.3010    13.5640    46.5230    25.8420 
   91.1250   -15.9470     2.5250    75.8270    18.9730    15.1880    62.9610    25.5870 
   91.2500   -14.4420     2.5860    77.6880    18.1600    14.9750    45.4120    25.5670 
   91.3750   -13.0450     2.5710    79.3360    15.4100    13.1280    23.0860    25.6040 
   91.5000   -11.8420     2.5120    80.8980    12.0990    10.6640    12.2540    25.6400 
   91.6250   -10.8980     2.4390    82.8300     9.4720     8.5350     7.7970    25.6700 
   91.7500   -10.2550     2.3740    83.7190     8.0500     7.1850     6.2750    25.6920 
   91.8750    -9.8400     2.3270    82.7720     7.4640     6.4570     6.0350    25.6960 
   92.0000    -9.6050     2.3010    83.3810     7.3750     6.1730     6.0970    25.6520 
   92.1250    -9.5100     2.2900    87.0600     7.5100     6.1620     6.2610    25.5330 
   92.2500    -9.5100     2.2870    90.1620     7.6810     6.2800     6.3730    25.3510 
   92.3750    -9.5670     2.2850    90.1040     7.8190     6.4240     6.2150    25.2590 
   92.5000    -9.6660     2.2850    89.7280     7.9670     6.5830     6.0510    25.2790 
   92.6250    -9.7920     2.2900    89.7560     8.1750     6.7780     6.1340    25.4090 
   92.7500    -9.9650     2.3020    88.1420     8.4320     7.0000     6.3940    25.5400 
   92.8750   -10.2040     2.3150    85.3980     8.6470     7.1860     6.7780    25.6450 
   93.0000   -10.5290     2.3260    83.4540     8.7450     7.2750     7.3360    25.7260 
   93.1250   -10.9660     2.3270    83.7660     8.6980     7.2310     7.7370    25.7730 
   93.2500   -11.5410     2.3160    86.1550     8.5580     7.0760     7.3690    25.8310 
   93.3750   -12.2200     2.3010    86.9440     8.4520     6.9090     6.7520    25.9190 
   93.5000   -12.9770     2.2860    82.2810     8.4750     6.8120     6.8400    25.9780 
   93.6250   -13.7930     2.2720    73.5420     8.6890     6.8540     7.3970    25.9690 
   93.7500   -14.6640     2.2560    67.1160     9.1320     7.0900     7.9150    25.9160 
   93.8750   -15.6060     2.2440    65.1450     9.7770     7.5090     8.4450    25.8540 
   94.0000   -16.6150     2.2420    66.6240    10.6200     8.1010     9.2400    25.7680 
   94.1250   -17.6590     2.2460    69.8230    11.6630     8.8540    10.5340    25.7020 
   94.2500   -18.6810     2.2440    71.9270    12.8680     9.7360    12.0440    25.7550 
   94.3750   -19.6330     2.2250    70.8320    14.0490    10.6280    12.7570    25.9720 
   94.5000   -20.4870     2.1960    67.9210    14.9650    11.3730    12.7450    26.2550 
   94.6250   -21.2320     2.1700    65.9780    15.3600    11.7910    12.6310    26.4810 
   94.7500   -21.8460     2.1550    64.9900    15.0860    11.7600    12.8750    26.5090 
   94.8750   -22.3300     2.1500    63.9670    14.3690    11.3980    13.1120    26.3910 
   95.0000   -22.6880     2.1520    62.9470    13.4740    10.8610    12.9170    26.2660 
   95.1250   -22.9090     2.1560    61.7410    12.6590    10.3120    12.5780    26.2250 
   95.2500   -22.9850     2.1600    60.9620    12.0980     9.8740    12.5480    26.2430 
   95.3750   -22.9460     2.1690    61.7180    11.7820     9.5820    12.5860    26.2710 
   95.5000   -22.8310     2.1830    63.2610    11.6540     9.4290    12.4650    26.2960 
   95.6250   -22.6680     2.2000    63.8700    11.6340     9.3870    12.2210    26.3220 
   95.7500   -22.4530     2.2110    63.5310    11.6620     9.4200    11.9700    26.3510 
   95.8750   -22.1960     2.2150    63.7050    11.7180     9.4970    11.7570    26.3650 
   96.0000   -21.8990     2.2110    64.1580    11.8150     9.6140    11.5810    26.3770 
   96.1250   -21.5910     2.2020    64.3210    11.9460     9.7620    11.4720    26.3920 
   96.2500   -21.3110     2.1870    63.7100    12.0620     9.9080    11.2280    26.3840 
   96.3750   -21.0770     2.1700    62.9460    12.0940     9.9960    11.2590    26.3210 
   96.5000   -20.8780     2.1590    62.0580    11.9920     9.9790    11.7350    26.2420 
   96.6250   -20.6850     2.1540    61.5190    11.7500     9.8380    12.1600    26.1950 
   96.7500   -20.4850     2.1570    62.3830    11.4160     9.5950    11.9470    26.1750 
   96.8750   -20.2560     2.1630    64.7200    11.0910     9.3310    11.5220    26.1710 
   97.0000   -20.0000     2.1730    67.6700    10.8330     9.0990    11.2770    26.1570 
   97.1250   -19.7310     2.1850    70.1680    10.6780     8.9330    11.2690    26.1370 
   97.2500   -19.4590     2.1930    72.3270    10.6300     8.8480    11.3290    26.1370 
   97.3750   -19.2230     2.1970    73.1230    10.6510     8.8220    11.3640    26.1730 
   97.5000   -19.0380     2.2020    71.3790    10.7110     8.8400    10.7080    26.1530 
   97.6250   -18.9240     2.2100    69.2960    10.7780     8.8780    10.3540    26.0020 
   97.7500   -18.8770     2.2150    70.3430    10.8010     8.8990    10.8910    25.7810 
   97.8750   -18.8790     2.2130    74.2540    10.7280     8.8590    11.1070    25.6610 
   98.0000   -18.9450     2.2110    78.2180    10.5310     8.7310    10.8730    25.6170 
   98.1250   -19.1030     2.2110    78.1820    10.2390     8.5260    10.3150    25.6380 
   98.2500   -19.4050     2.2180    73.3100     9.9850     8.3280     9.4260    25.6890 
   98.3750   -19.8210     2.2250    69.2190     9.9460     8.2690     8.9290    25.6910 
   98.5000   -20.3440     2.2280    69.1720    10.2210     8.4330     9.1650    25.6170 
   98.6250   -20.9580     2.2240    71.0080    10.8000     8.8470    10.2490    25.4350 
   98.7500   -21.6180     2.2190    70.7300    11.5530     9.4590    12.3800    25.0550 
   98.8750   -22.2780     2.2160    69.0350    12.2170    10.0880    15.2010    24.6090 
   99.0000   -22.8880     2.2100    67.3360    12.5910    10.5580    16.3660    24.3120 
   99.1250   -23.3720     2.1900    65.4160    12.5900    10.7440    15.1980    24.2500 
   99.2500   -23.6580     2.1630    63.6450    12.2790    10.6270    13.9660    24.3350 
   99.3750   -23.7430     2.1420    62.3550    11.8650    10.3500    13.2910    24.4260 
   99.5000   -23.6170     2.1300    62.7890    11.4550    10.0100    12.9470    24.4740 
   99.6250   -23.2870     2.1220    65.2220    11.0760     9.6630    13.0020    24.4470 
   99.7500   -22.7880     2.1190    67.6410    10.7070     9.3210    12.8770    24.3550 
   99.8750   -22.2140     2.1240    67.4760    10.3290     8.9750    12.1340    24.3020 
