~V
VERS. 2.00: Ver 2.00
~W
STRT.M 56.0000:
STOP.M 281.0000:
STEP.M 0.1250:
NULL. -999.2500:
UWI. F10232:
~C
DEPT.M :
SP.MV :
GR.API :
RML.OHMM :
RI. :
RXO.OHMM :
CALI.CM :
DEN.GM/CC :
~A
# ...
  213.5000   -13.6590    51.5090    86.4250    71.5870    62.2850    24.2200     2.2340 
  213.6250   -13.9500    51.2440    91.2920    76.0220    70.5780    24.2370     2.2230 
  213.7500   -14.2580    52.4660    94.9710    79.6900    77.8430    24.2410     2.2160 
  213.8750   -14.5580    55.9210    96.7830    81.9290    80.7690    24.2380     2.2130 
  214.0000   -14.8600    58.0790    97.2570    83.0070    82.1550    24.2380     2.2130 
  214.1250   -15.1640    56.5570    97.0300    83.3510    81.5870    24.2470     2.2140 
  214.2500   -15.4500    53.5570    96.7570    83.4830    79.9280    24.2760     2.2170 
  214.3750   -15.7030    51.6970    96.9440    83.8630    78.7930    24.3360     2.2200 
  214.5000   -15.9210    51.5890    97.6310    84.6200    78.2830    24.4130     2.2230 
  214.6250   -16.0960    52.5780    98.7520    85.7470    78.4400    24.4770     2.2240 
  214.7500   -16.2090    53.0430   100.1790    87.1530    79.4800    24.5050     2.2250 
  214.8750   -16.3150    52.9520   101.7790    88.7130    82.1300    24.5050     2.2260 
  215.0000   -16.4270    52.9880   103.4460    90.2900    85.2550    24.4880     2.2300 
  215.1250   -16.5390    54.5950   105.2370    91.8930    88.1170    24.4640     2.2380 
  215.2500   -16.6550    55.9070   107.3510    93.6630    89.5320    24.4290     2.2470 
  215.3750   -16.7640    54.7760   110.2800    96.0090    87.4410    24.3950     2.2540 
  215.5000   -16.8710    53.2810   114.3580    99.2710    86.7040    24.3850     2.2550 
  215.6250   -16.9740    51.2570   119.9030   103.7770    89.7310    24.4020     2.2530 
  215.7500   -17.1010    49.0190   127.0020   109.6660    94.2050    24.4250     2.2470 
  215.8750   -17.1950    49.2060   135.5140   116.8970   100.1610    24.4400     2.2420 
  216.0000   -17.2610    52.1540   144.4940   124.6870   106.0130    24.4670     2.2370 
  216.1250   -17.2970    54.6500   153.1230   132.3600   112.0300    24.5200     2.2340 
  216.2500   -17.3120    53.3970   160.6510   139.2770   116.2350    24.5980     2.2350 
  216.3750   -17.3050    50.6490   166.2040   144.6780   116.5570    24.6670     2.2400 
  216.5000   -17.2870    50.7670   169.7650   148.4540   115.4230    24.7110     2.2480 
  216.6250   -17.2800    51.8150   171.2650   150.5050   115.0080    24.7530     2.2540 
  216.7500   -17.2760    50.6230   170.6800   150.8110   115.4810    24.8130     2.2560 
  216.8750   -17.2660    48.4550   167.6490   149.0920   111.0100    24.8860     2.2500 
  217.0000   -17.2430    46.7640   162.6620   145.7380   100.8120    24.9560     2.2380 
  217.1250   -17.2090    46.1020   156.1140   141.0150    88.9640    25.0050     2.2250 
  217.2500   -17.1540    47.4900   148.6960   135.4240    79.7120    25.0040     2.2140 
  217.3750   -17.0850    50.0390   141.4740   129.7910    73.7130    24.9250     2.2100 
  217.5000   -16.9980    49.7910   135.3760   124.9800    71.3500    24.7880     2.2130 
  217.6250   -16.8890    47.6140   130.8760   121.4860    74.3030    24.6390     2.2200 
  217.7500   -16.7570    48.4490   128.0510   119.4540    79.3520    24.5460     2.2250 
  217.8750   -16.6250    52.3970   126.7640   118.8510    83.4830    24.5280     2.2240 
  218.0000   -16.4960    55.3030   126.0540   118.8870    86.8130    24.5350     2.2190 
  218.1250   -16.3740    55.3650   125.1340   118.8770    88.0210    24.5350     2.2130 
  218.2500   -16.2650    52.5540   123.3870   118.2220    86.7940    24.5090     2.2090 
  218.3750   -16.1460    49.4330   120.4760   116.4930    82.1800    24.4490     2.2090 
  218.5000   -16.0240    49.2160   116.9170   114.0360    78.4080    24.3730     2.2120 
  218.6250   -15.8960    50.2840   113.1940   111.2330    77.3480    24.3010     2.2160 
  218.7500   -15.7650    49.4290   109.6420   108.4080    78.8380    24.2480     2.2210 
  218.8750   -15.6480    48.2080   106.2970   105.6460    79.4040    24.2070     2.2250 
  219.0000   -15.5400    49.3030   102.8950   102.7620    75.7440    24.1690     2.2310 
  219.1250   -15.4370    50.8510    99.2780    99.5930    71.4570    24.1560     2.2370 
  219.2500   -15.3450    52.0630    95.4770    96.1390    68.8660    24.1730     2.2410 
  219.3750   -15.2970    53.7620    91.7550    92.6010    66.5250    24.1680     2.2430 
  219.5000   -15.2860    53.8070    88.4310    89.3180    64.1990    24.1260     2.2400 
  219.6250   -15.3070    51.5700    85.8050    86.6000    61.9300    24.0600     2.2340 
  219.7500   -15.3550    49.8500    84.1490    84.7440    60.9120    23.9990     2.2280 
  219.8750   -15.4190    50.4550    83.8720    84.1690    60.1770    23.9840     2.2260 
  220.0000   -15.4970    51.3300    84.8020    84.7540    59.6220    24.0510     2.2270 
  220.1250   -15.5960    51.4160    86.7170    86.3260    59.6180    24.2240     2.2290 
  220.2500   -15.7190    50.8040    89.0980    88.4390    59.8410    24.4480     2.2310 
  220.3750   -15.8550    50.7810    90.9310    90.1950    58.4390    24.6020     2.2320 
  220.5000   -15.9910    53.1550    91.2670    90.6620    53.7400    24.6640     2.2320 
  220.6250   -16.1320    57.7100    89.4980    89.1930    47.2710    24.6760     2.2310 
  220.7500   -16.2750    60.6940    85.6520    85.6910    41.7890    24.6510     2.2310 
  220.8750   -16.4400    59.9200    80.5980    80.8160    40.2830    24.5680     2.2320 
  221.0000   -16.6180    58.0030    76.0990    76.2340    43.0130    24.4220     2.2360 
  221.1250   -16.7700    56.8460    73.3250    73.1040    47.9910    24.2730     2.2400 
  221.2500   -16.9060    57.2120    72.8560    72.0690    51.8320    24.1970     2.2410 
  221.3750   -17.0350    58.0580    74.9410    73.4970    54.4460    24.2400     2.2360 
  221.5000   -17.1500    57.2800    78.5040    76.4710    61.0600    24.3850     2.2270 
  221.6250   -17.2480    54.5440    82.6550    80.1890    67.4940    24.5790     2.2160 
  221.7500   -17.3330    51.9470    86.5440    83.8230    70.3750    24.7610     2.2080 
  221.8750   -17.3730    49.9550    89.4130    86.5730    70.2310    24.8930     2.2060 
  222.0000   -17.3770    47.3630    91.3080    88.3770    71.3760    24.9900     2.2100 
  222.1250   -17.3680    45.4770    92.4720    89.4310    74.7240    25.0450     2.2180 
  222.2500   -17.3360    46.3010    93.1410    89.9840    81.3890    25.0400     2.2260 
  222.3750   -17.2580    48.6350    93.2250    90.0000    89.4790    24.9810     2.2290 
  222.5000   -17.1590    48.9710    92.6070    89.3830    96.4530    24.9020     2.2290 
  222.6250   -17.0480    48.8220    91.1770    88.0090    99.1880    24.8390     2.2270 
  222.7500   -16.9260    49.6350    89.0410    85.9410    95.8700    24.8050     2.2260 
  222.8750   -16.8130    49.9460    86.5630    83.4670    88.0170    24.7810     2.2260 
  223.0000   -16.7150    49.9530    84.3620    81.1550    80.4860    24.7710     2.2280 
  223.1250   -16.6460    50.1940    82.8830    79.4180    74.2140    24.7820     2.2280 
  223.2500   -16.6020    50.3230    82.3820    78.4910    70.0610    24.8240     2.2250 
  223.3750   -16.6090    49.5500    83.0190    78.5040    70.5820    24.9000     2.2180 
  223.5000   -16.6670    49.1830    84.4160    79.1240    74.4840    24.9790     2.2110 
  223.6250   -16.7630    50.0460    86.3390    80.1470    78.2620    25.0410     2.2040 
  223.7500   -16.8960    52.5000    88.6260    81.4460    80.4460    25.0880     2.2020 
  223.8750   -17.0560    54.8990    91.3380    83.0910    79.2870    25.1540     2.2100 
  224.0000   -17.2340    52.9780    94.5880    85.2050    76.8730    25.2510     2.2290 
  224.1250   -17.4320    47.7510    98.5420    87.9520    75.7430    25.3320     2.2560 
  224.2500   -17.6530    46.1770   103.1580    91.3250    75.3990    25.3550     2.2820 
  224.3750   -17.8900    47.8630   107.9510    94.9770    75.3960    25.3510     2.2910 
  224.5000   -18.1240    46.5010   111.9240    98.0950    81.7490    25.3880     2.2770 
  224.6250   -18.3560    43.6530   114.0280    99.8080   102.2740    25.4810     2.2450 
