~V
VERS. 2.00: Ver 2.00
~W
STRT.M 52.0000:
STOP.M 271.0000:
STEP.M 0.1250:
NULL. -999.2500:
UWI. F10212:
~C
DEPT.M :
GR.API :
RML.OHMM :
RI. :
RXO.OHMM :
CALI.CM :
SP.MV :
DEN.GM/CC :
~A
# ...
  187.0000    62.5590    65.0340    58.5940    67.7070    23.2670   -22.0580     2.2600 
  187.1250    63.4930    59.5330    54.2850    57.6010    23.2700   -21.9680     2.2570 
  187.2500    66.5650    52.5210    48.4650    36.7670    23.3410   -21.8960     2.2570 
  187.3750    70.3720    46.1520    42.9420    24.6510    23.5350   -21.8800     2.2630 
  187.5000    74.4600    41.8890    38.9590    23.0030    23.7620   -21.9300     2.2750 
  187.6250    75.8790    40.4110    37.1460    25.8880    24.0240   -22.0380     2.2910 
  187.7500    73.6480    40.7110    36.8840    24.7970    24.2340   -22.2080     2.3030 
  187.8750    68.6760    42.0290    37.7170    23.0080    24.2950   -22.4500     2.3100 
  188.0000    62.7380    43.7740    39.2190    22.3180    24.1670   -22.7720     2.3140 
  188.1250    59.0170    45.8290    41.2330    25.4060    24.0220   -23.1960     2.3290 
  188.2500    58.4480    48.5040    43.8380    30.1490    23.9930   -23.6910     2.3610 
  188.3750    62.2830    52.1920    47.3470    37.0670    24.1170   -24.2220     2.3900 
  188.5000    68.4110    56.9290    51.8900    48.4110    24.3050   -24.7370     2.3810 
  188.6250    71.2650    62.1790    57.1440    59.7220    24.4390   -25.2120     2.3270 
  188.7500    70.0150    66.8590    62.0450    60.4610    24.4830   -25.6500     2.2770 
  188.8750    68.2450    70.1690    65.6530    62.4080    24.4850   -26.0510     2.2520 
  189.0000    68.7920    71.6300    67.3210    67.7830    24.4830   -26.4220     2.2420 
  189.1250    69.7020    70.5200    66.2330    62.9450    24.4620   -26.7390     2.2340 
  189.2500    67.3340    67.0310    62.6630    53.3500    24.4120   -26.9960     2.2300 
  189.3750    63.1330    61.6310    57.1950    49.4600    24.3520   -27.2160     2.2370 
  189.5000    60.3330    55.6240    51.1680    51.2250    24.3910   -27.4350     2.2590 
  189.6250    62.4440    51.2620    46.5290    46.6720    24.6240   -27.6930     2.2910 
  189.7500    66.6320    50.0770    44.3930    37.6050    24.8780   -27.9880     2.3140 
  189.8750    68.2940    53.0150    45.5120    33.6020    25.0220   -28.3050     2.3170 
  190.0000    66.0110    60.3350    50.3670    39.7750    25.0980   -28.6070     2.3040 
  190.1250    63.0650    72.0310    59.6460    57.8290    25.0860   -28.9060     2.2880 
  190.2500    61.7550    85.7240    71.7780    71.3170    24.9820   -29.2080     2.2750 
  190.3750    61.8830    98.9750    84.7160    79.3230    24.7790   -29.5010     2.2640 
  190.5000    63.3620   109.6040    96.0170    77.1620    24.4440   -29.7850     2.2600 
  190.6250    65.6220   117.1720   104.3770    76.1260    24.0800   -30.0480     2.2580 
  190.7500    65.7330   124.3640   111.8230    76.9400    23.7090   -30.2790     2.2520 
  190.8750    62.8870   132.4820   119.6630    80.1710    23.3640   -30.4930     2.2430 
  191.0000    59.6310   140.6210   127.3510    84.8840    23.2700   -30.7130     2.2360 
  191.1250    58.6730   145.5910   132.2360    96.4700    23.5850   -30.9280     2.2390 
  191.2500    60.2150   145.8800   132.9260   105.4050    24.1230   -31.1580     2.2470 
  191.3750    61.9910   142.2120   129.7790    98.7610    24.6020   -31.4030     2.2540 
  191.5000    63.3990   137.3490   124.9990    80.0400    24.8210   -31.6410     2.2580 
  191.6250    63.7670   134.8270   121.8030    71.7530    24.8180   -31.8710     2.2610 
  191.7500    62.1610   135.6390   121.5520    78.2830    24.7120   -32.0680     2.2600 
  191.8750    59.1990   139.4510   124.2100    91.2090    24.5340   -32.2460     2.2540 
  192.0000    57.3070   145.5320   129.2260   103.2700    24.3750   -32.4220     2.2440 
  192.1250    57.6160   153.7390   136.4480    93.1230    24.2580   -32.6170     2.2350 
  192.2500    57.1190   164.3130   145.8520    83.1510    24.1250   -32.8310     2.2240 
  192.3750    55.3090   178.6970   158.5950    75.7760    23.8820   -33.0440     2.2100 
  192.5000    53.8470   214.5460   176.2580    80.4300    23.5210   -33.2580     2.1950 
  192.6250    53.2110   244.3830   200.7740    87.3820    23.1330   -33.4140     2.1840 
  192.7500    52.7690   279.3330   229.5720    87.5760    22.9020   -33.5540     2.1770 
  192.8750    52.7050   313.5290   258.1120    78.6370    22.8310   -33.7040     2.1760 
  193.0000    52.3480   338.3880   279.9720    67.6160    22.8270   -33.8680     2.1810 
  193.1250    51.0750   344.5180   287.7920    61.5290    22.8280   -34.0100     2.1910 
  193.2500    50.4100   336.5940   284.1460    62.5180    22.8280   -34.0940     2.2050 
  193.3750    51.9590   321.8360   273.9950    65.3520    22.8230   -34.1460     2.2180 
  193.5000    53.9340   307.4050   263.0710    65.8240    22.8070   -34.1800     2.2260 
  193.6250    53.7090   299.4810   256.9160    64.9450    22.7740   -34.2250     2.2260 
  193.7500    52.2020   299.1880   257.2750    64.5520    22.7580   -34.2620     2.2240 
  193.8750    51.9160   305.3030   263.7350    65.6170    22.7570   -34.2570     2.2200 
  194.0000    53.4110   313.2350   272.9480    67.7300    22.7590   -34.1860     2.2150 
  194.1250    54.4600   313.2740   277.2220    69.7530    22.7540   -34.0640     2.2090 
  194.2500    54.9950   300.0770   270.9930    70.3650    22.7360   -33.9420     2.2070 
  194.3750    56.0410   275.2690   253.8690    69.2470    22.7010   -33.8100     2.2090 
  194.5000    58.5230   245.9590   230.5400    64.7050    22.6550   -33.6850     2.2080 
  194.6250    61.5760   220.4560   208.1150    56.8770    22.5930   -33.5810     2.2040 
  194.7500    63.3690   201.6530   190.7290    52.8840    22.5470   -33.4930     2.2030 
  194.8750    62.0950   189.4670   179.1750    53.3760    22.5250   -33.4140     2.2060 
  195.0000    58.2660   182.5530   172.6840    56.1270    22.5070   -33.3620     2.2110 
  195.1250    57.3550   179.0560   169.8570    57.8850    22.4810   -33.3500     2.2120 
  195.2500    59.5050   175.7180   167.6350    57.0760    22.4240   -33.3560     2.2080 
  195.3750    60.9360   170.4560   163.9070    54.6130    22.3770   -33.3850     2.2050 
  195.5000    59.3900   162.4020   157.5320    52.7830    22.3470   -33.4230     2.2050 
  195.6250    58.1410   152.3990   148.8060    52.9380    22.3620   -33.4690     2.2050 
  195.7500    60.5150   143.2380   140.2250    53.7000    22.3840   -33.5110     2.2020 
  195.8750    65.8690   137.0820   133.9560    55.6310    22.4350   -33.5490     2.2010 
  196.0000    69.6290   135.2620   131.5330    60.8370    22.5400   -33.5750     2.2040 
  196.1250    67.3710   138.8310   134.2840    67.6660    22.6870   -33.5780     2.2120 
  196.2500    63.0910   146.1320   140.8700    76.1380    22.8180   -33.5630     2.2190 
  196.3750    61.3970   155.3850   149.7170    80.6720    22.8550   -33.5570     2.2220 
  196.5000    62.9720   164.1800   158.5540    73.9920    22.7940   -33.5570     2.2180 
  196.6250    64.8040   169.5270   164.4700    67.8730    22.7040   -33.5620     2.2120 
  196.7500    65.0480   170.8950   166.6350    67.1610    22.6610   -33.6000     2.2100 
  196.8750    63.5840   168.8980   165.3950    70.5540    22.6720   -33.6880     2.2150 
  197.0000    61.2990   164.8360   161.8910    76.2090    22.6840   -33.8380     2.2220 
  197.1250    60.4150   159.8690   157.2490    81.5350    22.7410   -34.0500     2.2270 
  197.2500    60.4780   154.8320   152.3980    83.6600    22.8650   -34.3410     2.2300 
  197.3750    60.1960   150.0170   147.6610    87.7060    23.0720   -34.6880     2.2300 
  197.5000    59.8910   145.6130   143.2620    94.2440    23.3380   -35.0710     2.2310 
  197.6250    61.4130   141.8100   139.4630   101.3750    23.5650   -35.4740     2.2330 
  197.7500    63.7430   138.4820   136.2160   102.8820    23.5330   -35.8490     2.2390 
  197.8750    63.9160   135.4780   133.3870    95.7350    23.2260   -36.1510     2.2480 
  198.0000    61.9030   132.6170   130.7520    88.7360    22.9460   -36.3650     2.2620 
  198.1250    61.4550   129.7310   128.0460    88.0490    22.8910   -36.4870     2.2790 
