~V
VERS. 2.00: Ver 2.00
~W
STRT.M 50.0000:
STOP.M 274.0000:
STEP.M 0.1250:
NULL. -999.2500:
UWI. F10208:
~C
DEPT.M :
SP.MV :
DEN.GM/CC :
GR.API :
RML.OHMM :
RI. :
RXO.OHMM :
CALI.CM :
~A
# ...
   95.0000   -19.6280     2.3790    56.2800    13.0250     9.0710    27.5770    23.6500 
   95.1250   -20.2870     2.3610    56.5490    13.3450     9.6920    27.2850    23.4670 
   95.2500   -20.9860     2.3120    58.2680    12.5030     9.4930    18.2080    23.2320 
   95.3750   -21.6300     2.2580    59.2390    11.1410     8.7490    12.8710    23.2900 
   95.5000   -22.1970     2.2260    58.8060     9.9620     7.9150    11.1890    23.3540 
   95.6250   -22.6520     2.2260    58.4950     9.4090     7.3600    10.9760    22.9450 
   95.7500   -23.0030     2.2370    57.9520     9.3540     7.1320    10.9690    22.5050 
   95.8750   -23.2620     2.2390    57.0080     9.5940     7.1610    11.0550    22.2240 
   96.0000   -23.4790     2.2250    56.4490     9.9140     7.3180    11.2750    22.0280 
   96.1250   -23.7030     2.2040    56.5300    10.1360     7.4760    11.6100    21.8460 
   96.2500   -23.9460     2.1870    55.3470    10.2210     7.5680    12.1860    21.5750 
   96.3750   -24.2210     2.1740    55.0220    10.1720     7.5840    12.6220    21.3800 
   96.5000   -24.5470     2.1550    58.2850    10.0200     7.5280    12.4990    21.4520 
   96.6250   -24.9220     2.1180    61.1760     9.8140     7.4190    11.9020    21.5600 
   96.7500   -25.2890     2.0690    60.0970     9.6320     7.3020    11.0930    21.7110 
   96.8750   -25.6000     2.0250    57.2000     9.5230     7.2110    10.3840    21.9530 
   97.0000   -25.8350     2.0070    55.6820     9.5070     7.1700    10.0130    22.0940 
   97.1250   -25.9600     2.0400    55.7870     9.5730     7.1890    10.2060    22.2770 
   97.2500   -26.0210     2.1100    55.4460     9.6530     7.2370    10.6490    22.6430 
   97.3750   -26.0500     2.1900    54.3580     9.6960     7.2790    10.7790    23.1610 
   97.5000   -26.0670     2.2460    52.2550     9.6620     7.2830    10.7480    23.6000 
   97.6250   -26.0640     2.2530    51.8320     9.5400     7.2240    10.8040    23.8680 
   97.7500   -26.0460     2.2280    52.4140     9.3830     7.1290    11.1270    23.9890 
   97.8750   -26.0320     2.1940    51.0540     9.2360     7.0280    11.4870    24.1280 
   98.0000   -26.0120     2.1680    49.4770     9.1270     6.9440    11.5490    24.1840 
   98.1250   -25.9710     2.1550    52.1830     9.0540     6.8850    11.3020    24.2000 
   98.2500   -25.9170     2.1490    56.6460     8.9800     6.8310    11.1800    24.2040 
   98.3750   -25.8640     2.1460    56.5870     8.8780     6.7620    11.0120    24.1930 
   98.5000   -25.7980     2.1440    51.5620     8.7400     6.6670    10.6840    24.1810 
   98.6250   -25.7480     2.1420    49.5190     8.5810     6.5530    10.3150    24.1210 
   98.7500   -25.7190     2.1410    52.6330     8.4360     6.4450    10.0620    23.9920 
   98.8750   -25.7170     2.1400    55.4630     8.3310     6.3610     9.8370    23.8520 
   99.0000   -25.7310     2.1420    53.5090     8.2770     6.3170     9.7040    23.7040 
   99.1250   -25.7750     2.1480    49.7700     8.2690     6.3200     9.5430    23.6290 
   99.2500   -25.8470     2.1540    48.8410     8.2680     6.3440     9.4090    23.5730 
   99.3750   -25.9230     2.1570    50.2060     8.2430     6.3640     9.3700    23.5720 
   99.5000   -25.9810     2.1530    51.6250     8.1770     6.3570     9.4620    23.5690 
   99.6250   -25.9810     2.1400    52.2210     8.0790     6.3080     9.5250    23.5330 
   99.7500   -25.9330     2.1230    52.5920     7.9890     6.2410     9.4930    23.5010 
   99.8750   -25.8290     2.1080    54.0450     7.9500     6.1900     9.4630    23.4820 
  100.0000   -25.6880     2.1000    55.7990     7.9990     6.1860     9.4940    23.4220 
  100.1250   -25.5110     2.1020    54.4990     8.1670     6.2620     9.6960    23.2240 
  100.2500   -25.2760     2.1060    50.9850     8.3980     6.3900    10.0070    23.1220 
  100.3750   -24.9910     2.1080    48.0000     8.5950     6.5160    10.1400    23.1290 
  100.5000   -24.6570     2.1060    46.8230     8.6260     6.5530    10.1070    23.2670 
  100.6250   -24.2370     2.1050    48.1270     8.3460     6.3920     9.9970    23.4980 
  100.7500   -23.7290     2.1140    51.1110     7.8510     6.0720     9.7080    23.7370 
  100.8750   -23.1570     2.1400    55.5880     7.3290     5.6980     8.9850    23.8300 
  101.0000   -22.5760     2.1820    60.4380     7.0020     5.4130     8.0070    23.7550 
  101.1250   -22.0750     2.2220    62.4290     7.1270     5.3950     7.3580    23.7350 
  101.2500   -21.7000     2.2390    61.2350     7.7000     5.6800     7.9250    23.6750 
  101.3750   -21.4710     2.2250    60.0370     8.6380     6.2540     9.5610    23.6490 
  101.5000   -21.3850     2.1840    60.1450     9.7300     7.0290    12.2680    23.7900 
  101.6250   -21.4920     2.1310    57.9790    10.5830     7.7870    15.4180    23.7410 
  101.7500   -21.7910     2.0870    53.4140    10.9260     8.2820    15.9590    23.6470 
  101.8750   -22.2780     2.0650    51.7400    10.7350     8.4090    13.4130    23.6280 
  102.0000   -22.8690     2.0690    55.6540    10.2140     8.2370    11.5460    23.7970 
  102.1250   -23.4870     2.0980    58.5390     9.6600     7.9350    10.8920    24.0020 
  102.2500   -24.0740     2.1360    56.0620     9.2590     7.6690    10.7060    24.2640 
  102.3750   -24.5700     2.1720    50.3040     9.0510     7.4940    10.9560    24.4870 
  102.5000   -24.9620     2.1970    45.2430     9.0150     7.4160    11.3750    24.6370 
  102.6250   -25.2250     2.2080    43.2340     9.1360     7.4380    11.4220    24.8000 
  102.7500   -25.4200     2.2120    42.1940     9.3610     7.5430    11.0090    24.8720 
  102.8750   -25.4640     2.2100    42.4390     9.6650     7.7260    10.8220    24.8860 
  103.0000   -25.4200     2.2000    44.1060    10.0030     7.9630    10.8250    24.7600 
  103.1250   -25.2280     2.1860    45.9260    10.2790     8.1890    10.8070    24.7060 
  103.2500   -24.9680     2.1740    45.9720    10.3980     8.3270    10.6730    24.6690 
  103.3750   -24.6910     2.1720    45.0960    10.3150     8.3270    10.5440    24.6960 
  103.5000   -24.4190     2.1780    45.3980    10.0620     8.1890    10.5650    24.6520 
  103.6250   -24.1980     2.1860    47.5990     9.7550     7.9690    10.7680    24.5970 
  103.7500   -23.9550     2.1870    49.9690     9.5200     7.7660    10.9470    24.4900 
  103.8750   -23.7770     2.1840    51.6710     9.4070     7.6290    10.9870    24.3960 
  104.0000   -23.6440     2.1790    53.5900     9.4120     7.5790    10.8900    24.2460 
  104.1250   -23.5660     2.1740    55.7190     9.4950     7.6050    10.7540    23.9830 
  104.2500   -23.5400     2.1680    56.2470     9.5810     7.6530    10.7400    23.6290 
  104.3750   -23.5100     2.1630    55.4110     9.6380     7.6950    10.8490    23.3340 
  104.5000   -23.5030     2.1590    53.3190     9.6600     7.7210    11.0140    23.2110 
  104.6250   -23.4670     2.1590    50.9130     9.6590     7.7350    11.0570    23.2770 
  104.7500   -23.4520     2.1610    50.0070     9.6640     7.7510    11.0110    23.3670 
  104.8750   -23.4410     2.1600    49.3890     9.7120     7.7900    10.8530    23.4140 
  105.0000   -23.4300     2.1520    48.9420     9.8330     7.8700    10.8560    23.4710 
  105.1250   -23.4650     2.1420    50.0270    10.0420     8.0050    10.9660    23.4570 
  105.2500   -23.5060     2.1390    53.0470    10.2790     8.1680    11.1410    23.5450 
  105.3750   -23.6120     2.1500    54.4990    10.4700     8.3200    11.6010    23.6380 
  105.5000   -23.7170     2.1760    52.5180    10.5450     8.4160    12.8970    23.8100 
  105.6250   -23.8570     2.2060    51.4940    10.4460     8.3960    14.1780    23.8530 
  105.7500   -23.9830     2.2270    51.7130    10.2240     8.2750    13.2530    24.1480 
  105.8750   -24.0710     2.2290    52.4210     9.9420     8.0850    11.7450    24.4050 
  106.0000   -24.1560     2.2110    52.6900     9.6720     7.8780    10.9010    24.4740 
  106.1250   -24.1900     2.1810    50.5320     9.5130     7.7310    10.6710    24.4630 
