~V
VERS. 2.00: Ver 2.00
~W
STRT.M 55.0000:
STOP.M 276.0000:
STEP.M 0.1250:
NULL. -999.2500:
UWI. F10239:
~C
DEPT.M :
SP.MV :
DEN.GM/CC :
GR.API :
RML.OHMM :
RI. :
RXO.OHMM :
CALI.CM :
~A
# ...
  122.5000    -4.9480     2.3900    78.7750     6.4380     6.0550     7.0480    24.5010 
  122.6250    -4.6980     2.3990    77.3580     6.8630     6.3450     7.2930    24.5500 
  122.7500    -4.5260     2.4060    75.2600     7.8250     7.0330     7.5680    24.6650 
  122.8750    -4.4050     2.4090    73.7600     9.5040     8.2620     9.1380    24.7780 
  123.0000    -4.3400     2.4140    70.3370    12.0730    10.2280    13.5760    24.7940 
  123.1250    -4.3530     2.4280    63.3840    15.5600    13.1130    21.6950    24.7450 
  123.2500    -4.4610     2.4480    55.9130    19.7370    16.9390    28.3470    24.6810 
  123.3750    -4.6290     2.4590    51.4880    23.9500    21.1350    28.0220    24.6620 
  123.5000    -4.8360     2.4600    50.6410    27.6690    25.0380    28.3270    24.6640 
  123.6250    -5.0770     2.4560    50.8260    30.6110    28.1310    32.4160    24.6810 
  123.7500    -5.3350     2.4570    49.1940    32.8720    30.3690    34.5370    24.7250 
  123.8750    -5.6160     2.4610    46.2630    34.9040    32.2740    35.1570    24.7810 
  124.0000    -5.9200     2.4630    45.1570    36.8820    34.1100    35.3290    24.8200 
  124.1250    -6.2270     2.4640    46.2650    38.8190    35.9130    36.5790    24.8510 
  124.2500    -6.5060     2.4610    47.2180    40.7450    37.6770    39.6220    24.8700 
  124.3750    -6.7570     2.4580    47.6960    42.6910    39.4270    43.2500    24.8800 
  124.5000    -6.9750     2.4600    48.3720    44.4300    41.0050    44.9650    24.8840 
  124.6250    -7.1540     2.4670    49.2080    45.4360    42.0040    45.2240    24.8960 
  124.7500    -7.2900     2.4770    49.0520    45.0890    41.9190    46.2800    24.9300 
  124.8750    -7.3870     2.4940    48.5720    43.4330    40.7580    46.6960    24.9960 
  125.0000    -7.4440     2.5160    47.8520    40.8250    38.7820    44.0680    25.1020 
  125.1250    -7.4510     2.5310    47.2040    37.8780    36.4690    37.6760    25.2750 
  125.2500    -7.4110     2.5310    47.5060    35.2380    34.3400    31.7690    25.4910 
  125.3750    -7.3260     2.5260    48.0230    33.2760    32.7280    30.3570    25.6220 
  125.5000    -7.2040     2.5250    47.7260    32.1400    31.7860    30.4890    25.6520 
  125.6250    -7.0440     2.5330    46.7840    31.7670    31.5140    29.9070    25.5950 
  125.7500    -6.8500     2.5460    47.2450    31.8370    31.6920    28.4810    25.4930 
  125.8750    -6.6500     2.5570    49.1260    31.7730    31.8070    28.0530    25.4580 
  126.0000    -6.4390     2.5600    49.8650    31.1820    31.4650    29.4780    25.5050 
  126.1250    -6.2320     2.5560    48.7930    29.8910    30.4360    31.4570    25.4850 
  126.2500    -6.0410     2.5470    47.2960    27.9800    28.7390    30.3730    25.2700 
  126.3750    -5.9000     2.5400    47.4290    25.8730    26.7620    27.1830    24.9390 
  126.5000    -5.8300     2.5350    49.1650    23.9270    24.8500    25.0030    24.6270 
  126.6250    -5.8410     2.5360    50.5000    22.4590    23.3110    23.2340    24.4010 
  126.7500    -5.9020     2.5380    49.4250    21.7220    22.3970    21.2290    24.2540 
  126.8750    -5.9630     2.5390    47.9970    21.6520    22.0940    20.0810    24.1410 
  127.0000    -6.0300     2.5410    48.2480    22.1590    22.3550    19.9840    24.1050 
  127.1250    -6.1190     2.5500    48.3680    23.1400    23.1100    22.0960    24.2800 
  127.2500    -6.2460     2.5630    46.1630    24.5010    24.2930    27.1670    24.6260 
  127.3750    -6.3800     2.5730    44.6720    26.1870    25.7130    31.9830    24.8410 
  127.5000    -6.4930     2.5770    46.1900    28.3690    27.1980    31.6420    24.9260 
  127.6250    -6.5680     2.5820    48.4030    29.9420    28.5160    29.4100    24.9320 
  127.7500    -6.6340     2.5890    48.8760    30.8330    29.3650    29.0180    24.8980 
  127.8750    -6.7130     2.5910    48.7470    31.0930    29.6120    28.3780    24.9020 
  128.0000    -6.7880     2.5790    48.2360    30.7220    29.2590    27.7300    25.0220 
  128.1250    -6.8430     2.5520    46.7110    29.8670    28.4460    27.2370    25.2370 
  128.2500    -6.8640     2.5210    45.7270    28.7740    27.4040    25.7220    25.3660 
  128.3750    -6.8690     2.4990    48.2570    27.7390    26.4180    23.4630    25.4030 
  128.5000    -6.8830     2.4940    52.8690    26.9080    25.6260    22.9620    25.3930 
  128.6250    -6.9220     2.5020    54.2500    26.2920    25.0400    24.6350    25.4010 
  128.7500    -6.9610     2.5150    50.3340    25.7990    24.5710    26.2220    25.4270 
  128.8750    -6.9870     2.5300    46.4540    25.2520    24.0500    25.6400    25.4380 
  129.0000    -7.0090     2.5440    45.9180    24.4910    23.3250    22.8640    25.3870 
  129.1250    -7.0350     2.5540    48.2470    23.4060    22.2920    20.2300    25.2680 
  129.2500    -7.0790     2.5550    50.6290    22.0220    20.9730    18.6960    25.1140 
  129.3750    -7.1400     2.5470    49.9560    20.5700    19.5900    17.5820    24.9810 
  129.5000    -7.2150     2.5320    46.6810    19.2560    18.3400    15.9140    24.9140 
  129.6250    -7.3210     2.5100    45.6970    18.2760    17.4060    14.7690    24.9140 
  129.7500    -7.5120     2.4870    49.9600    17.7710    16.9260    14.4220    24.9480 
  129.8750    -7.7480     2.4720    53.8120    17.6690    16.8280    14.9130    24.9740 
  130.0000    -7.9870     2.4700    53.7030    17.8660    17.0160    15.5380    24.9760 
  130.1250    -8.2030     2.4780    51.8190    18.2110    17.3440    15.9280    24.9550 
  130.2500    -8.3720     2.4890    50.9500    18.5120    17.6310    15.9860    24.9410 
  130.3750    -8.4850     2.4950    50.8930    18.6300    17.7420    16.1740    24.9200 
  130.5000    -8.5580     2.4950    51.1240    18.5310    17.6490    16.1560    24.8380 
  130.6250    -8.6010     2.4890    51.9710    18.2560    17.3870    16.4190    24.6520 
  130.7500    -8.5850     2.4820    53.1640    17.8750    17.0240    16.4020    24.4170 
  130.8750    -8.5340     2.4810    54.3190    17.4960    16.6630    15.8130    24.3140 
  131.0000    -8.4500     2.4860    57.0040    17.2090    16.3900    15.0930    24.3260 
  131.1250    -8.3350     2.4930    59.7090    17.1030    16.2890    15.0380    24.4130 
  131.2500    -8.2030     2.5000    59.4840    17.2590    16.4370    15.4840    24.5890 
  131.3750    -8.0780     2.5100    57.0130    17.6430    16.8030    16.3650    24.8850 
  131.5000    -7.9660     2.5220    54.0410    18.1770    17.3120    17.9650    25.3060 
  131.6250    -7.8450     2.5240    51.0510    18.7010    17.8100    19.7160    25.7530 
  131.7500    -7.7220     2.5130    48.6120    19.0240    18.1180    20.7300    26.0490 
  131.8750    -7.5980     2.4990    48.9640    19.0930    18.1840    20.5300    26.1420 
  132.0000    -7.4850     2.4880    51.0260    18.9540    18.0510    19.2460    26.0720 
  132.1250    -7.3900     2.4880    51.9550    18.7130    17.8230    17.3090    25.9080 
  132.2500    -7.3000     2.5000    51.1560    18.4820    17.6020    16.7030    25.7300 
  132.3750    -7.2110     2.5150    49.9750    18.3020    17.4300    17.8920    25.7700 
  132.5000    -7.1140     2.5170    48.8840    18.1260    17.2630    19.5310    26.0520 
  132.6250    -7.0240     2.5010    48.8990    17.8490    16.9990    18.8810    26.3530 
  132.7500    -6.9590     2.4840    51.8460    17.3490    16.5230    17.4160    26.4940 
  132.8750    -6.9390     2.4790    55.0620    16.6250    15.8330    15.7610    26.5190 
  133.0000    -6.9790     2.4860    55.7440    15.7570    15.0060    14.5880    26.5160 
  133.1250    -7.0610     2.4900    54.0460    14.9120    14.2020    13.4940    26.5220 
  133.2500    -7.1620     2.4810    52.5540    14.3080    13.6260    12.4820    26.4950 
  133.3750    -7.2630     2.4710    52.1650    14.0600    13.3900    12.0720    26.3400 
  133.5000    -7.3560     2.4740    51.4090    14.2140    13.5370    12.3310    26.0580 
  133.6250    -7.4450     2.4920    50.3620    14.7300    14.0490    13.1750    25.7740 
