~V
VERS. 2.00: Ver 2.00
~W
STRT.M 60.0000:
STOP.M 271.0000:
STEP.M 0.1250:
NULL. -999.2500:
UWI. F10205:
~C
DEPT.M :
DEN.GM/CC :
GR.API :
RML.OHMM :
RI. :
RXO.OHMM :
CALI.CM :
SP.MV :
~A
   60.0000  -999.2500    57.6590 919079.5000     0.2620     0.1890    25.6850   214.4460 
   60.1250  -999.2500    58.0280 919079.5000     0.2610     0.2250    25.6620   213.4690 
   60.2500  -999.2500    60.7090 919079.5000     0.2610     0.2600    25.6510   212.6300 
   60.3750  -999.2500    62.1710 916626.3750     0.2610     0.2800    25.6500   212.0470 
   60.5000  -999.2500    62.3560 931218.8130     0.2620     0.2720    25.6460   211.6080 
   60.6250  -999.2500    63.4000 914846.8130     0.2610     0.2300    25.6220   211.1120 
   60.7500  -999.2500    64.1770 729440.6250     0.2610     0.2050    25.5620   210.3870 
   60.8750  -999.2500    61.8270 387297.7810     0.2610     0.2120    25.4660   209.2040 
   61.0000  -999.2500    58.3160 77711.3980     0.2640     0.2420    25.3680   207.2070 
   61.1250  -999.2500    56.5340  -999.2500     0.2710     0.2580    25.3510   203.6350 
   61.2500  -999.2500    55.1970  -999.2500     0.2780     0.2620    25.3650   198.6960 
   61.3750     1.9700    53.5370   821.3140     0.2840     0.2810    25.3270   196.4710 
   61.5000     1.9700    52.9560    12.1800     0.2900     0.3440    25.2110   191.2830 
   61.6250     1.9800    54.0730   838.2700     0.2970     0.4490    25.0200   184.2620 
   61.7500     1.9860    55.8530  -999.2500     0.3060     0.5630    24.8860   176.9430 
   61.8750     1.9900    57.4950  -999.2500     0.3160     0.7130    24.8220   169.3620 
   62.0000     1.9960    58.3380 94156.7340     0.3230     0.7890    24.7720   161.7910 
   62.1250     2.0040    57.5390 251448.0940     0.3190     0.7180    24.6910   154.5170 
   62.2500     2.0130    56.3530 268963.1250     0.3020     0.6560    24.6090   147.8840 
   62.3750     2.0220    54.8950 129503.6640     0.2750     0.6210    24.5620   141.8370 
   62.5000     2.0450    52.1670  -999.2500     0.2480     0.6170    24.5570   136.3450 
   62.6250     2.1220    50.1680  -999.2500     0.2390     0.5270    24.5950   131.2950 
   62.7500     2.2650    51.7890  1640.2040     0.2490     0.4410    24.6310   126.1740 
   62.8750     2.4470    54.3550     2.4510     0.2650     0.3940    24.6340   120.6910 
   63.0000     2.5960    55.1450    -0.1630     0.2720     0.3910    24.5730   114.4830 
   63.1250     2.6010    56.3000    -0.3270     0.2710     0.4670    24.4720   107.0360 
   63.2500     2.4540    58.7140    -0.2850     0.3160     0.8220    24.3570    97.7440 
   63.3750     2.1990    61.1790    -0.0710     0.5010     1.7860    24.3810    86.3730 
   63.5000     1.9220    63.8970     0.5330     0.9500     3.3660    25.0440    73.7170 
   63.6250     1.7060    68.4920     2.0670     1.8050     4.6550    27.5120    60.7080 
   63.7500     1.5650    72.3940     4.1250     2.8970     5.5980    31.0250    48.0950 
   63.8750     1.4880    75.3620     5.6920     3.9470     6.4110    33.8510    36.3330 
   64.0000     1.4680    79.0210     6.0150     4.6910     6.4830    35.0100    25.8420 
   64.1250     1.5320    83.3940     5.3740     5.0090     5.6230    34.9230    17.3930 
   64.2500     1.6710    86.9680     4.8760     5.1160     5.1100    33.5360    11.5440 
   64.3750     1.8550    91.4580     4.8850     5.1650     5.0700    30.1800     8.3780 
   64.5000     2.0290    99.4270     5.3570     5.2460     5.4210    27.0080     6.9690 
   64.6250     2.1430   109.8470     6.1700     5.4430     5.3490    25.8070     6.2190 
   64.7500     2.2050   115.6140     7.0420     5.7970     5.1440    25.7210     5.4410 
   64.8750     2.2450   112.3670     7.7890     6.3340     5.2350    25.8490     4.4660 
   65.0000     2.2840   101.2470     8.3660     7.0300     5.7520    25.8600     3.1670 
   65.1250     2.3150    92.1070     8.8400     7.7640     6.8580    25.6500     1.6060 
   65.2500     2.3200    87.8240     9.2410     8.3190     7.9640    25.4760    -0.1560 
   65.3750     2.2970    85.4090     9.4230     8.5190     8.5330    25.4120    -2.0060 
   65.5000     2.2620    84.4720     9.2150     8.2930     8.7070    25.4380    -3.7670 
   65.6250     2.2400    87.6010     8.5410     7.6930     8.5100    25.4690    -5.3700 
   65.7500     2.2380    94.0760     7.6940     6.9840     7.6160    25.4800    -6.6750 
   65.8750     2.2450    98.9340     6.9460     6.3470     6.3890    25.4400    -7.6220 
   66.0000     2.2520    99.0660     6.5170     5.9070     5.9190    25.3450    -8.2220 
   66.1250     2.2610    96.0990     6.6110     5.7880     6.0280    25.2880    -8.5410 
   66.2500     2.2870    93.1800     7.1870     5.9660     6.3810    25.2610    -8.7440 
   66.3750     2.3350    91.8510     8.1800     6.4070     6.4430    25.2900    -8.9650 
   66.5000     2.3930    91.0470     9.3860     7.0110     6.8940    25.3720    -9.3820 
   66.6250     2.4220    87.7410    10.4010     7.5910    10.4420    25.4590   -10.0590 
   66.7500     2.3950    81.8370    10.9510     7.9820    16.5790    25.5180   -11.0760 
   66.8750     2.3120    74.8110    11.0230     8.1390    16.8500    25.8220   -12.4030 
   67.0000     2.2030    70.2090    10.7880     8.1320    11.6910    26.3560   -13.8560 
   67.1250     2.1200    69.2600    10.4520     8.0930     9.1190    26.7790   -15.2060 
   67.2500     2.0900    68.8200    10.1390     8.1110     9.0030    26.6720   -16.3550 
   67.3750     2.1090    68.5530     9.8310     8.1660    11.5680    25.9640   -17.2890 
   67.5000     2.1520    69.0640     9.4510     8.1730    17.3470    25.0640   -18.0670 
   67.6250     2.1880    71.1410     8.9210     8.0150    14.9000    24.6130   -18.7090 
   67.7500     2.2040    71.9880     8.3280     7.7090     9.7510    24.4530   -19.2150 
   67.8750     2.2030    73.1600     7.8040     7.3360     7.9100    24.6170   -19.5870 
   68.0000     2.1960    76.4740     7.4510     6.9970     8.0360    24.8310   -19.8800 
   68.1250     2.1910    79.6390     7.3190     6.7780     8.3870    25.0210   -20.1770 
   68.2500     2.1850    81.4630     7.3110     6.6590     8.4970    25.1840   -20.5210 
   68.3750     2.1680    81.8330     7.3580     6.6010     8.5890    25.3020   -20.8960 
   68.5000     2.1440    82.3430     7.4250     6.5740     8.8730    25.3550   -21.2710 
   68.6250     2.1400    82.3410     7.5430     6.5780     8.8330    25.3170   -21.5690 
   68.7500     2.1760    83.2090     7.7600     6.6220     8.3970    25.1870   -21.7260 
   68.8750     2.2470    84.5690     8.0850     6.7060     8.0100    25.0320   -21.7830 
   69.0000     2.3230    83.7180     8.4620     6.8090     7.8240    24.9220   -21.8510 
   69.1250     2.3590    81.5680     8.7360     6.8960     8.0120    24.8770   -22.0340 
   69.2500     2.3460    80.0740     8.7920     6.9470     8.5300    24.8610   -22.3360 
   69.3750     2.2990    78.7980     8.6180     6.9620     8.9790    24.8150   -22.6800 
   69.5000     2.2470    77.8000     8.2990     6.9580     9.1380    24.6940   -23.0290 
   69.6250     2.2100    77.4170     7.9860     6.9610     9.3500    24.4810   -23.4270 
   69.7500     2.1910    77.4700     7.7980     6.9880     9.9290    24.2600   -23.8650 
   69.8750     2.1860    78.0520     7.8000     7.0410    10.4990    24.0680   -24.2620 
   70.0000     2.1900    78.4350     7.9970     7.1080    10.1520    23.8370   -24.5000 
   70.1250     2.2040    77.2980     8.2440     7.1510     9.8340    23.7440   -24.4740 
   70.2500     2.2250    75.6860     8.2620     7.1230     9.7550    23.8260   -24.1920 
   70.3750     2.2500    75.4750     7.8970     6.9800     9.7170    24.0270   -23.6260 
   70.5000     2.2720    77.7330     7.2050     6.6950     9.0620    24.3730   -22.7360 
   70.6250     2.2840    82.8200     6.4050     6.2610     7.3940    24.8360   -21.4560 
   70.7500     2.2820    90.1190     5.7060     5.7670     5.8150    25.2030   -19.9040 
   70.8750     2.2690    96.6910     5.1720     5.2930     5.1210    25.3920   -18.2290 
   71.0000     2.2500   100.2610     4.8200     4.9030     4.8080    25.5190   -16.5350 
   71.1250     2.2320   102.9570     4.6720     4.6600     4.5470    25.6670   -14.9790 
