~V
VERS. 2.00: Ver 2.00
~W
STRT.M 53.0000:
STOP.M 276.0000:
STEP.M 0.1250:
NULL. -999.2500:
UWI. F10245:
~C
DEPT.M :
GR.API :
RML.OHMM :
RI. :
RXO.OHMM :
CALI.CM :
DEN.GM/CC :
SP.MV :
~A
# ...
  120.5000    84.1420     5.4800     4.7900     6.0010    23.8660     2.2750    -2.2370 
  120.6250    88.0850     5.3560     4.6990     5.7830    24.1630     2.2720    -2.1110 
  120.7500    88.5040     5.3510     4.6800     5.6770    24.4660     2.2730    -1.9630 
  120.8750    84.7280     5.4720     4.7530     5.6530    24.5730     2.2860    -1.8110 
  121.0000    83.0620     5.6710     4.8960     5.9260    24.5500     2.3120    -1.6840 
  121.1250    89.0110     5.8550     5.0530     6.8500    24.5290     2.3360    -1.6140 
  121.2500    94.8690     5.9500     5.1620     7.8560    24.5360     2.3380    -1.5930 
  121.3750    92.9630     5.9370     5.1930     7.5880    24.5640     2.3180    -1.6410 
  121.5000    84.9100     5.8450     5.1540     6.4670    24.5850     2.2890    -1.7350 
  121.6250    78.9240     5.7350     5.0760     6.0280    24.5920     2.2690    -1.8120 
  121.7500    77.2270     5.6510     5.0020     5.9810    24.5920     2.2620    -1.8640 
  121.8750    79.1250     5.5930     4.9410     5.9970    24.5920     2.2620    -1.9260 
  122.0000    84.4050     5.5340     4.8830     5.9470    24.5920     2.2650    -2.0000 
  122.1250    90.5110     5.4310     4.7980     5.9230    24.5920     2.2710    -2.0580 
  122.2500    91.6110     5.2840     4.6790     5.9280    24.5920     2.2830    -2.1170 
  122.3750    89.4220     5.1190     4.5420     5.8230    24.5920     2.2990    -2.1840 
  122.5000    89.5710     4.9860     4.4210     5.5580    24.5920     2.3140    -2.2460 
  122.6250    91.5700     4.9550     4.3700     5.3420    24.5820     2.3180    -2.3210 
  122.7500    91.0650     5.0370     4.4070     5.2200    24.5560     2.3100    -2.4300 
  122.8750    89.3300     5.2130     4.5270     5.2950    24.5060     2.2950    -2.5300 
  123.0000    87.5870     5.4330     4.6990     5.5500    24.4210     2.2790    -2.6210 
  123.1250    85.1090     5.6250     4.8740     5.9060    24.2900     2.2740    -2.6880 
  123.2500    83.4010     5.7410     5.0060     6.1320    24.2370     2.2840    -2.7130 
  123.3750    83.5030     5.7600     5.0650     6.1850    24.2040     2.3070    -2.6970 
  123.5000    83.0340     5.6880     5.0450     5.9710    24.0910     2.3360    -2.6780 
  123.6250    81.5690     5.5430     4.9490     5.9820    23.8590     2.3580    -2.6400 
  123.7500    81.6320     5.3780     4.8190     5.9950    23.6790     2.3670    -2.5660 
  123.8750    83.8760     5.2290     4.6860     5.8270    23.6240     2.3660    -2.4740 
  124.0000    85.3880     5.1200     4.5750     5.3720    23.6690     2.3580    -2.3930 
  124.1250    81.1420     5.0670     4.5040     5.1010    23.8490     2.3460    -2.3510 
  124.2500    74.2670     5.0470     4.4650     5.1450    24.1290     2.3310    -2.3610 
  124.3750    72.1280     5.0420     4.4470     5.3900    24.4690     2.3130    -2.3940 
  124.5000    77.0510     5.0410     4.4420     5.5290    24.7470     2.3000    -2.4630 
  124.6250    82.8120     5.0630     4.4560     5.5110    24.8350     2.3000    -2.5630 
  124.7500    84.0810     5.1390     4.5030     5.4560    24.7110     2.3080    -2.7170 
  124.8750    81.6000     5.2930     4.6010     5.4830    24.5360     2.3130    -2.9270 
  125.0000    76.9900     5.5180     4.7510     5.6360    24.4040     2.3070    -3.1730 
  125.1250    72.1030     5.7630     4.9310     5.9640    24.3240     2.2890    -3.4090 
  125.2500    70.7030     5.9520     5.0900     6.4810    24.2360     2.2730    -3.5990 
  125.3750    71.3000     6.0450     5.1980     6.8250    24.1420     2.2700    -3.7330 
  125.5000    70.7470     6.0660     5.2600     6.7100    24.0730     2.2820    -3.7980 
  125.6250    68.6660     6.1250     5.3390     6.3600    24.1830     2.3070    -3.8200 
  125.7500    67.9960     6.3480     5.5240     6.2940    24.3990     2.3370    -3.7900 
  125.8750    68.8010     6.7940     5.8660     6.9330    24.5700     2.3750    -3.6870 
  126.0000    68.5030     7.4100     6.3510     8.1970    24.6280     2.4200    -3.5320 
  126.1250    68.7560     7.9980     6.8630     9.8520    24.6100     2.4630    -3.3910 
  126.2500    71.3310     8.3180     7.2160    11.3170    24.5960     2.4830    -3.2800 
  126.3750    73.9470     8.2290     7.2770    12.2360    24.6030     2.4680    -3.2100 
  126.5000    73.1440     7.7430     7.0110    11.6130    24.6370     2.4260    -3.1740 
  126.6250    70.0830     7.0350     6.5050     9.4590    24.7050     2.3800    -3.1580 
  126.7500    68.6300     6.3960     5.9910     7.4630    24.7350     2.3450    -3.1510 
  126.8750    69.2400     5.9700     5.6010     6.6820    24.7430     2.3260    -3.1670 
  127.0000    69.7760     5.7820     5.3820     6.5010    24.7420     2.3200    -3.1830 
  127.1250    69.4430     5.7860     5.3300     6.4610    24.7370     2.3240    -3.1800 
  127.2500    71.5700     5.8490     5.3520     6.4510    24.7210     2.3310    -3.1930 
  127.3750    76.2610     5.8880     5.3830     6.3620    24.6940     2.3360    -3.2380 
  127.5000    79.6060     5.8510     5.3690     6.1960    24.6780     2.3390    -3.2890 
  127.6250    78.9810     5.7010     5.2680     6.0210    24.6710     2.3370    -3.3760 
  127.7500    77.0870     5.4680     5.0930     5.8480    24.6620     2.3320    -3.4970 
  127.8750    76.8390     5.1960     4.8720     5.6760    24.6330     2.3290    -3.6600 
  128.0000    77.8050     4.9500     4.6530     5.5980    24.5450     2.3290    -3.8340 
  128.1250    77.1930     4.8260     4.5110     5.4140    24.3570     2.3300    -4.0500 
  128.2500    75.7010     4.8610     4.4840     5.2260    24.0880     2.3290    -4.3110 
  128.3750    73.7170     5.0640     4.5890     5.0660    23.8130     2.3220    -4.6000 
  128.5000    73.0990     5.3980     4.8100     5.2550    23.6540     2.3090    -4.9230 
  128.6250    72.2790     5.7930     5.1100     5.7560    23.7280     2.2930    -5.2490 
  128.7500    67.9800     6.1570     5.4180     6.4650    23.9020     2.2810    -5.5620 
  128.8750    63.8620     6.4490     5.6930     7.0010    24.0220     2.2740    -5.8620 
  129.0000    63.1790     6.6710     5.9220     7.2250    24.0450     2.2700    -6.2010 
  129.1250    64.7770     6.8530     6.1090     7.2910    24.0330     2.2680    -6.5780 
  129.2500    63.7480     7.0260     6.2750     7.2550    24.0290     2.2660    -6.9500 
  129.3750    62.2790     7.1880     6.4200     7.2240    24.0210     2.2600    -7.3260 
  129.5000    64.3410     7.3150     6.5300     7.4220    23.9860     2.2490    -7.6990 
  129.6250    68.8060     7.3740     6.5830     7.6990    23.8890     2.2350    -8.0750 
  129.7500    70.1890     7.3790     6.5870     7.7890    23.7520     2.2210    -8.4690 
  129.8750    67.3370     7.3660     6.5660     7.9300    23.5840     2.2130    -8.8770 
  130.0000    64.0180     7.3720     6.5520     8.1950    23.4470     2.2120    -9.2820 
  130.1250    65.0730     7.4380     6.5830     8.3800    23.4240     2.2170    -9.6550 
  130.2500    67.1000     7.5630     6.6670     8.4170    23.4990     2.2210   -10.0250 
  130.3750    64.5530     7.7400     6.8080     8.3630    23.6520     2.2210   -10.3900 
  130.5000    59.5680     7.9660     7.0030     8.2910    23.8400     2.2110   -10.7490 
  130.6250    57.1490     8.2580     7.2640     8.2600    23.9740     2.1900   -11.0820 
  130.7500    57.3770     8.6110     7.5860     8.3500    24.0540     2.1630   -11.3970 
  130.8750    58.4290     9.0020     7.9500     8.6060    24.1720     2.1330   -11.6750 
  131.0000    59.0030     9.3680     8.3140     8.9550    24.4010     2.1090   -11.8870 
  131.1250    61.1610     9.6000     8.5950     9.3440    24.5830     2.0970   -12.0180 
  131.2500    62.6480     9.6500     8.7400     9.7840    24.5110     2.0970   -12.0650 
  131.3750    61.1610     9.5410     8.7280    10.1800    24.2520     2.1060   -12.0150 
  131.5000    58.3640     9.3140     8.5780    10.3640    24.0190     2.1220   -11.8770 
  131.6250    58.2630     9.0640     8.3250     9.2900    23.8870     2.1430   -11.6590 
