~V
VERS. 2.00: Ver 2.00
~W
STRT.M 57.0000:
STOP.M 274.0000:
STEP.M 0.1250:
NULL. -999.2500:
UWI. F10215:
~C
DEPT.M :
SP.MV :
DEN.GM/CC :
GR.API :
RML.OHMM :
RI. :
RXO.OHMM :
CALI.CM :
~A
# ...
  169.5000   -19.0900     2.2120    60.8200   169.3000   154.0170   189.2170    23.6900 
  169.6250   -19.1360     2.2200    60.7970   157.9190   144.2560   138.8570    23.7270 
  169.7500   -19.1850     2.2150    60.9850   149.2700   136.1780   110.8350    23.7880 
  169.8750   -19.2480     2.1920    58.9130   145.2100   131.7380    92.3930    23.8590 
  170.0000   -19.3300     2.1570    54.6510   146.1120   131.6780    92.9590    23.8870 
  170.1250   -19.4020     2.1270    52.8470   151.2300   135.8020    98.4040    23.8960 
  170.2500   -19.4590     2.1140    56.2630   157.2690   141.3620   114.8500    23.8770 
  170.3750   -19.5200     2.1150    61.4010   161.3300   145.8290   118.8080    23.8760 
  170.5000   -19.5690     2.1200    62.8990   160.9070   146.8010   131.7670    23.8990 
  170.6250   -19.6120     2.1200    61.0400   154.2840   142.2300   121.4220    23.9650 
  170.7500   -19.6310     2.1170    61.1840   144.2060   133.9950   104.3420    24.0310 
  170.8750   -19.6310     2.1190    63.4930   133.6180   124.5230    92.5860    24.1030 
  171.0000   -19.6190     2.1290    64.0070   125.1850   116.2990    81.0600    24.1080 
  171.1250   -19.6150     2.1440    62.3550   121.3570   111.7230    74.7310    24.0820 
  171.2500   -19.6140     2.1610    62.3040   122.0320   111.0180    74.6950    24.0850 
  171.3750   -19.6270     2.1800    61.6960   126.9830   114.1250    82.0380    24.0940 
  171.5000   -19.6390     2.2030    57.8120   135.6380   120.6440    89.7570    24.0190 
  171.6250   -19.6440     2.2200    54.6470   147.6920   130.3860    97.7000    23.9290 
  171.7500   -19.6550     2.2160    55.5870   161.9940   142.2610   103.7420    23.8930 
  171.8750   -19.6660     2.1880    56.9030   178.1250   155.8590   113.1870    23.9690 
  172.0000   -19.6770     2.1410    56.0300   195.3150   170.5670   138.7790    24.1240 
  172.1250   -19.6880     2.0890    56.5190   211.1180   184.5020   161.7420    24.2080 
  172.2500   -19.6990     2.0500    57.8730   222.1370   194.8100   165.4910    24.2100 
  172.3750   -19.7010     2.0350    58.3980   225.5520   198.9120   152.2940    24.0910 
  172.5000   -19.7090     2.0480    58.4950   220.9730   195.9350   134.9780    23.8600 
  172.6250   -19.7140     2.0880    58.8620   211.0480   187.3900   126.9320    23.6860 
  172.7500   -19.7340     2.1340    59.1530   201.3520   178.1960   115.1360    23.6000 
  172.8750   -19.7450     2.1680    60.2510   194.7550   171.2870   103.5470    23.6160 
  173.0000   -19.7530     2.1820    63.5030   192.3110   168.0480   101.8890    23.6910 
  173.1250   -19.7460     2.1770    66.0690   194.0710   168.9770   117.3300    23.7910 
  173.2500   -19.7390     2.1620    64.2750   197.4110   171.9010   144.7150    23.8220 
  173.3750   -19.7270     2.1390    59.6260   199.9800   174.6670   157.3360    23.8210 
  173.5000   -19.7120     2.1120    57.1390   200.2200   175.5760   146.9310    23.7810 
  173.6250   -19.7120     2.0890    58.4560   198.2380   174.1800   126.7830    23.7200 
  173.7500   -19.7100     2.0800    58.4640   196.5500   172.4350   112.9600    23.6170 
  173.8750   -19.7210     2.0930    55.9760   197.3880   172.3560   104.8650    23.5650 
  174.0000   -19.7200     2.1240    56.0460   202.0800   175.4200    97.3850    23.5090 
  174.1250   -19.7370     2.1630    61.3070   210.6290   182.0960   108.6130    23.4860 
  174.2500   -19.7480     2.1930    62.9930   220.1040   190.0540   110.6250    23.5160 
  174.3750   -19.7730     2.2080    57.6550   227.8140   196.9480   108.5670    23.5850 
  174.5000   -19.7940     2.2070    51.7850   231.6750   200.7480   119.9830    23.7520 
  174.6250   -19.8190     2.1910    53.4480   230.5740   200.0720   147.8560    23.9480 
  174.7500   -19.8350     2.1710    58.0170   226.9360   196.7690   167.2740    24.1090 
  174.8750   -19.8500     2.1570    61.8000   222.9330   192.7640   169.1810    24.1720 
  175.0000   -19.9000     2.1540    65.1800   220.0580   189.6000   162.6900    24.2120 
  175.1250   -19.9410     2.1630    66.6320   219.1780   188.3420   155.1740    24.1860 
  175.2500   -19.9860     2.1750    64.0540   219.9460   188.8160   159.6120    24.1620 
  175.3750   -20.0030     2.1850    60.5040   221.8860   190.6100   165.5540    24.1090 
  175.5000   -20.0350     2.1910    60.5970   224.2440   192.9610   170.3690    24.0060 
  175.6250   -20.0460     2.1930    63.7420   225.8020   194.7210   166.2710    23.9570 
  175.7500   -20.0420     2.1920    65.7980   225.2110   194.7690   168.4740    23.9940 
  175.8750   -20.0290     2.1890    64.8670   220.9850   191.9290   165.8720    24.0690 
  176.0000   -19.9940     2.1850    61.5580   212.3300   185.4640   165.4330    24.0760 
  176.1250   -19.9560     2.1790    59.9940   199.6870   175.4620   158.4720    24.0850 
  176.2500   -19.9210     2.1750    61.5520   186.2720   164.4410   153.9610    24.0100 
  176.3750   -19.9050     2.1750    63.9930   174.6690   154.5870   137.5990    23.9490 
  176.5000   -19.8730     2.1800    63.3350   166.7160   147.6430   118.4470    23.9360 
  176.6250   -19.8660     2.1900    60.5690   163.6090   144.9930   119.3880    24.0360 
  176.7500   -19.8800     2.1970    60.2920   163.5470   145.3710   125.0430    24.1750 
  176.8750   -19.9080     2.1960    63.0000   164.5890   147.2480   126.2100    24.2060 
  177.0000   -19.9240     2.1880    64.6440   164.4980   148.6860   120.1660    24.0630 
  177.1250   -19.9350     2.1810    62.2010   160.5780   147.0890   113.0100    23.7550 
  177.2500   -19.9460     2.1790    60.2150   152.6350   141.7040   106.3720    23.6770 
  177.3750   -19.9610     2.1830    60.6450   141.6210   132.9790   102.2090    23.8750 
  177.5000   -19.9860     2.1890    62.0420   129.3040   122.3900   101.6550    24.2560 
  177.6250   -19.9800     2.1940    62.8510   117.5920   111.7360    95.0800    24.5520 
  177.7500   -19.9780     2.1960    63.5000   107.5550   102.2620    81.9560    24.6430 
  177.8750   -19.9660     2.1980    63.8090    99.7620    94.5880    73.5780    24.5920 
  178.0000   -19.9630     2.2010    63.1280    94.5880    89.1210    74.2420    24.4870 
  178.1250   -19.9650     2.2090    62.1270    92.9040    86.7040    74.8520    24.4350 
  178.2500   -19.9700     2.2220    61.1730    94.6480    87.3670    71.1450    24.4170 
  178.3750   -19.9660     2.2350    60.1900   100.1790    91.5180    67.3090    24.4390 
  178.5000   -19.9710     2.2430    59.6700   109.5600    99.3440    69.7010    24.4300 
  178.6250   -20.0110     2.2410    59.9460   122.3180   110.7020    88.4550    24.4080 
  178.7500   -20.0510     2.2330    61.6760   135.3710   122.9530   113.4250    24.4240 
  178.8750   -20.1000     2.2250    63.6080   145.2050   132.9710   130.9790    24.4040 
  179.0000   -20.1610     2.2220    63.6400   148.7540   137.7160   133.5610    24.3510 
  179.1250   -20.2300     2.2200    62.5820   144.7910   135.3440   121.9580    24.2780 
  179.2500   -20.2960     2.2170    61.8340   137.6090   129.2660   111.2690    24.2330 
  179.3750   -20.3810     2.2100    62.9030   130.3990   122.4290    97.0750    24.2340 
  179.5000   -20.4500     2.2010    65.1680   124.7460   116.6130    89.6260    24.2820 
  179.6250   -20.5280     2.1930    65.3080   120.9390   112.3590    90.2820    24.3080 
  179.7500   -20.5970     2.1890    63.2360   118.3580   109.1720    95.1310    24.3600 
  179.8750   -20.6610     2.1870    60.8410   117.1860   107.1600    97.1100    24.4070 
  180.0000   -20.7320     2.1890    60.6520   118.1570   106.9060    90.5390    24.4140 
  180.1250   -20.8020     2.1930    62.1090   123.0980   109.9500    81.8990    24.4090 
  180.2500   -20.8700     2.1990    62.9850   132.7280   117.0060    81.9150    24.3920 
  180.3750   -20.9280     2.2050    62.7910   147.7020   128.7890    96.8630    24.3950 
  180.5000   -20.9900     2.2100    61.4610   167.7470   145.2400   118.5810    24.3440 
  180.6250   -21.0480     2.2110    59.7270   191.3140   165.2420   139.5900    24.3270 
