~V
VERS. 2.00: Ver 2.00
~W
STRT.M 60.0000:
STOP.M 276.0000:
STEP.M 0.1250:
NULL. -999.2500:
UWI. F10216:
~C
DEPT.M :
DEN.GM/CC :
GR.API :
RML.OHMM :
RI. :
RXO.OHMM :
CALI.CM :
SP.MV :
~A
# ...
  217.5000     2.1970    59.0200   125.4560   116.6840   133.7440    24.2530   -19.6760 
  217.6250     2.1810    57.8290   119.0810   111.9970   136.2940    24.3080   -19.6510 
  217.7500     2.1760    55.0110   107.9090   102.2410   118.8060    24.2810   -19.6380 
  217.8750     2.1750    55.8740    96.8710    91.7660    87.6010    24.1750   -19.6250 
  218.0000     2.1740    59.8740    89.3280    83.9400    68.3750    24.0990   -19.6360 
  218.1250     2.1740    61.2520    87.1380    80.8810    81.7240    24.1250   -19.6190 
  218.2500     2.1780    59.3940    88.8970    81.5890    96.5160    24.2130   -19.6040 
  218.3750     2.1810    57.7720    93.4060    85.1090    97.2120    24.2920   -19.6170 
  218.5000     2.1790    58.7930    99.2540    90.2590    91.5110    24.3220   -19.6150 
  218.6250     2.1700    59.3470   104.7110    95.5100   101.1460    24.3290   -19.6660 
  218.7500     2.1580    57.5930   108.4870    99.4610   114.6580    24.3290   -19.6770 
  218.8750     2.1510    55.5100   109.9900   101.4380   112.7370    24.3730   -19.6750 
  219.0000     2.1500    55.3210   109.1220   101.2710   103.6510    24.4280   -19.6790 
  219.1250     2.1540    57.2490   105.9640    98.8760   100.2650    24.4160   -19.6700 
  219.2500     2.1590    58.7620   101.8810    95.3460    96.9990    24.3270   -19.6800 
  219.3750     2.1640    59.2620    97.9790    91.6690    94.7670    24.2700   -19.6810 
  219.5000     2.1710    58.9220    94.9120    88.5650    95.2490    24.2680   -19.6810 
  219.6250     2.1770    59.0460    92.7750    86.2900    93.2080    24.2430   -19.6910 
  219.7500     2.1820    59.0970    90.9990    84.4420    89.7060    24.2340   -19.7040 
  219.8750     2.1900    58.2340    89.1630    82.6840    86.8330    24.2210   -19.7260 
  220.0000     2.2030    57.4620    86.9220    80.7010    84.1350    24.2260   -19.7510 
  220.1250     2.2200    57.1530    83.9960    78.2110    83.3560    24.2290   -19.7810 
  220.2500     2.2300    57.4670    80.5380    75.2850    82.5120    24.2550   -19.8200 
  220.3750     2.2270    59.9000    76.7160    72.0430    78.9000    24.2540   -19.8500 
  220.5000     2.2110    63.2970    72.7230    68.6220    73.1200    24.2570   -19.9010 
  220.6250     2.1920    63.9540    68.8320    65.2260    69.7420    24.2740   -19.9060 
  220.7500     2.1790    64.1950    65.3330    62.1120    67.4530    24.3010   -19.9420 
  220.8750     2.1750    65.7460    62.4550    59.5110    65.3320    24.3230   -19.9780 
  221.0000     2.1760    66.5070    60.3270    57.5830    60.6800    24.3280   -19.9890 
  221.1250     2.1750    65.3350    59.0650    56.4840    57.2390    24.3350   -20.0450 
  221.2500     2.1700    64.0490    58.3390    55.9480    58.7670    24.3280   -20.0700 
  221.3750     2.1650    62.6960    57.8280    55.7040    61.3430    24.3300   -20.1220 
  221.5000     2.1640    60.7650    57.1880    55.4390    62.0290    24.3360   -20.1630 
  221.6250     2.1690    59.8610    56.1080    54.8520    60.6850    24.3440   -20.1830 
  221.7500     2.1810    60.5200    54.6780    53.9410    59.7970    24.3060   -20.2130 
  221.8750     2.1970    61.8690    53.1610    52.8720    59.3670    24.2330   -20.2330 
  222.0000     2.2140    63.9640    51.8550    51.8770    57.5550    24.1480   -20.2510 
  222.1250     2.2280    64.8840    50.9550    51.1200    53.9370    24.1850   -20.2680 
  222.2500     2.2370    63.8880    50.3110    50.5180    51.2940    24.2170   -20.2830 
  222.3750     2.2400    62.6120    49.7570    49.9520    51.9430    24.1780   -20.2790 
  222.5000     2.2370    61.9320    49.0810    49.2360    54.0760    24.0570   -20.2600 
  222.6250     2.2340    62.7710    47.9550    48.0110    52.7450    23.9370   -20.2560 
  222.7500     2.2370    63.3400    46.2850    46.1490    50.0300    23.8790   -20.2520 
  222.8750     2.2450    62.7540    44.1960    43.7520    52.1280    23.8370   -20.2440 
  223.0000     2.2590    61.6440    42.1910    41.2900    53.0300    23.8010   -20.2570 
  223.1250     2.2720    60.8370    41.4430    39.7760    45.7590    23.7350   -20.2530 
  223.2500     2.2770    62.1270    42.8850    40.0120    38.5650    23.7530   -20.2640 
  223.3750     2.2760    64.4990    47.4170    42.7770    36.4400    23.7720   -20.2760 
  223.5000     2.2700    65.1050    55.7540    48.8100    43.0950    23.7940   -20.2900 
  223.6250     2.2620    61.2400    68.8160    59.2090    82.6130    23.7850   -20.3360 
  223.7500     2.2520    56.6730    85.0790    72.8330   198.4440    23.7240   -20.3370 
  223.8750     2.2390    54.7640   102.5180    87.9090   264.2850    23.7030   -20.3470 
  224.0000     2.2230    54.4200   118.5180   101.9670   178.0520    23.8340   -20.3350 
  224.1250     2.2060    54.5440   130.7530   112.6330   137.4500    24.0460   -20.2800 
  224.2500     2.1890    54.8270   139.9590   120.3620   120.9250    24.2170   -20.2180 
  224.3750     2.1740    56.4690   146.4830   125.5720   128.7460    24.3080   -20.1150 
  224.5000     2.1660    59.8760   149.3900   127.7500   149.2340    24.3240   -20.0210 
  224.6250     2.1740    62.1810   146.6550   125.3120   156.5000    24.3260   -19.9240 
  224.7500     2.1940    61.4200   140.3370   119.6760   144.9070    24.3290   -19.8360 
  224.8750     2.2180    57.9480   133.4420   113.0930   126.2120    24.3220   -19.7670 
  225.0000     2.2320    54.8280   128.7980   107.9540   103.6770    24.2940   -19.7060 
  225.1250     2.2260    53.6340   128.8580   106.5990    93.4330    24.2590   -19.6810 
  225.2500     2.2100    53.4440   133.2350   109.0220   106.7350    24.2720   -19.6740 
  225.3750     2.2040    54.1790   141.3740   114.8230   127.1960    24.2630   -19.6810 
  225.5000     2.2270    56.3870   152.5600   123.3060   135.8740    24.2130   -19.6910 
  225.6250     2.2750    58.2960   166.3510   133.9850   118.9310    24.1100   -19.6850 
  225.7500     2.3130    56.9340   181.1810   145.6240   119.9590    24.0830   -19.6830 
  225.8750     2.3130    53.6680   194.9320   156.8120   151.6160    24.0870   -19.6580 
  226.0000     2.2770    52.9560   203.9060   165.0680   205.1700    24.1000   -19.6200 
  226.1250     2.2190    56.4230   201.1830   165.3610   232.7310    23.9570   -19.5910 
  226.2500     2.1790    58.8020   186.4720   156.4130   261.3220    23.8350   -19.5300 
  226.3750     2.1760    57.3230   164.2910   140.3260   337.1890    23.7110   -19.4970 
  226.5000     2.2170    54.5890   141.8320   122.2390   285.3390    23.6330   -19.4400 
  226.6250     2.3060    55.1330   125.0140   107.7330   165.2930    23.7230   -19.3800 
  226.7500     2.4220    59.0980   113.4140    97.7660   108.3300    23.9320   -19.3290 
  226.8750     2.5350    62.2300   105.1060    91.0870    91.8400    24.0790   -19.2590 
  227.0000     2.6120    61.1610    98.0060    85.8540    99.2220    24.0390   -19.2170 
  227.1250     2.6290    58.3580    90.5060    80.5080   110.1480    24.0620   -19.1480 
  227.2500     2.6120    58.7600    82.1260    74.4030    91.9180    24.1390   -19.0720 
  227.3750     2.5880    62.4440    73.0990    67.5430    63.7760    24.1320   -19.0150 
  227.5000     2.5760    64.2660    64.0880    60.3080    52.4730    24.0540   -18.9640 
  227.6250     2.5730    62.0630    56.1380    53.4870    56.8280    24.0670   -18.9160 
  227.7500     2.5720    59.9490    49.5060    47.5320    56.7060    24.1400   -18.8800 
  227.8750     2.5720    61.1590    43.7620    42.2520    45.1680    24.2200   -18.8390 
  228.0000     2.5790    65.3540    37.9980    36.9140    37.1830    24.2250   -18.7890 
  228.1250     2.5840    68.0440    31.4800    30.8320    45.2870    24.1900   -18.7410 
  228.2500     2.5720    66.8210    24.7470    24.5310    51.7830    24.1620   -18.7050 
  228.3750     2.5380    62.6060    18.7210    18.8860    31.0820    24.1020   -18.6600 
  228.5000     2.4870    60.4700    14.1240    14.5280    13.2760    24.0930   -18.6280 
  228.6250     2.4340    64.0230    11.3750    11.8020    10.0370    24.1930   -18.6050 
