~V
VERS. 2.00: Ver 2.00
~W
STRT.M 57.0000:
STOP.M 274.0000:
STEP.M 0.1250:
NULL. -999.2500:
UWI. F10215:
~C
DEPT.M :
SP.MV :
DEN.GM/CC :
GR.API :
RML.OHMM :
RI. :
RXO.OHMM :
CALI.CM :
~A
# ...
  214.5000   -19.2390     2.2050    56.4240   128.4270   106.7970   135.0750    21.9010 
  214.6250   -19.1460     2.2000    53.5790   128.7020   107.3850   117.9160    22.4540 
  214.7500   -19.0620     2.1930    52.4530   127.2690   106.3830    99.1100    22.8830 
  214.8750   -18.9650     2.1850    53.5650   125.5150   104.9190    77.8880    23.1010 
  215.0000   -18.8800     2.1800    55.5740   124.0370   103.6480    64.0880    23.1090 
  215.1250   -18.7890     2.1780    57.6080   122.7150   102.6770    61.9920    23.0530 
  215.2500   -18.7010     2.1760    58.2810   121.2590   101.7690    66.8620    23.1640 
  215.3750   -18.6310     2.1720    57.6250   119.7730   100.9260    72.4990    23.3240 
  215.5000   -18.5820     2.1660    56.9840   118.5840   100.3330    73.5310    23.4440 
  215.6250   -18.5510     2.1650    56.6280   117.8030   100.0970    76.5500    23.5360 
  215.7500   -18.5220     2.1680    56.4430   116.5960    99.6360    92.9730    23.5650 
  215.8750   -18.5120     2.1740    55.9510   113.7300    97.9980   110.7750    23.5650 
  216.0000   -18.4920     2.1820    55.8870   108.2480    94.3240   116.9740    23.5030 
  216.1250   -18.5020     2.1930    59.6170    99.9800    88.2010   101.4170    23.4360 
  216.2500   -18.5110     2.2050    65.0130    90.8460    80.9970    85.0550    23.4040 
  216.3750   -18.5160     2.2130    68.5220    82.4140    73.9800    74.1300    23.3990 
  216.5000   -18.5180     2.2110    67.3880    75.6640    68.0950    67.1650    23.3790 
  216.6250   -18.5380     2.1980    64.4450    71.0170    63.8940    62.5670    23.3700 
  216.7500   -18.5590     2.1800    65.1200    67.6420    60.8280    58.5380    23.3550 
  216.8750   -18.5700     2.1670    67.3260    64.8910    58.3910    54.6100    23.3230 
  217.0000   -18.5870     2.1640    66.8760    62.1780    56.0750    54.5780    23.3030 
  217.1250   -18.5750     2.1770    64.2620    59.0430    53.4470    56.7040    23.2610 
  217.2500   -18.5570     2.1960    63.2350    55.5170    50.4690    55.2180    23.1800 
  217.3750   -18.5210     2.2160    64.8350    51.8330    47.2910    48.7010    23.0440 
  217.5000   -18.4720     2.2310    66.6500    48.3460    44.1890    40.1300    22.9700 
  217.6250   -18.3900     2.2360    67.5010    45.5660    41.6070    35.5690    22.9150 
  217.7500   -18.3170     2.2310    67.2330    43.6360    39.7240    36.5210    22.8980 
  217.8750   -18.2440     2.2200    66.8440    42.5530    38.5700    38.5690    22.8770 
  218.0000   -18.1560     2.2090    67.4750    42.1610    38.0270    39.5440    22.8280 
  218.1250   -18.0730     2.2050    68.5460    42.2050    37.9040    39.6670    22.8140 
  218.2500   -17.9980     2.2090    69.2840    42.2830    37.8700    38.9450    22.9270 
  218.3750   -17.9420     2.2150    69.2050    42.2010    37.7790    37.8110    23.0410 
  218.5000   -17.8890     2.2170    67.7870    41.8980    37.5970    36.9270    23.0940 
  218.6250   -17.8710     2.2090    66.3180    41.3910    37.3470    34.9780    23.0870 
  218.7500   -17.8380     2.1930    65.1820    40.7580    37.0610    32.4300    23.0190 
  218.8750   -17.8320     2.1780    65.2670    39.9970    36.7110    28.8680    22.8490 
  219.0000   -17.8480     2.1700    66.9520    39.0890    36.2470    26.5260    22.6220 
  219.1250   -17.8880     2.1750    69.6070    38.0520    35.6150    25.1140    22.3900 
  219.2500   -17.9280     2.1880    69.7720    37.0510    34.9040    24.6850    22.2400 
  219.3750   -17.9770     2.2060    67.5750    36.2370    34.2330    24.5460    22.1500 
  219.5000   -18.0320     2.2230    67.8280    35.6540    33.6810    24.6830    22.1260 
  219.6250   -18.0940     2.2360    70.3280    35.0580    33.1040    26.5870    22.1220 
  219.7500   -18.1770     2.2460    69.3490    34.0080    32.1460    27.3850    22.1450 
  219.8750   -18.2500     2.2590    65.4120    32.2530    30.5560    27.4250    22.2080 
  220.0000   -18.3390     2.2800    62.2040    29.8890    28.3870    27.8550    22.3890 
  220.1250   -18.4280     2.3010    63.7240    27.4060    26.0260    25.5500    22.7670 
  220.2500   -18.5290     2.3130    66.5040    25.4930    24.0460    21.5070    23.0510 
  220.3750   -18.6300     2.3120    66.8440    24.6520    22.8540    19.7280    23.2370 
  220.5000   -18.7430     2.3000    65.3230    25.1620    22.6960    20.7070    23.3280 
  220.6250   -18.8580     2.2860    64.4920    27.3280    23.8590    24.0800    23.3830 
  220.7500   -18.9700     2.2740    64.6780    30.9110    26.1890    27.6090    23.4050 
  220.8750   -19.0770     2.2630    62.9560    35.9240    29.7250    34.0440    23.4460 
  221.0000   -19.1660     2.2520    58.9440    42.4010    34.4940    48.0180    23.5570 
  221.1250   -19.2590     2.2460    58.4700    50.9350    40.9100    49.7440    23.6890 
  221.2500   -19.3250     2.2450    62.0910    62.0260    49.3920    52.0230    23.7350 
  221.3750   -19.4050     2.2430    64.9350    76.5540    60.8600    70.1350    23.7100 
  221.5000   -19.4600     2.2340    62.9650    94.8150    75.8310   102.4210    23.6990 
  221.6250   -19.5110     2.2150    59.0890   115.4440    93.5300   128.9920    23.7020 
  221.7500   -19.5370     2.1930    56.7530   133.7300   110.1300   146.1470    23.7110 
  221.8750   -19.5640     2.1740    55.0110   144.9650   121.7400   174.4170    23.6860 
  222.0000   -19.5840     2.1600    53.6920   146.7270   126.0020   204.3470    23.7380 
  222.1250   -19.5990     2.1480    55.2480   138.3090   121.6970   165.9330    23.9180 
  222.2500   -19.6300     2.1420    57.9070   122.3620   110.5220   136.0150    24.0820 
  222.3750   -19.6340     2.1500    58.6440   100.4100    93.1680   125.0030    24.1600 
  222.5000   -19.6520     2.1800    58.4840    76.1650    72.3040   125.6450    24.1860 
  222.6250   -19.6570     2.2330    59.4010    55.2160    52.9640    83.5850    24.2120 
  222.7500   -19.6840     2.2910    60.1840    39.5820    38.0530    38.3200    24.1090 
  222.8750   -19.7240     2.3380    60.7410    28.8830    27.7340    20.8820    23.9060 
  223.0000   -19.7820     2.3690    64.0980    21.8380    20.9410    18.2120    23.7450 
  223.1250   -19.8570     2.3850    71.9500    17.5620    16.7700    17.7210    23.7210 
  223.2500   -19.9320     2.3960    77.9580    14.9330    14.0960    14.5030    23.7440 
  223.3750   -20.0490     2.3990    79.8670    13.6950    12.6430    11.0540    23.7510 
  223.5000   -20.1800     2.3920    81.7420    13.8430    12.3270     9.3960    23.7520 
  223.6250   -20.3500     2.3720    85.6600    15.8920    13.4780    11.6160    23.6910 
  223.7500   -20.5200     2.3440    84.3920    19.8490    16.1760    18.1220    23.6280 
  223.8750   -20.7080     2.3110    76.2420    25.7350    20.6700    24.4580    23.6080 
  224.0000   -20.8900     2.2800    68.7010    33.0540    26.8740    32.5290    23.6620 
  224.1250   -21.0790     2.2660    67.9330    40.3410    33.7920    44.7350    23.7010 
  224.2500   -21.2810     2.2740    68.9090    45.8670    39.4690    53.9550    23.7460 
  224.3750   -21.4780     2.3000    68.8890    49.1200    42.9670    51.1320    23.7560 
  224.5000   -21.6660     2.3320    68.3300    50.9530    44.7580    43.0050    23.7540 
  224.6250   -21.8530     2.3650    65.5670    52.9400    46.1440    41.6430    23.7830 
  224.7500   -22.0360     2.4000    62.3380    55.9490    48.1860    48.0900    23.8380 
  224.8750   -22.1880     2.4350    60.9100    59.6910    50.9430    57.5850    23.9470 
  225.0000   -22.3210     2.4610    61.0610    62.9210    53.6080    61.0440    24.0570 
  225.1250   -22.4230     2.4610    59.6830    63.5380    54.4920    59.7110    24.0890 
  225.2500   -22.4990     2.4370    58.9300    61.2920    53.1180    53.2800    23.9470 
  225.3750   -22.5510     2.4080    60.6540    56.7330    49.7550    43.4320    23.7890 
  225.5000   -22.5720     2.4020    63.0690    50.4750    44.8010    37.3600    23.8050 
  225.6250   -22.5730     2.4450    64.9390    42.5900    38.2310    42.0680    23.9160 
