~V
VERS. 2.00: Ver 2.00
~W
STRT.M 56.0000:
STOP.M 270.0000:
STEP.M 0.1250:
NULL. -999.2500:
UWI. F10225:
~C
DEPT.M :
SP.MV :
DEN.GM/CC :
GR.API :
RML.OHMM :
RI. :
RXO.OHMM :
CALI.CM :
~A
# ...
  258.5000   -11.4190     2.4040    46.9500     6.6240     6.2700     6.7960    23.5650 
  258.6250   -11.1980     2.4100    46.5130     6.7700     6.2450     6.7060    23.5760 
  258.7500   -11.0010     2.4190    46.3060     6.9630     6.2520     6.8000    23.5680 
  258.8750   -10.8120     2.4250    46.3060     7.1720     6.3050     7.2150    23.5470 
  259.0000   -10.6460     2.4250    46.3060     7.3700     6.4100     7.8020    23.5330 
  259.1250   -10.5070     2.4230    46.3060     7.5450     6.5820     8.1610    23.5280 
  259.2500   -10.3910     2.4230    46.3060     7.7180     6.8300     9.1040    23.5570 
  259.3750   -10.2650     2.4270    46.3060     7.9400     7.1620    11.0220    23.6290 
  259.5000   -10.1330     2.4340    46.3060     8.2680     7.5800    12.7750    23.7490 
  259.6250   -10.0250     2.4410    46.3060     8.7230     8.0550    13.5370    23.7910 
  259.7500    -9.9330     2.4470    46.3060     9.1990     8.4950    13.9070    23.8290 
  259.8750    -9.8620     2.4530    46.3060     9.5480     8.8010    14.2550    23.7830 
  260.0000    -9.7900     2.4590    46.3060     9.6490     8.9160    14.3800    23.7010 
  260.1250    -9.7350     2.4590    46.3060     9.4620     8.8200    13.8240    23.6310 
  260.2500    -9.6790     2.4550    46.3060     9.1340     8.5940    12.6700    23.5760 
  260.3750    -9.6490     2.4500    46.3060     8.8300     8.3330    11.2830    23.5050 
  260.5000    -9.6530     2.4470    46.3060     8.6450     8.1120    10.0230    23.4220 
  260.6250    -9.6300     2.4450    46.3060     8.5850     7.9840     8.7580    23.3750 
  260.7500    -9.5570     2.4450    46.3060     8.5510     7.9340     7.6480    23.4120 
  260.8750    -9.4580     2.4430    46.3060     8.4520     7.9110     7.2060    23.4880 
  261.0000    -9.3430     2.4430    46.3060     8.2660     7.8540     7.3120    23.5420 
  261.1250    -9.2240     2.4470    46.3060     8.0800     7.7200     7.7040    23.5450 
  261.2500    -9.1160     2.4520    46.3060     7.9820     7.5380     8.2270    23.5440 
  261.3750    -9.0160     2.4550    46.3060     7.9860     7.3630     8.6770    23.5730 
  261.5000    -8.9300     2.4540    46.3060     8.0270     7.2390     9.0150    23.6080 
  261.6250    -8.8890     2.4450    46.3060     8.0140     7.1900     9.5030    23.6140 
  261.7500    -8.8840     2.4330    46.3060     7.9350     7.1930     9.8630    23.6120 
  261.8750    -8.8710     2.4190    46.3060     7.8310     7.2150     9.5540    23.6040 
  262.0000    -8.8540     2.4070    46.3060     7.7520     7.2290     8.6510    23.5900 
  262.1250    -8.8670     2.3990    46.3060     7.7300     7.2250     7.8590    23.5560 
  262.2500    -8.9130     2.4020    46.3060     7.7480     7.2110     7.3660    23.5600 
  262.3750    -8.9530     2.4110    46.3060     7.7750     7.1960     7.1170    23.5400 
  262.5000    -8.9510     2.4220    46.3060     7.7880     7.1830     7.2240    23.4820 
  262.6250    -8.9410     2.4240    46.3060     7.7810     7.1780     7.4890    23.4740 
  262.7500    -8.9530     2.4210    46.3060     7.7700     7.1840     7.4020    23.4980 
  262.8750    -8.9810     2.4180    46.3060     7.7620     7.2010     6.8210    23.4960 
  263.0000    -9.0130     2.4160    46.3060     7.7580     7.2230     6.7270    23.4440 
  263.1250    -8.9970     2.4180    46.3060     7.7550     7.2380     7.7730    23.3210 
  263.2500    -8.9370     2.4280    46.3060     7.7520     7.2390     8.7880    23.1970 
  263.3750    -8.8740     2.4440    46.3060     7.7520     7.2310     8.5130    23.1710 
  263.5000    -8.8430     2.4560    46.3060     7.7540     7.2170     7.6520    23.2930 
  263.6250    -8.8120     2.4590    46.3060     7.7520     7.2030     7.2180    23.4000 
  263.7500    -8.7700     2.4540    46.3060     7.7470     7.1910     7.7430    23.4790 
  263.8750    -8.7240     2.4440    46.3060     7.7380     7.1800     8.4700    23.5110 
  264.0000    -8.6690     2.4260    46.3060     7.7300     7.1750     8.5370    23.4600 
  264.1250    -8.6350     2.4090    46.3060     7.7270     7.1790     8.3330    23.3960 
  264.2500    -8.6250     2.4040    46.3060     7.7310     7.1870     8.3450    23.3460 
  264.3750    -8.6240     2.4120    46.3060     7.7370     7.1970     8.5270    23.3120 
  264.5000    -8.6190     2.4230    46.3060     7.7440     7.2070     8.7210    23.2840 
  264.6250    -8.6030     2.4230    46.3060     7.7460     7.2090     8.8240    23.2570 
  264.7500    -8.5740     2.4110    46.3060     7.7460     7.2090     9.0470    23.1560 
  264.8750    -8.5630     2.3970    46.3060     7.7460     7.2090     9.4840    23.0090 
  265.0000    -8.5720     2.3880    46.3060     7.7460     7.2090     9.6640    22.9050 
  265.1250    -8.5640     2.3820    46.3060     7.7460     7.2090     8.8820    22.7910 
  265.2500    -8.5550     2.3760    46.3060     7.7460     7.2090     8.7190    22.5890 
  265.3750    -8.5780     2.3660    46.3060     7.7460     7.2090    10.0960    22.2720 
  265.5000    -8.6560     2.3530    46.3060     7.7460     7.2090    13.0180    21.8530 
  265.6250    -8.7520     2.3390    46.3060     7.7460     7.2090    14.0400    21.2580 
  265.7500    -8.8650     2.3230    46.3060     7.7460     7.2090    14.3220    20.5130 
  265.8750    -8.9680     2.3040    46.3060     7.7460     7.2090    13.7970    19.9040 
  266.0000    -9.0840     2.2800    46.3060     7.7460     7.2090    12.3150    19.6400 
  266.1250    -9.2190     2.2520    46.3060     7.7460     7.2090    11.0840    19.6650 
  266.2500    -9.3390     2.2210    46.3060     7.7460     7.2090    11.3160    19.6020 
  266.3750    -9.3960     2.1850    46.3060     7.7460     7.2090    11.7930    18.8670 
  266.5000    -9.4050     2.1460    46.3060     7.7460     7.2090    11.4070    16.7760 
  266.6250    -9.4050     2.1130    46.3060     7.7460     7.2090    10.7450    14.0520 
  266.7500  -999.2500     2.0950    46.3060     7.7460     7.2090    10.3580    12.2730 
  266.8750  -999.2500     2.0920    46.3060     7.7460     7.2090    10.2390    11.6260 
  267.0000  -999.2500     2.0940    46.3060     7.7460     7.2090    10.2190    11.5080 
  267.1250  -999.2500     2.0960    46.3060     7.7460     7.2090    10.2160    11.5000 
  267.2500  -999.2500     2.0970    46.3060     7.7460     7.2090    10.2140    11.5000 
  267.3750  -999.2500     2.0970    46.3060     7.7460     7.2090    10.2130    11.5000 
  267.5000  -999.2500     2.0960    46.3060     7.7460     7.2090    10.2130    11.5000 
  267.6250  -999.2500     2.0940    46.3060     7.7460     7.2090    10.2150    11.5000 
  267.7500  -999.2500     2.0910    46.3060     7.7460     7.2090    10.2150    11.5000 
  267.8750  -999.2500     2.0890    46.3060     7.7460     7.2090    10.2140    11.5000 
  268.0000  -999.2500     2.0850    46.3060     7.7460     7.2090    10.2140    11.5000 
  268.1250  -999.2500     2.0820    46.3060     7.7460     7.2090    10.2120    11.5000 
  268.2500  -999.2500     2.0830    46.3060     7.7460     7.2090    10.2120    11.5000 
  268.3750  -999.2500     2.0850    46.3060     7.7460     7.2090    10.2130    11.5000 
  268.5000  -999.2500     2.0880    46.3060     7.7460     7.2090    10.2150    11.5000 
  268.6250  -999.2500     2.0900    46.3060     7.7460     7.2090    10.2160    11.5000 
  268.7500  -999.2500     2.0900    46.3060     7.7460     7.2090    10.2150    11.4990 
  268.8750  -999.2500     2.0910    46.3060     7.7460     7.2090    10.2120    11.4970 
  269.0000  -999.2500     2.0900    46.3060     7.7460     7.2090    10.2120    11.4930 
  269.1250  -999.2500     2.0890    46.3060     7.7460     7.2090    10.2140    11.4900 
  269.2500  -999.2500     2.0880    46.3060     7.7460     7.2090    10.2160    11.4900 
  269.3750  -999.2500     2.0870  -999.2500  -999.2500  -999.2500  -999.2500  -999.2500 
  269.5000  -999.2500     2.0850  -999.2500  -999.2500  -999.2500  -999.2500  -999.2500 
  269.6250  -999.2500     2.0840  -999.2500  -999.2500  -999.2500  -999.2500  -999.2500 
