~V
VERS. 2.00: Ver 2.00
~W
STRT.M 40.0000:
STOP.M 276.0000:
STEP.M 0.1250:
NULL. -999.2500:
UWI. F10236:
~C
DEPT.M :
SP.MV :
GR.API :
RML.OHMM :
RI. :
RXO.OHMM :
CALI.CM :
DEN.GM/CC :
~A
# ...
  253.7500    -6.2190    48.7260     7.0980     6.7580     6.3550    25.2390     2.3750 
  253.8750    -6.1990    49.2940     7.1230     6.7020     6.7540    25.1300     2.3800 
  254.0000    -6.1690    48.7400     7.1610     6.6250     7.2820    25.0530     2.4050 
  254.1250    -6.1640    49.0390     7.1730     6.5160     7.6970    25.0660     2.4370 
  254.2500    -6.1490    50.4190     7.1350     6.3740     7.8560    25.0960     2.4530 
  254.3750    -6.1570    51.7980     7.0490     6.2040     7.8630    25.1130     2.4450 
  254.5000    -6.1780    51.9170     6.9470     6.0300     7.8870    25.0730     2.4240 
  254.6250    -6.2170    51.1720     6.8880     5.8970     7.8970    25.0270     2.4090 
  254.7500    -6.2350    48.6530     6.9310     5.8460     7.8770    24.9870     2.4060 
  254.8750    -6.2480    44.8040     7.1210     5.9120     7.7880    24.9330     2.4110 
  255.0000    -6.2610    41.8210     7.4760     6.1110     7.5360    24.8730     2.4190 
  255.1250    -6.2510    41.6720     7.9740     6.4340     7.2720    24.8530     2.4270 
  255.2500    -6.2320    41.7700     8.4770     6.7860     7.4840    24.8710     2.4330 
  255.3750    -6.1940    41.8110     8.8500     7.0690     8.2380    24.9170     2.4360 
  255.5000    -6.1350    42.7290     8.9790     7.1900    10.0820    24.9490     2.4420 
  255.6250    -6.0630    43.7470     8.7960     7.0830    11.4740    24.9140     2.4590 
  255.7500    -6.0090    43.7080     8.4490     6.8370    10.7670    24.8770     2.4790 
  255.8750    -5.9590    43.2110     8.0860     6.5490     8.7060    24.9080     2.4810 
  256.0000    -5.9000    42.7930     7.8380     6.3060     7.6260    24.9070     2.4620 
  256.1250    -5.8740    43.4380     7.8060     6.1870     7.6140    24.8590     2.4440 
  256.2500    -5.8380    46.0640     7.9580     6.1910     7.6700    24.7940     2.4370 
  256.3750    -5.7980    48.8420     8.2540     6.3120     7.5090    24.6840     2.4330 
  256.5000    -5.7690    48.2200     8.6530     6.5350     7.4140    24.4780     2.4250 
  256.6250    -5.7330    45.3670     9.1320     6.8560     7.8070    24.1950     2.4160 
  256.7500    -5.7190    43.4600     9.6600     7.2420     8.5530    24.1010     2.4100 
  256.8750    -5.6820    42.5470    10.2090     7.6620     8.9970    24.2450     2.4100 
  257.0000    -5.6630    43.2930    10.7180     8.0640     9.0260    24.3680     2.4220 
  257.1250    -5.6240    46.0800    11.0610     8.3570     8.8780    24.5720     2.4520 
  257.2500    -5.6270    48.2600    11.1880     8.5000     8.9300    24.7920     2.4850 
  257.3750    -5.6360    49.3350    11.1000     8.4880     9.2990    24.8920     2.5080 
  257.5000    -5.6410    50.1570    10.8600     8.3610     9.7690    24.8930     2.5200 
  257.6250    -5.6530    49.8780    10.5630     8.1700    10.6880    24.8950     2.5270 
  257.7500    -5.6490    48.4480    10.2950     7.9780    12.2390    24.9260     2.5280 
  257.8750    -5.6720    48.3710    10.0670     7.7960    13.4660    24.9670     2.5170 
  258.0000    -5.6930    50.0970     9.8460     7.6140    12.0780    24.9610     2.4980 
  258.1250    -5.7000    48.8760     9.5890     7.4100    10.7860    24.8690     2.4860 
  258.2500    -5.6760    45.8520     9.2970     7.1830     8.6290    24.8480     2.4840 
  258.3750    -5.6440    44.0550     8.9850     6.9420     7.4530    24.9080     2.4800 
  258.5000    -5.6050    43.6970     8.6760     6.7030     7.0620    24.9380     2.4680 
  258.6250    -5.5870    45.7820     8.4000     6.4860     7.2940    24.9190     2.4590 
  258.7500    -5.5570    49.5750     8.1630     6.2900     7.5230    24.9320     2.4610 
  258.8750    -5.5230    52.0110     7.9700     6.1200     7.1560    24.9280     2.4750 
  259.0000    -5.4610    50.9580     7.8360     5.9910     6.6260    24.8980     2.4890 
  259.1250    -5.4120    49.0440     7.7760     5.9350     6.3660    24.8870     2.4890 
  259.2500    -5.3740    48.7380     7.7700     5.9420     6.3380    24.9000     2.4730 
  259.3750    -5.3640    48.5090     7.7980     5.9940     6.2680    24.9040     2.4530 
  259.5000    -5.3670    48.3910     7.8320     6.0580     6.1910    24.9210     2.4400 
  259.6250    -5.3550    51.0420     7.8320     6.0870     6.3400    24.8800     2.4350 
  259.7500    -5.3620    54.6430     7.7890     6.0700     6.4320    24.8540     2.4320 
  259.8750    -5.3690    57.4160     7.7190     6.0190     6.4400    24.8430     2.4290 
  260.0000    -5.4000    58.3850     7.6540     5.9570     6.3960    24.8480     2.4250 
  260.1250    -5.4220    56.5180     7.6330     5.9140     6.4710    24.8460     2.4140 
  260.2500    -5.4600    53.7170     7.6550     5.9020     6.7640    24.8340     2.3980 
  260.3750    -5.4740    52.4080     7.6970     5.9150     7.0170    24.8210     2.3790 
  260.5000    -5.4770    53.4040     7.7310     5.9360     6.9030    24.8250     2.3610 
  260.6250    -5.4740    54.7560     7.7430     5.9470     6.5090    24.8200     2.3460 
  260.7500    -5.4540    55.9640     7.7420     5.9470     6.1860    24.7920     2.3410 
  260.8750    -5.4380    58.0030     7.7380     5.9380     6.0890    24.7740     2.3500 
  261.0000    -5.4310    60.3750     7.7380     5.9300     6.1580    24.7920     2.3700 
  261.1250    -5.4380    61.4450     7.7520     5.9370     6.3640    24.7870     2.3920 
  261.2500    -5.4290    61.7420     7.7790     5.9630     6.4560    24.7730     2.4110 
  261.3750    -5.4530    62.1740     7.8250     6.0090     6.4030    24.7890     2.4240 
  261.5000    -5.4830    61.0360     7.8960     6.0780     6.3190    24.7960     2.4310 
  261.6250    -5.5460    56.2410     8.0120     6.1780     6.6750    24.7710     2.4290 
  261.7500    -5.6030    52.1570     8.1800     6.3060     7.4770    24.7630     2.4180 
  261.8750    -5.6610    52.0410     8.4140     6.4620     7.9910    24.7380     2.4030 
  262.0000    -5.6990    54.9800     8.7160     6.6530     8.0620    24.6970     2.3950 
  262.1250    -5.7200    58.3170     9.0820     6.8900     8.2280    24.6780     2.4050 
  262.2500    -5.7770    61.3440     9.4750     7.1630     8.3840    24.6850     2.4260 
  262.3750    -5.7930    63.1840     9.8680     7.4590     8.4250    24.7110     2.4450 
  262.5000    -5.8000    61.4520    10.2280     7.7530     8.6080    24.7440     2.4580 
  262.6250    -5.8300    58.2360    10.5130     8.0060     9.2710    24.8030     2.4700 
  262.7500    -5.8260    57.1250    10.7190     8.2030    10.1620    24.8280     2.4860 
  262.8750    -5.7950    57.6180    10.8650     8.3540    10.4790    24.8340     2.5050 
  263.0000    -5.7910    57.5510    10.9960     8.4860    10.4170    24.8410     2.5220 
  263.1250    -5.8300    55.0190    11.1830     8.6450    10.2350    24.8510     2.5270 
  263.2500    -5.8540    52.9340    11.4530     8.8560    10.1090    24.8550     2.5210 
  263.3750    -5.9050    53.4490    11.7990     9.1230    10.0440    24.8420     2.5100 
  263.5000    -5.9350    55.8240    12.1890     9.4310    10.2650    24.8640     2.5040 
  263.6250    -5.9200    58.4430    12.5790     9.7490    11.1210    24.9680     2.5050 
  263.7500    -5.9640    59.6010    12.9370    10.0510    12.0590    25.0280     2.4990 
  263.8750    -6.0390    60.1510    13.2570    10.3210    12.1670    25.0130     2.4850 
  264.0000    -6.1450    59.9100    13.5410    10.5530    11.4490    24.9880     2.4740 
  264.1250    -6.2680    58.7680    13.7350    10.7040    11.1780    24.9780     2.4750 
  264.2500    -6.3630    57.6240    13.8850    10.8240    11.3540    24.9850     2.4820 
  264.3750    -6.4540    56.8070    13.9710    10.9210    13.1160    25.0030     2.4880 
  264.5000    -6.5630    56.8980    13.9240    10.9510    12.9420    25.0050     2.4910 
  264.6250    -6.6250    56.8980    13.7340    10.8950    11.9630    24.9450     2.4940 
  264.7500    -6.6290    56.8980    13.4310    10.7420    11.1510    24.9050     2.4950 
  264.8750    -6.6050    56.8980    13.0690    10.4950    10.8130    24.8910     2.4940 
