~V
VERS. 2.00: Ver 2.00
~W
STRT.M 53.0000:
STOP.M 282.0000:
STEP.M 0.1250:
NULL. -999.2500:
UWI. F10240:
~C
DEPT.M :
GR.API :
RML.OHMM :
RI. :
RXO.OHMM :
CALI.CM :
DEN.GM/CC :
SP.MV :
~A
   53.0000  -999.2500  -999.2500  -999.2500  -999.2500  -999.2500  -999.2500    30.6700 
   53.1250  -999.2500  -999.2500  -999.2500  -999.2500  -999.2500  -999.2500    49.2570 
   53.2500  -999.2500  -999.2500  -999.2500  -999.2500  -999.2500  -999.2500    49.0570 
   53.3750  -999.2500  -999.2500  -999.2500  -999.2500  -999.2500  -999.2500    48.8140 
   53.5000  -999.2500  -999.2500  -999.2500  -999.2500  -999.2500  -999.2500    48.4780 
   53.6250  -999.2500  -999.2500  -999.2500  -999.2500  -999.2500     2.0770    48.1150 
   53.7500  -999.2500  -999.2500  -999.2500  -999.2500  -999.2500     2.0770    47.7650 
   53.8750  -999.2500  -999.2500  -999.2500  -999.2500  -999.2500     2.0670    47.4280 
   54.0000  -999.2500  -999.2500  -999.2500  -999.2500  -999.2500     2.0530    47.1590 
   54.1250  -999.2500  -999.2500  -999.2500  -999.2500  -999.2500     2.0390    46.9110 
   54.2500  -999.2500  -999.2500  -999.2500  -999.2500  -999.2500     2.0230    46.6910 
   54.3750  -999.2500  -999.2500  -999.2500  -999.2500  -999.2500     2.0070    46.5290 
   54.5000  -999.2500  -999.2500  -999.2500  -999.2500  -999.2500     2.0040    46.4640 
   54.6250  -999.2500  -999.2500  -999.2500  -999.2500  -999.2500     2.0290    46.4950 
   54.7500  -999.2500  -999.2500  -999.2500  -999.2500  -999.2500     2.0890    46.6190 
   54.8750  -999.2500  -999.2500  -999.2500  -999.2500  -999.2500     2.1700    46.8640 
   55.0000  -999.2500  -999.2500  -999.2500  -999.2500  -999.2500     2.2230    47.2840 
   55.1250  -999.2500  -999.2500  -999.2500  -999.2500  -999.2500     2.2170    47.8160 
   55.2500  -999.2500  -999.2500  -999.2500  -999.2500  -999.2500     2.1560    48.3940 
   55.3750  -999.2500  -999.2500  -999.2500  -999.2500  -999.2500     2.0730    48.9390 
   55.5000  -999.2500  -999.2500  -999.2500  -999.2500  -999.2500     2.0030    49.4020 
   55.6250  -999.2500  -999.2500  -999.2500  -999.2500  -999.2500     1.9620    49.7320 
   55.7500  -999.2500  -999.2500  -999.2500  -999.2500  -999.2500     1.9500    49.8780 
   55.8750  -999.2500  -999.2500  -999.2500  -999.2500  -999.2500     1.9600    49.8410 
   56.0000  -999.2500  -999.2500  -999.2500  -999.2500  -999.2500     1.9860    49.5850 
   56.1250  -999.2500  -999.2500  -999.2500  -999.2500  -999.2500     2.0140    49.1660 
   56.2500  -999.2500  -999.2500  -999.2500  -999.2500  -999.2500     2.0330    48.6430 
   56.3750  -999.2500  -999.2500  -999.2500  -999.2500  -999.2500     2.0410    48.0820 
   56.5000  -999.2500  -999.2500  -999.2500  -999.2500  -999.2500     2.0390    47.5080 
   56.6250  -999.2500  -999.2500  -999.2500  -999.2500  -999.2500     2.0340    46.9250 
   56.7500  -999.2500  -999.2500  -999.2500  -999.2500  -999.2500     2.0310    46.3420 
   56.8750  -999.2500  -999.2500  -999.2500  -999.2500  -999.2500     2.0330    45.7070 
   57.0000  -999.2500  -999.2500  -999.2500  -999.2500  -999.2500     2.0400    44.9590 
   57.1250    46.3390     0.1320     0.1840     1.5030    25.4000     2.0480    44.1110 
   57.2500    46.3390     0.1320     0.1840     1.5030    25.4000     2.0600    43.1610 
   57.3750    46.3390     0.1320     0.1840     1.5030    25.4000     2.0760    42.0990 
   57.5000    47.3130     0.1320     0.1850     1.5030    25.3990     2.0870    40.8980 
   57.6250    51.6290     0.1360     0.1910     1.5060    25.4030     2.0890    39.6270 
   57.7500    54.9080     0.1420     0.1970     1.5080    25.4140     2.0830    38.3140 
   57.8750    57.8740     0.1470     0.2000     1.5060    25.4220     2.0760    37.0200 
   58.0000    58.1300     0.1470     0.1980     1.5060    25.4260     2.0770    35.7690 
   58.1250    55.8770     0.1420     0.1880     1.5000    25.4310     2.0890    34.5450 
   58.2500    52.5780     0.1300     0.1690     1.4860    25.4340     2.1150    33.2980 
   58.3750    49.4400     0.1060     0.1400     1.4770    25.4310     2.1660    31.9780 
   58.5000    48.2370     0.0690     0.1030     1.4940    25.4250     2.2570    30.5080 
   58.6250    48.5840     0.0350     0.0670     1.5200    25.4180     2.3790    28.8070 
   58.7500    50.4490     0.0140     0.0420     1.5470    25.4090     2.5080    26.7890 
   58.8750    52.5640     0.0070     0.0300     1.5920    25.3590     2.6030    24.2560 
   59.0000    54.7300     0.0280     0.0470     1.9000    25.0710     2.6110    20.8040 
   59.1250    58.5610     0.1210     0.1250     3.0480    24.5180     2.5470    16.3580 
   59.2500    63.4760     0.3830     0.3370     6.0010    23.9380     2.4440    11.0550 
   59.3750    68.1060     0.9940     0.8040     9.6450    23.6180     2.3410     5.3220 
   59.5000    72.7340     2.2410     1.7410    11.2150    23.6300     2.2660    -0.3860 
   59.6250    78.3700     3.7330     2.9900    10.3220    23.8550     2.2240    -5.8050 
   59.7500    84.5220     4.7550     4.1800     8.6850    24.1570     2.2050   -10.8300 
   59.8750    88.3850     5.1510     5.0590     7.8570    24.3650     2.1880   -15.3270 
   60.0000    86.2320     5.3400     5.6660     8.1240    24.3200     2.1620   -18.8720 
   60.1250    80.4120     5.5970     6.1730     9.3720    24.1420     2.1380   -21.3210 
   60.2500    75.8560     5.8420     6.5560    10.5210    24.0130     2.1290   -22.6760 
   60.3750    78.0030     5.9000     6.7080    10.1760    23.9940     2.1430   -23.2130 
   60.5000    85.4550     5.7000     6.5800     8.1320    24.0620     2.1730   -23.2720 
   60.6250    91.5240     5.4690     6.3880     7.0810    24.1380     2.1960   -23.1650 
   60.7500    95.7020     5.4180     6.3310     6.7570    24.2900     2.2090   -22.9670 
   60.8750    97.3730     5.6590     6.5240     6.8950    24.5050     2.2240   -22.7020 
   61.0000    93.8090     6.1890     6.9810     8.7040    24.5350     2.2630   -22.3840 
   61.1250    86.2010     6.7500     7.4620    13.0600    24.4090     2.3170   -22.0580 
   61.2500    81.6220     7.0710     7.7010    15.9410    24.2730     2.3570   -21.7780 
   61.3750    84.1760     6.9930     7.5360    11.3200    24.2600     2.3570   -21.6340 
   61.5000    89.7370     6.5600     7.0050     8.3280    24.4380     2.3210   -21.6640 
   61.6250    93.2470     6.0500     6.3850     7.1130    24.6240     2.2830   -21.7720 
   61.7500    94.4970     5.6340     5.8410     6.7730    24.6710     2.2590   -21.9080 
   61.8750    93.7680     5.4340     5.4910     6.9300    24.6320     2.2470   -22.0320 
   62.0000    92.7380     5.6270     5.4840     7.2950    24.6090     2.2370   -22.1500 
   62.1250    93.0830     6.2810     5.8650     7.4500    24.6430     2.2340   -22.2670 
   62.2500    92.1420     7.4780     6.7120     7.2710    24.7040     2.2510   -22.4490 
   62.3750    86.0420     9.1850     8.0540     8.4770    24.7120     2.3040   -22.7160 
   62.5000    78.4510    11.0490     9.7180    12.8940    24.6720     2.3880   -23.0770 
   62.6250    76.9170    12.2810    11.0380    20.4370    24.7030     2.4560   -23.5560 
   62.7500    81.0820    12.2800    11.3710    24.6570    24.7480     2.4730   -24.1730 
   62.8750    84.9600    11.1080    10.5880    22.7620    24.6960     2.4290   -24.9270 
   63.0000    84.7250     9.5290     9.2260    13.9940    24.6260     2.3500   -25.8320 
   63.1250    83.4890     8.3440     8.0500    10.1690    24.6200     2.2660   -26.8530 
   63.2500    83.1400     7.7790     7.3180     9.0570    24.6530     2.1970   -27.9520 
   63.3750    81.7800     7.7950     7.0540     8.9380    24.5910     2.1600   -29.0840 
   63.5000    78.5860     8.2920     7.2170     9.2300    24.4400     2.1660   -30.2270 
   63.6250    76.0030     8.9880     7.6010     9.9820    24.3330     2.1960   -31.2940 
   63.7500    74.3550     9.6900     8.0590    10.4910    24.3350     2.2220   -32.2190 
   63.8750    72.9170    10.2390     8.4500    10.5690    24.3850     2.2260   -32.9910 
   64.0000    71.1500    10.4640     8.6150    10.1730    24.3740     2.2010   -33.5770 
   64.1250    69.0910    10.3360     8.5200    10.2240    24.3030     2.1690   -34.0200 
