~V
VERS. 2.00: Ver 2.00
~W
STRT.M 50.0000:
STOP.M 273.0000:
STEP.M 0.1250:
NULL. -999.2500:
UWI. F10249:
~C
DEPT.M :
DEN.GM/CC :
GR.API :
RML.OHMM :
RI. :
RXO.OHMM :
CALI.CM :
SP.MV :
~A
# ...
  162.5000     2.2460    68.6020    79.3210    85.5070    80.0330    25.1290   -27.9440 
  162.6250     2.2540    68.3020    73.8030    78.7220    75.2100    25.1210   -28.1600 
  162.7500     2.2550    73.0450    71.2840    74.9680    69.1010    25.1120   -28.3700 
  162.8750     2.2500    77.6470    71.6400    74.1680    63.6550    25.0970   -28.5270 
  163.0000     2.2430    76.2730    74.7880    76.2040    60.9030    25.1120   -28.6620 
  163.1250     2.2410    70.8630    81.4040    81.6630    68.3230    25.1880   -28.8040 
  163.2500     2.2440    69.4390    91.6270    90.6030    81.5710    25.2580   -28.8930 
  163.3750     2.2460    71.3180   106.5460   104.1080    89.0790    25.2980   -28.9580 
  163.5000     2.2420    71.2270   127.7930   123.9430   104.6610    25.3810   -29.0740 
  163.6250     2.2290    65.9740   159.2400   154.0650   120.0340    25.5510   -29.1790 
  163.7500     2.2160    60.6080   201.4210   194.7210   151.3930    25.7280   -29.2390 
  163.8750     2.2080    59.0880   253.5160   244.8210   190.7710    25.8500   -29.3760 
  164.0000     2.2090    61.3610   310.0180   298.8160   228.4320    25.9430   -29.5630 
  164.1250     2.2170    64.0390   358.4670   343.6900   257.0810    25.9920   -29.6640 
  164.2500     2.2260    64.4180   390.4370   370.9620   249.8020    26.0180   -29.7470 
  164.3750     2.2320    63.1710   404.9410   381.0080   236.4570    26.0290   -29.8770 
  164.5000     2.2320    62.2450   407.2290   380.6790   245.3520    26.0620   -30.0070 
  164.6250     2.2270    62.6200   403.1710   377.1830   258.3460    26.0780   -30.1170 
  164.7500     2.2190    63.0850   394.7580   373.5850   256.2890    26.0660   -30.2040 
  164.8750     2.2090    63.1520   377.1060   365.9030   251.8590    26.0370   -30.2440 
  165.0000     2.2010    62.4690   344.5330   345.6870   254.9750    26.0000   -30.2680 
  165.1250     2.1930    61.6430   295.2630   304.7220   260.3900    25.9210   -30.3560 
  165.2500     2.1890    61.5530   241.2720   253.2760   251.7880    25.8050   -30.4640 
  165.3750     2.1880    62.6150   193.0760   203.7510   220.3560    25.6640   -30.5100 
  165.5000     2.1930    63.7260   156.9710   164.9420   140.0740    25.5390   -30.5400 
  165.6250     2.2050    64.3010   135.5960   141.5570    84.1040    25.4560   -30.5820 
  165.7500     2.2190    64.2330   123.8240   129.1320    66.6140    25.3830   -30.5820 
  165.8750     2.2310    64.2390   118.3880   124.1930    90.2940    25.3040   -30.5480 
  166.0000     2.2390    66.0710   116.3670   123.4020   127.5560    25.2530   -30.5090 
  166.1250     2.2420    67.7960   115.3370   123.9200   139.7550    25.2020   -30.4020 
  166.2500     2.2410    67.5680   113.6140   123.4230   128.3450    25.1130   -30.2290 
  166.3750     2.2400    66.0930   110.8550   121.2120   112.8290    25.0120   -30.1140 
  166.5000     2.2380    64.5370   107.3930   117.6600   105.3080    24.9690   -29.9630 
  166.6250     2.2350    62.7030   103.8600   113.6120   104.9370    25.0970   -29.7220 
  166.7500     2.2330    61.1520   100.7160   109.7410   106.8100    25.4020   -29.5720 
  166.8750     2.2350    62.1300    98.1770   106.2540   103.2980    25.7330   -29.4900 
  167.0000     2.2420    65.0010    96.4780   103.3980    93.2960    25.9040   -29.3410 
  167.1250     2.2480    67.8870    96.1750   101.8560    89.1570    25.8770   -29.1760 
  167.2500     2.2500    71.2270    97.3660   101.9240    91.1680    25.7890   -29.1380 
  167.3750     2.2440    72.1030   100.0910   103.7440    97.6030    25.6890   -29.1000 
  167.5000     2.2350    69.1970   104.1740   107.1660   102.0120    25.6050   -29.0360 
  167.6250     2.2270    65.7670   109.3650   112.0550   106.0610    25.5560   -29.0270 
  167.7500     2.2230    63.9500   114.9470   117.7630   116.5110    25.5260   -29.0420 
  167.8750     2.2230    63.1050   120.2560   123.7140   122.4300    25.5150   -29.0490 
  168.0000     2.2230    63.3670   124.4340   129.0330   124.8960    25.5140   -29.0610 
  168.1250     2.2250    66.2050   126.0970   132.0780   132.6390    25.4970   -29.0460 
  168.2500     2.2290    68.7880   125.0280   132.0830   151.9970    25.4310   -28.9630 
  168.3750     2.2350    69.5390   121.5280   129.0210   160.0710    25.2720   -28.9140 
  168.5000     2.2420    70.5030   116.5790   123.9270   143.3050    25.0100   -28.8960 
  168.6250     2.2490    69.6800   111.4340   118.4360   116.9120    24.7390   -28.8540 
  168.7500     2.2540    66.8320   106.7950   113.6070    97.4040    24.6140   -28.8010 
  168.8750     2.2560    64.5910   102.5360   109.3310    88.0800    24.5940   -28.7730 
  169.0000     2.2550    64.2250    98.2540   105.0010    84.6430    24.5870   -28.7690 
  169.1250     2.2500    63.5880    93.8240   100.1020    87.1660    24.5530   -28.7770 
  169.2500     2.2400    62.6770    89.8970    95.1840    78.1180    24.5060   -28.7760 
  169.3750     2.2290    62.7860    87.5060    91.4230    58.8330    24.5060   -28.7500 
  169.5000     2.2200    62.7850    87.6390    90.1420    50.1000    24.6160   -28.7190 
  169.6250     2.2160    62.7410    91.3060    92.7990    57.6660    24.6140   -28.6980 
  169.7500     2.2190    65.1430    97.6520    98.6790    64.2280    24.4760   -28.6870 
  169.8750     2.2260    67.9190   105.7570   106.7950    61.9670    24.3790   -28.6520 
  170.0000     2.2380    68.5220   114.5090   115.7370    58.8380    24.3270   -28.5790 
  170.1250     2.2490    68.2300   123.0240   124.0200    55.6400    24.3010   -28.5710 
  170.2500     2.2550    69.5310   131.4460   131.4930    51.7450    24.2990   -28.6080 
  170.3750     2.2550    69.9280   140.6800   139.2960    48.9300    24.3840   -28.5770 
  170.5000     2.2490    66.3200   151.7090   149.1090    52.7230    24.6420   -28.5660 
  170.6250     2.2410    61.3430   164.7830   162.1360    72.8140    25.0570   -28.6620 
  170.7500     2.2320    59.2320   177.5770   176.1540   104.7170    25.4140   -28.7350 
  170.8750     2.2240    60.3180   186.9450   187.5630   131.7530    25.5640   -28.7550 
  171.0000     2.2170    61.7100   190.0180   192.4690   153.5350    25.5690   -28.7950 
  171.1250     2.2120    60.5880   184.9620   187.8380   180.6040    25.5660   -28.8630 
  171.2500     2.2120    58.9070   175.4300   177.6200   203.9940    25.5820   -28.9280 
  171.3750     2.2160    58.7730   164.9220   165.9580   180.7170    25.6170   -29.0120 
  171.5000     2.2250    60.3480   156.2990   156.1270   155.5480    25.6070   -29.0420 
  171.6250     2.2360    62.5170   151.5310   150.3310   153.0220    25.4970   -28.9930 
  171.7500     2.2440    64.3530   149.8700   148.0130   156.2400    25.3830   -28.9880 
  171.8750     2.2480    66.1110   150.3130   148.2440   156.4290    25.3080   -29.0170 
  172.0000     2.2450    65.6190   151.6310   149.6480   155.3440    25.2660   -29.0230 
  172.1250     2.2370    62.4200   152.6360   150.8080   157.1710    25.2420   -28.9950 
  172.2500     2.2290    59.5140   152.8560   151.0320   161.7800    25.2070   -28.9820 
  172.3750     2.2250    59.8160   152.4390   150.3240   159.0040    25.1630   -28.9550 
  172.5000     2.2250    64.3590   151.9230   149.1820   153.7770    25.1460   -28.8960 
  172.6250     2.2260    69.1900   152.1940   148.6080   146.9620    25.1640   -28.8330 
  172.7500     2.2260    70.5640   153.6510   149.3430   137.4140    25.1590   -28.7060 
  172.8750     2.2230    69.2820   156.0650   151.6020   122.0560    25.1090   -28.5080 
  173.0000     2.2190    66.3920   158.2800   154.6740   118.3790    25.0480   -28.3190 
  173.1250     2.2120    63.7690   157.6240   155.9940   149.3560    25.0720   -28.1350 
  173.2500     2.2060    61.9250   152.5730   153.0380   176.3500    25.2090   -27.8520 
  173.3750     2.2040    63.0290   143.1940   144.9260   175.7950    25.4480   -27.5550 
  173.5000     2.2090    67.8890   131.6080   133.3830   155.5530    25.7300   -27.3480 
  173.6250     2.2230    72.2510   121.8420   122.6410   132.1480    25.8840   -27.1100 
