~V
VERS. 2.00: Ver 2.00
~W
STRT.M 53.0000:
STOP.M 282.0000:
STEP.M 0.1250:
NULL. -999.2500:
UWI. F10240:
~C
DEPT.M :
GR.API :
RML.OHMM :
RI. :
RXO.OHMM :
CALI.CM :
DEN.GM/CC :
SP.MV :
~A
# ...
  266.7500    49.9790     9.5140     8.0060     8.9750    24.7960     2.4320   -12.5950 
  266.8750    50.6710     9.2580     7.7380     7.5980    24.8030     2.4290   -12.5690 
  267.0000    52.9240     9.2290     7.6330     7.0060    24.7830     2.4100   -12.5220 
  267.1250    55.0920     9.3920     7.6820     6.8330    24.7540     2.3820   -12.4720 
  267.2500    55.3790     9.6880     7.8550     6.7480    24.7180     2.3550   -12.4170 
  267.3750    53.4050    10.0260     8.0900     6.9270    24.6910     2.3380   -12.3750 
  267.5000    52.8590    10.2820     8.2960     7.0980    24.6370     2.3340   -12.3460 
  267.6250    54.1310    10.3900     8.4110     7.4000    24.5750     2.3400   -12.3350 
  267.7500    54.4400    10.3450     8.4170     8.0060    24.5080     2.3560   -12.3390 
  267.8750    53.2930    10.1880     8.3330     9.1010    24.4410     2.3790   -12.3630 
  268.0000    53.8030     9.9970     8.2010     9.1610    24.4020     2.4030   -12.3970 
  268.1250    56.4660     9.8460     8.0760     9.1940    24.3690     2.4210   -12.4160 
  268.2500    58.9180     9.7670     7.9880     9.1600    24.3340     2.4320   -12.4430 
  268.3750    58.7340     9.7580     7.9460     8.8940    24.2560     2.4360   -12.4800 
  268.5000    55.8460     9.8030     7.9450     8.6230    24.2210     2.4340   -12.4890 
  268.6250    53.2630     9.8650     7.9620     8.3880    24.1970     2.4290   -12.5200 
  268.7500    52.9430     9.9290     7.9830     8.3510    24.2000     2.4230   -12.5560 
  268.8750    53.8690     9.9910     8.0000     8.4330    24.1960     2.4180   -12.5850 
  269.0000    54.7540    10.0470     8.0120     8.6080    24.1800     2.4190   -12.6280 
  269.1250    55.7540    10.1030     8.0210     8.7530    24.1670     2.4240   -12.6680 
  269.2500    56.4230    10.1710     8.0330     8.9770    24.1600     2.4310   -12.7070 
  269.3750    56.4140    10.2790     8.0690     9.5220    24.1620     2.4390   -12.7260 
  269.5000    56.1170    10.4860     8.1710    10.4920    24.1480     2.4500   -12.7660 
  269.6250    55.7790    10.8020     8.3570    11.5370    24.1480     2.4670   -12.8150 
  269.7500    54.3540    11.2050     8.6250    13.1190    24.1450     2.4850   -12.8640 
  269.8750    53.2430    11.6360     8.9400    14.8010    24.1440     2.5000   -12.9040 
  270.0000    54.8220    12.0110     9.2480    17.3870    24.1490     2.5070   -12.9590 
  270.1250    55.9430    12.3070     9.5140    18.8390    24.1410     2.5080   -13.0570 
  270.2500    54.8920    12.5610     9.7500    18.7500    24.1250     2.5070   -13.1410 
  270.3750    53.3090    12.8500     9.9950    15.8750    24.0730     2.5070   -13.2400 
  270.5000    54.2450    13.2750    10.3100    15.2620    24.0330     2.5090   -13.3640 
  270.6250    55.8480    13.8300    10.7020    15.9830    23.9840     2.5100   -13.4540 
  270.7500    55.6240    14.4400    11.1360    16.9040    23.9790     2.5080   -13.5040 
  270.8750    54.2690    14.9690    11.5320    15.9550    24.0520     2.5000   -13.5400 
  271.0000    54.8120    15.2090    11.7500    15.1000    24.1320     2.4900   -13.5590 
  271.1250    56.8710    15.1150    11.7330    15.6400    24.1660     2.4840   -13.5260 
  271.2500    58.0630    14.7370    11.4950    16.8450    24.1700     2.4840   -13.4920 
  271.3750    57.5030    14.2350    11.1340    18.2220    24.1610     2.4880   -13.4500 
  271.5000    56.9380    13.8540    10.8190    16.1480    24.1720     2.4920   -13.3770 
  271.6250    56.9150    13.7490    10.6800    13.7690    24.1720     2.4940   -13.3010 
  271.7500    56.9150    13.9710    10.7740    13.4680    24.1770     2.4960   -13.2750 
  271.8750    56.9150    14.4620    11.0910    13.8830    24.1710     2.4990   -13.2670 
  272.0000    56.9150    15.0620    11.5540    13.6010    24.1660     2.5010   -13.2570 
  272.1250    56.9150    15.5470    11.9940    14.1980    24.1610     2.4990   -13.2740 
  272.2500    56.9150    15.7920    12.2940    15.9070    24.1520     2.4950   -13.2960 
  272.3750    56.9150    15.7730    12.3990    17.3430    24.1540     2.4880   -13.3350 
  272.5000    56.9150    15.5500    12.3110    16.9200    24.1570     2.4780   -13.3740 
  272.6250    56.9150    15.2860    12.1470    15.9950    24.1540     2.4670   -13.4150 
  272.7500    56.9150    15.0710    11.9810    15.8620    24.1550     2.4570   -13.4290 
  272.8750    56.9150    14.9360    11.8560    16.6190    24.1480     2.4500   -13.4280 
  273.0000    56.9150    14.8780    11.7870    17.4810    24.1520     2.4480   -13.4130 
  273.1250    56.9150    14.8600    11.7540    17.2390    24.1550     2.4490   -13.4070 
  273.2500    56.9150    14.8650    11.7470    16.2550    24.1520     2.4520   -13.3920 
  273.3750    56.9150    14.8860    11.7580    14.6900    24.1590     2.4550   -13.3560 
  273.5000    56.9150    14.9140    11.7760    13.8710    24.1580     2.4570   -13.3240 
  273.6250    56.9150    14.9230    11.7860    13.4340    24.1520     2.4600   -13.2950 
  273.7500    56.9150    14.8810    11.7650    13.6650    24.1700     2.4670   -13.2750 
  273.8750    56.9150    14.7590    11.6960    15.2430    24.1910     2.4820   -13.2710 
  274.0000    56.9150    14.5490    11.5640    16.4900    24.2210     2.4990   -13.2700 
  274.1250    56.9150    14.2950    11.3950    16.6180    24.2980     2.5070   -13.2350 
  274.2500    56.9150    14.0390    11.2180    16.2580    24.3680     2.5010   -13.2140 
  274.3750    56.9150    13.8220    11.0630    15.6870    24.4090     2.4840   -13.2290 
  274.5000    56.9150    13.6840    10.9710    13.3800    24.4320     2.4660   -13.2230 
  274.6250    56.9150    13.6120    10.9370    11.5480    24.4520     2.4580   -13.2020 
  274.7500    56.9150    13.5730    10.9410    10.4810    24.4540     2.4600   -13.1950 
  274.8750    56.9150    13.5220    10.9480    10.2580    24.4880     2.4700   -13.2060 
  275.0000    56.9150    13.4140    10.9220    10.3520    24.5540     2.4760   -13.2680 
  275.1250    56.9150    13.2510    10.8540    10.7150    24.5960     2.4700   -13.3830 
  275.2500    56.9150    13.0650    10.7570    10.8580    24.6110     2.4530   -13.4840 
  275.3750    56.9150    12.8970    10.6580    10.5070    24.6250     2.4290   -13.5240 
  275.5000    56.9150    12.7850    10.5880     9.8640    24.6090     2.4140   -13.6030 
  275.6250    56.9150    12.7190    10.5520     9.2710    24.5580     2.4150   -13.7350 
  275.7500    56.9150    12.6840    10.5430     8.7770    24.4870     2.4300   -13.8520 
  275.8750    56.9150    12.6630    10.5490     8.2950    24.3790     2.4520   -13.9150 
  276.0000    56.9150    12.6470    10.5560     8.0750    24.2730     2.4730   -13.9230 
  276.1250    56.9150    12.6340    10.5580     8.6330    24.2280     2.4860   -13.9000 
  276.2500    56.9150    12.6260    10.5580     9.5460    24.1600     2.4880   -13.8820 
  276.3750    56.9150    12.6250    10.5580    10.2940    24.0840     2.4790   -13.8860 
  276.5000    56.9150    12.6270    10.5560     9.5690    24.1300     2.4620   -13.8740 
  276.6250    56.9150    12.6250    10.5520     9.0760    24.2660     2.4460   -13.8130 
  276.7500    56.9150    12.6150    10.5500     8.9600    24.3810     2.4400   -13.7930 
  276.8750    56.9150    12.5940    10.5490     9.0860    24.4270     2.4460   -13.8070 
  277.0000    56.9150    12.5670    10.5510     9.3380    24.4490     2.4630   -13.8180 
  277.1250    56.9150    12.5420    10.5550     9.4760    24.4470     2.4770  -999.2500 
  277.2500    56.9150    12.5260    10.5570     9.7960    24.4070     2.4810  -999.2500 
  277.3750    56.9150    12.5240    10.5570    10.2670    24.3700     2.4760  -999.2500 
  277.5000    56.9150    12.5330    10.5560    10.3180    24.3410     2.4710  -999.2500 
  277.6250    56.9150    12.5330    10.5560    10.4580    24.2960     2.4740  -999.2500 
  277.7500    56.9150    12.5330    10.5560    11.0000    24.2160     2.4850  -999.2500 
  277.8750    56.9150    12.5330    10.5560    11.8040    24.1680     2.4980  -999.2500 
