~V
VERS. 2.00: Ver 2.00
~W
STRT.M 57.0000:
STOP.M 274.0000:
STEP.M 0.1250:
NULL. -999.2500:
UWI. F10215:
~C
DEPT.M :
SP.MV :
DEN.GM/CC :
GR.API :
RML.OHMM :
RI. :
RXO.OHMM :
CALI.CM :
~A
# ...
  113.2500   -15.5310     2.2720    85.3590     6.9720     5.2420     6.3540    23.6940 
  113.3750   -15.8210     2.2560    86.8600     7.1800     5.3110     5.8780    23.8210 
  113.5000   -16.1570     2.2480    84.3100     7.5980     5.5110     6.1210    23.7130 
  113.6250   -16.5480     2.2570    81.2620     8.2080     5.8560     6.7180    23.2200 
  113.7500   -16.9420     2.2760    79.5360     8.8070     6.2400     7.5320    22.6340 
  113.8750   -17.3450     2.2900    76.2210     9.2000     6.5410     7.8300    22.3810 
  114.0000   -17.7330     2.2800    70.6330     9.3330     6.6960     7.7870    22.5460 
  114.1250   -18.0740     2.2320    67.4960     9.4440     6.7890     8.1540    22.8980 
  114.2500   -18.3410     2.1730    68.2860     9.9210     7.0360     8.4140    23.0640 
  114.3750   -18.5350     2.1340    70.9890    10.9920     7.5980     8.7540    23.1170 
  114.5000   -18.6500     2.1440    73.6390    12.6620     8.5370    10.0010    23.2290 
  114.6250   -18.7030     2.2330    74.2870    14.5660     9.7430    15.6000    23.4500 
  114.7500   -18.7430     2.3610    74.2760    15.9230    10.7680    23.5890    23.6520 
  114.8750   -18.7960     2.4580    74.8460    16.1490    11.2020    21.5310    23.6640 
  115.0000   -18.8840     2.4640    74.6320    15.2200    10.9030    14.6210    23.4370 
  115.1250   -19.0090     2.3750    71.2000    13.7290    10.1050    10.6710    23.1770 
  115.2500   -19.1740     2.2590    66.2450    12.4940     9.3140    10.5740    23.0450 
  115.3750   -19.3620     2.1540    63.7550    11.8020     8.7570    11.0890    23.0880 
  115.5000   -19.5750     2.0780    63.2930    11.6100     8.4840    11.1190    23.2600 
  115.6250   -19.7340     2.0410    62.4040    11.6910     8.4270    10.5230    23.3280 
  115.7500   -19.8560     2.0310    62.0000    11.7420     8.4080     9.8200    23.2700 
  115.8750   -19.9010     2.0410    63.9140    11.6550     8.3430     9.2170    23.1510 
  116.0000   -19.8880     2.0630    67.5160    11.4440     8.2120     8.8580    23.0580 
  116.1250   -19.8050     2.0880    69.4870    11.1890     8.0430     8.6900    23.0270 
  116.2500   -19.6900     2.1100    69.2830    10.9800     7.8820     8.6370    23.0280 
  116.3750   -19.5470     2.1270    68.9990    10.8530     7.7530     8.6690    23.0800 
  116.5000   -19.3700     2.1370    70.3040    10.8070     7.6590     8.7310    23.0740 
  116.6250   -19.2210     2.1410    70.6010    10.8090     7.5920     8.7230    23.0480 
  116.7500   -19.0410     2.1390    68.2600    10.8020     7.5300     8.6680    23.0020 
  116.8750   -18.8750     2.1360    64.8640    10.7550     7.4590     8.5260    23.0200 
  117.0000   -18.7060     2.1330    63.8960    10.6690     7.3790     8.3000    23.0640 
  117.1250   -18.5430     2.1300    65.1860    10.5860     7.3020     8.2320    22.9480 
  117.2500   -18.3810     2.1300    64.9750    10.5530     7.2510     8.4720    22.5950 
  117.3750   -18.2130     2.1330    62.9920    10.5870     7.2360     8.7390    22.2580 
  117.5000   -18.0550     2.1350    60.2110    10.6680     7.2520     8.7490    22.1410 
  117.6250   -17.8540     2.1380    60.6250    10.7290     7.2720     8.6180    22.2930 
  117.7500   -17.6650     2.1390    63.7300    10.7070     7.2580     8.5830    22.4320 
  117.8750   -17.4530     2.1390    66.9680    10.5810     7.1910     8.3810    22.4560 
  118.0000   -17.2200     2.1340    68.9840    10.3830     7.0750     7.9870    22.4520 
  118.1250   -16.9820     2.1270    69.9200    10.1840     6.9420     7.4690    22.3820 
  118.2500   -16.7230     2.1220    71.0130    10.0440     6.8320     7.0650    22.2800 
  118.3750   -16.4460     2.1220    70.7530     9.9840     6.7640     6.9370    22.1980 
  118.5000   -16.1660     2.1270    69.8460     9.9960     6.7430     6.9980    22.1760 
  118.6250   -15.8560     2.1370    69.0950    10.0380     6.7590     7.0720    22.1630 
  118.7500   -15.5310     2.1450    69.0450    10.0370     6.7710     7.0250    22.1740 
  118.8750   -15.2160     2.1510    70.7750     9.9360     6.7410     6.8660    22.1800 
  119.0000   -14.8910     2.1520    74.2930     9.6970     6.6390     6.7660    22.2040 
  119.1250   -14.5790     2.1470    76.9610     9.2940     6.4390     6.8010    22.2410 
  119.2500   -14.2790     2.1420    77.3760     8.8010     6.1740     6.7280    22.3120 
  119.3750   -14.0100     2.1420    78.0790     8.3020     5.8840     6.3780    22.4460 
  119.5000   -13.7450     2.1540    81.0870     7.8820     5.6200     5.8480    22.6090 
  119.6250   -13.5520     2.1770    83.3130     7.6150     5.4330     5.6970    22.7400 
  119.7500   -13.3620     2.2020    81.8400     7.4780     5.3210     5.6090    22.8310 
  119.8750   -13.1800     2.2190    78.2670     7.4200     5.2680     5.7670    22.9030 
  120.0000   -13.0330     2.2240    78.9080     7.3690     5.2370     5.9070    22.9570 
  120.1250   -12.8870     2.2230    84.9550     7.2500     5.1770     5.6550    23.0830 
  120.2500   -12.7590     2.2230    88.5170     7.0480     5.0680     5.4360    23.2430 
  120.3750   -12.6350     2.2300    87.4540     6.7750     4.9070     5.3440    23.4340 
  120.5000   -12.5210     2.2450    87.0630     6.4620     4.7050     5.1810    23.6640 
  120.6250   -12.4060     2.2640    94.0640     6.1630     4.4910     5.0720    23.9570 
  120.7500   -12.3570     2.2790   101.1410     5.9290     4.3070     4.9030    24.0920 
  120.8750   -12.3360     2.2890   102.8190     5.7940     4.1800     4.5740    24.1280 
  121.0000   -12.3580     2.3000   100.8850     5.7780     4.1300     4.3520    24.0790 
  121.1250   -12.4470     2.3210    97.3670     5.9020     4.1740     4.7810    24.0250 
  121.2500   -12.5970     2.3490    92.9140     6.1210     4.2890     5.5830    23.9770 
  121.3750   -12.7920     2.3710    87.3090     6.4060     4.4570     5.8980    23.8430 
  121.5000   -13.0370     2.3730    81.5310     6.7320     4.6660     5.8790    23.5200 
  121.6250   -13.3150     2.3480    76.4060     7.0780     4.9050     6.2630    23.0990 
  121.7500   -13.5990     2.3110    72.5730     7.3930     5.1390     6.6760    22.7850 
  121.8750   -13.8700     2.2740    70.7570     7.6100     5.3240     6.8100    22.6070 
  122.0000   -14.1000     2.2410    69.5750     7.6680     5.4170     6.8080    22.5310 
  122.1250   -14.2840     2.2180    67.9910     7.5390     5.3860     6.7410    22.5360 
  122.2500   -14.4220     2.2090    68.9540     7.3430     5.2910     6.5610    22.6270 
  122.3750   -14.5230     2.2170    72.4010     7.2190     5.2090     6.3030    22.7240 
  122.5000   -14.5780     2.2380    74.2920     7.3070     5.2230     6.0180    22.8110 
  122.6250   -14.6130     2.2570    70.6630     7.7270     5.4220     6.5790    22.8070 
  122.7500   -14.5910     2.2650    66.4910     8.3800     5.7760     6.8980    22.7700 
  122.8750   -14.5590     2.2610    66.5150     9.0940     6.2090     6.9510    22.6460 
  123.0000   -14.5180     2.2500    69.2770     9.6050     6.5740     6.8490    22.4630 
  123.1250   -14.4620     2.2350    70.6630     9.5370     6.6240     6.8690    22.2880 
  123.2500   -14.3820     2.2190    71.4300     8.8840     6.3020     6.7470    22.4460 
  123.3750   -14.2880     2.2050    74.1100     7.8640     5.7020     6.3770    22.7880 
  123.5000   -14.2020     2.1970    78.6360     6.8510     5.0370     5.6640    23.0140 
  123.6250   -14.1400     2.1990    81.3060     6.2730     4.5660     5.1010    23.2120 
  123.7500   -14.1150     2.2090    82.2320     6.2580     4.4040     4.7990    23.3200 
  123.8750   -14.1670     2.2310    81.5030     6.8360     4.5980     5.4670    23.3140 
  124.0000   -14.2890     2.2730    78.0420     7.9140     5.1370     7.5390    23.2100 
  124.1250   -14.4730     2.3320    72.0930     9.2160     5.9250    11.2730    23.0150 
  124.2500   -14.7140     2.3770    68.3760    10.2390     6.6750    12.3510    22.7000 
  124.3750   -14.9880     2.3850    69.2850    10.6630     7.1520    10.6580    22.3970 
