~V
VERS. 2.00: Ver 2.00
~W
STRT.M 57.0000:
STOP.M 274.0000:
STEP.M 0.1250:
NULL. -999.2500:
UWI. F10215:
~C
DEPT.M :
SP.MV :
DEN.GM/CC :
GR.API :
RML.OHMM :
RI. :
RXO.OHMM :
CALI.CM :
~A
# ...
  259.5000   -24.3430     2.4320    59.3180    14.2910    11.4020     8.0680    23.6520 
  259.6250   -24.3420     2.4600    56.1550    14.4190    11.4450     8.0460    23.6180 
  259.7500   -24.3380     2.4840    56.8600    14.6600    11.5910     8.0610    23.6170 
  259.8750   -24.3610     2.4910    59.1450    14.9620    11.8010     7.9890    23.5530 
  260.0000   -24.3690     2.4840    59.6030    15.2860    12.0420     7.9800    23.4690 
  260.1250   -24.3830     2.4710    58.9890    15.5930    12.2760     8.1470    23.4510 
  260.2500   -24.4090     2.4640    59.5540    15.8550    12.4730     8.2450    23.4630 
  260.3750   -24.4170     2.4660    61.1020    16.0520    12.6140     8.2640    23.4470 
  260.5000   -24.4190     2.4760    62.6660    16.1590    12.6790     8.2670    23.4270 
  260.6250   -24.4520     2.4870    64.6400    16.1190    12.6340     8.1220    23.3890 
  260.7500   -24.4690     2.4960    65.2040    15.9400    12.4860     8.1180    23.3410 
  260.8750   -24.4720     2.5010    62.8910    15.6490    12.2490     8.3170    23.3380 
  261.0000   -24.4940     2.5000    59.9980    15.3170    11.9710     8.7550    23.3340 
  261.1250   -24.4840     2.4920    59.6170    15.0610    11.7310     9.1980    23.3600 
  261.2500   -24.4610     2.4810    60.8920    14.9540    11.5890     8.8440    23.4310 
  261.3750   -24.4660     2.4700    62.0270    15.0240    11.5730     8.2270    23.4700 
  261.5000   -24.4710     2.4620    61.6430    15.2480    11.6810     8.2000    23.4610 
  261.6250   -24.4670     2.4620    61.0750    15.5700    11.8900     8.8410    23.4880 
  261.7500   -24.4720     2.4640    61.3020    15.8800    12.1240     9.9710    23.5350 
  261.8750   -24.4770     2.4660    62.0510    16.0950    12.3190    11.2280    23.5930 
  262.0000   -24.4790     2.4690    61.4150    16.1500    12.4140    11.6050    23.6100 
  262.1250   -24.5310     2.4740    58.1590    15.9870    12.3480    10.3180    23.6390 
  262.2500   -24.5950     2.4880    55.7720    15.6730    12.1520     9.3210    23.7210 
  262.3750   -24.6460     2.5060    56.5220    15.2820    11.8730     9.0530    23.7710 
  262.5000   -24.6880     2.5190    59.2450    14.9060    11.5780     9.2620    23.7800 
  262.6250   -24.7260     2.5080    60.7860    14.6510    11.3490     9.4790    23.7470 
  262.7500   -24.7830     2.4760    60.9810    14.5370    11.2190     9.4600    23.7220 
  262.8750   -24.8260     2.4360    60.7670    14.5410    11.1870     9.6710    23.7250 
  263.0000   -24.8780     2.4070    59.8320    14.6020    11.2150     9.8860    23.7100 
  263.1250   -24.9050     2.4090    59.3430    14.6420    11.2430     9.4370    23.7080 
  263.2500   -24.9460     2.4350    61.5240    14.6140    11.2230     8.8960    23.6880 
  263.3750   -24.9920     2.4670    62.8990    14.5080    11.1430     8.6570    23.6240 
  263.5000   -25.0320     2.4840    62.8990    14.3460    11.0130     8.5550    23.5740 
  263.6250   -25.0720     2.4800    62.8990    14.1820    10.8700     8.3390    23.5980 
  263.7500   -25.1280     2.4700    62.8990    14.0630    10.7480     8.2520    23.6130 
  263.8750   -25.2150     2.4620    62.8990    14.0050    10.6600     8.4250    23.6230 
  264.0000   -25.2960     2.4620    62.8990    13.9960    10.6050     8.6190    23.6270 
  264.1250   -25.3940     2.4690    62.8990    14.0030    10.5710     8.4280    23.6010 
  264.2500   -25.4740     2.4760    62.8990    14.0000    10.5460     8.2010    23.5270 
  264.3750   -25.5670     2.4810    62.8990    13.9950    10.5350     8.1270    23.4830 
  264.5000   -25.6880     2.4830    62.8990    14.0230    10.5500     8.2310    23.4950 
  264.6250   -25.7880     2.4810    62.8990    14.1250    10.6110     8.4570    23.5260 
  264.7500   -25.8810     2.4790    62.8990    14.2840    10.7060     8.8270    23.5200 
  264.8750   -25.9610     2.4800    62.8990    14.4580    10.8100     9.2610    23.5350 
  265.0000   -26.0310     2.4850    62.8990    14.5860    10.8860     9.9680    23.5260 
  265.1250   -26.1050     2.4880    62.8990    14.5990    10.8890    10.1260    23.5300 
  265.2500   -26.1850     2.4830    62.8990    14.5060    10.8210     9.5100    23.5150 
  265.3750   -26.2510     2.4680    62.8990    14.3400    10.6980     8.7560    23.4470 
  265.5000   -26.3440     2.4480    62.8990    14.1550    10.5510     8.3130    23.4220 
  265.6250   -26.4680     2.4340    62.8990    14.0170    10.4230     8.1450    23.4830 
  265.7500   -26.5920     2.4340    62.8990    13.9600    10.3390     8.0380    23.5110 
  265.8750   -26.7250     2.4490    62.8990    13.9920    10.3130     8.0370    23.4920 
  266.0000   -26.9010     2.4700    62.8990    14.1070    10.3490     8.0660    23.5310 
  266.1250   -27.0630     2.4850    62.8990    14.3060    10.4550     8.1430    23.5560 
  266.2500   -27.2070     2.4910    62.8990    14.5670    10.6180     8.2350    23.5570 
  266.3750   -27.3740     2.4940    62.8990    14.8720    10.8250     8.3100    23.5550 
  266.5000   -27.5130     2.4980    62.8990    15.1850    11.0490     8.4970    23.5050 
  266.6250   -27.6480     2.5040    62.8990    15.4450    11.2470     9.8980    23.4540 
  266.7500   -27.7910     2.5070    62.8990    15.6140    11.3880    12.4480    23.4350 
  266.8750   -27.9260     2.5020    62.8990    15.6890    11.4680    13.1110    23.4280 
  267.0000   -28.0150     2.4930    62.8990    15.6930    11.4990    12.4560    23.4280 
  267.1250   -28.1160     2.4850    62.8990    15.6690    11.5060    11.2730    23.4440 
  267.2500   -28.2440     2.4830    62.8990    15.6530    11.5110    10.6400    23.4280 
  267.3750   -28.3590     2.4850    62.8990    15.6540    11.5180    10.3430    23.4150 
  267.5000   -28.4740     2.4870    62.8990    15.6720    11.5240    10.3030    23.4230 
  267.6250   -28.5900     2.4870    62.8990    15.7000    11.5240    10.6560    23.4250 
  267.7500   -28.6700     2.4870    62.8990    15.7250    11.5210    10.9290    23.4660 
  267.8750   -28.7500     2.4880    62.8990    15.7450    11.5180    11.0360    23.5050 
  268.0000   -28.8600     2.4880    62.8990    15.7600    11.5130    10.8600    23.4660 
  268.1250   -28.9580     2.4840    62.8990    15.7730    11.5090    10.7000    23.4370 
  268.2500   -29.0380     2.4780    62.8990    15.7850    11.5060    10.6310    23.4130 
  268.3750   -29.0990     2.4770    62.8990    15.7950    11.5060    10.5660    23.3520 
  268.5000   -29.1540     2.4860    62.8990    15.8020    11.5100    10.4700    23.3070 
  268.6250   -29.2360     2.5050    62.8990    15.8040    11.5160    10.6150    23.3310 
  268.7500   -29.3290     2.5230    62.8990    15.8000    11.5220    11.2980    23.3210 
  268.8750   -29.4230     2.5310    62.8990    15.7870    11.5250    12.6200    23.3040 
  269.0000   -29.4980     2.5200    62.8990    15.7620    11.5250    14.9230    23.3060 
  269.1250   -29.5830     2.4920    62.8990    15.7280    11.5240    14.4210    23.2640 
  269.2500   -29.6720     2.4620    62.8990    15.7050    11.5240    12.2490    23.2040 
  269.3750   -29.7750     2.4440    62.8990    15.7050    11.5240    10.3070    23.2130 
  269.5000   -29.8900     2.4440    62.8990    15.7050    11.5240     9.5710    23.2070 
  269.6250   -30.0170     2.4560    62.8990    15.7050    11.5240     9.5720    23.1380 
  269.7500   -30.2540     2.4660    62.8990    15.7050    11.5240     9.8320    23.0510 
  269.8750   -30.5320     2.4650    62.8990    15.7050    11.5240     9.8970    22.9650 
  270.0000   -30.8130     2.4540    62.8990    15.7050    11.5240     9.6060    22.8360 
  270.1250   -31.0280     2.4490    62.8990    15.7050    11.5240     9.3320    22.7400 
  270.2500   -31.2430     2.4510    62.8990    15.7050    11.5240     9.1820    22.6800 
  270.3750   -31.5120     2.4450    62.8990    15.7050    11.5240     9.1990    22.6880 
  270.5000   -31.7750     2.4150    62.8990    15.7050    11.5240     9.3030    22.6600 
  270.6250   -32.0100     2.3540    62.8990    15.7050    11.5240     9.4080    22.4910 
