~V
VERS. 2.00: Ver 2.00
~W
STRT.M 56.0000:
STOP.M 284.0000:
STEP.M 0.1250:
NULL. -999.2500:
UWI. F10233:
~C
DEPT.M :
GR.API :
RML.OHMM :
RI. :
RXO.OHMM :
CALI.CM :
DEN.GM/CC :
SP.MV :
~A
# ...
  269.7500    69.7590    15.2180    14.1150    16.8350    24.0920     2.3760    -9.5540 
  269.8750    71.3120    14.9820    13.9760    19.1590    24.1540     2.4030    -9.4850 
  270.0000    71.0710    14.5030    13.6130    22.4820    24.1330     2.4400    -9.4010 
  270.1250    69.5010    13.8120    13.0390    22.6360    24.1020     2.4680    -9.3300 
  270.2500    69.5950    13.0990    12.4170    16.6670    24.0380     2.4700    -9.2550 
  270.3750    70.6840    12.5240    11.8800    11.7200    24.0190     2.4460    -9.2030 
  270.5000    69.9410    12.1980    11.5330     9.9620    24.0230     2.4150    -9.1940 
  270.6250    69.5740    12.1950    11.4580     9.5850    24.0080     2.4010    -9.1820 
  270.7500    72.0070    12.4000    11.5850     9.2560    23.9630     2.4010    -9.1760 
  270.8750    74.5410    12.6960    11.8260     9.8700    23.9140     2.4100    -9.2250 
  271.0000    75.3330    12.9530    12.0720    11.5130    23.8770     2.4270    -9.3040 
  271.1250    73.5550    13.0660    12.2180    13.3290    23.8670     2.4540    -9.3290 
  271.2500    70.7750    13.0630    12.2620    15.1880    23.9770     2.4880    -9.3500 
  271.3750    68.2920    13.0190    12.2530    17.2390    24.2480     2.5220    -9.3630 
  271.5000    66.9030    13.0340    12.2750    18.9890    24.5320     2.5510    -9.3110 
  271.6250    67.3660    13.2560    12.4570    20.1770    24.6280     2.5680    -9.2790 
  271.7500    68.5090    13.7170    12.8500    22.3450    24.6430     2.5640    -9.3290 
  271.8750    69.7460    14.3820    13.4530    24.9390    24.6440     2.5420    -9.3520 
  272.0000    70.2250    15.1380    14.1870    24.7580    24.6590     2.5110    -9.3290 
  272.1250    70.7420    15.7690    14.8750    24.2080    24.6850     2.4880    -9.4180 
  272.2500    72.2810    16.1120    15.3270    24.1070    24.7120     2.4770    -9.5190 
  272.3750    71.7630    16.1000    15.4370    22.9920    24.7060     2.4710    -9.5640 
  272.5000    68.2090    15.7740    15.2080    22.1320    24.6790     2.4590    -9.6230 
  272.6250    65.2970    15.2400    14.7250    22.5630    24.6600     2.4390    -9.7400 
  272.7500    66.5790    14.6700    14.1660    23.1710    24.6140     2.4290    -9.8480 
  272.8750    71.4030    14.1490    13.6160    21.9370    24.5020     2.4400    -9.9710 
  273.0000    76.0780    13.7000    13.1080    19.8230    24.3350     2.4680   -10.1230 
  273.1250    76.0410    13.2880    12.6350    16.8040    24.2170     2.4910   -10.2130 
  273.2500    72.0230    12.8460    12.1680    14.8790    24.1240     2.4990   -10.2300 
  273.3750    67.5890    12.3530    11.7030    13.3060    24.1550     2.5000   -10.2150 
  273.5000    64.7970    11.8300    11.2530    12.1500    24.2440     2.5070   -10.2030 
  273.6250    64.2890    11.3590    10.8550     9.6640    24.3040     2.5180   -10.1880 
  273.7500    65.7790    11.0250    10.5530     8.4900    24.3270     2.5250   -10.1360 
  273.8750    68.2510    10.8970    10.4000     8.3270    24.3500     2.5290   -10.0470 
  274.0000    69.8820    11.0180    10.4550     8.5190    24.3930     2.5360    -9.9350 
  274.1250    69.8820    11.4520    10.8010     9.7460    24.4730     2.5400    -9.8420 
  274.2500    69.8820    12.1320    11.3980    13.0950    24.5340     2.5380    -9.7940 
  274.3750    69.8820    12.9750    12.1870    18.5330    24.6090     2.5390    -9.7970 
  274.5000    69.8820    13.8280    13.0350    23.2700    24.6710     2.5460    -9.8560 
  274.6250    69.8820    14.4330    13.7050    26.4900    24.7030     2.5430    -9.8710 
  274.7500    69.8820    14.6430    14.0280    27.3550    24.7400     2.5160    -9.8280 
  274.8750    69.8820    14.4090    13.9230    26.1450    24.8160     2.4750    -9.7950 
  275.0000    69.8820    13.7980    13.4200    24.8130    24.9140     2.4420    -9.8070 
  275.1250    69.8820    12.9600    12.6260    25.0060    24.9340     2.4300    -9.7930 
  275.2500    69.8820    12.1390    11.7850    31.1880    24.9060     2.4310    -9.7800 
  275.3750    69.8820    11.4830    11.0670    40.8440    24.8910     2.4360    -9.7710 
  275.5000    69.8820    11.0740    10.5860    40.0530    24.9210     2.4410    -9.7580 
  275.6250    69.8820    10.9410    10.4200    28.0930    24.9250     2.4450    -9.8040 
  275.7500    69.8820    10.9610    10.4510    24.3300    24.9150     2.4470    -9.8560 
  275.8750    69.8820    11.0420    10.5730    21.6510    24.9180     2.4480    -9.8990 
  276.0000    69.8820    11.1240    10.6890    19.1890    24.9240     2.4510    -9.9480 
  276.1250    69.8820    11.1830    10.7450    18.2240    24.9050     2.4510    -9.9800 
  276.2500    69.8820    11.2220    10.7560    19.0510    24.8360     2.4560   -10.0520 
  276.3750    69.8820    11.2420    10.7430    20.6740    24.7710     2.4760   -10.1690 
  276.5000    69.8820    11.2470    10.7190    22.0250    24.6920     2.5070   -10.2720 
  276.6250    69.8820    11.2420    10.6970    22.0310    24.5750     2.5240   -10.2870 
  276.7500    69.8820    11.2350    10.6850    21.0850    24.4350     2.5180   -10.3080 
  276.8750    69.8820    11.2310    10.6860    20.4860    24.3550     2.5040   -10.3940 
  277.0000    69.8820    11.2320    10.7010    19.9360    24.3260     2.5000   -10.4920 
  277.1250    69.8820    11.2370    10.7240    21.0950    24.3200     2.5080   -10.6050 
  277.2500    69.8820    11.2440    10.7420    21.5990    24.2960     2.5130   -10.6380 
  277.3750    69.8820    11.2470    10.7470    21.8540    24.2380     2.5110   -10.6490 
  277.5000    69.8820    11.2450    10.7400    21.8980    24.2010     2.5100   -10.6630 
  277.6250    69.8820    11.2420    10.7300    23.1670    24.2000     2.5120   -10.6930 
  277.7500    69.8820    11.2420    10.7280    23.3020    24.2190     2.5150   -10.7760 
  277.8750    69.8820    11.2460    10.7370    22.7310    24.2330     2.5170   -10.8310 
  278.0000    69.8820    11.2490    10.7460    21.6010    24.2780     2.5190   -10.8520 
  278.1250    69.8820    11.2420    10.7420    19.4130    24.2590     2.5130   -10.8830 
  278.2500    69.8820    11.2290    10.7280    17.5530    24.1950     2.4970   -10.9260 
  278.3750    69.8820    11.2160    10.7130    15.5070    24.1590     2.4750   -10.9730 
  278.5000    69.8820    11.2110    10.7070    13.5750    24.1840     2.4600   -10.9870 
  278.6250    69.8820    11.2130    10.7110    13.4680    24.2410     2.4670   -10.5760 
  278.7500    69.8820    11.2170    10.7140    13.8380    24.2910     2.4850    -9.9370 
  278.8750    69.8820    11.2190    10.7140    13.6120    24.2590     2.4970    -9.2660 
  279.0000    69.8820    11.2180    10.7090    13.8290    24.1460     2.4880    -8.5460 
  279.1250    69.8820    11.2150    10.7040    14.1070    24.0330     2.4600    -7.8700 
  279.2500    69.8820    11.2120    10.7020    16.3280    23.9480     2.4310    -7.1940 
  279.3750    69.8820    11.2090    10.7030    19.8660    23.9000     2.4130    -6.4630 
  279.5000    69.8820    11.2070    10.7060    20.9780    23.9060     2.4110    -5.7990 
  279.6250    69.8820    11.2080    10.7110    17.9470    23.9380     2.4030    -5.8270 
  279.7500    69.8820    11.2120    10.7190    15.8640    23.9360     2.3630    -5.8540 
  279.8750    69.8820    11.2200    10.7280    15.8400    23.9200     2.2750    -5.8650 
  280.0000    69.8820    11.2220    10.7300    16.8480    23.8900     2.1410  -999.2500 
  280.1250    69.8820    11.2220    10.7300    18.2030    23.7070     1.9630  -999.2500 
  280.2500    69.8820    11.2220    10.7300    17.6250    23.4230     1.7780  -999.2500 
  280.3750    69.8820    11.2220    10.7300    15.5780    22.9520     1.6310  -999.2500 
  280.5000    69.8820    11.2220    10.7300    12.9260    21.8520     1.5440  -999.2500 
  280.6250    69.8820    11.2220    10.7300     8.8850    19.6020     1.5130  -999.2500 
  280.7500    69.8820    11.2220    10.7300     6.5130    17.2570     1.5060  -999.2500 
  280.8750    69.8820    11.2220    10.7300     5.6950    15.9540     1.5050  -999.2500 
