~V
VERS. 2.00: Ver 2.00
~W
STRT.M 20.0000:
STOP.M 256.0000:
STEP.M 0.1250:
NULL. -999.2500:
UWI. F10201:
~C
DEPT.M :
DEN.GM/CC :
GR.API :
RML.OHMM :
RI. :
RXO.OHMM :
CALI.CM :
SP.MV :
~A
# ...
  177.5000     2.2330    71.6220    41.3820    40.8990    50.3170    23.7730   -27.5690 
  177.6250     2.2400    76.7360    37.6570    37.8790    46.2230    23.7500   -27.5300 
  177.7500     2.2630    79.6010    31.6520    32.2650    35.8490    23.7370   -27.4770 
  177.8750     2.2960    79.1840    25.5130    26.2140    27.2030    23.7510   -27.4160 
  178.0000     2.3280    78.2390    20.8860    21.3920    21.4530    23.8040   -27.3850 
  178.1250     2.3420    76.6100    18.9060    18.8230    16.5710    23.9390   -27.3360 
  178.2500     2.3340    72.7690    19.1530    18.1810    13.5080    24.1110   -27.2540 
  178.3750     2.3080    69.3760    21.1240    19.1950    14.6190    24.2970   -27.1980 
  178.5000     2.2750    67.3470    23.8750    21.3040    20.3680    24.4310   -27.1340 
  178.6250     2.2600    67.4200    25.5770    23.1560    31.6120    24.4670   -27.0330 
  178.7500     2.2700    70.2520    24.8120    23.1290    37.4520    24.4630   -26.9810 
  178.8750     2.3020    75.3800    21.6190    20.8130    29.4640    24.4590   -26.9380 
  179.0000     2.3450    80.6950    17.4930    17.3220    17.2620    24.4350   -26.8460 
  179.1250     2.3810    83.3580    14.3270    14.3230    12.9580    24.3420   -26.7820 
  179.2500     2.4040    84.7180    12.7060    12.4810    12.2770    24.1830   -26.7270 
  179.3750     2.4100    85.9060    12.6920    11.9030    13.0740    24.0920   -26.6210 
  179.5000     2.4000    85.2740    14.3290    12.6540    14.2850    24.1910   -26.4910 
  179.6250     2.3730    81.1460    18.1480    15.2580    17.5710    24.4050   -26.3720 
  179.7500     2.3330    75.2330    24.1330    19.8950    23.3220    24.4400   -26.2160 
  179.8750     2.2870    71.0900    32.3840    26.9370    31.6960    24.3440   -26.0230 
  180.0000     2.2470    69.7830    42.4610    36.2930    39.9910    24.2560   -25.8740 
  180.1250     2.2250    67.3950    52.3970    46.4340    49.2950    24.2570   -25.7180 
  180.2500     2.2230    64.7710    58.7630    53.9090    55.8840    24.3870   -25.5710 
  180.3750     2.2370    65.1700    58.9770    55.9160    54.3790    24.6050   -25.4650 
  180.5000     2.2560    67.4510    53.0120    51.7550    57.2200    24.7990   -25.4020 
  180.6250     2.2720    69.0850    43.3180    42.9970    50.1750    24.9080   -25.3850 
  180.7500     2.2820    70.6670    33.8640    33.7090    36.8040    24.9780   -25.3780 
  180.8750     2.2890    73.8650    26.4410    26.0350    26.8630    25.0180   -25.4200 
  181.0000     2.2980    75.7360    21.6360    20.7600    22.0110    25.0360   -25.5110 
  181.1250     2.3080    75.1640    19.7290    18.1120    18.6930    25.0240   -25.6330 
  181.2500     2.3100    75.7520    20.0310    17.3720    17.6370    25.0090   -25.7670 
  181.3750     2.3020    76.5500    22.4390    18.4290    18.8690    24.9970   -25.9420 
  181.5000     2.2850    74.0650    26.9790    21.3750    24.0620    24.9970   -26.1510 
  181.6250     2.2670    69.3910    30.8830    26.6670    35.0950    24.9980   -26.3170 
  181.7500     2.2540    69.9910    38.7100    33.6880    42.3070    24.9580   -26.5010 
  181.8750     2.2450    73.7770    46.9970    41.5260    46.8260    24.8690   -26.6950 
  182.0000     2.2380    73.4770    54.2940    48.7760    53.1160    24.7740   -26.8280 
  182.1250     2.2300    68.8390    59.0230    53.8010    60.7940    24.6840   -26.9420 
  182.2500     2.2240    66.5030    61.6990    56.7800    60.9250    24.6230   -27.0410 
  182.3750     2.2340    64.6120    63.3170    58.4820    54.3320    24.5680   -27.0390 
  182.5000     2.2680    60.3620    64.6200    59.6310    55.2290    24.5480   -26.9360 
  182.6250     2.3270    59.8290    65.3890    60.2080    64.6660    24.5430   -26.7770 
  182.7500     2.3860    64.5520    64.6740    59.5890    76.6720    24.5110   -26.5270 
  182.8750     2.4200    68.1720    61.2490    56.8180    81.2640    24.4550   -26.1660 
  183.0000     2.4170    69.0220    54.3700    51.1590    73.4100    24.4460   -25.7820 
  183.1250     2.3800    71.7850    44.3250    42.4670    57.6190    24.4970   -25.3570 
  183.2500     2.3370    75.4020    33.7000    32.8520    42.2630    24.5860   -24.8470 
  183.3750     2.3040    76.2760    24.3700    24.1130    31.6820    24.6530   -24.3600 
  183.5000     2.2900    79.3940    17.3300    17.3190    25.8490    24.6610   -23.9430 
  183.6250     2.3030    88.2320    13.0310    12.9580    19.2150    24.6110   -23.5770 
  183.7500     2.3360    94.3110    10.5910    10.2780    11.9910    24.5560   -23.3360 
  183.8750     2.3800    95.0480     9.4970     8.8510     8.3020    24.4940   -23.2360 
  184.0000     2.4230    93.3780     9.3580     8.3500     8.0250    24.4740   -23.2100 
  184.1250     2.4540    92.4180    10.0060     8.6650     9.1030    24.5380   -23.3060 
  184.2500     2.4680    89.5160    11.1120     9.5250    10.4140    24.6450   -23.5120 
  184.3750     2.4650    85.3280    12.4570    10.7560    12.0280    24.7300   -23.7680 
  184.5000     2.4450    83.3910    13.7650    12.1060    13.6300    24.7640   -24.0510 
  184.6250     2.4070    85.4060    14.6110    13.1650    15.3110    24.7550   -24.3270 
  184.7500     2.3610    89.7840    14.7740    13.6390    17.6620    24.7250   -24.5270 
  184.8750     2.3130    93.6310    14.1960    13.3960    18.7970    24.7040   -24.6760 
  185.0000     2.2710    96.2480    13.0640    12.5480    17.0740    24.7120   -24.8190 
  185.1250     2.2450    96.9210    11.7490    11.3970    14.1010    24.7150   -24.9000 
  185.2500     2.2390    97.6460    10.6120    10.3050    12.1950    24.6240   -24.9530 
  185.3750     2.2540    97.6600     9.7910     9.4210    10.9280    24.4370   -25.0340 
  185.5000     2.2860    94.3890     9.2940     8.7940    10.1830    24.2520   -25.0990 
  185.6250     2.3260    89.4130     9.0730     8.4290    10.1250    24.1170   -25.1380 
  185.7500     2.3580    88.8210     8.9830     8.2220    10.1370    23.9970   -25.1960 
  185.8750     2.3730    92.1590     8.9620     8.1240    10.0260    23.9250   -25.2450 
  186.0000     2.3700    93.2190     8.9750     8.1060     9.9460    23.9910   -25.2080 
  186.1250     2.3540    91.2170     9.0220     8.1660     9.8350    24.2540   -25.1250 
  186.2500     2.3360    93.7850     9.1050     8.2840     9.4750    24.5450   -25.0240 
  186.3750     2.3200    99.5740     9.2240     8.4510     9.3120    24.6570   -24.8220 
  186.5000     2.3090   101.5100     9.3480     8.6450     9.5830    24.6050   -24.5780 
  186.6250     2.3000    98.3170     9.4210     8.8280     9.3990    24.4560   -24.3150 
  186.7500     2.2930    94.5830     9.4190     8.9680     9.3840    24.3080   -24.0010 
  186.8750     2.2890    91.2920     9.3460     9.0440     9.4950    24.2030   -23.6590 
  187.0000     2.2940    88.0120     9.2320     9.0450     9.6140    24.2140   -23.3130 
  187.1250     2.3140    86.0960     9.1090     8.9630     9.7500    24.3900   -22.9300 
  187.2500     2.3440    86.1980     8.9910     8.8170     9.7450    24.6140   -22.5650 
  187.3750     2.3740    87.9890     8.8640     8.6160     9.5580    24.7400   -22.2370 
  187.5000     2.3950    90.8470     8.7060     8.3630     9.2440    24.7740   -21.9270 
  187.6250     2.3880    92.4180     8.4720     8.0450     8.9750    24.7770   -21.6920 
  187.7500     2.3520    90.5720     8.1310     7.6520     8.7250    24.8070   -21.4960 
  187.8750     2.2980    89.7630     7.6700     7.1670     8.3830    24.8880   -21.3140 
  188.0000     2.2450    92.3170     7.1450     6.6180     7.8580    24.9930   -21.2240 
  188.1250     2.2200    95.3900     6.7760     6.1460     7.5970    24.9270   -21.2570 
  188.2500     2.2280    95.7250     6.8600     5.9640     7.2910    24.8250   -21.3910 
  188.3750     2.2620    95.6180     7.7590     6.3220     7.3760    24.7500   -21.6990 
  188.5000     2.3020    97.2080     9.9310     7.5710     8.8200    24.7450   -22.1320 
  188.6250     2.3210    95.3630    14.4160    10.6640    14.7230    24.8010   -22.6330 
