~V
VERS. 2.00: Ver 2.00
~W
STRT.M 47.0000:
STOP.M 270.0000:
STEP.M 0.1250:
NULL. -999.2500:
UWI. F10221:
~C
DEPT.M :
SP.MV :
GR.API :
RML.OHMM :
RI. :
RXO.OHMM :
CALI.CM :
DEN.GM/CC :
~A
# ...
   58.2500    34.4620    53.8750     0.2630     0.1890     1.4840    22.8990     2.3870 
   58.3750    28.9980    57.2960     0.4470     0.2830     1.4500    24.9910     2.2990 
   58.5000    22.9830    63.9720     0.8200     0.4740     1.9520    28.1290     2.2030 
   58.6250    16.8090    72.8490     1.4100     0.7630     3.1470    30.8050     2.1430 
   58.7500    10.7500    80.9720     2.1880     1.1750     4.3820    32.7370     2.1240 
   58.8750     5.0050    85.6970     2.9700     1.7250     4.9860    33.7710     2.1190 
   59.0000    -0.1560    86.1640     3.4110     2.3840     5.1430    33.7540     2.0930 
   59.1250    -4.6870    87.4520     3.5400     3.0450     5.3420    32.3380     2.0640 
   59.2500    -8.4370    90.6140     3.5660     3.6390     5.4910    29.0910     2.0790 
   59.3750   -11.3830    93.3990     3.6520     4.1390     5.6950    25.4540     2.1570 
   59.5000   -13.6000    95.1590     3.9050     4.5670     6.1740    23.1820     2.2690 
   59.6250   -15.4200    97.5620     4.3690     5.0670     6.3450    22.0210     2.3570 
   59.7500   -16.9750    97.7320     5.1390     5.8210     6.1290    21.2950     2.4100 
   59.8750   -18.3900    94.4420     6.3100     6.9910     6.2430    20.9140     2.4470 
   60.0000   -19.7840    89.8790     7.9340     8.7010     7.6950    20.8440     2.4840 
   60.1250   -21.1550    84.2870     9.6150    10.5340    10.7540    20.8270     2.5060 
   60.2500   -22.4970    78.3910    10.6850    11.7160    12.9330    20.6190     2.4830 
   60.3750   -23.8280    77.7670    10.5060    11.5290    11.5970    20.3040     2.4040 
   60.5000   -25.0870    82.5930     9.1220    10.0550     9.6890    20.3840     2.3060 
   60.6250   -26.2110    83.8110     7.6420     8.4370     9.0780    20.9780     2.2350 
   60.7500   -27.2350    81.6070     6.6610     7.2370     8.8930    22.0780     2.1960 
   60.8750   -28.1190    80.8540     6.3240     6.6160     8.5610    23.4370     2.1780 
   61.0000   -28.7000    81.5670     6.5420     6.5590     8.7130    24.5760     2.1680 
   61.1250   -29.0250    79.6570     6.9350     6.7600     9.3650    25.2380     2.1600 
   61.2500   -29.1120    77.3390     7.2360     6.9940     9.9490    25.4440     2.1560 
   61.3750   -29.0220    78.8230     7.2770     7.0810     9.5660    25.3640     2.1620 
   61.5000   -28.7610    83.8760     7.0240     6.9260     8.0030    24.9810     2.1900 
   61.6250   -28.4420    88.2570     6.6760     6.6460     6.9600    24.6060     2.2280 
   61.7500   -28.1230    89.4150     6.3780     6.3590     6.5180    24.3500     2.2590 
   61.8750   -27.8140    89.4580     6.2110     6.1620     6.4190    24.2450     2.2700 
   62.0000   -27.6020    91.8880     6.2100     6.1210     6.6310    24.2600     2.2620 
   62.1250   -27.4470    96.0430     6.3010     6.1920     6.9580    24.3260     2.2480 
   62.2500   -27.3990    97.8810     6.4210     6.3230     7.0230    24.3970     2.2390 
   62.3750   -27.4410    95.7870     6.5210     6.4440     6.9970    24.4300     2.2410 
   62.5000   -27.4860    93.1020     6.5470     6.4830     7.1740    24.3950     2.2570 
   62.6250   -27.5210    92.9800     6.4760     6.4220     7.3310    24.3330     2.2790 
   62.7500   -27.5650    95.9220     6.3060     6.2650     6.7640    24.3020     2.2970 
   62.8750   -27.6060   102.8410     6.0700     6.0460     6.1550    24.3360     2.3030 
   63.0000   -27.6310   112.6140     5.8360     5.8240     5.7640    24.4340     2.2970 
   63.1250   -27.7130   118.9740     5.6690     5.6540     5.6500    24.4810     2.2900 
   63.2500   -27.8370   119.0850     5.6130     5.5800     5.6310    24.4760     2.2850 
   63.3750   -28.0030   113.6010     5.6970     5.6290     5.6520    24.4410     2.2790 
   63.5000   -28.2940   106.8580     5.9530     5.8280     5.8200    24.4530     2.2680 
   63.6250   -28.6740   102.4150     6.3250     6.1230     6.1130    24.5840     2.2550 
   63.7500   -29.1090   101.1150     6.7390     6.4570     6.4500    24.7780     2.2400 
   63.8750   -29.6020   100.7370     7.0870     6.7440     7.0810    24.9350     2.2280 
   64.0000   -30.1390    96.1700     7.2310     6.8580     7.8470    25.0170     2.2180 
   64.1250   -30.6430    90.3520     7.1720     6.7860     7.7600    25.1140     2.2120 
   64.2500   -31.1050    88.9170     6.9960     6.5670     7.3840    25.2410     2.2120 
   64.3750   -31.5430    93.7170     6.8960     6.2680     6.6330    25.3270     2.2210 
   64.5000   -31.9520    98.7710     7.0490     5.9780     6.3270    25.2920     2.2400 
   64.6250   -32.3360    99.0070     7.4140     5.8050     6.9550    25.1590     2.2580 
   64.7500   -32.7070    95.7310     7.9700     5.8760     8.1900    25.0460     2.2740 
   64.8750   -33.0810    90.9850     8.8240     6.3580     8.8320    24.9770     2.2970 
   65.0000   -33.3790    85.2740    10.3460     7.5760     8.9300    24.7890     2.3470 
   65.1250   -33.7070    79.0260    12.6120     9.5990    10.4020    24.3340     2.4240 
   65.2500   -34.1080    71.7840    15.4550    12.3390    15.4320    23.7760     2.5080 
   65.3750   -34.5400    65.6270    18.1570    15.1360    24.4780    23.4060     2.5620 
   65.5000   -35.0160    65.5780    18.8080    16.2550    31.8650    23.3570     2.5320 
   65.6250   -35.5380    69.1210    17.0490    15.1760    24.6250    23.5090     2.4380 
   65.7500   -36.0230    70.1490    14.0460    12.8550    16.1300    23.8340     2.3220 
   65.8750   -36.4260    67.5910    11.2760    10.5760    12.5590    24.3190     2.2280 
   66.0000   -36.7420    66.0850     9.6380     9.0880    11.1730    24.7840     2.1780 
   66.1250   -36.9290    67.3110     8.8980     8.2810    10.5510    25.1130     2.1580 
   66.2500   -36.9520    68.1750     8.7330     7.9460    10.3720    25.2720     2.1570 
   66.3750   -36.7740    68.0960     8.7970     7.8340    10.3650    25.3330     2.1660 
   66.5000   -36.3980    71.8380     8.7620     7.6940    10.0660    25.3190     2.1810 
   66.6250   -35.8370    81.4330     8.5000     7.3980     9.1090    25.2670     2.2020 
   66.7500   -35.1520    94.5100     8.0360     6.9520     7.5430    25.1540     2.2320 
   66.8750   -34.4540   104.1860     7.4900     6.4380     6.5160    25.0570     2.2670 
   67.0000   -33.9100   106.4180     7.1230     6.0270     6.2280    25.0100     2.3000 
   67.1250   -33.5270   106.6010     7.2070     5.8950     6.2340    25.0110     2.3310 
   67.2500   -33.3220   105.9470     7.9690     6.1930     6.3730    25.0270     2.3640 
   67.3750   -33.3560   101.4460     9.5160     7.0300     7.1050    25.0050     2.4010 
   67.5000   -33.6610    91.8370    11.7800     8.4970    10.6060    24.8800     2.4470 
   67.6250   -34.2130    83.4260    14.0700    10.2220    20.8240    24.6920     2.4910 
   67.7500   -35.0080    78.0200    15.5400    11.5910    36.9970    24.5940     2.5020 
   67.8750   -35.9440    73.0000    15.4850    11.9300    37.4010    24.7170     2.4410 
   68.0000   -36.9520    68.0120    13.8530    11.0220    21.9360    25.0490     2.3260 
   68.1250   -37.9360    63.6560    11.8660     9.7220    13.8600    25.2750     2.2320 
   68.2500   -38.8060    61.2290    10.2820     8.5850    11.9530    25.3700     2.1810 
   68.3750   -39.5200    62.9390     9.3720     7.8400    11.9890    25.3950     2.1610 
   68.5000   -40.0450    66.4120     9.0890     7.5150    11.8450    25.3560     2.1490 
   68.6250   -40.3620    67.6820     9.0690     7.3990    11.6950    25.2610     2.1360 
   68.7500   -40.4690    68.2120     9.1310     7.3660    11.9390    25.1830     2.1240 
   68.8750   -40.4170    70.6000     9.1880     7.3450    11.8960    25.0680     2.1160 
   69.0000   -40.2130    72.5630     9.2270     7.3200    11.1980    24.8810     2.1120 
   69.1250   -39.9170    71.3620     9.2680     7.3090    10.6240    24.6570     2.1110 
   69.2500   -39.6120    69.5170     9.3230     7.3270    10.6310    24.5160     2.1140 
   69.3750   -39.3130    70.5550     9.3930     7.3760    10.9910    24.4880     2.1220 
