~V
VERS. 2.00: Ver 2.00
~W
STRT.M 50.0000:
STOP.M 271.0000:
STEP.M 0.1250:
NULL. -999.2500:
UWI. F10251:
~C
DEPT.M :
DEN.GM/CC :
GR.API :
RML.OHMM :
RI. :
RXO.OHMM :
CALI.CM :
SP.MV :
~A
# ...
   83.7500     2.3080    81.5210     8.4230     6.2620     9.1850    23.7050    -7.8670 
   83.8750     2.3220    84.2910     7.8100     5.7000     7.5200    23.9440    -7.5450 
   84.0000     2.3200    89.0980     7.3690     5.2700     6.6920    24.0920    -7.1920 
   84.1250     2.3080    97.1490     7.1930     5.0280     6.6130    24.1200    -6.9700 
   84.2500     2.2960   101.6110     7.2310     4.9380     6.6760    24.1000    -6.9530 
   84.3750     2.2830    99.5030     7.4120     4.9620     6.6920    24.0690    -7.1650 
   84.5000     2.2670    93.7740     7.6400     5.0490     6.7070    23.9670    -7.5750 
   84.6250     2.2530    89.4810     7.8150     5.1560     6.9670    23.7690    -8.0920 
   84.7500     2.2420    85.5650     7.9050     5.2570     7.3410    23.5670    -8.7240 
   84.8750     2.2350    81.9410     7.9460     5.3490     7.5330    23.4280    -9.4990 
   85.0000     2.2280    80.7630     8.0270     5.4590     7.5370    23.3410   -10.3140 
   85.1250     2.2190    82.2100     8.3090     5.6620     7.6490    23.3040   -11.0650 
   85.2500     2.2090    82.6140     8.8580     6.0050     8.0860    23.3220   -11.7650 
   85.3750     2.2080    80.0000     9.6660     6.5080     8.9370    23.3870   -12.4430 
   85.5000     2.2290    78.1570    10.6340     7.1380    10.8230    23.4640   -13.1440 
   85.6250     2.2700    80.8630    11.5480     7.7870    16.1790    23.5580   -13.8210 
   85.7500     2.2970    81.9850    12.2000     8.3090    23.4770    23.5830   -14.3490 
   85.8750     2.2830    78.1050    12.4960     8.6130    25.2850    23.5220   -14.7670 
   86.0000     2.2340    72.3130    12.4620     8.6830    18.4330    23.3540   -15.2060 
   86.1250     2.1930    68.6820    12.1920     8.5430    13.8410    23.1940   -15.6360 
   86.2500     2.1780    66.6950    11.8370     8.2960    12.3950    23.0260   -15.9460 
   86.3750     2.1760    65.3710    11.4540     7.9980    11.9590    22.9240   -16.1380 
   86.5000     2.1750    65.3970    11.0980     7.7030    11.2340    22.9030   -16.2540 
   86.6250     2.1760    66.1340    10.8990     7.5030    10.7740    23.0250   -16.3340 
   86.7500     2.1840    65.5230    10.9530     7.4620    10.6000    23.1720   -16.3940 
   86.8750     2.1920    63.6400    11.2950     7.6130    10.8760    23.2920   -16.3840 
   87.0000     2.1930    62.8440    11.8320     7.9230    12.1730    23.4170   -16.2830 
   87.1250     2.1810    63.9730    12.2940     8.2600    14.8940    23.5840   -16.1540 
   87.2500     2.1630    64.6710    12.4030     8.4280    16.1660    23.5920   -16.1050 
   87.3750     2.1480    65.7050    12.0600     8.3160    13.0040    23.4410   -16.1340 
   87.5000     2.1400    68.4190    11.3830     7.9440    10.2300    23.3050   -16.1350 
   87.6250     2.1460    70.7620    10.6570     7.4520     9.4530    23.1980   -16.0490 
   87.7500     2.1560    70.1670    10.1310     7.0300     9.2400    23.0710   -16.0060 
   87.8750     2.1630    68.6450     9.8860     6.7650     8.9600    22.9230   -16.0680 
   88.0000     2.1620    69.5340     9.8840     6.6740     9.0180    22.8630   -16.1210 
   88.1250     2.1540    71.4560    10.0170     6.7200     9.1120    22.8910   -16.0630 
   88.2500     2.1460    69.5290    10.1420     6.8030     9.1370    22.9520   -15.9040 
   88.3750     2.1440    63.9520    10.1990     6.8720     9.2180    22.9840   -15.6990 
   88.5000     2.1530    59.3740    10.2020     6.9130     9.3030    22.9650   -15.5150 
   88.6250     2.1740    61.1830    10.2240     6.9550     9.4290    22.9090   -15.3060 
   88.7500     2.1980    65.3940    10.3190     7.0280     9.8280    22.8660   -14.9930 
   88.8750     2.2200    68.3540    10.4690     7.1310    10.5120    22.8880   -14.6340 
   89.0000     2.2430    70.9970    10.5950     7.2290    11.3350    22.9970   -14.3480 
   89.1250     2.2650    74.0230    10.5740     7.2540    12.0990    23.1490   -14.1280 
   89.2500     2.2780    76.3440    10.3910     7.1790    12.4480    23.2630   -13.9290 
   89.3750     2.2700    77.0770    10.1080     7.0120    10.9570    23.2950   -13.7310 
   89.5000     2.2440    76.5100     9.8250     6.8040     9.2210    23.2480   -13.5100 
   89.6250     2.2130    73.7000     9.6190     6.6140     8.4140    23.1730   -13.3990 
   89.7500     2.1940    69.8190     9.4740     6.4650     8.5730    23.1800   -13.4270 
   89.8750     2.1930    67.7350     9.3610     6.3620     8.9790    23.2650   -13.4560 
   90.0000     2.2090    68.9470     9.2610     6.2980     9.3850    23.3930   -13.3990 
   90.1250     2.2310    73.7150     9.1930     6.2670     9.1040    23.4820   -13.3740 
   90.2500     2.2400    77.6280     9.1970     6.2700     8.9960    23.5430   -13.4840 
   90.3750     2.2260    77.7820     9.3080     6.3270     9.4030    23.5540   -13.6800 
   90.5000     2.1980    73.2210     9.5150     6.4490    10.1260    23.5520   -13.8740 
   90.6250     2.1740    68.6100     9.7460     6.6150    10.1280    23.5410   -14.0150 
   90.7500     2.1600    68.6790     9.8970     6.7600     9.6790    23.4930   -14.1630 
   90.8750     2.1530    69.6980     9.9250     6.8340     9.3210    23.4000   -14.3650 
   91.0000     2.1490    67.9190     9.8970     6.8470     9.2540    23.3040   -14.6050 
   91.1250     2.1540    65.2800    10.0150     6.9080     9.3480    23.2890   -14.7870 
   91.2500     2.1700    65.5370    10.4060     7.1250     9.4410    23.3010   -14.8450 
   91.3750     2.1950    66.8270    11.0740     7.5330     9.7860    23.4260   -14.8520 
   91.5000     2.2290    67.4850    11.8890     8.0820    11.6090    23.6500   -14.9140 
   91.6250     2.2610    67.6190    12.5570     8.6090    16.6720    23.7410   -14.9550 
   91.7500     2.2680    67.6300    12.8200     8.9150    18.9020    23.6110   -14.8950 
   91.8750     2.2440    67.2800    12.5900     8.8910    14.3390    23.4620   -14.8130 
   92.0000     2.2080    66.8490    11.9850     8.5650    11.1460    23.3840   -14.8030 
   92.1250     2.1900    66.1120    11.2540     8.0750    10.6150    23.3280   -14.8670 
   92.2500     2.1840    65.6250    10.6450     7.6150    10.7690    23.2380   -14.9460 
   92.3750     2.1760    66.1630    10.2410     7.2770    10.5320    23.1300   -14.9830 
   92.5000     2.1590    66.4790    10.0290     7.0790    10.2030    23.0420   -14.9850 
   92.6250     2.1370    66.4330     9.9450     6.9890     9.7590    22.9640   -15.0710 
   92.7500     2.1240    67.7130     9.9070     6.9310     9.3460    22.9730   -15.1970 
   92.8750     2.1260    69.3830     9.8970     6.8830     9.2770    23.0580   -15.2600 
   93.0000     2.1400    69.1960     9.9060     6.8500     9.6800    23.1730   -15.2520 
   93.1250     2.1590    66.2520     9.9330     6.8540    10.2060    23.1860   -15.2250 
   93.2500     2.1720    63.0490     9.9750     6.9030    10.3490    23.1530   -15.2510 
   93.3750     2.1750    62.1680    10.0310     6.9910    10.1210    23.1260   -15.3500 
   93.5000     2.1700    64.6490    10.0940     7.1020     9.8870    23.1390   -15.4520 
   93.6250     2.1620    68.4950    10.1570     7.2090     9.9410    23.1810   -15.4540 
   93.7500     2.1600    70.0090    10.2090     7.2950    10.0870    23.2140   -15.4900 
   93.8750     2.1640    68.8890    10.2400     7.3510    10.1400    23.1780   -15.6460 
   94.0000     2.1700    67.3640    10.2540     7.3800    10.2530    23.1420   -15.8040 
   94.1250     2.1720    67.4230    10.2670     7.3960    10.1640    23.1690   -15.9260 
   94.2500     2.1720    69.0460    10.3020     7.4270    10.0020    23.2590   -16.0500 
   94.3750     2.1740    70.2110    10.3730     7.4840     9.8960    23.3810   -16.1800 
   94.5000     2.1800    69.8870    10.4770     7.5610     9.8980    23.4540   -16.3210 
   94.6250     2.1870    67.6370    10.5830     7.6370    10.0470    23.3690   -16.4580 
   94.7500     2.1910    64.7060    10.6510     7.6930    10.2350    23.3090   -16.5400 
   94.8750     2.1920    63.3530    10.6540     7.7230    10.3870    23.2980   -16.5770 
