~V
VERS. 2.00: Ver 2.00
~W
STRT.M 58.0000:
STOP.M 277.0000:
STEP.M 0.1250:
NULL. -999.2500:
UWI. F10219:
~C
DEPT.M :
SP.MV :
DEN.GM/CC :
GR.API :
RML.OHMM :
RI. :
RXO.OHMM :
CALI.CM :
~A
# ...
  260.5000    -6.8880     2.3760    56.6340     8.9140     7.6600     6.5760    24.9470 
  260.6250    -7.0790     2.3730    56.1910     8.9730     7.7100     6.4760    24.7930 
  260.7500    -7.2150     2.3650    57.3540     9.1280     7.8390     6.4360    24.6910 
  260.8750    -7.2970     2.3580    59.0800     9.4040     8.0660     6.4810    24.7250 
  261.0000    -7.4040     2.3620    60.6250     9.7720     8.3730     6.6270    24.8490 
  261.1250    -7.5180     2.3790    62.1170    10.1680     8.7170     6.9700    24.9740 
  261.2500    -7.6050     2.4050    62.8770    10.4960     9.0200     7.5760    25.0540 
  261.3750    -7.6880     2.4310    62.2300    10.6690     9.1990     8.3980    25.0820 
  261.5000    -7.7570     2.4500    60.9220    10.6720     9.2170     9.2150    25.0450 
  261.6250    -7.8240     2.4630    60.1480    10.5380     9.0870     9.8300    24.9760 
  261.7500    -7.8560     2.4690    60.6410    10.3370     8.8690    10.1530    24.9270 
  261.8750    -7.8320     2.4670    61.8540    10.1580     8.6460    10.0090    24.9010 
  262.0000    -7.7450     2.4560    62.4380    10.0680     8.4920     9.3570    24.8850 
  262.1250    -7.6340     2.4430    61.6310    10.0980     8.4430     8.5540    24.8860 
  262.2500    -7.5190     2.4340    59.9230    10.2490     8.5070     8.2490    24.9050 
  262.3750    -7.4210     2.4320    59.2800    10.4780     8.6580     8.6540    24.9440 
  262.5000    -7.3380     2.4350    61.1300    10.7080     8.8380     9.3410    24.9840 
  262.6250    -7.2640     2.4380    64.2900    10.8740     8.9960     9.9310    24.9960 
  262.7500    -7.2570     2.4350    66.2090    10.9250     9.0830     9.9360    25.0020 
  262.8750    -7.2690     2.4230    66.3390    10.8550     9.0750     9.1250    25.0160 
  263.0000    -7.2810     2.4040    65.4550    10.7150     8.9910     8.0800    24.9760 
  263.1250    -7.3340     2.3870    63.8470    10.5550     8.8570     7.3580    24.9040 
  263.2500    -7.4010     2.3820    63.0180    10.4110     8.7100     7.0080    24.8630 
  263.3750    -7.4100     2.3960    64.3560    10.2920     8.5730     6.8530    24.9510 
  263.5000    -7.4210     2.4230    66.0590    10.1730     8.4480     6.7820    25.1470 
  263.6250    -7.4500     2.4550    65.5970    10.0260     8.3210     6.8010    25.2960 
  263.7500    -7.4250     2.4770    64.1910     9.8390     8.1750     6.9050    25.3230 
  263.8750    -7.4230     2.4820    64.2850     9.6330     8.0110     7.1160    25.2640 
  264.0000    -7.5070     2.4730    65.3810     9.4500     7.8500     7.4850    25.2030 
  264.1250    -7.5920     2.4610    65.3130     9.3240     7.7170     7.9590    25.1950 
  264.2500    -7.6420     2.4540    63.3380     9.2680     7.6290     8.3370    25.2410 
  264.3750    -7.6910     2.4450    60.6600     9.2630     7.5870     8.4730    25.2730 
  264.5000    -7.7260     2.4290    58.5870     9.2720     7.5750     8.5060    25.2730 
  264.6250    -7.7370     2.4140    57.8290     9.2750     7.5830     8.4260    25.2730 
  264.7500    -7.6880     2.4150    58.0140     9.2710     7.6080     8.0450    25.2820 
  264.8750    -7.5170     2.4300    58.1910     9.2740     7.6470     7.4150    25.2970 
  265.0000    -7.2600     2.4440    58.1370     9.2940     7.6970     6.8540    25.2980 
  265.1250    -6.9820     2.4460    58.6100     9.3340     7.7520     6.5980    25.2800 
  265.2500    -6.7080     2.4420    59.9810     9.3860     7.8030     6.6000    25.2400 
  265.3750    -6.4490     2.4390    61.2530     9.4360     7.8400     6.7410    25.2260 
  265.5000    -6.2300     2.4400    61.8570     9.4700     7.8610     6.9870    25.2250 
  265.6250    -6.0580     2.4460    62.3510     9.4780     7.8630     7.3730    25.2450 
  265.7500    -5.9250     2.4540    62.5930     9.4520     7.8460     7.9090    25.2940 
  265.8750    -5.8310     2.4590    62.1270     9.3880     7.8100     8.4770    25.3530 
  266.0000    -5.7720     2.4530    61.4710     9.2930     7.7560     8.8810    25.3970 
  266.1250    -5.7480     2.4330    61.1740     9.1780     7.6860     9.0310    25.4330 
  266.2500    -5.7780     2.4070    61.1040     9.0650     7.6110     8.8380    25.5160 
  266.3750    -5.8320     2.3870    61.4230     8.9810     7.5470     8.3650    25.7660 
  266.5000    -5.8040     2.3880    62.5400     8.9470     7.5130     7.8250    26.1760 
  266.6250    -5.7000     2.4090    63.5930     8.9680     7.5170     7.2870    26.5100 
  266.7500    -5.6660     2.4400    63.7890     9.0330     7.5570     6.8870    26.5250 
  266.8750    -5.7380     2.4630    63.7890     9.1120     7.6180     6.7030    26.3050 
  267.0000    -5.7780     2.4740    63.7890     9.1690     7.6740     6.6630    26.1200 
  267.1250    -5.7650     2.4770    63.7890     9.1860     7.7060     6.6670    25.9880 
  267.2500    -5.7620     2.4750    63.7890     9.1540     7.7020     6.6530    25.7750 
  267.3750    -5.8200     2.4680    63.7890     9.0830     7.6650     6.6120    25.5820 
  267.5000    -5.9790     2.4570    63.7890     8.9970     7.6100     6.5720    25.6520 
  267.6250    -6.2010     2.4450    63.7890     8.9120     7.5500     6.5610    25.9410 
  267.7500    -6.3860     2.4340    63.7890     8.8400     7.4940     6.6110    26.0710 
  267.8750    -6.5040     2.4230    63.7890     8.7860     7.4440     6.7210    25.9180 
  268.0000    -6.5950     2.4120    63.7890     8.7420     7.4000     6.8630    25.7420 
  268.1250    -6.6680     2.4020    63.7890     8.7050     7.3610     7.0120    25.6620 
  268.2500    -6.7160     2.4020    63.7890     8.6720     7.3330     7.1320    25.7360 
  268.3750    -6.7320     2.4180    63.7890     8.6490     7.3200     7.1790    25.9210 
  268.5000    -6.7150     2.4460    63.7890     8.6410     7.3220     7.1220    26.0510 
  268.6250    -6.6330     2.4720    63.7890     8.6510     7.3380     6.9460    25.8930 
  268.7500    -6.5190     2.4810    63.7890     8.6760     7.3630     6.7480    25.5580 
  268.8750    -6.4230     2.4740    63.7890     8.7110     7.3930     6.6380    25.3430 
  269.0000    -6.3430     2.4640    63.7890     8.7500     7.4230     6.6820    25.2310 
  269.1250    -6.2930     2.4550    63.7890     8.7920     7.4510     6.9100    25.1280 
  269.2500    -6.2910     2.4470    63.7890     8.8330     7.4780     7.2790    25.0620 
  269.3750    -6.3100     2.4420    63.7890     8.8680     7.5030     7.7230    25.0570 
  269.5000    -6.2970     2.4420    63.7890     8.8940     7.5240     8.1630    25.1180 
  269.6250    -6.3000     2.4450    63.7890     8.9090     7.5410     8.5000    25.2490 
  269.7500    -6.3610     2.4470    63.7890     8.9140     7.5550     8.6310    25.3920 
  269.8750    -6.4380     2.4450    63.7890     8.9130     7.5660     8.5210    25.4600 
  270.0000    -6.5480     2.4430    63.7890     8.9080     7.5730     8.3190    25.4760 
  270.1250    -6.6580     2.4430    63.7890     8.8970     7.5740     8.1180    25.4760 
  270.2500    -6.6970     2.4450    63.7890     8.8800     7.5680     7.9450    25.4640 
  270.3750    -6.7030     2.4470    63.7890     8.8560     7.5510     7.7120    25.5350 
  270.5000    -6.7490     2.4460    63.7890     8.8310     7.5270     7.5260    25.7050 
  270.6250    -6.8110     2.4360    63.7890     8.8110     7.5000     7.5310    25.8190 
  270.7500    -6.8540     2.4200    63.7890     8.8020     7.4740     7.6780    25.8290 
  270.8750    -6.8780     2.4080    63.7890     8.8020     7.4570     7.8730    25.8450 
  271.0000    -6.8470     2.4040    63.7890     8.8120     7.4540     8.0800    26.0550 
  271.1250    -6.8030     2.4040    63.7890     8.8330     7.4670     8.2560    26.1910 
  271.2500    -6.7630     2.4020    63.7890     8.8700     7.4950     8.3340    26.1850 
  271.3750    -6.6600     2.4030    63.7890     8.9240     7.5360     8.3680    26.0990 
  271.5000    -6.5120     2.4160    63.7890     8.9830     7.5790     8.4440    25.9560 
  271.6250    -6.3610     2.4370    63.7890     9.0360     7.6190     8.5840    25.7000 
