~V
VERS. 2.00: Ver 2.00
~W
STRT.M 20.0000:
STOP.M 256.0000:
STEP.M 0.1250:
NULL. -999.2500:
UWI. F10201:
~C
DEPT.M :
DEN.GM/CC :
GR.API :
RML.OHMM :
RI. :
RXO.OHMM :
CALI.CM :
SP.MV :
~A
# ...
  166.2500     2.2820    77.5860    17.7860    17.3820    13.4940    24.4730   -24.9020 
  166.3750     2.2810    78.9090    18.4550    18.1320    14.9000    24.5090   -24.9610 
  166.5000     2.2830    79.1940    18.8520    18.6160    15.4570    24.5210   -25.0420 
  166.6250     2.2860    77.1440    18.9540    18.7670    15.3330    24.5250   -25.1600 
  166.7500     2.2880    74.6000    18.8630    18.6770    15.0710    24.5250   -25.2850 
  166.8750     2.2910    73.0570    18.6380    18.4090    15.1050    24.5250   -25.4700 
  167.0000     2.2950    71.6850    18.3450    18.0350    15.6100    24.5260   -25.7060 
  167.1250     2.3020    71.8710    18.1510    17.6960    16.2550    24.5270   -25.9770 
  167.2500     2.3120    75.4660    18.3420    17.6130    16.6330    24.5190   -26.3460 
  167.3750     2.3210    81.0000    19.3370    18.0840    16.4970    24.4950   -26.8110 
  167.5000     2.3280    84.5500    21.7110    19.5340    16.1990    24.4610   -27.3340 
  167.6250     2.3290    83.7700    26.7410    23.0370    16.6240    24.4350   -27.9900 
  167.7500     2.3240    83.0570    35.1760    29.5060    17.8230    24.4310   -28.7250 
  167.8750     2.3080    81.1030    48.1320    40.3330    21.7400    24.4350   -29.5110 
  168.0000     2.2770    75.5100    66.5110    56.7950    27.1000    24.4220   -30.3670 
  168.1250     2.2330    66.1870    90.6590    79.6210    33.5850    24.3840   -31.2390 
  168.2500     2.1930    58.4170   116.0920   104.3990    34.8100    24.3670   -32.0970 
  168.3750     2.1720    55.1240   137.3460   125.8600    34.0470    24.2930   -32.9400 
  168.5000     2.1760    55.0030   151.1820   140.5590    35.1010    24.0190   -33.7290 
  168.6250     2.1940    56.7930   159.5760   149.3980    40.7840    23.6170   -34.4330 
  168.7500     2.2060    58.5540   168.6690   157.9870    49.1830    23.4800   -35.1010 
  168.8750     2.2010    59.6450   181.3000   169.4330    55.0890    23.6640   -35.6550 
  169.0000     2.1850    59.7740   197.6010   184.4040    56.8140    23.9700   -36.1080 
  169.1250     2.1780    59.3320   215.0410   201.0610    71.7070    24.0850   -36.5380 
  169.2500     2.1850    60.1530   230.1470   216.1310    95.7800    23.9720   -36.8860 
  169.3750     2.2000    60.2820   242.2800   228.6520   118.4670    23.8470   -37.1420 
  169.5000     2.2070    59.4810   253.5710   240.1600   136.5150    23.8730   -37.3580 
  169.6250     2.2000    59.1530   267.8480   254.0720   194.2570    24.0480   -37.5180 
  169.7500     2.1880    59.7490   286.4430   271.9940   251.9040    24.2710   -37.6050 
  169.8750     2.1830    60.5600   308.3030   293.2260   310.8240    24.4220   -37.6920 
  170.0000     2.1890    59.7170   329.6350   314.3750   357.5360    24.4370   -37.8210 
  170.1250     2.2030    56.1870   343.2030   328.5050   331.1000    24.3490   -37.8830 
  170.2500     2.2150    53.4760   346.9330   332.8100   299.9490    24.2890   -37.9490 
  170.3750     2.2210    54.7730   343.4480   328.9310   312.0020    24.3730   -38.0370 
  170.5000     2.2220    58.2580   338.4960   322.1310   376.8700    24.6430   -38.0700 
  170.6250     2.2230    58.1810   339.2540   319.6190   490.0560    24.8940   -38.0620 
  170.7500     2.2240    56.2180   349.1040   325.4640   485.3390    25.0540   -37.9990 
  170.8750     2.2210    55.6380   369.4850   341.3630   494.1490    25.1280   -37.8410 
  171.0000     2.2090    54.9490   399.5590   366.7200   532.1790    25.1740   -37.6240 
  171.1250     2.1900    52.0820   434.0560   397.3940   844.8080    25.2100   -37.3840 
  171.2500     2.1720    50.0910   459.6790   422.2770  1203.5690    25.2260   -37.0340 
  171.3750     2.1630    49.1620   462.5200   429.5660  1474.0910    25.1770   -36.6200 
  171.5000     2.1650    49.4080   435.6770   411.4770  1200.8280    25.0890   -36.2130 
  171.6250     2.1780    51.5170   385.1680   368.7070   787.2410    25.0430   -35.7000 
  171.7500     2.1940    54.9480   332.3380   319.1990   486.6150    25.0170   -35.1440 
  171.8750     2.2070    57.3740   288.2540   274.8800   311.5460    24.9800   -34.6200 
  172.0000     2.2140    56.1190   256.8150   241.8480   231.0250    24.9270   -34.0140 
  172.1250     2.2140    53.3760   239.0000   222.8350   223.2780    24.8960   -33.3460 
  172.2500     2.2110    52.0720   229.7750   213.4860   217.5750    24.9060   -32.7410 
  172.3750     2.2100    52.9910   225.3200   210.3290   219.3560    24.8970   -32.1230 
  172.5000     2.2120    54.4360   220.7980   208.8510   217.8100    24.8200   -31.4680 
  172.6250     2.2160    54.6840   209.5620   202.7080   205.7180    24.7210   -30.9220 
  172.7500     2.2200    56.5880   189.7780   188.6480   198.0830    24.6280   -30.4120 
  172.8750     2.2230    58.9260   163.6590   166.9870   199.5880    24.5140   -29.9020 
  173.0000     2.2260    59.2670   136.2450   141.4620   160.9860    24.4150   -29.4960 
  173.1250     2.2300    58.9020   113.0620   117.6540   109.3240    24.4710   -29.1900 
  173.2500     2.2330    59.4800    95.4790    98.5860    83.1100    24.7600   -28.8510 
  173.3750     2.2360    59.6600    83.3660    84.8690    70.6670    25.1390   -28.5580 
  173.5000     2.2380    57.1210    76.0330    76.0350    62.9410    25.4090   -28.3410 
  173.6250     2.2430    53.9620    73.1550    71.7390    57.3410    25.4660   -28.0890 
  173.7500     2.2490    54.0620    73.1130    70.2980    55.5050    25.3980   -27.9130 
  173.8750     2.2550    56.3820    75.1120    70.9270    57.8370    25.2890   -27.7880 
  174.0000     2.2580    59.2770    78.5450    73.0450    65.7810    25.1210   -27.6440 
  174.1250     2.2600    62.4650    83.3810    76.5940    79.7280    24.8160   -27.5190 
  174.2500     2.2610    67.3880    89.8440    81.6860    91.2780    24.4290   -27.4450 
  174.3750     2.2610    72.5230    98.8970    89.1860    94.3170    24.1430   -27.4220 
  174.5000     2.2590    72.3730   111.8630   100.3780   104.7540    23.9950   -27.4050 
  174.6250     2.2540    66.6690   137.8480   117.8930   125.0510    23.9470   -27.4120 
  174.7500     2.2460    62.3600   164.8380   141.9790   147.8110    23.9340   -27.4320 
  174.8750     2.2380    62.3900   195.2400   170.7940   175.1070    23.9330   -27.4790 
  175.0000     2.2330    64.3610   217.1420   196.0250   183.4470    23.9320   -27.5260 
  175.1250     2.2340    63.5830   204.1530   196.1460   133.2470    23.9320   -27.5670 
  175.2500     2.2420    60.9710   160.1470   165.5960   103.5220    23.9310   -27.6630 
  175.3750     2.2590    61.0840   109.1050   118.8480   103.2060    23.9320   -27.7450 
  175.5000     2.2830    65.3000    69.5510    76.4070    90.9290    23.9270   -27.8060 
  175.6250     2.3050    69.9400    46.2870    49.5250    46.5880    23.9060   -27.9060 
  175.7500     2.3170    72.5440    32.3310    33.6020    23.8160    23.8750   -27.9940 
  175.8750     2.3170    75.3530    23.9010    24.3860    16.9400    23.8530   -28.0230 
  176.0000     2.3090    79.2780    18.6550    18.8240    15.8800    23.8370   -28.0490 
  176.1250     2.3010    83.1860    15.5950    15.5470    14.3620    23.8320   -28.0900 
  176.2500     2.3000    87.6690    13.8340    13.5500    11.5060    23.8440   -28.0700 
  176.3750     2.3060    92.5130    13.1700    12.5950     9.2270    23.8640   -28.0450 
  176.5000     2.3160    94.1540    13.5260    12.5790     9.2370    23.8470   -28.0540 
  176.6250     2.3280    89.9500    15.0830    13.6640    11.6450    23.8100   -28.0120 
  176.7500     2.3370    84.6620    17.7700    15.8030    15.2130    23.7890   -27.9460 
  176.8750     2.3390    81.2910    21.7000    19.1330    17.9810    23.7850   -27.9220 
  177.0000     2.3290    79.5600    26.8730    23.7140    20.9950    23.7850   -27.8880 
  177.1250     2.3040    76.7280    32.5470    29.4070    26.9160    23.7850   -27.8020 
  177.2500     2.2740    71.9800    36.9530    35.1310    36.6710    23.7850   -27.7530 
  177.3750     2.2470    69.3660    40.7700    39.4910    45.4460    23.7820   -27.6720 
