~V
VERS. 2.00: Ver 2.00
~W
STRT.M 50.0000:
STOP.M 284.0000:
STEP.M 0.1250:
NULL. -999.2500:
UWI. F10254:
~C
DEPT.M :
GR.API :
RML.OHMM :
RI. :
RXO.OHMM :
CALI.CM :
DEN.GM/CC :
SP.MV :
~A
# ...
   61.2500    66.1290     9.4290     7.8320     8.7500    23.7270     2.2290   -10.7640 
   61.3750    65.2310     9.4730     7.9100     8.8770    23.6710     2.2300   -11.2310 
   61.5000    64.9660     9.6510     8.0880     9.0650    23.6100     2.2250   -11.7900 
   61.6250    63.4860     9.9360     8.3560     9.0690    23.6170     2.2090   -12.3510 
   61.7500    60.3880    10.2260     8.6400     9.4170    23.6640     2.1850   -12.8800 
   61.8750    56.7120    10.4330     8.8730    10.6240    23.7450     2.1610   -13.4240 
   62.0000    55.6770    10.4940     8.9980    12.1320    23.8450     2.1430   -13.9060 
   62.1250    59.4910    10.3790     8.9760    11.0850    23.9110     2.1380   -14.1080 
   62.2500    64.5500    10.1900     8.8690     9.5200    23.9510     2.1430   -14.0850 
   62.3750    67.2710    10.0240     8.7410     8.7950    24.0080     2.1530   -13.9210 
   62.5000    67.3080     9.9380     8.6380     8.7020    24.0920     2.1590   -13.6460 
   62.6250    66.0160     9.8900     8.5480     8.5960    24.1760     2.1600   -13.2650 
   62.7500    64.9060     9.7430     8.3930     8.3310    24.2260     2.1620   -12.7860 
   62.8750    64.6090     9.4060     8.1140     8.1670    24.2510     2.1730   -12.1750 
   63.0000    65.5290     8.8830     7.7090     8.0270    24.2510     2.1950   -11.3990 
   63.1250    67.5580     8.3050     7.2610     7.6580    24.2460     2.2230   -10.5340 
   63.2500    71.8350     7.8780     6.9090     7.3870    24.3140     2.2450    -9.7090 
   63.3750    78.2440     7.7480     6.7520     7.3590    24.4310     2.2530    -8.9220 
   63.5000    84.0770     7.9820     6.8480     7.7780    24.5110     2.2450    -8.2400 
   63.6250    83.5550     8.5780     7.2370     7.9110    24.5900     2.2250    -7.7600 
   63.7500    78.3590     9.2780     7.7730     8.2140    24.7540     2.2040    -7.4260 
   63.8750    74.4090     9.7850     8.2560     8.5880    24.9900     2.1910    -7.2290 
   64.0000    75.3870     9.8150     8.4420     8.9690    25.2030     2.1930    -7.1330 
   64.1250    79.6410     9.1860     8.1200     9.3660    25.3110     2.2160    -7.0340 
   64.2500    83.3100     8.2100     7.4790     8.6400    25.3950     2.2560    -6.8340 
   64.3750    87.2690     7.2220     6.7630     7.2440    25.4300     2.2990    -6.5940 
   64.5000    93.5440     6.5220     6.2050     6.1950    25.3790     2.3310    -6.3520 
   64.6250    98.5990     6.3820     6.0180     5.9380    25.2610     2.3330    -6.1220 
   64.7500    97.5950     6.7410     6.1990     6.0800    25.1780     2.3060    -6.0200 
   64.8750    90.6370     7.4710     6.7030     6.8890    25.1230     2.2630    -5.9900 
   65.0000    82.3600     8.3200     7.3750     8.5140    25.1100     2.2230    -6.0200 
   65.1250    76.9240     8.8740     7.8950     9.1480    25.1560     2.2050    -6.1160 
   65.2500    75.2180     8.9200     8.0160     8.4680    25.1880     2.2090    -6.1600 
   65.3750    77.9120     8.4790     7.7000     7.2730    25.1780     2.2280    -6.0570 
   65.5000    82.3920     7.7550     7.0960     6.3000    25.1490     2.2530    -5.8310 
   65.6250    83.5350     6.9860     6.4010     5.8470    25.0560     2.2770    -5.4610 
   65.7500    83.2660     6.3130     5.7670     5.7090    24.8680     2.2990    -4.8730 
   65.8750    85.9350     5.7990     5.2680     5.6210    24.6710     2.3190    -4.1540 
   66.0000    92.5190     5.5560     4.9910     5.5720    24.5530     2.3450    -3.5580 
   66.1250    97.1560     5.9270     5.1330     5.8510    24.5250     2.3910    -3.2710 
   66.2500    94.8630     7.2270     5.8560     6.8360    24.5210     2.4570    -3.2350 
   66.3750    85.0220     9.8350     7.4410     9.8330    24.5070     2.5360    -3.5120 
   66.5000    71.1810    13.9180    10.1710    18.3220    24.4590     2.6040    -4.1050 
   66.6250    62.4930    18.9970    14.1040    26.6890    24.3480     2.6230    -4.9860 
   66.7500    62.2310    22.9480    17.7500    31.3240    24.2570     2.5860    -6.1370 
   66.8750    64.8900    23.6400    19.1540    30.8290    24.2210     2.5000    -7.5710 
   67.0000    64.6700    20.8040    17.6650    24.7760    24.2290     2.3920    -9.1720 
   67.1250    63.2040    16.5950    14.7530    15.3880    24.2160     2.2940   -10.8480 
   67.2500    64.9100    13.3490    12.2850    12.0780    24.1740     2.2230   -12.5810 
   67.3750    67.4120    11.5470    10.7040    11.1480    24.1460     2.1800   -14.1760 
   67.5000    67.1300    10.9640     9.9490    10.9340    24.1520     2.1550   -15.4820 
   67.6250    65.0270    11.2240     9.8780    11.2250    24.1810     2.1440   -16.4900 
   67.7500    65.1510    11.6700    10.0780    12.7170    24.1920     2.1430   -17.2800 
   67.8750    66.3150    11.9080    10.2500    14.8040    24.1980     2.1530   -17.7860 
   68.0000    64.8580    11.7520    10.1920    13.1280    24.2350     2.1670   -18.0090 
   68.1250    60.2240    11.2450     9.8610    10.9040    24.3270     2.1760   -18.0630 
   68.2500    57.0420    10.6660     9.4370     9.7020    24.4300     2.1730   -18.0870 
   68.3750    57.1430    10.1890     9.0490     9.3610    24.4840     2.1600   -18.1700 
   68.5000    59.0450     9.9070     8.7780     9.1220    24.4750     2.1420   -18.2950 
   68.6250    60.4120     9.8450     8.6630     9.1970    24.4380     2.1220   -18.4440 
   68.7500    61.2840     9.8960     8.6380     9.4430    24.4650     2.1030   -18.6150 
   68.8750    60.9920     9.9940     8.6550     9.7720    24.6170     2.0860   -18.8290 
   69.0000    59.9420    10.0960     8.6810    10.1380    24.8260     2.0740   -19.0050 
   69.1250    59.3490    10.1640     8.6900    10.1650    24.9570     2.0730   -19.1180 
   69.2500    59.4480    10.1910     8.6770    10.0260    25.0270     2.0820   -19.1940 
   69.3750    59.7170    10.1840     8.6470     9.9280    25.0010     2.0960   -19.1830 
   69.5000    60.6270    10.1610     8.6110    10.0670    24.9160     2.1090   -19.1360 
   69.6250    63.7570    10.1350     8.5790    10.2140    24.8970     2.1180   -19.1450 
   69.7500    67.8070    10.1090     8.5520    10.2380    24.8660     2.1220   -19.1910 
   69.8750    71.2430    10.0830     8.5280    10.1030    24.8430     2.1240   -19.2360 
   70.0000    73.1000    10.0650     8.5080    10.0510    24.8060     2.1260   -19.3700 
   70.1250    71.8250    10.0820     8.5040    10.0270    24.7490     2.1290   -19.6160 
   70.2500    68.2680    10.1470     8.5260     9.8530    24.6590     2.1340   -19.8710 
   70.3750    65.0860    10.2590     8.5750     9.5720    24.7070     2.1370   -20.1510 
   70.5000    65.1490    10.3980     8.6460     9.3710    24.8950     2.1390   -20.4380 
   70.6250    66.6530    10.5230     8.7210     9.6210    25.0440     2.1400   -20.6350 
   70.7500    67.6820    10.6050     8.7790     9.8960    25.0340     2.1420   -20.7800 
   70.8750    67.1040    10.6380     8.8120     9.9510    24.9580     2.1430   -20.9540 
   71.0000    64.3280    10.6360     8.8250     9.8980    24.9060     2.1400   -21.0760 
   71.1250    61.3960    10.6330     8.8360    10.0760    24.8860     2.1270   -21.0080 
   71.2500    60.8730    10.6570     8.8650    10.4440    24.8770     2.1100   -20.8420 
   71.3750    61.7050    10.7070     8.9150    10.6290    24.8940     2.0960   -20.6510 
   71.5000    61.5190    10.7580     8.9690    10.6360    24.9190     2.0910   -20.5230 
   71.6250    61.0270    10.7690     8.9930    10.1770    24.9390     2.0960   -20.5020 
   71.7500    61.5630    10.7190     8.9680    10.0910    24.9340     2.1050   -20.5160 
   71.8750    62.4250    10.6130     8.8930     9.9490    24.9280     2.1130   -20.5260 
   72.0000    63.4030    10.4800     8.7830     9.8680    24.9340     2.1180   -20.6200 
   72.1250    65.8570    10.3560     8.6640     9.8200    24.9580     2.1220   -20.7520 
   72.2500    68.5700    10.2580     8.5560     9.7020    25.0600     2.1260   -20.8840 
   72.3750    68.6060    10.1830     8.4670     9.5160    25.2010     2.1310   -21.0750 
