~V
VERS. 2.00: Ver 2.00
~W
STRT.M 53.0000:
STOP.M 286.0000:
STEP.M 0.1250:
NULL. -999.2500:
UWI. F10262:
~C
DEPT.M :
DEN.GM/CC :
GR.API :
RML.OHMM :
RI. :
RXO.OHMM :
CALI.CM :
SP.MV :
~A
# ...
  266.7500     2.3520    97.1920    16.4060    15.1020    14.3940    24.4320   -20.1960 
  266.8750     2.3770    97.9970    17.5860    16.2300    14.8320    24.4530   -20.4420 
  267.0000     2.3890    97.5270    18.3980    17.1390    14.6870    24.4330   -20.5930 
  267.1250     2.3820    95.7450    18.5010    17.4580    13.8440    24.3910   -20.6110 
  267.2500     2.3580    94.2110    17.7600    16.9770    12.4390    24.3500   -20.4650 
  267.3750     2.3270    94.9530    17.0510    15.6910    12.1670    24.3530   -20.0890 
  267.5000     2.3030    95.6760    15.1680    14.0820    11.6690    24.3200   -19.5460 
  267.6250     2.2940    96.3770    13.3870    12.4990    10.5240    24.3110   -18.9160 
  267.7500     2.2960    99.4370    11.9870    11.1920     9.8120    24.3390   -18.2860 
  267.8750     2.3030   107.4220    11.1530    10.3360    10.0060    24.3660   -17.7480 
  268.0000     2.3060   112.7850    10.7300     9.8390    10.1640    24.3780   -17.3580 
  268.1250     2.3040   110.8710    10.5760     9.6130     9.9750    24.3680   -17.1270 
  268.2500     2.2970   105.7700    10.5390     9.5460     9.6420    24.3540   -16.9730 
  268.3750     2.2900   100.9630    10.5030     9.5380     9.4180    24.3620   -17.0040 
  268.5000     2.2890    97.5610    10.4450     9.5300     9.3060    24.3560   -17.1560 
  268.6250     2.2930    96.1200    10.4010     9.5300     9.4300    24.3590   -17.2910 
  268.7500     2.2990    96.7060    10.4010     9.5550     9.4910    24.3990   -17.4010 
  268.8750     2.3040    96.1750    10.4370     9.6000     9.4370    24.4010   -17.3320 
  269.0000     2.3050    92.0540    10.4640     9.6320     9.1980    24.3300   -17.0890 
  269.1250     2.3050    87.9130    10.4550     9.6270     8.8720    24.2270   -16.8380 
  269.2500     2.3070    88.8020    10.4070     9.5780     8.7610    24.1920   -16.5710 
  269.3750     2.3110    93.3490    10.3550     9.5110     9.1300    24.2880   -16.2610 
  269.5000     2.3150    96.3450    10.3580     9.4760     9.5590    24.3400   -16.0910 
  269.6250     2.3180    97.1350    10.4650     9.5200     9.9200    24.3540   -16.0730 
  269.7500     2.3190    98.6950    10.7090     9.6760    10.1470    24.3740   -16.1310 
  269.8750     2.3190   100.9400    11.1240     9.9830    10.3690    24.3670   -16.3680 
  270.0000     2.3200   102.1140    11.6650    10.4120    10.6320    24.3330   -16.7900 
  270.1250     2.3240   102.0450    12.2930    10.9350    10.9790    24.3510   -17.2540 
  270.2500     2.3320   100.5860    12.9430    11.5030    11.1420    24.3640   -17.7550 
  270.3750     2.3430    97.1350    13.5030    12.0290    11.5120    24.3840   -18.3180 
  270.5000     2.3520    92.9250    13.8710    12.4160    11.9370    24.3790   -18.7980 
  270.6250     2.3530    90.2700    13.9520    12.5750    12.1120    24.3740   -19.1370 
  270.7500     2.3410    90.8110    13.7020    12.4550    11.8030    24.3630   -19.3600 
  270.8750     2.3190    93.8370    13.1730    12.0780    11.3730    24.3670   -19.5170 
  271.0000     2.2970    96.2500    12.6260    11.6540    10.4820    24.3230   -19.5520 
  271.1250     2.2840    97.0260    12.2830    11.3600     9.7150    24.3130   -19.4910 
  271.2500     2.2840    99.8170    12.2820    11.3200     9.5750    24.4060   -19.4030 
  271.3750     2.2970   101.5540    12.6400    11.5880    10.2650    24.4500   -19.3430 
  271.5000     2.3090    96.6700    13.0780    11.9790    11.4720    24.4400   -19.3320 
  271.6250     2.3150    90.6870    13.3260    12.2760    12.3980    24.3590   -19.3540 
  271.7500     2.3140    90.9590    13.2050    12.2960    11.9580    24.2190   -19.3540 
  271.8750     2.3100    93.7100    12.7120    11.9730    10.6960    24.1430   -19.2730 
  272.0000     2.3060    93.1730    12.1420    11.5220     9.7350    24.2400   -19.2560 
  272.1250     2.3040    92.6990    11.7090    11.1220     9.6110    24.2940   -19.3950 
  272.2500     2.3030    96.4050    11.5050    10.8760     9.9180    24.2350   -19.6280 
  272.3750     2.3030    98.4930    11.5040    10.8090    10.5750    24.1430   -19.8180 
  272.5000     2.3030    97.8880    11.5490    10.8210    10.6480    24.1570   -19.9270 
  272.6250     2.3000    97.9420    11.5640    10.8430    10.4920    24.1900   -20.0790 
  272.7500     2.2920    99.0690    11.5480    10.8500    10.5550    24.1730   -20.3970 
  272.8750     2.2770   100.5130    11.6030    10.8920    10.7860    24.1220   -20.8540 
  273.0000     2.2630    99.9560    11.8490    11.0610    10.9940    24.1310   -21.2670 
  273.1250     2.2590    96.0910    12.3780    11.4440    11.4700    24.1860   -21.5660 
  273.2500     2.2690    91.1480    13.2010    12.0810    11.7990    24.1960   -21.7590 
  273.3750     2.2910    91.2810    14.2070    12.9330    12.8230    24.1880   -21.9140 
  273.5000     2.3130    94.2930    15.0870    13.7590    14.1110    24.1670   -22.1370 
  273.6250     2.3250    93.5150    15.5680    14.3140    14.9030    24.1600   -22.3870 
  273.7500     2.3230    87.9250    15.5280    14.4480    14.5930    24.1340   -22.5700 
  273.8750     2.3110    84.9800    15.1240    14.2350    13.1370    24.1500   -22.6180 
  274.0000     2.3040    86.7210    14.8790    14.0810    12.6130    24.2680   -22.6040 
  274.1250     2.3110    88.7110    15.2030    14.3170    13.1220    24.3550   -22.5630 
  274.2500     2.3370    88.1600    16.3170    15.1700    14.9170    24.3710   -22.4910 
  274.3750     2.3800    86.5060    18.2270    16.7760    17.0600    24.3490   -22.3760 
  274.5000     2.4190    85.7350    20.2810    18.6990    17.4400    24.2950   -22.2250 
  274.6250     2.4380    87.0570    21.7290    20.2880    16.9340    24.2670   -22.0610 
  274.7500     2.4250    90.4010    21.9420    20.8480    16.2530    24.2720   -21.8990 
  274.8750     2.3780    93.0560    20.6900    19.9750    15.5530    24.2840   -21.7860 
  275.0000     2.3250    93.7100    18.8050    18.3740    14.0340    24.3160   -21.7220 
  275.1250     2.2860    93.7370    16.9310    16.6470    12.2260    24.4910   -21.6940 
  275.2500     2.2710    93.9480    15.4830    15.2080    12.0160    24.7730   -21.6970 
  275.3750     2.2710    91.5100    14.7210    14.3360    12.5460    24.8890   -21.7200 
  275.5000     2.2610    89.0600    14.5330    13.9850    12.7130    24.9040   -21.7430 
  275.6250     2.2310    89.0600    14.8430    14.1200    12.5130    24.8790   -21.7520 
  275.7500     2.1910    89.0600    15.5390    14.6690    12.7380    24.8100   -21.7340 
  275.8750     2.1720    89.0600    16.4560    15.5180    14.3220    24.6930   -21.7220 
  276.0000     2.1940    89.0600    17.3440    16.4230    16.4400    24.6000   -21.7430 
  276.1250     2.2570    89.0600    18.0460    17.2110    18.4240    24.5200   -21.8150 
  276.2500     2.3340    89.0600    18.4710    17.7640    19.5760    24.4640   -21.9110 
  276.3750     2.3800    89.0600    18.6120    18.0140    18.5740    24.4330   -22.0930 
  276.5000     2.3760    89.0600    18.6710    18.1160    16.2710    24.3980   -22.3260 
  276.6250     2.3380    89.0600    18.8090    18.2180    14.5610    24.3520   -22.5230 
  276.7500     2.2970    89.0600    19.1050    18.4200    13.0570    24.2990   -22.6800 
  276.8750     2.2900    89.0600    19.5510    18.7500    13.3630    24.2600   -22.8480 
  277.0000     2.3140    89.0600    20.0030    19.1160    15.2810    24.3170   -23.0040 
  277.1250     2.3470    89.0600    20.3020    19.3920    16.1390    24.4010   -23.1180 
  277.2500     2.3680    89.0600    20.3140    19.4500    15.4730    24.3690   -23.2050 
  277.3750     2.3660    89.0600    19.9580    19.1900    13.9800    24.2320   -23.2140 
  277.5000     2.3540    89.0600    19.3620    18.6960    13.3320    24.1580   -23.1230 
  277.6250     2.3420    89.0600    18.6240    18.0340    13.0390    24.2720   -23.0170 
  277.7500     2.3340    89.0600    17.8450    17.2890    12.5380    24.3850   -22.9120 
  277.8750     2.3310    89.0600    17.1270    16.5690    12.4720    24.3900   -22.8220 
