~V
VERS. 2.00: Ver 2.00
~W
STRT.M 30.0000:
STOP.M 271.0000:
STEP.M 0.1250:
NULL. -999.2500:
UWI. F10210:
~C
DEPT.M :
DEN.GM/CC :
GR.API :
RML.OHMM :
RI. :
RXO.OHMM :
CALI.CM :
SP.MV :
~A
# ...
   97.5000     2.1650    67.3910     9.7650     8.0150    12.5990    25.5150   -23.9460 
   97.6250     2.1730    68.4350    10.1570     8.2950    12.7860    25.5270   -23.3720 
   97.7500     2.1770    71.0900    10.4730     8.5340    13.0570    25.5200   -22.6100 
   97.8750     2.1840    74.3680    10.4720     8.5740    13.1680    25.5070   -21.6480 
   98.0000     2.2010    74.8770     9.9930     8.2930    12.9440    25.5170   -20.4990 
   98.1250     2.2330    76.0660     9.0770     7.6890    11.7540    25.5150   -19.1830 
   98.2500     2.2650    83.6620     8.1480     7.0180     9.5720    25.5230   -17.8420 
   98.3750     2.2830    93.5570     7.5510     6.4950     7.0420    25.5160   -16.6070 
   98.5000     2.2820    97.9380     7.4890     6.2700     6.2130    25.5100   -15.6240 
   98.6250     2.2660    94.3710     8.0770     6.4630     7.4920    25.5080   -15.0100 
   98.7500     2.2480    90.1630     9.0870     6.9960    10.0860    25.5350   -14.7430 
   98.8750     2.2310    86.0290    10.2960     7.7930    11.8530    25.6470   -14.8020 
   99.0000     2.2150    81.1180    11.4410     8.7130    12.1310    25.7530   -15.1500 
   99.1250     2.2060    79.5500    12.2460     9.5450    12.1410    25.7470   -15.8090 
   99.2500     2.2070    79.4980    12.7020    10.1580    12.6360    25.7490   -16.6520 
   99.3750     2.2050    77.6400    12.8640    10.5100    13.3210    25.7030   -17.5680 
   99.5000     2.1890    72.6400    12.7890    10.6100    13.8180    25.6870   -18.4530 
   99.6250     2.1650    68.4670    12.5030    10.4680    14.8580    25.7960   -19.2350 
   99.7500     2.1490    66.8640    12.1090    10.1910    15.0650    26.1020   -19.8700 
   99.8750     2.1410    67.0990    11.6950     9.8570    14.5540    26.3660   -20.3540 
  100.0000     2.1340    68.6110    11.3450     9.5430    13.8570    26.4410   -20.7010 
  100.1250     2.1270    70.5550    11.1340     9.3230    13.0750    26.5250   -20.9330 
  100.2500     2.1250    71.1570    11.0620     9.2140    12.9470    26.7170   -21.0860 
  100.3750     2.1270    70.4400    11.1150     9.2110    13.2710    26.8320   -21.1890 
  100.5000     2.1310    70.1860    11.2600     9.2880    13.4020    26.8720   -21.2400 
  100.6250     2.1310    70.4720    11.4400     9.3960    13.3130    26.8730   -21.2170 
  100.7500     2.1260    70.6080    11.5820     9.4720    13.1570    26.8650   -21.1770 
  100.8750     2.1190    71.4550    11.6460     9.4840    13.0200    26.8640   -21.1590 
  101.0000     2.1130    73.2240    11.6150     9.4280    12.7630    26.8740   -21.1930 
  101.1250     2.1140    73.6720    11.4920     9.3110    12.5700    26.8670   -21.2830 
  101.2500     2.1240    72.8710    11.3180     9.1590    12.6540    26.8650   -21.4100 
  101.3750     2.1420    72.8360    11.1200     8.9900    13.0320    26.8690   -21.5510 
  101.5000     2.1630    71.6320    10.9560     8.8430    13.3710    26.8750   -21.7010 
  101.6250     2.1820    68.2320    10.9650     8.8230    13.6320    26.8670   -21.8780 
  101.7500     2.1930    66.0360    11.2670     9.0230    13.7670    26.8640   -22.0340 
  101.8750     2.1900    66.9780    11.9740     9.5280    13.7300    26.8600   -22.1670 
  102.0000     2.1680    69.2250    13.1110    10.3650    13.2150    26.8510   -22.2460 
  102.1250     2.1290    69.6560    14.5150    11.4430    13.2480    26.7690   -22.2640 
  102.2500     2.0830    69.2610    15.6920    12.4210    16.6680    26.7010   -22.2530 
  102.3750     2.0400    69.0970    16.1880    12.9630    26.1660    26.6890   -22.2680 
  102.5000     2.0130    69.2160    15.7780    12.8740    28.4790    26.6840   -22.3450 
  102.6250     2.0130    69.5560    14.5960    12.1910    20.1520    26.5550   -22.5050 
  102.7500     2.0260    69.5350    13.2830    11.3400    14.1180    26.1490   -22.7390 
  102.8750     2.0370    70.2320    12.2270    10.5840    12.7150    25.8860   -23.0370 
  103.0000     2.0410    71.8010    11.5890    10.0540    12.7780    25.8490   -23.3900 
  103.1250     2.0470    72.1650    11.3820     9.7970    12.5530    25.8470   -23.7800 
  103.2500     2.0630    68.9580    11.3800     9.7030    12.3140    25.8570   -24.1690 
  103.3750     2.0820    63.4080    11.4380     9.6930    12.3740    25.8630   -24.4900 
  103.5000     2.0960    59.4830    11.4720     9.7060    12.8930    25.8790   -24.7160 
  103.6250     2.1060    59.0560    11.4630     9.7200    13.1800    26.0110   -24.8130 
  103.7500     2.1140    60.5630    11.4300     9.7270    13.0400    26.2070   -24.8180 
  103.8750     2.1190    62.2520    11.3440     9.6940    12.8200    26.2720   -24.7590 
  104.0000     2.1170    62.9980    11.1540     9.5740    13.0090    26.2970   -24.6510 
  104.1250     2.1090    63.6050    10.8320     9.3310    13.2660    26.3510   -24.4710 
  104.2500     2.1040    67.2110    10.4740     9.0360    13.1210    26.4110   -24.2430 
  104.3750     2.1050    73.0910    10.1980     8.7720    12.6260    26.6960   -24.0140 
  104.5000     2.1010    75.7640    10.1200     8.6220    12.0960    27.1190   -23.8340 
  104.6250     2.0800    73.2200    10.3460     8.6750    12.8910    27.6480   -23.7690 
  104.7500     2.0620    71.5820    10.7800     8.8950    13.1180    28.6190   -23.7830 
  104.8750     2.0700    73.1600    11.2800     9.2190    12.8550    28.8660   -23.8570 
  105.0000     2.1030    73.8830    11.6880     9.5580    12.8620    27.6620   -23.9890 
  105.1250     2.1380    68.6760    11.8360     9.7840    13.1410    26.1000   -24.1930 
  105.2500     2.1590    62.2070    11.7390     9.8340    13.2660    25.6600   -24.4070 
  105.3750     2.1680    59.3410    11.4690     9.7050    12.9920    25.5390   -24.6080 
  105.5000     2.1680    59.7930    11.1250     9.4460    12.6100    25.5150   -24.7470 
  105.6250     2.1560    62.5230    10.7790     9.1250    12.2150    25.5000   -24.7720 
  105.7500     2.1330    66.4500    10.4700     8.8200    11.7000    25.4300   -24.7420 
  105.8750     2.1010    70.6860    10.2410     8.5840    11.1410    25.3500   -24.6890 
  106.0000     2.0680    72.3690    10.1460     8.4480    10.9220    25.3260   -24.6450 
  106.1250     2.0530    70.2170    10.2430     8.4440    11.1410    25.2870   -24.6010 
  106.2500     2.0610    67.0800    10.4810     8.5360    11.5380    25.0710   -24.5660 
  106.3750     2.0830    64.0010    10.7890     8.6960    12.0130    24.7670   -24.5130 
  106.5000     2.1040    61.5770    11.0840     8.8840    12.5410    24.6530   -24.4390 
  106.6250     2.1140    63.6090    11.2820     9.0540    13.3410    24.5890   -24.3400 
  106.7500     2.1210    68.3160    11.3900     9.1760    14.0380    24.5730   -24.2110 
  106.8750     2.1260    70.8710    11.4210     9.2340    13.8290    24.5120   -24.0450 
  107.0000     2.1300    69.7010    11.3790     9.2190    12.8620    24.4690   -23.8240 
  107.1250     2.1330    68.8860    11.2600     9.1330    12.0850    24.4160   -23.5570 
  107.2500     2.1360    70.3350    11.1120     9.0210    11.7270    24.3990   -23.2790 
  107.3750     2.1390    70.5220    10.9880     8.9210    11.6280    24.3980   -23.0040 
  107.5000     2.1400    68.7310    10.9310     8.8620    11.5290    24.4010   -22.7390 
  107.6250     2.1380    66.8540    10.9410     8.8570    11.3530    24.4040   -22.4730 
  107.7500     2.1340    65.5710    10.9530     8.8770    10.9690    24.4100   -22.1750 
  107.8750     2.1330    65.7840    10.9080     8.8860    10.4520    24.4250   -21.8330 
  108.0000     2.1400    68.1720    10.7830     8.8520    10.1500    24.5090   -21.4410 
  108.1250     2.1510    70.1060    10.6110     8.7620    10.1770    24.8060   -20.9900 
  108.2500     2.1570    70.4960    10.4520     8.6480    10.1650    24.9010   -20.5020 
  108.3750     2.1570    69.6900    10.3000     8.5230     9.8290    24.9350   -19.9820 
  108.5000     2.1450    70.1210    10.1010     8.3740     9.5590    24.9770   -19.4280 
  108.6250     2.1140    72.7950     9.7620     8.1560     9.8490    25.3800   -18.8400 
