~V
VERS. 2.00: Ver 2.00
~W
STRT.M 55.0000:
STOP.M 276.0000:
STEP.M 0.1250:
NULL. -999.2500:
UWI. F10239:
~C
DEPT.M :
SP.MV :
DEN.GM/CC :
GR.API :
RML.OHMM :
RI. :
RXO.OHMM :
CALI.CM :
~A
   55.0000    57.7400     0.0000  -999.2500  -999.2500  -999.2500  -999.2500  -999.2500 
   55.1250    59.1010     0.0000  -999.2500  -999.2500  -999.2500  -999.2500  -999.2500 
   55.2500    60.3640     0.0000  -999.2500  -999.2500  -999.2500  -999.2500  -999.2500 
   55.3750    61.4960     0.0000  -999.2500  -999.2500  -999.2500  -999.2500  -999.2500 
   55.5000    62.4500     0.0000  -999.2500  -999.2500  -999.2500  -999.2500  -999.2500 
   55.6250    63.1470     0.0000  -999.2500  -999.2500  -999.2500  -999.2500  -999.2500 
   55.7500    63.4990     0.2030  -999.2500  -999.2500  -999.2500  -999.2500  -999.2500 
   55.8750    63.5870     1.2150  -999.2500  -999.2500  -999.2500  -999.2500  -999.2500 
   56.0000    63.4640     2.0210  -999.2500  -999.2500  -999.2500  -999.2500  -999.2500 
   56.1250    63.1540     2.0220    48.5370     2.1710     0.4640     0.9340    25.1060 
   56.2500    62.6580     2.0330    48.5370     2.1710     0.4640     0.9340    25.1060 
   56.3750    61.9630     2.0480    48.4240     2.1730     0.4640     0.9430    25.1070 
   56.5000    61.0600     2.0630    47.6980     2.1860     0.4640     0.9770    25.1090 
   56.6250    60.0060     2.0770    46.6640     2.2240     0.4640     0.9560    25.1120 
   56.7500    58.9470     2.0850    47.1130     2.2830     0.4650     0.9260    25.1160 
   56.8750    58.0060     2.0860    47.9510     2.3400     0.4650     0.9260    25.1250 
   57.0000    57.2990     2.0790    47.4440     2.4140     0.4670     0.9020    25.1390 
   57.1250    56.9210     2.0660    46.3000     2.6340     0.4750     0.8020    25.1560 
   57.2500    56.8780     2.0500    45.8910     3.2450     0.4920     0.8740    25.1700 
   57.3750    57.1080     2.0390    45.6860     4.3630     0.5080     0.9910    25.1730 
   57.5000    57.5920     2.0350    44.8860     5.7990     0.5170     0.9960    25.1620 
   57.6250    58.2260     2.0350    44.4140     6.5970     0.5130     0.9110    25.1530 
   57.7500    58.8430     2.0370    46.2380     5.7420     0.4960     0.9980    25.1560 
   57.8750    59.3340     2.0340    49.6690     4.3400     0.4750     1.0990    25.1700 
   58.0000    59.5780     2.0290    52.4030     3.3750     0.4590     1.1330    25.1940 
   58.1250    59.4890     2.0240    53.6940     2.9560     0.4500     1.1630    25.2380 
   58.2500    59.1230     2.0220    54.6120     2.8460     0.4480     1.5240    25.3000 
   58.3750    58.5730     2.0230    55.8230     2.8250     0.4490     1.7620    25.3270 
   58.5000    57.8300     2.0250    57.0830     2.9310     0.4520     1.9260    25.3320 
   58.6250    57.0090     2.0260    58.5020     3.3470     0.4560     1.9710    25.3340 
   58.7500    56.2010     2.0260    59.8600     4.4000     0.4610     2.0960    25.3360 
   58.8750    55.4370     2.0270    59.5790     6.3770     0.4650     2.0980    25.3370 
   59.0000    54.7170     2.0300    57.4770     9.1900     0.4720     1.7500    25.3360 
   59.1250    54.0490     2.0340    54.7660    11.3780     0.4820     1.5570    25.3360 
   59.2500    53.4280     2.0400    52.3200    11.1940     0.4940     1.6040    25.3370 
   59.3750    52.9210     2.0430    50.2440    10.2890     0.5020     1.6490    25.3350 
   59.5000    52.5500     2.0430    49.1920    10.2290     0.5050     1.5800    25.3330 
   59.6250    52.2900     2.0400    49.6810    11.5770     0.5040     1.3310    25.3350 
   59.7500    52.1870     2.0370    50.7470    14.7690     0.5020     1.0260    25.3370 
   59.8750    52.1590     2.0350    50.5980    19.9600     0.5030     0.8760    25.3370 
   60.0000    52.1840     2.0390    49.1720    27.9090     0.5090     1.0120    25.3380 
   60.1250    52.3000     2.0480    48.2270    41.7840     0.5170     1.2850    25.3390 
   60.2500    52.5210     2.0640    48.6430    68.1240     0.5260     1.4720    25.3400 
   60.3750    52.7620     2.0790    49.3090   108.7370     0.5360     1.3810    25.3370 
   60.5000    53.0520     2.0840    49.1900   164.3030     0.5460     1.3040    25.3350 
   60.6250    53.4220     2.0790    49.2610   244.9150     0.5530     1.4280    25.3360 
   60.7500    53.8890     2.0640    51.0080   339.7630     0.5560     1.4280    25.3390 
   60.8750    54.4650     2.0450    52.7150   320.7450     0.5530     1.6690    25.3440 
   61.0000    55.0770     2.0280    53.6350   134.6210     0.5450     2.2490    25.3540 
   61.1250    55.6050     2.0170    54.8670    38.7820     0.5350     3.0580    25.3700 
   61.2500    55.9080     2.0110    57.0640    19.1470     0.5270     2.6610    25.3860 
   61.3750    55.9640     2.0100    56.1860    12.6160     0.5200     2.6080    25.3850 
   61.5000    55.7120     2.0190    51.0110    10.9760     0.5160     2.7020    25.3690 
   61.6250    55.0130     2.0410    45.7290    11.4980     0.5170     2.6580    25.3610 
   61.7500    53.6360     2.0870    44.2910    10.7850     0.5120     2.5820    25.3710 
   61.8750    51.4830     2.1590    45.2760     6.5870     0.4830     2.5340    25.3870 
   62.0000    48.4440     2.2500    47.8810     2.7800     0.4230     2.4870    25.3970 
   62.1250    44.3590     2.3520    51.8490     1.0710     0.3420     2.5750    25.3980 
   62.2500    38.8870     2.4500    55.6660     0.4940     0.2710     2.7030    25.3940 
   62.3750    31.8620     2.5140    58.6270     0.3110     0.2410     2.4380    25.3790 
   62.5000    23.3150     2.5100    61.8470     0.3750     0.2870     2.1350    25.3710 
   62.6250    13.7700     2.4290    64.7650     0.6940     0.4690     2.6680    25.4120 
   62.7500     4.0990     2.3180    66.8670     1.4180     0.9000     4.8590    25.5330 
   62.8750    -4.9580     2.2300    70.0200     2.6780     1.6540     6.6470    25.6160 
   63.0000   -12.9860     2.1830    74.7110     4.3970     2.7300     7.3830    25.6860 
   63.1250   -19.5690     2.1560    78.6410     5.8200     3.8840     7.3960    25.8580 
   63.2500   -24.0650     2.1220    79.6660     6.0850     4.7320     7.1460    26.3970 
   63.3750   -26.4300     2.0900    79.4540     5.8630     5.2040     6.6570    27.0940 
   63.5000   -26.8110     2.0880    79.1980     5.7760     5.4230     6.0740    27.3110 
   63.6250   -25.7910     2.1250    80.4990     5.9220     5.5220     6.0840    26.9760 
   63.7500   -24.1930     2.1780    84.3470     6.1860     5.6130     6.3610    26.6850 
   63.8750   -22.6940     2.2120    86.9660     6.4820     5.8100     6.7470    26.6070 
   64.0000   -21.5430     2.2230    85.5250     6.8490     6.1840     7.0210    26.6170 
   64.1250   -20.8890     2.2210    80.7740     7.3940     6.7340     7.6720    26.6380 
   64.2500   -20.8470     2.2100    76.2640     8.2220     7.3930     8.8050    26.6440 
   64.3750   -21.2110     2.1940    72.9660     9.2580     8.0060    10.7610    26.6600 
   64.5000   -21.7760     2.1780    71.1310    10.2890     8.4280    11.1510    26.6910 
   64.6250   -22.3590     2.1680    70.7100    11.0020     8.5610     9.7930    26.7280 
   64.7500   -22.8520     2.1680    70.5530    11.1460     8.3940     8.8240    26.7390 
   64.8750   -23.1960     2.1780    71.5090    10.8120     8.0600     8.3950    26.7380 
   65.0000   -23.4070     2.1930    75.9110    10.2180     7.6700     8.0950    26.7260 
   65.1250   -23.5470     2.2070    81.7730     9.6170     7.3120     7.5840    26.7020 
   65.2500   -23.6870     2.2180    83.5240     9.1600     7.0410     7.1120    26.6750 
   65.3750   -23.8610     2.2280    82.1530     8.8950     6.8860     7.0440    26.6640 
   65.5000   -24.0960     2.2380    82.1050     8.9030     6.9130     7.1880    26.6620 
   65.6250   -24.4120     2.2460    83.4540     9.3260     7.2330     7.4310    26.6590 
   65.7500   -24.8320     2.2510    82.8980    10.3910     7.9710     7.3540    26.6510 
   65.8750   -25.3960     2.2460    79.2790    12.1570     9.0710     7.6130    26.6110 
   66.0000   -26.0650     2.2280    74.6060    14.5110    10.3560     9.3550    26.5070 
   66.1250   -26.7840     2.1960    71.7970    16.6870    11.4320    15.5340    26.3650 
