~V
VERS. 2.00: Ver 2.00
~W
STRT.M 63.0000:
STOP.M 280.0000:
STEP.M 0.1250:
NULL. -999.2500:
UWI. F10220:
~C
DEPT.M :
SP.MV :
DEN.GM/CC :
GR.API :
RML.OHMM :
RI. :
RXO.OHMM :
CALI.CM :
~A
# ...
  243.0000    -8.2930     2.2260    59.6550    29.3270    25.1740    26.5290    25.1870 
  243.1250    -8.3000     2.2380    52.1220    30.4690    26.1920    26.0770    25.1600 
  243.2500    -8.3210     2.2500    49.0620    31.3740    26.9600    24.9150    25.1560 
  243.3750    -8.3790     2.2590    49.8610    32.1950    27.6090    25.7280    25.1730 
  243.5000    -8.4780     2.2660    52.1730    32.9850    28.2300    27.8320    25.1830 
  243.6250    -8.6220     2.2730    54.2330    33.6840    28.8250    29.7350    25.1750 
  243.7500    -8.8110     2.2790    54.9230    34.0410    29.2220    29.8710    25.1890 
  243.8750    -9.0340     2.2820    54.9970    33.9170    29.2610    29.5290    25.2050 
  244.0000    -9.2840     2.2820    56.8320    33.3060    28.8850    29.6300    25.2180 
  244.1250    -9.5430     2.2830    59.2190    32.3860    28.2010    29.0420    25.2300 
  244.2500    -9.7800     2.2840    60.8230    31.4760    27.4460    28.4570    25.2160 
  244.3750    -9.9850     2.2860    62.6460    30.8350    26.8530    28.0150    25.1870 
  244.5000   -10.1660     2.3010    63.9170    30.5520    26.5240    27.6520    25.0520 
  244.6250   -10.3230     2.3270    62.0510    30.5660    26.4580    26.2530    24.7540 
  244.7500   -10.4380     2.3340    58.3560    30.6680    26.5650    24.5120    24.5470 
  244.8750   -10.5140     2.3040    57.4190    30.5840    26.6240    24.4480    24.5860 
  245.0000   -10.5580     2.2540    58.0920    30.1540    26.4540    25.0360    24.8160 
  245.1250   -10.6080     2.2130    57.0840    29.3590    25.9550    26.0100    25.0650 
  245.2500   -10.6630     2.1990    56.1710    28.3440    25.1570    26.5480    25.2250 
  245.3750   -10.7240     2.2060    59.3590    27.4500    24.3450    24.9450    25.2720 
  245.5000   -10.7710     2.2240    63.8460    26.9550    23.7690    22.8150    25.2640 
  245.6250   -10.8020     2.2400    63.1350    27.0590    23.6220    20.5840    25.2770 
  245.7500   -10.8320     2.2460    57.7100    27.9340    24.1070    21.3630    25.3390 
  245.8750   -10.8720     2.2410    57.3550    29.3020    25.0820    24.4680    25.3830 
  246.0000   -10.9390     2.2290    62.8840    30.8150    26.3260    28.0640    25.3960 
  246.1250   -11.0090     2.2210    67.3880    32.0800    27.5210    30.2610    25.2670 
  246.2500   -11.0490     2.2260    65.1880    32.8320    28.3680    31.3740    24.9080 
  246.3750   -11.0540     2.2410    60.1940    33.3750    28.9810    30.6740    24.6060 
  246.5000   -10.9890     2.2580    57.4920    34.1410    29.6520    28.3080    24.6910 
  246.6250   -10.8300     2.2750    58.6110    35.4630    30.6800    26.8730    24.9640 
  246.7500   -10.6040     2.2890    60.3490    37.3800    32.2230    29.3160    25.0670 
  246.8750   -10.3440     2.2910    60.2120    39.2780    33.8970    34.1010    25.0670 
  247.0000   -10.0250     2.2810    60.0830    40.4520    35.1620    36.6500    25.0680 
  247.1250    -9.6390     2.2680    62.4730    40.3360    35.4800    35.9410    25.0920 
  247.2500    -9.2110     2.2690    66.3680    38.6320    34.4370    33.3620    24.9810 
  247.3750    -8.7530     2.2780    68.9140    35.9550    32.4340    29.8620    24.7200 
  247.5000    -8.3180     2.2810    68.9150    32.6840    29.7630    27.5860    24.4860 
  247.6250    -7.9290     2.2740    67.3020    29.1530    26.7240    25.9860    24.3600 
  247.7500    -7.5790     2.2750    66.2610    25.9530    23.8210    24.2300    24.2410 
  247.8750    -7.2380     2.2940    66.6100    23.6810    21.5850    23.4180    24.0920 
  248.0000    -6.9110     2.3300    69.6320    22.6710    20.3350    23.4010    24.1350 
  248.1250    -6.6090     2.3750    75.3380    22.8170    20.1000    23.7600    24.5680 
  248.2500    -6.3340     2.4220    77.9680    23.4210    20.5250    24.4000    25.0380 
  248.3750    -6.1050     2.4640    74.2730    23.2100    20.5700    32.1040    25.1940 
  248.5000    -5.9030     2.4920    68.6080    21.3510    19.3760    30.1180    25.1650 
  248.6250    -5.7100     2.4890    64.7540    17.9510    16.8130    19.5000    25.1650 
  248.7500    -5.5130     2.4410    60.3710    14.1700    13.6940    12.2120    25.2100 
  248.8750    -5.3310     2.3810    54.8600    11.1820    11.0410     8.9170    25.2030 
  249.0000    -5.1770     2.3420    52.9540     9.2640     9.1620     7.8150    25.1590 
  249.1250    -5.0500     2.3350    56.4370     8.2390     8.0110     6.9940    25.1020 
  249.2500    -4.9730     2.3510    59.5560     7.8320     7.4600     6.6850    25.0410 
  249.3750    -4.9270     2.3650    59.3340     7.6770     7.2130     6.4140    25.0150 
  249.5000    -4.8860     2.3630    57.5840     7.6440     7.1350     6.1320    25.0300 
  249.6250    -4.8660     2.3490    56.8270     7.6850     7.1480     5.8270    25.0470 
  249.7500    -4.8670     2.3400    56.6570     7.8050     7.2260     5.7140    25.0620 
  249.8750    -4.8740     2.3470    55.7500     7.9910     7.3500     5.7790    25.0910 
  250.0000    -4.8860     2.3690    55.5420     8.2310     7.5140     5.9990    25.1350 
  250.1250    -4.9250     2.3940    56.0480     8.5170     7.7160     6.4950    25.1720 
  250.2500    -4.9830     2.4040    56.1080     8.8560     7.9570     7.5870    25.2130 
  250.3750    -5.0410     2.4000    55.4210     9.2420     8.2260     9.0460    25.2370 
  250.5000    -5.1400     2.3960    55.9880     9.6580     8.5100    10.1310    25.2430 
  250.6250    -5.2660     2.4020    58.7180    10.0630     8.7800    10.6460    25.2240 
  250.7500    -5.4050     2.4120    61.9110    10.3890     8.9880    10.7880    25.1990 
  250.8750    -5.5060     2.4150    64.3980    10.6090     9.1070    10.8700    25.2050 
  251.0000    -5.5850     2.4130    66.6300    10.7240     9.1280    10.6280    25.2160 
  251.1250    -5.6370     2.4110    67.5060    10.7660     9.0690    10.2310    25.2120 
  251.2500    -5.6900     2.4120    66.0670    10.7850     8.9720     9.9470    25.2120 
  251.3750    -5.7770     2.4130    64.3130    10.8260     8.8850     9.8410    25.2280 
  251.5000    -5.8680     2.4150    63.5630    10.9030     8.8370    10.0090    25.2480 
  251.6250    -5.9710     2.4190    62.8460    11.0100     8.8320    10.5650    25.2450 
  251.7500    -6.0920     2.4240    59.9970    11.1180     8.8660    11.2270    25.2270 
  251.8750    -6.2490     2.4220    57.4480    11.1950     8.9100    11.4800    25.2360 
  252.0000    -6.4240     2.4100    58.8660    11.2270     8.9480    12.2780    25.2600 
  252.1250    -6.5990     2.3940    62.1480    11.2210     8.9670    13.9540    25.2590 
  252.2500    -6.7390     2.3790    61.3330    11.1950     8.9650    15.0640    25.1840 
  252.3750    -6.8090     2.3710    56.0690    11.1690     8.9540    13.0760    25.0300 
  252.5000    -6.8280     2.3700    52.8660    11.1470     8.9410    11.7420    24.8700 
  252.6250    -6.8050     2.3750    55.8630    11.1270     8.9300    10.9720    24.7990 
  252.7500    -6.7350     2.3810    61.2880    11.0930     8.9090    10.7180    24.8440 
  252.8750    -6.6640     2.3850    64.5590    11.0270     8.8640    10.5260    24.9210 
  253.0000    -6.6160     2.3890    64.7670    10.9230     8.7880    10.2640    24.9070 
  253.1250    -6.6020     2.3920    64.4710    10.7870     8.6890     9.8910    24.7410 
  253.2500    -6.5930     2.3880    65.8710    10.6360     8.5820     9.5080    24.4940 
  253.3750    -6.5900     2.3810    66.6320    10.4940     8.4810     9.0710    24.4170 
  253.5000    -6.6410     2.3800    66.4160    10.3770     8.3900     8.5620    24.5620 
  253.6250    -6.7600     2.3900    65.3450    10.2990     8.3170     8.0840    24.7360 
  253.7500    -6.9110     2.4050    65.3840    10.2710     8.2730     8.1780    24.8140 
  253.8750    -7.0400     2.4120    64.7000    10.2880     8.2660     8.4860    24.8080 
  254.0000    -7.1240     2.4120    62.9500    10.3430     8.2980     8.5720    24.7430 
  254.1250    -7.1860     2.4080    62.8110    10.4150     8.3620     8.9580    24.6810 
