~V
VERS. 2.00: Ver 2.00
~W
STRT.M 57.0000:
STOP.M 259.0000:
STEP.M 0.1250:
NULL. -999.2500:
UWI. F10209:
~C
DEPT.M :
SP.MV :
DEN.GM/CC :
GR.API :
RML.OHMM :
RI. :
RXO.OHMM :
CALI.CM :
~A
   57.0000  -999.2500     0.0000    45.0180     2.8130     0.8310     0.2780    25.5190 
   57.1250  -999.2500     1.3230    42.9940     2.7930     0.8150     0.2730    25.5130 
   57.2500    62.7000     1.7640    39.9190     2.7210     0.8040     0.2650    25.5140 
   57.3750    62.7000     1.7620    38.5430     2.4610     0.7980     0.2630    25.5110 
   57.5000    62.7340     1.7640    37.7050     2.0390     0.7930     0.2610    25.5230 
   57.6250    62.8730     1.7770    38.1980     1.5840     0.7880     0.2670    25.5420 
   57.7500    63.0790     1.8020    40.0740     1.2470     0.7850     0.3180    25.5490 
   57.8750    63.3410     1.8330    40.4560     1.1480     0.7860     0.3590    25.5460 
   58.0000    63.6620     1.8570    38.2360     1.2280     0.7890     0.3840    25.5620 
   58.1250    63.9910     1.8660    36.1650     1.4030     0.7910     0.4250    25.5740 
   58.2500    64.2200     1.8610    36.6920     1.5690     0.7900     0.4760    25.5730 
   58.3750    64.2660     1.8460    37.6360     1.5960     0.7850     0.5430    25.5710 
   58.5000    64.2080     1.8280    37.0010     1.4460     0.7790     0.6240    25.5650 
   58.6250    64.1680     1.8080    34.9980     1.1660     0.7770     0.7520    25.5510 
   58.7500    64.3060     1.7830    33.1100     0.8740     0.7840     0.7770    25.5220 
   58.8750    64.8400     1.7590    32.4460     0.7350     0.8110     0.7180    25.5040 
   59.0000    65.5970     1.7500    32.9520     0.7880     0.8510     0.6860    25.4980 
   59.1250    66.2340     1.7590    34.5760     0.9920     0.8980     0.6650    25.5010 
   59.2500    66.5400     1.7800    37.0410     1.2440     0.9370     0.6140    25.5050 
   59.3750    66.4500     1.7960    38.0510     1.3780     0.9500     0.6000    25.5060 
   59.5000    66.1760     1.7890    36.4270     1.3140     0.9340     0.5810    25.5060 
   59.6250    65.7840     1.7580    34.0710     1.0800     0.9010     0.5630    25.5080 
   59.7500    65.1780     1.7130    34.0340     0.7930     0.8720     0.5430    25.5090 
   59.8750    64.3000     1.6770    38.2580     0.6070     0.8660     0.5340    25.5090 
   60.0000    63.4790     1.6620    44.8960     0.5550     0.8780     0.6060    25.5080 
   60.1250    63.1160     1.6690    51.8090     0.5920     0.9000     0.6970    25.5070 
   60.2500    63.4760     1.6920    56.1460     0.6470     0.9210     0.7330    25.5040 
   60.3750    64.7830     1.7160    54.3890     0.6640     0.9380     0.7340    25.5070 
   60.5000    66.9790     1.7330    51.1620     0.6500     0.9520     0.7140    25.5210 
   60.6250    69.9120     1.7420    51.9200     0.6320     0.9650     0.6390    25.5540 
   60.7500    73.0210     1.7470    57.6770     0.6210     0.9760     0.4990    25.5730 
   60.8750    75.3530     1.7470    63.2380     0.5800     0.9780     0.4400    25.5770 
   61.0000    76.6320     1.7430    63.4850     0.4910     0.9720     0.4520    25.5770 
   61.1250    76.9770     1.7360    59.3800     0.4090     0.9620     0.4160    25.5800 
   61.2500    76.6040     1.7310    54.4360     0.3950     0.9480     0.3790    25.5810 
   61.3750    75.4550     1.7320    52.8300     0.4650     0.9360     0.3580    25.5810 
   61.5000    73.4150     1.7400    53.1120     0.5740     0.9340     0.3220    25.5810 
   61.6250    70.5510     1.7520    52.1900     0.6770     0.9460     0.3140    25.5810 
   61.7500    67.4860     1.7650    49.2260     0.7390     0.9660     0.3110    25.5810 
   61.8750    65.1980     1.7770    45.6080     0.7540     0.9840     0.3200    25.5710 
   62.0000    63.9000     1.7890    42.7290     0.7520     0.9900     0.2980    25.5530 
   62.1250    63.4340     1.8010    40.1950     0.7460     0.9840     0.2850    25.5400 
   62.2500    63.5240     1.8110    38.2650     0.7330     0.9720     0.2570    25.5200 
   62.3750    63.9240     1.8220    38.4450     0.6920     0.9610     0.2330    25.5130 
   62.5000    64.4640     1.8330    39.6970     0.6160     0.9460     0.2200    25.5090 
   62.6250    65.0820     1.8490    40.3610     0.4970     0.9090     0.2160    25.5060 
   62.7500    65.6610     1.8750    41.4120     0.3390     0.8180     0.2120    25.4950 
   62.8750    65.9690     1.9400    44.2090     0.1850     0.6390     0.2040    25.4700 
   63.0000    65.7710     2.0670    46.3550     0.0850     0.4270     0.2030    25.4480 
   63.1250    64.8580     2.2610    45.3450     0.0350     0.2510     0.2030    25.4310 
   63.2500    63.0670     2.4890    44.4310     0.0130     0.1410     0.2030    25.4090 
   63.3750    59.9840     2.6720    49.8690     0.0070     0.1060     0.2030    25.3440 
   63.5000    55.4460     2.7520    61.3150     0.0230     0.1470     0.2780    25.1170 
   63.6250    49.3380     2.7170    76.3350     0.1030     0.3060     2.4770    24.7300 
   63.7500    42.0710     2.5990    90.9140     0.3550     0.6710     4.7980    24.3730 
   63.8750    34.2350     2.4580    98.3250     1.1030     1.4530     6.2550    24.2520 
   64.0000    26.3480     2.3480    98.9780     2.4090     2.6570     7.5140    24.2540 
   64.1250    18.6990     2.2830    99.0000     3.7350     4.0010     7.8690    24.2480 
   64.2500    11.5590     2.2600   101.6350     4.3940     5.0200     7.1720    24.2490 
   64.3750     5.4690     2.2640   103.6240     4.5120     5.5060     6.3640    24.1690 
   64.5000     0.7860     2.2720   104.4980     4.5860     5.7580     5.8710    24.0710 
   64.6250    -2.3900     2.2740   106.8090     4.6980     5.9360     6.0560    23.9590 
   64.7500    -4.4750     2.2720   110.3000     4.8190     6.0840     6.7560    23.8780 
   64.8750    -5.9550     2.2770   110.1650     4.8960     6.2130     7.5380    23.8290 
   65.0000    -7.1420     2.2910   109.2940     4.9400     6.3450     6.8370    23.7750 
   65.1250    -8.1600     2.3020   111.4080     5.0060     6.5020     6.2340    23.6630 
   65.2500    -9.1320     2.2990   113.9730     5.1610     6.7040     6.0550    23.5730 
   65.3750   -10.1520     2.2750   110.4380     5.4800     6.9640     6.4340    23.5600 
   65.5000   -11.3140     2.2420   103.4830     5.9340     7.2630     7.4180    23.5630 
   65.6250   -12.5940     2.2160    99.7580     6.4720     7.5890     8.6830    23.5520 
   65.7500   -13.8980     2.2070   101.0150     7.0340     7.9400     9.1120    23.5180 
   65.8750   -15.2690     2.2140   102.9120     7.5940     8.3460     8.4980    23.4740 
   66.0000   -16.6910     2.2240   101.1430     8.1460     8.8010     9.1250    23.3650 
   66.1250   -18.1080     2.2210    95.3850     8.6210     9.2350    10.6020    23.3040 
   66.2500   -19.4530     2.1980    88.5470     8.8670     9.4990    11.8760    23.5960 
   66.3750   -20.4250     2.1580    85.6970     8.6330     9.3260    12.1840    24.2750 
   66.5000   -20.8410     2.1240    86.5580     7.9770     8.7130    11.4850    24.5390 
   66.6250   -20.7310     2.1200    89.2250     7.1190     7.8260     9.5350    24.3810 
   66.7500   -20.3130     2.1500    95.0590     6.3630     6.9500     7.0640    24.0690 
   66.8750   -19.6750     2.2040   100.7450     5.9890     6.3780     5.8380    23.9610 
   67.0000   -18.9520     2.2490   100.9810     5.9750     6.1500     5.6380    23.9050 
   67.1250   -18.2150     2.2700    97.6840     6.2280     6.2190     6.4760    23.9830 
   67.2500   -17.4990     2.2720    95.7170     6.5950     6.4680     8.7240    24.1350 
   67.3750   -17.0160     2.2730    95.0160     6.9220     6.7590    10.0780    24.3680 
   67.5000   -16.9470     2.2810    91.2530     7.1910     7.0230    10.1690    24.5820 
   67.6250   -17.3090     2.2800    88.1600     7.5060     7.3050     9.0380    24.6580 
   67.7500   -18.0610     2.2490    88.3610     7.9870     7.6850     7.7950    24.6430 
   67.8750   -19.2310     2.1770    88.3380     8.7100     8.2350     7.8530    24.7300 
   68.0000   -20.6490     2.0930    85.5580     9.5190     8.8700     9.6630    25.0340 
   68.1250   -22.1670     2.0240    79.2280    10.1800     9.4340    11.6570    25.4240 
