~V
VERS. 2.00: Ver 2.00
~W
STRT.M 47.0000:
STOP.M 270.0000:
STEP.M 0.1250:
NULL. -999.2500:
UWI. F10221:
~C
DEPT.M :
SP.MV :
GR.API :
RML.OHMM :
RI. :
RXO.OHMM :
CALI.CM :
DEN.GM/CC :
~A
# ...
   80.7500   -15.7710   113.0810     6.3790     5.5040     5.5730    24.1910     2.3820 
   80.8750   -15.9480   115.7050     5.6090     4.7120     5.2170    24.2020     2.3890 
   81.0000   -16.2050   112.7990     5.5670     4.4230     5.1700    24.2460     2.3900 
   81.1250   -16.5190   107.8120     5.8930     4.4440     5.2640    24.3660     2.3870 
   81.2500   -16.8880   104.7360     6.3890     4.6630     5.8040    24.5730     2.3860 
   81.3750   -17.3220   104.2840     6.8890     4.9760     6.7920    24.8130     2.3870 
   81.5000   -17.8160   105.0540     7.2540     5.2890     7.7360    25.0010     2.3840 
   81.6250   -18.3840   105.9760     7.5020     5.5640     6.9770    25.1170     2.3770 
   81.7500   -19.0060   103.0890     7.7380     5.8360     6.4860    25.1960     2.3690 
   81.8750   -19.6720    95.8470     8.1060     6.1780     6.6180    25.2460     2.3640 
   82.0000   -20.4210    86.0750     8.7460     6.6850     7.5380    25.2290     2.3670 
   82.1250   -21.2250    77.9340     9.5800     7.3400     9.5980    25.1870     2.3770 
   82.2500   -22.0570    73.3420    10.4430     8.0650    12.3990    25.2000     2.3740 
   82.3750   -22.8390    70.3530    11.1270     8.7220    13.8520    25.3300     2.3260 
   82.5000   -23.5440    65.1280    11.4560     9.1480    13.0560    25.4870     2.2440 
   82.6250   -24.1520    59.7020    11.5320     9.3530    12.7430    25.5280     2.1920 
   82.7500   -24.6760    57.2260    11.4780     9.4020    12.7180    25.4430     2.1870 
   82.8750   -25.0670    57.2980    11.3340     9.3830    13.0800    25.3340     2.2060 
   83.0000   -25.2850    56.4880    10.9090     9.3730    13.7590    25.2460     2.2150 
   83.1250   -25.3140    54.2330    10.2710     9.3960    13.8830    25.2030     2.2100 
   83.2500   -25.1780    52.8620     9.6830     9.4210    13.5400    25.2450     2.1930 
   83.3750   -24.9020    54.7930     9.4320     9.3760    13.2550    25.4940     2.1630 
   83.5000   -24.4250    58.0990     9.5940     9.1030    13.1040    25.9660     2.1230 
   83.6250   -23.7820    59.0800     9.7170     8.5240    12.7630    26.3450     2.0910 
   83.7500   -22.9800    61.4170     9.3670     7.6380    11.7160    26.2130     2.0920 
   83.8750   -22.0950    71.3530     8.3970     6.5750     9.5900    25.4510     2.1410 
   84.0000   -21.1840    86.1820     7.2140     5.6240     7.0730    24.4000     2.2340 
   84.1250   -20.3550    96.0780     6.5920     5.0500     5.7720    23.6980     2.3320 
   84.2500   -19.6460    98.0450     6.9600     5.0320     5.4380    23.2280     2.4080 
   84.3750   -19.0800    95.4490     8.5420     5.7150     5.9190    22.8190     2.4630 
   84.5000   -18.7480    88.9520    11.5130     7.3720     7.8680    22.5860     2.5080 
   84.6250   -18.6650    79.4880    15.1190     9.8000    12.2630    22.4080     2.5430 
   84.7500   -18.8190    70.5160    18.1070    12.3460    17.0480    22.2560     2.5450 
   84.8750   -19.1340    64.7500    18.9150    13.7250    16.8480    22.2480     2.4900 
   85.0000   -19.5630    63.7160    16.8020    12.9120    12.7650    22.4960     2.3890 
   85.1250   -20.0130    63.7350    13.7870    11.1610    10.1900    22.8870     2.3000 
   85.2500   -20.4040    64.3440    11.2760     9.4800     9.6120    23.3110     2.2440 
   85.3750   -20.6970    65.6270     9.7370     8.2790     9.5970    23.7400     2.2160 
   85.5000   -20.8600    67.5410     9.0540     7.6070     9.6360    24.0870     2.1980 
   85.6250   -20.8400    73.3500     8.6900     7.1930     9.4800    24.2720     2.1900 
   85.7500   -20.6330    81.6290     8.3740     6.8670     8.6150    24.2440     2.2030 
   85.8750   -20.3250    85.6270     8.0200     6.5490     7.0690    24.0570     2.2390 
   86.0000   -20.0030    83.1770     7.7330     6.2750     6.5500    23.8820     2.2760 
   86.1250   -19.6870    83.4130     7.6610     6.1190     6.3640    23.7620     2.2970 
   86.2500   -19.4170    88.7840     7.8940     6.1510     6.2030    23.6650     2.2970 
   86.3750   -19.2570    95.0600     8.4200     6.4110     6.3230    23.5410     2.2810 
   86.5000   -19.2460    95.4790     9.0820     6.8840     7.3750    23.5140     2.2550 
   86.6250   -19.3050    89.3790     9.5760     7.3570     9.0350    23.5940     2.2310 
   86.7500   -19.3830    81.3540     9.6650     7.5960    10.2370    23.7190     2.2170 
   86.8750   -19.4640    78.4810     9.2580     7.4350     9.9770    23.7770     2.2210 
   87.0000   -19.4300    83.7560     8.4560     6.8700     8.2800    23.6290     2.2460 
   87.1250   -19.3240    88.9500     7.6430     6.2160     6.4720    23.3600     2.2790 
   87.2500   -19.2170    93.4940     7.0810     5.6970     5.5440    23.0730     2.3090 
   87.3750   -19.0980    99.6340     6.8940     5.4220     5.2880    22.8880     2.3250 
   87.5000   -18.9350   103.2520     7.0980     5.4240     5.5140    22.8770     2.3170 
   87.6250   -18.8140   102.0370     7.4770     5.5830     5.8490    22.9160     2.2960 
   87.7500   -18.7800    99.2550     7.8540     5.8040     6.1700    22.9410     2.2750 
   87.8750   -18.8480    97.6310     8.0960     6.0000     6.3690    22.9550     2.2660 
   88.0000   -19.0510    94.7650     8.1580     6.1190     6.4280    22.9540     2.2660 
   88.1250   -19.3360    92.2050     8.1590     6.1940     6.3510    22.9330     2.2660 
   88.2500   -19.6400    89.0550     8.2230     6.2800     6.3480    22.9090     2.2630 
   88.3750   -19.9650    84.6050     8.4450     6.4370     6.6230    22.8970     2.2600 
   88.5000   -20.2910    80.8290     8.8710     6.7060     7.0470    22.8970     2.2540 
   88.6250   -20.6540    80.6020     9.3640     7.0400     7.5820    22.9140     2.2480 
   88.7500   -21.0630    81.9780     9.7560     7.3640     8.2640    22.9530     2.2420 
   88.8750   -21.4540    80.7580     9.9010     7.6000     9.2490    23.0480     2.2360 
   89.0000   -21.8000    77.5060     9.7410     7.6790     9.9090    23.1630     2.2300 
   89.1250   -22.1190    74.3800     9.4520     7.6470     9.6940    23.2200     2.2240 
   89.2500   -22.3970    71.5850     9.1880     7.5680     9.2930    23.2360     2.2180 
   89.3750   -22.5770    69.4170     9.0190     7.4940     9.1670    23.2850     2.2130 
   89.5000   -22.6530    68.7560     8.9140     7.4300     9.0470    23.3740     2.2090 
   89.6250   -22.6070    68.1180     8.7830     7.3370     9.0150    23.5050     2.2060 
   89.7500   -22.4650    67.4240     8.5930     7.1740     9.1070    23.6400     2.2040 
   89.8750   -22.2290    69.3400     8.3520     6.9250     8.6480    23.7510     2.2090 
   90.0000   -21.9470    76.5190     8.0780     6.5910     7.5720    23.8290     2.2270 
   90.1250   -21.6740    81.4250     7.7690     6.2190     6.5930    23.8350     2.2480 
   90.2500   -21.4140    81.5590     7.4440     5.8590     6.3650    23.8100     2.2680 
   90.3750   -21.2160    82.4720     7.1930     5.5880     6.4750    23.7510     2.2910 
   90.5000   -21.1530    91.1170     7.2270     5.5400     6.4770    23.6080     2.3250 
   90.6250   -21.2460   102.5490     7.6170     5.7480     6.3600    23.4360     2.3620 
   90.7500   -21.4720   106.4500     8.3430     6.2080     6.9040    23.3330     2.3910 
   90.8750   -21.9050    97.2120     9.2380     6.8480     9.1400    23.3260     2.3990 
   91.0000   -22.5040    81.7700     9.9250     7.4700    14.3260    23.4190     2.3560 
   91.1250   -23.1260    71.1340    10.1050     7.8230    14.7670    23.7420     2.2750 
   91.2500   -23.6750    67.2030     9.7430     7.8010    12.1750    24.0930     2.2000 
   91.3750   -24.1090    67.9280     9.0610     7.4870    10.5580    24.2290     2.1630 
   91.5000   -24.3680    72.6110     8.4080     7.0870    10.4310    24.2170     2.1670 
   91.6250   -24.4260    75.2960     8.0260     6.8230    10.4530    24.2020     2.1830 
   91.7500   -24.2510    72.0840     7.9870     6.7950    10.4380    24.1930     2.2010 
   91.8750   -23.8340    68.1330     8.2380     7.0100    10.3060    24.1730     2.2220 
