~V
VERS. 2.00: Ver 2.00
~W
STRT.M 30.0000:
STOP.M 271.0000:
STEP.M 0.1250:
NULL. -999.2500:
UWI. F10210:
~C
DEPT.M :
DEN.GM/CC :
GR.API :
RML.OHMM :
RI. :
RXO.OHMM :
CALI.CM :
SP.MV :
~A
# ...
  243.7500     2.3540    64.6680    12.5750    12.4670    11.6450    23.9290    -5.3730 
  243.8750     2.3840    62.4700    13.3290    13.0720    12.6700    23.9290    -5.1670 
  244.0000     2.4070    59.2930    13.9180    13.5080    14.3350    23.9230    -4.9620 
  244.1250     2.4140    58.7220    14.1890    13.6420    15.5270    23.9100    -4.7450 
  244.2500     2.4120    60.6190    14.2140    13.5470    14.3830    23.8940    -4.5870 
  244.3750     2.4110    61.7510    14.1360    13.3520    12.8660    23.7830    -4.4840 
  244.5000     2.4150    61.0670    14.1130    13.2020    12.1680    23.9020    -4.4080 
  244.6250     2.4220    59.7610    14.2780    13.2290    12.6280    23.9190    -4.3810 
  244.7500     2.4290    57.6920    14.5890    13.4210    13.6030    23.9540    -4.3960 
  244.8750     2.4320    54.9190    14.9340    13.7120    14.4670    23.9510    -4.4760 
  245.0000     2.4330    54.5980    15.1880    13.9980    14.4980    23.7530    -4.5740 
  245.1250     2.4340    58.7380    15.2750    14.1570    14.3130    23.5320    -4.7120 
  245.2500     2.4350    61.5500    15.2520    14.1670    14.2410    23.4940    -4.8470 
  245.3750     2.4280    61.8180    15.1710    14.0550    14.2620    23.4840    -4.9540 
  245.5000     2.4130    61.7370    15.0780    13.8860    13.4720    23.4940    -5.0640 
  245.6250     2.3980    61.6900    15.0230    13.7510    12.8350    23.5290    -5.1440 
  245.7500     2.3910    60.0410    15.0310    13.7010    13.0100    23.7480    -5.2230 
  245.8750     2.3990    56.8990    15.1100    13.7460    14.1520    23.9670    -5.2710 
  246.0000     2.4250    55.3060    15.2590    13.8610    15.7790    24.0070    -5.2670 
  246.1250     2.4530    56.8170    15.4490    14.0120    15.9180    24.0060    -5.2510 
  246.2500     2.4610    59.0080    15.6390    14.1600    15.9780    23.9940    -5.2130 
  246.3750     2.4450    59.8090    15.8340    14.3040    15.6000    23.9920    -5.1750 
  246.5000     2.4230    59.5910    16.0610    14.4660    16.4490    24.0090    -5.1100 
  246.6250     2.4140    60.1810    16.3630    14.6970    19.8490    23.9960    -5.0740 
  246.7500     2.4100    61.6800    16.7280    15.0070    23.3540    23.9980    -5.0070 
  246.8750     2.4020    63.5320    17.1070    15.3730    23.6740    24.0050    -4.9360 
  247.0000     2.3890    64.7460    17.3970    15.7250    21.6610    24.0010    -4.8980 
  247.1250     2.3820    64.0440    17.4140    15.9160    19.4370    23.9710    -4.8510 
  247.2500     2.3850    62.9050    17.1060    15.8510    18.1820    23.9190    -4.8130 
  247.3750     2.3900    64.0500    16.4920    15.4960    18.2250    23.9170    -4.7620 
  247.5000     2.3880    65.5180    15.6660    14.9020    18.1350    23.9220    -4.6860 
  247.6250     2.3790    63.6580    14.7830    14.1780    15.4130    23.9240    -4.5290 
  247.7500     2.3720    60.6560    14.0020    13.4690    12.1410    23.9370    -4.2840 
  247.8750     2.3710    60.2280    13.3870    12.8460    10.1260    23.8690    -3.9740 
  248.0000     2.3730    63.4090    12.9350    12.3400     9.1760    23.8490    -3.6250 
  248.1250     2.3770    66.7060    12.6080    11.9690     8.6090    23.8600    -3.2780 
  248.2500     2.3790    67.4970    12.3400    11.7020     8.2280    23.8730    -2.9580 
  248.3750     2.3810    67.3020    12.1350    11.5330     8.4160    23.8390    -2.6520 
  248.5000     2.3860    68.1930    12.0260    11.4590     9.4090    23.8300    -2.4000 
  248.6250     2.3970    68.2980    12.0530    11.4950    11.1880    23.8280    -2.2430 
  248.7500     2.4100    66.4170    12.1780    11.6240    12.2630    23.8250    -2.1750 
  248.8750     2.4230    64.8760    12.3680    11.8300    12.7630    23.8230    -2.2030 
  249.0000     2.4290    65.3510    12.5980    12.0850    13.0080    23.8130    -2.2680 
  249.1250     2.4200    67.3640    12.8310    12.3310    13.4270    23.8020    -2.3170 
  249.2500     2.3970    67.9420    12.9940    12.4960    13.7720    23.7200    -2.3510 
  249.3750     2.3640    66.9500    13.0220    12.5340    13.9700    23.7020    -2.3710 
  249.5000     2.3290    66.3270    12.9160    12.4420    13.3850    23.9200    -2.3910 
  249.6250     2.3130    67.5640    12.7810    12.2730    11.9170    24.1320    -2.3840 
  249.7500     2.3260    68.6310    12.7590    12.1280    10.9000    24.1730    -2.3890 
  249.8750     2.3670    68.5510    12.9110    12.0760    11.0880    24.1650    -2.3760 
  250.0000     2.4230    69.7470    13.2100    12.1480    13.5250    24.1680    -2.3740 
  250.1250     2.4670    70.0370    13.5630    12.3450    22.5370    24.1490    -2.3840 
  250.2500     2.4870    67.8690    13.8560    12.5890    33.1550    24.0910    -2.3970 
  250.3750     2.4880    66.7790    14.0330    12.8170    33.3630    24.0330    -2.4320 
  250.5000     2.4840    67.8520    14.0860    12.9730    27.5560    24.0050    -2.4550 
  250.6250     2.4870    68.3950    14.0670    13.0280    24.2790    23.9220    -2.5410 
  250.7500     2.4900    68.7810    14.0880    13.0520    23.5660    23.8410    -2.6360 
  250.8750     2.4760    69.5870    14.2410    13.1340    22.1300    23.7780    -2.7310 
  251.0000     2.4400    67.6050    14.5940    13.3610    19.8780    23.9290    -2.8600 
  251.1250     2.3950    62.8230    15.2010    13.8240    18.5210    24.0460    -2.9810 
  251.2500     2.3610    61.0760    15.9520    14.4630    17.3240    24.1560    -3.0770 
  251.3750     2.3460    61.3500    16.2680    14.7450    16.8260    24.1680    -3.2060 
  251.5000     2.3460    64.9390    17.3030    15.8070    17.9120    24.1350    -3.3620 
  251.6250     2.3590    66.0210    17.5730    16.1940    19.0910    24.1620    -3.4680 
  251.7500     2.3770    67.4970    17.5550    16.3350    19.3900    24.1690    -3.5950 
  251.8750     2.3900    69.7020    17.3140    16.2610    18.8900    24.1580    -3.7260 
  252.0000     2.3930    70.8090    16.9000    16.0080    17.7270    24.1570    -3.8090 
  252.1250     2.3900    69.6200    16.3170    15.5770    16.0250    24.1000    -3.9090 
  252.2500     2.3910    68.6310    15.6400    15.0330    16.2650    24.0990    -4.0140 
  252.3750     2.3930    68.6620    14.9540    14.4430    17.0480    24.1030    -4.1060 
  252.5000     2.4000    68.3150    14.3620    13.8950    15.6030    24.1990    -4.1830 
  252.6250     2.3870    68.1440    13.9740    13.5050    13.8500    24.1640    -4.2670 
  252.7500     2.3680    70.4470    13.7700    13.2890    13.6570    24.1730    -4.3670 
  252.8750     2.3600    73.7640    13.6980    13.2230    14.6900    24.1690    -4.4760 
  253.0000     2.3670    74.9730    13.6820    13.2420    15.8390    24.1510    -4.5750 
  253.1250     2.3640    73.3900    13.6500    13.2660    16.5920    24.0380    -4.6580 
  253.2500     2.3330    71.9210    13.5780    13.2610    16.4440    23.9080    -4.7380 
  253.3750     2.2910    73.1200    13.5290    13.2630    14.6960    23.9150    -4.7760 
  253.5000     2.2620    74.9790    13.6140    13.3490    11.5490    23.9880    -4.7900 
  253.6250     2.2610    73.8560    13.9710    13.6200    10.7140    23.9990    -4.7660 
  253.7500     2.2810    71.4290    14.5700    14.0620    10.9570    24.0240    -4.6630 
  253.8750     2.3130    70.4440    15.3240    14.6230    11.8610    24.0030    -4.5050 
  254.0000     2.3480    70.6170    16.0820    15.2110    13.1520    24.0560    -4.3340 
  254.1250     2.3800    70.4120    16.6450    15.6860    14.5350    24.0170    -4.1640 
  254.2500     2.4060    70.6980    16.9570    15.9940    15.8260    23.9330    -3.9960 
  254.3750     2.4240    70.7400    17.0690    16.1540    16.5290    23.9170    -3.8430 
  254.5000     2.4330    68.9010    17.1010    16.2550    16.6390    23.8720    -3.7320 
  254.6250     2.4340    67.7160    17.2160    16.4130    16.1400    23.9430    -3.6910 
  254.7500     2.4340    69.8490    17.4720    16.6760    16.1120    23.9300    -3.6930 
  254.8750     2.4380    73.2950    17.7950    17.0030    16.9990    23.9270    -3.7270 
