~V
VERS. 2.00: Ver 2.00
~W
STRT.M 50.0000:
STOP.M 273.0000:
STEP.M 0.1250:
NULL. -999.2500:
UWI. F10249:
~C
DEPT.M :
DEN.GM/CC :
GR.API :
RML.OHMM :
RI. :
RXO.OHMM :
CALI.CM :
SP.MV :
~A
# ...
  196.2500     2.3460    56.9360    78.1370    78.2030   156.0900    25.1650    -8.4130 
  196.3750     2.3490    58.0730    59.5890    59.1850    86.1150    25.2510    -7.7950 
  196.5000     2.3780    59.6670    44.1660    43.1880    52.4010    25.2570    -7.2320 
  196.6250     2.4370    62.6370    31.8020    30.3360    54.2050    24.9490    -6.6780 
  196.7500     2.5110    65.1940    22.1240    20.4820    49.0530    24.3770    -6.1400 
  196.8750     2.5820    66.7600    15.0400    13.6470    29.6290    23.8280    -5.6360 
  197.0000     2.6370    68.1770    10.1560     9.3190    14.6410    23.6590    -5.1630 
  197.1250     2.6570    69.9150     7.3150     6.9790     7.6740    23.9230    -4.7450 
  197.2500     2.6420    69.8300     5.8840     5.7150     5.4500    24.3400    -4.4450 
  197.3750     2.5990    66.4710     5.4410     5.1740     4.7870    24.6860    -4.2070 
  197.5000     2.5500    61.2470     5.4680     5.0990     4.5730    24.9120    -3.9500 
  197.6250     2.5140    58.0110     5.6080     5.2770     4.5490    24.9150    -3.7660 
  197.7500     2.4940    57.2150     5.7090     5.4710     4.5210    24.6430    -3.7090 
  197.8750     2.4810    56.6960     5.7150     5.5840     4.4510    24.2370    -3.7380 
  198.0000     2.4630    55.6150     5.6390     5.5980     4.3780    23.7860    -3.7980 
  198.1250     2.4410    55.1760     5.5310     5.5410     4.3610    23.6580    -3.8440 
  198.2500     2.4200    54.1450     5.4460     5.4750     4.3860    23.9270    -3.8990 
  198.3750     2.4070    51.6260     5.4080     5.4260     4.4260    24.3510    -4.0070 
  198.5000     2.4020    50.3280     5.4220     5.3990     4.4790    24.6200    -4.1410 
  198.6250     2.4090    53.7670     5.4940     5.3920     4.5710    24.6460    -4.2610 
  198.7500     2.4270    57.4810     5.6170     5.3980     4.7040    24.5610    -4.3950 
  198.8750     2.4560    56.2560     5.7990     5.4280     4.8720    24.4610    -4.5280 
  199.0000     2.4880    51.2380     6.0470     5.5010     5.0740    24.4450    -4.6420 
  199.1250     2.5070    50.2590     6.3670     5.6420     5.3100    24.5960    -4.7820 
  199.2500     2.5030    55.8100     6.7180     5.8300     5.5690    24.8080    -4.9400 
  199.3750     2.4800    63.9290     7.0600     6.0290     5.8680    24.9520    -5.1040 
  199.5000     2.4510    70.6730     7.3560     6.2010     6.2090    24.9550    -5.3020 
  199.6250     2.4330    75.5280     7.5860     6.3140     6.4990    24.8350    -5.5580 
  199.7500     2.4300    79.9920     7.7890     6.3930     6.6360    24.6450    -5.8200 
  199.8750     2.4380    83.4680     8.0110     6.4760     6.6640    24.4880    -6.0960 
  200.0000     2.4490    86.7250     8.2920     6.5980     6.7600    24.5750    -6.4130 
  200.1250     2.4580    90.5810     8.6520     6.7860     7.1430    24.7410    -6.7750 
  200.2500     2.4620    95.6090     9.0410     7.0160     7.7070    24.6930    -7.1590 
  200.3750     2.4610   102.4710     9.3970     7.2520     8.1890    24.4250    -7.5480 
  200.5000     2.4560   110.7210     9.6540     7.4440     8.4030    24.0860    -7.9170 
  200.6250     2.4490   114.9730     9.7370     7.5310     8.4070    24.0210    -8.2190 
  200.7500     2.4420   112.8490     9.6620     7.5060     8.4250    24.2840    -8.4890 
  200.8750     2.4370   108.1160     9.4700     7.3740     8.4580    24.7000    -8.7870 
  201.0000     2.4350   105.0830     9.2420     7.1790     8.3720    25.0170    -9.1300 
  201.1250     2.4390   105.7760     9.1110     7.0130     8.0510    25.0450    -9.4330 
  201.2500     2.4520   107.1090     9.1670     6.9670     7.6300    24.9280    -9.6630 
  201.3750     2.4690   106.9330     9.4450     7.0930     7.3500    24.8760    -9.8880 
  201.5000     2.4830   104.9110     9.9010     7.3980     7.5610    24.9700   -10.1900 
  201.6250     2.4840   102.2360    10.4120     7.8350     8.5550    25.1550   -10.5220 
  201.7500     2.4720    99.0120    10.8200     8.2620     9.8160    25.2820   -10.7930 
  201.8750     2.4530    95.9120    11.0490     8.5790    10.6250    25.3420   -11.0070 
  202.0000     2.4350    95.4480    11.1170     8.7460    10.5930    25.3510   -11.1870 
  202.1250     2.4250    96.0390    11.1310     8.7960    10.0370    25.3250   -11.3210 
  202.2500     2.4220    93.6760    11.2240     8.8420     9.6660    25.3000   -11.4090 
  202.3750     2.4300    88.6950    11.4200     8.9410     9.6710    25.2630   -11.4530 
  202.5000     2.4470    86.6840    11.6330     9.0760     9.9480    25.2090   -11.4340 
  202.6250     2.4660    91.5230    11.6290     9.1040    10.3160    25.1300   -11.3450 
  202.7500     2.4740    96.8340    11.2710     8.8830    10.4950    25.0270   -11.2560 
  202.8750     2.4660    98.3900    10.5670     8.3720    10.1780    24.8950   -11.1770 
  203.0000     2.4410    97.1240     9.7130     7.6840     9.2530    24.6110   -11.0790 
  203.1250     2.4040    95.5740     9.1230     7.0880     7.9920    24.0940   -10.9610 
  203.2500     2.3650    92.4680     9.1560     6.8330     7.0410    23.7260   -10.8560 
  203.3750     2.3310    86.2520    10.0840     7.1140     6.8600    23.9900   -10.7610 
  203.5000     2.3090    79.8610    12.0920     8.1170     7.7490    24.6350   -10.6790 
  203.6250     2.3030    78.3780    15.3940    10.2260    10.2240    25.0740   -10.6410 
  203.7500     2.3080    80.4800    19.4530    13.4000    14.1500    25.1820   -10.5900 
  203.8750     2.3170    82.3620    23.4020    17.3090    18.7340    25.1460   -10.4770 
  204.0000     2.3270    81.7980    25.9390    20.8410    22.3300    25.0770   -10.3300 
  204.1250     2.3410    82.2550    25.4350    21.8040    23.2640    25.0220   -10.2470 
  204.2500     2.3630    85.9080    22.3670    19.9130    22.1590    24.9500   -10.2090 
  204.3750     2.3910    90.0250    17.9000    16.3000    19.5130    24.8670   -10.1140 
  204.5000     2.4160    91.9830    13.4390    12.4810    15.5210    24.7690    -9.9300 
  204.6250     2.4270    91.1030    10.1260     9.5330    10.9490    24.5870    -9.7230 
  204.7500     2.4250    88.3090     7.9940     7.5130     7.4050    24.2250    -9.5620 
  204.8750     2.4170    83.9390     6.8420     6.2870     5.5520    23.6310    -9.4040 
  205.0000     2.4060    78.6420     6.3940     5.6810     5.0130    23.0930    -9.2060 
  205.1250     2.3890    76.0700     6.4290     5.5900     5.0840    23.0740    -8.9840 
  205.2500     2.3680    77.5010     6.6400     5.7670     5.1870    23.4780    -8.7680 
  205.3750     2.3510    81.6610     6.8770     6.0660     5.2330    23.9740    -8.5710 
  205.5000     2.3460    85.6810     7.0560     6.3720     5.3220    24.4670    -8.3810 
  205.6250     2.3600    88.5710     7.1460     6.6070     5.5130    24.7960    -8.1970 
  205.7500     2.3810    90.4020     7.1710     6.7660     5.7090    24.8410    -8.0060 
  205.8750     2.4020    89.8920     7.1380     6.8430     5.8750    24.6640    -7.8300 
  206.0000     2.4150    86.5610     7.0420     6.8210     6.0680    24.4570    -7.6640 
  206.1250     2.4200    83.5370     6.8790     6.6710     6.2890    24.5760    -7.4370 
  206.2500     2.4200    83.1460     6.7090     6.4470     6.3930    24.6580    -7.1560 
  206.3750     2.4160    85.0430     6.6040     6.2200     6.3360    24.6470    -6.9030 
  206.5000     2.4090    87.3580     6.6350     6.0710     6.3020    24.6090    -6.7110 
  206.6250     2.3980    88.4820     6.8800     6.0840     6.7160    24.6030    -6.5290 
  206.7500     2.3860    88.3330     7.3250     6.2610     7.6140    24.6280    -6.3530 
  206.8750     2.3740    87.3550     7.9930     6.6110     8.6820    24.6780    -6.2050 
  207.0000     2.3670    86.3090     8.9350     7.1660     9.5850    24.7130    -6.1080 
  207.1250     2.3700    84.8110    10.3190     8.0410    10.4350    24.7650    -6.0690 
  207.2500     2.3790    80.3130    12.1760     9.2960    12.1260    24.7640    -6.0700 
  207.3750     2.3860    74.5830    14.5080    11.0190    15.6440    24.8380    -6.0860 
