~V
VERS. 2.00: Ver 2.00
~W
STRT.M 58.0000:
STOP.M 277.0000:
STEP.M 0.1250:
NULL. -999.2500:
UWI. F10219:
~C
DEPT.M :
SP.MV :
DEN.GM/CC :
GR.API :
RML.OHMM :
RI. :
RXO.OHMM :
CALI.CM :
~A
# ...
  215.5000   -20.5500     2.2200    57.3240    70.6180    65.3970    64.1320    27.0990 
  215.6250   -20.7010     2.2220    60.2020    69.1720    64.4580    68.3730    26.9060 
  215.7500   -20.7770     2.2300    61.2350    66.9860    62.9170    71.2570    26.7580 
  215.8750   -20.7930     2.2400    61.0430    64.0160    60.5460    67.3400    26.6590 
  216.0000   -20.8320     2.2470    60.3310    60.9500    57.8130    59.9440    26.6030 
  216.1250   -20.8720     2.2490    59.4940    58.6460    55.4660    54.2010    26.5660 
  216.2500   -20.9530     2.2470    58.7560    57.9540    54.3840    51.6430    26.5080 
  216.3750   -21.0350     2.2390    58.2890    59.2190    55.0840    51.6350    26.4120 
  216.5000   -21.1110     2.2290    58.1620    62.0450    57.3910    54.1810    26.3250 
  216.6250   -21.1910     2.2180    57.7790    65.9130    60.9260    58.7810    26.3850 
  216.7500   -21.2980     2.2100    56.9220    70.1060    65.0660    64.1300    26.5980 
  216.8750   -21.4500     2.2050    55.8450    73.8430    69.0170    70.4640    26.7620 
  217.0000   -21.5640     2.1970    54.6280    76.5560    72.0810    78.2080    26.8160 
  217.1250   -21.6890     2.1880    53.5300    78.0410    73.8990    86.3750    26.8580 
  217.2500   -21.8270     2.1830    54.0130    78.4660    74.4880    91.2460    26.9420 
  217.3750   -21.9830     2.1880    56.5820    78.3680    74.3180    88.6070    27.0360 
  217.5000   -22.1610     2.2010    58.9810    78.3660    74.0640    80.5710    27.1370 
  217.6250   -22.3110     2.2150    59.2380    78.7110    74.0750    74.6630    27.3150 
  217.7500   -22.4560     2.2180    57.4730    79.3080    74.3910    76.5390    27.5340 
  217.8750   -22.5650     2.2060    54.8470    79.7930    74.7700    82.9460    27.6760 
  218.0000   -22.6600     2.1880    52.6040    79.8090    74.8920    85.7150    27.7660 
  218.1250   -22.7550     2.1760    51.7880    79.2480    74.6120    80.1720    27.8220 
  218.2500   -22.7970     2.1790    52.5750    78.3060    74.0080    71.2060    27.8560 
  218.3750   -22.7930     2.1930    54.2710    77.4100    73.3910    67.6260    27.8540 
  218.5000   -22.7400     2.2030    56.2080    76.9430    73.1090    70.0390    27.7960 
  218.6250   -22.6580     2.2070    57.8010    77.0340    73.3360    74.9800    27.6930 
  218.7500   -22.5020     2.2080    58.3280    77.6100    74.0740    78.0190    27.5690 
  218.8750   -22.2440     2.2120    58.4450    78.4130    75.1280    77.8790    27.3570 
  219.0000   -21.9690     2.2140    59.4510    79.0230    76.1050    77.3040    26.9460 
  219.1250   -21.6360     2.2140    60.6170    78.9760    76.5420    77.9580    26.4320 
  219.2500   -21.2820     2.2110    60.7510    77.7290    75.8460    79.2840    26.0680 
  219.3750   -20.9130     2.2090    60.7080    75.0790    73.6850    78.9280    25.9160 
  219.5000   -20.5200     2.2060    61.6380    71.5640    70.4380    74.8140    25.8470 
  219.6250   -20.1700     2.2000    62.1460    68.0650    66.8670    66.6710    25.7570 
  219.7500   -19.8870     2.1940    60.9780    65.6930    64.0590    57.2810    25.5870 
  219.8750   -19.7200     2.1890    60.0140    65.1620    62.8430    50.9230    25.3360 
  220.0000   -19.5700     2.1920    60.9220    66.3400    63.2870    49.0970    25.0630 
  220.1250   -19.4340     2.2050    61.7650    68.8180    65.1160    50.4660    24.7870 
  220.2500   -19.3510     2.2270    61.1690    72.1070    67.8980    52.6500    24.5540 
  220.3750   -19.3060     2.2550    60.8860    75.8600    71.2520    54.0200    24.4300 
  220.5000   -19.3550     2.2930    61.4440    79.9960    75.0170    56.2330    24.4010 
  220.6250   -19.4250     2.3520    60.5840    84.6530    79.2970    63.1440    24.5040 
  220.7500   -19.5130     2.4300    57.9880    89.9120    84.1920    76.1970    24.7550 
  220.8750   -19.6330     2.5010    56.3740    95.6030    89.5780    93.4320    25.0260 
  221.0000   -19.7830     2.5160    56.5850   101.3310    95.0800   111.9180    25.1630 
  221.1250   -19.9980     2.4530    56.8010   106.7790   100.3440   124.7780    25.2060 
  221.2500   -20.2190     2.3540    56.9130   111.6770   105.0440   124.4480    25.3010 
  221.3750   -20.4560     2.2750    57.9710   115.7320   108.9040   121.2480    25.5630 
  221.5000   -20.6970     2.2360    59.3710   118.4020   111.5340   127.3180    25.8990 
  221.6250   -20.9510     2.2240    59.9770   118.7010   112.1300   132.2270    26.1200 
  221.7500   -21.1970     2.2250    60.1270   115.3690   109.5480   130.2180    26.1930 
  221.8750   -21.3560     2.2320    60.5930   107.9830   103.2930   121.0440    26.1850 
  222.0000   -21.4760     2.2390    60.6730    97.9260    94.4610   107.2400    26.1450 
  222.1250   -21.5380     2.2440    59.4360    87.1970    84.7610    90.5470    26.0960 
  222.2500   -21.5950     2.2440    57.8830    78.0920    76.3380    75.3680    26.0720 
  222.3750   -21.6830     2.2400    57.1760    72.1070    70.6900    65.2730    26.0780 
  222.5000   -21.7480     2.2340    56.2090    69.5610    67.9380    60.5690    26.0980 
  222.6250   -21.8060     2.2340    53.5630    70.0110    67.6690    60.9820    26.1170 
  222.7500   -21.8250     2.2440    51.1880    71.9930    69.1280    64.7520    26.1220 
  222.8750   -21.8720     2.2600    52.2710    74.4860    71.2990    69.1990    26.0730 
  223.0000   -21.9280     2.2660    55.7990    76.5700    73.1770    71.1620    25.9480 
  223.1250   -21.9680     2.2530    58.8320    77.8730    74.2870    70.2530    25.9090 
  223.2500   -21.9620     2.2340    60.4630    78.5150    74.6300    68.3750    26.0820 
  223.3750   -21.8780     2.2240    60.8690    79.0610    74.6830    66.1260    26.2980 
  223.5000   -21.8110     2.2230    59.9040    80.1940    75.1050    64.0960    26.4110 
  223.6250   -21.7410     2.2230    58.3920    82.3790    76.3810    64.9720    26.4490 
  223.7500   -21.6890     2.2220    58.0440    85.9790    78.9240    70.2840    26.4860 
  223.8750   -21.6080     2.2240    58.4050    91.0650    82.8870    78.7200    26.5430 
  224.0000   -21.4970     2.2330    57.9070    97.2650    87.9830    87.2540    26.5670 
  224.1250   -21.3960     2.2470    57.0100   104.1110    93.8160    96.0850    26.5750 
  224.2500   -21.2990     2.2680    56.4600   110.8310    99.7090   106.9690    26.5830 
  224.3750   -21.2450     2.2900    55.9080   116.4870   104.8110   115.7540    26.4380 
  224.5000   -21.1630     2.2930    55.1840   120.3340   108.4200   119.6950    26.1200 
  224.6250   -21.0750     2.2650    54.5620   121.8560   110.0450   118.9380    25.9420 
  224.7500   -20.9970     2.2220    54.0210   120.7490   109.3640   115.4850    26.1420 
  224.8750   -20.9130     2.1950    53.4640   117.3220   106.5900   114.0900    26.5390 
  225.0000   -20.8210     2.1930    53.4990   112.6970   102.6720   110.4750    26.8500 
  225.1250   -20.6610     2.2110    54.1060   107.9890    98.6000   101.9850    26.9760 
  225.2500   -20.4280     2.2450    54.5290   104.4590    95.5710    91.8980    26.9200 
  225.3750   -20.0520     2.2950    54.4530   102.9750    94.5240    87.1590    26.7820 
  225.5000   -19.5290     2.3690    54.2170   103.3920    95.5280    91.2650    26.6760 
  225.6250   -18.8830     2.4740    54.0620   104.8660    97.9820   101.3240    26.5400 
  225.7500   -18.1330     2.5970    53.9090   105.5620   100.2830   114.0050    26.1470 
  225.8750   -17.3530     2.6930    53.5980   103.1460   100.1000   122.7070    25.5430 
  226.0000   -16.5240     2.7260    53.2150    96.0350    95.4740   117.2600    25.1000 
  226.1250   -15.7350     2.7100    53.3210    83.7450    85.4060    98.9130    24.9170 
  226.2500   -15.0080     2.6780    54.7430    67.3220    70.2820    79.6740    24.8450 
  226.3750   -14.3900     2.6440    57.7570    49.6130    52.6570    64.3930    24.8150 
  226.5000   -13.9330     2.6010    62.0850    34.0330    36.4470    49.8330    24.8100 
  226.6250   -13.6070     2.5460    66.9460    22.3760    24.0370    34.5700    24.8140 
