~V
VERS. 2.00: Ver 2.00
~W
STRT.M 50.0000:
STOP.M 278.0000:
STEP.M 0.1250:
NULL. -999.2500:
UWI. F10217:
~C
DEPT.M :
SP.MV :
DEN.GM/CC :
GR.API :
RML.OHMM :
RI. :
RXO.OHMM :
CALI.CM :
~A
# ...
  230.0000   -19.0000     2.4030    86.9690     8.4620     8.3010     7.1860    23.5170 
  230.1250   -19.2440     2.3950    90.3350     8.3620     8.2600     7.1970    23.5830 
  230.2500   -19.4980     2.3760    94.2290     8.2390     8.1340     7.3020    23.6530 
  230.3750   -19.7690     2.3530   101.8050     8.1560     7.9830     7.3620    23.6650 
  230.5000   -20.0680     2.3340   112.0130     8.1920     7.8840     7.3000    23.6360 
  230.6250   -20.3830     2.3270   118.9470     8.4720     7.9420     7.3320    23.5760 
  230.7500   -20.6970     2.3290   120.4100     9.0330     8.2030     7.6120    23.5410 
  230.8750   -21.0110     2.3340   119.8310     9.9070     8.7020     8.2650    23.5560 
  231.0000   -21.3260     2.3370   117.1950    11.0820     9.4480     9.2980    23.6050 
  231.1250   -21.6110     2.3350   106.4070    12.5170    10.4380    10.5300    23.6360 
  231.2500   -21.8600     2.3310    90.9610    14.0450    11.5420    11.4580    23.6410 
  231.3750   -22.0440     2.3290    78.6390    15.5480    12.6540    12.1510    23.6310 
  231.5000   -22.1430     2.3300    71.9400    16.9570    13.6930    12.7180    23.6150 
  231.6250   -22.1560     2.3350    72.2360    18.2620    14.6260    13.4010    23.6010 
  231.7500   -22.1100     2.3410    75.4270    19.5260    15.5140    14.4660    23.5930 
  231.8750   -22.0140     2.3470    77.0000    20.7620    16.3890    15.7070    23.6030 
  232.0000   -21.8930     2.3500    74.5260    21.9160    17.2290    17.2420    23.6340 
  232.1250   -21.7670     2.3500    72.5240    22.8320    17.9270    19.4500    23.7050 
  232.2500   -21.6190     2.3470    73.3930    23.4420    18.4160    20.5280    23.7750 
  232.3750   -21.4800     2.3450    74.1840    23.7480    18.6790    20.2610    23.7690 
  232.5000   -21.3810     2.3420    71.9890    23.8520    18.7750    18.9130    23.6900 
  232.6250   -21.3360     2.3400    71.4910    23.9490    18.8340    17.4920    23.6130 
  232.7500   -21.2980     2.3390    76.4610    24.2120    18.9990    16.9380    23.5590 
  232.8750   -21.2650     2.3400    81.6550    24.6800    19.3280    16.9680    23.5240 
  233.0000   -21.2220     2.3430    78.8400    25.2650    19.7890    17.3770    23.5080 
  233.1250   -21.1550     2.3460    71.2620    25.7580    20.2490    18.3240    23.5050 
  233.2500   -21.0970     2.3450    69.3170    26.0120    20.5670    19.1440    23.5060 
  233.3750   -21.0520     2.3380    73.0150    26.0010    20.6850    19.3320    23.5140 
  233.5000   -20.9960     2.3250    76.8290    25.8200    20.6350    18.8390    23.5310 
  233.6250   -20.9150     2.3090    79.6660    25.6730    20.5360    18.7520    23.5410 
  233.7500   -20.8680     2.2940    81.9440    25.7540    20.5500    19.8910    23.5430 
  233.8750   -20.8110     2.2820    81.3600    26.1700    20.7790    20.9970    23.5360 
  234.0000   -20.7700     2.2760    77.6140    26.9680    21.2840    20.1790    23.5270 
  234.1250   -20.7580     2.2750    75.4670    28.2290    22.1480    18.9800    23.5730 
  234.2500   -20.7610     2.2770    75.5250    29.8640    23.3240    19.4930    23.6830 
  234.3750   -20.7820     2.2790    76.0780    31.8230    24.7940    20.8650    23.7770 
  234.5000   -20.8190     2.2800    76.3080    34.0210    26.5200    22.3510    23.7670 
  234.6250   -20.8770     2.2790    75.1440    36.3400    28.4390    24.5380    23.7160 
  234.7500   -20.9380     2.2780    72.9520    38.6160    30.3820    28.1440    23.8510 
  234.8750   -21.0080     2.2780    71.3040    40.7750    32.2360    31.6680    24.1770 
  235.0000   -21.0630     2.2790    71.0640    42.8380    33.9680    32.7330    24.4840 
  235.1250   -21.1320     2.2820    70.9790    44.8980    35.6300    33.7200    24.5840 
  235.2500   -21.2070     2.2860    69.4130    47.0140    37.3070    35.1380    24.5820 
  235.3750   -21.2810     2.2890    69.0570    49.1760    39.0230    36.5580    24.5690 
  235.5000   -21.3870     2.2900    69.5930    51.3080    40.7560    37.8330    24.5690 
  235.6250   -21.5000     2.2880    68.2780    53.2050    42.3860    39.4710    24.5790 
  235.7500   -21.6030     2.2820    67.2020    54.6570    43.7440    41.1410    24.5930 
  235.8750   -21.6980     2.2760    66.8360    55.4760    44.6640    41.9910    24.6030 
  236.0000   -21.8080     2.2710    65.6690    55.6080    45.0570    42.6490    24.6020 
  236.1250   -21.8780     2.2690    63.8080    55.1330    44.9260    42.9230    24.5860 
  236.2500   -21.9240     2.2710    65.4220    54.5280    44.6120    41.6160    24.5790 
  236.3750   -21.9470     2.2730    69.7070    54.2180    44.4480    39.2830    24.5900 
  236.5000   -21.9050     2.2740    71.3140    54.5360    44.7250    39.3930    24.6110 
  236.6250   -21.8110     2.2720    69.7460    55.7710    45.7130    39.3240    24.6260 
  236.7500   -21.7010     2.2710    68.5880    57.7440    47.3170    40.4280    24.6250 
  236.8750   -21.5910     2.2720    66.6990    60.3130    49.4450    42.3620    24.6140 
  237.0000   -21.4600     2.2770    63.4510    63.3590    52.0100    44.9560    24.6060 
  237.1250   -21.3530     2.2840    61.8070    66.8790    55.0400    46.4320    24.6060 
  237.2500   -21.2680     2.2890    64.6170    70.6470    58.3920    48.2550    24.6060 
  237.3750   -21.1820     2.2890    68.8910    74.2470    61.7830    50.7660    24.5880 
  237.5000   -21.1240     2.2820    69.1080    76.9970    64.6750    53.4300    24.5570 
  237.6250   -21.0920     2.2700    65.6530    77.8490    66.1700    58.0660    24.5520 
  237.7500   -21.0540     2.2560    64.9130    76.7850    66.0620    60.6430    24.5640 
  237.8750   -21.0250     2.2460    66.7280    74.2520    64.5350    54.9320    24.5760 
  238.0000   -21.0140     2.2410    65.2910    71.1870    62.2450    47.7440    24.5910 
  238.1250   -20.9610     2.2450    60.7620    68.7580    60.1520    45.1180    24.5980 
  238.2500   -20.8680     2.2540    60.8200    67.4260    58.8620    47.6300    24.5940 
  238.3750   -20.7380     2.2660    64.7110    67.0560    58.4350    51.1470    24.5650 
  238.5000   -20.5870     2.2770    67.8790    67.1440    58.5470    51.4520    24.5180 
  238.6250   -20.4090     2.2870    69.4830    67.0960    58.7010    53.8130    24.4530 
  238.7500   -20.2060     2.2930    70.5740    66.7640    58.6370    56.4380    24.4120 
  238.8750   -19.9710     2.2960    70.0550    66.4030    58.4720    56.8060    24.3770 
  239.0000   -19.7020     2.2930    68.5970    66.4080    58.5080    51.7410    24.3530 
  239.1250   -19.4380     2.2840    69.5020    67.1410    59.1180    48.8040    24.3200 
  239.2500   -19.1860     2.2770    70.7990    68.3160    60.1930    52.0330    24.2310 
  239.3750   -18.9670     2.2830    70.2410    69.3980    61.3590    52.9040    24.1020 
  239.5000   -18.7620     2.3070    68.1360    69.7230    62.0530    52.7090    24.0720 
  239.6250   -18.5700     2.3440    65.1720    68.5460    61.5410    53.9340    24.1820 
  239.7500   -18.4080     2.3790    63.0780    66.0990    59.8470    55.9690    24.3040 
  239.8750   -18.2600     2.3990    62.8970    62.8490    57.2830    56.3440    24.3580 
  240.0000   -18.1090     2.3980    63.4430    59.3560    54.3310    54.6580    24.3530 
  240.1250   -17.9690     2.3790    63.3610    56.0340    51.3960    52.2440    24.3630 
  240.2500   -17.8190     2.3500    63.8190    53.0050    48.6370    49.6780    24.4070 
  240.3750   -17.6600     2.3200    65.2700    50.3780    46.1510    46.5670    24.4460 
  240.5000   -17.4800     2.2940    65.4730    48.3180    44.0900    42.0780    24.4630 
  240.6250   -17.2870     2.2760    62.5820    47.1090    42.7310    38.8350    24.4670 
  240.7500   -17.0810     2.2660    59.2140    46.6530    42.0450    38.1060    24.4350 
  240.8750   -16.8790     2.2630    57.7270    46.7960    41.9600    40.1260    24.3960 
  241.0000   -16.6990     2.2620    59.4040    47.2170    42.2470    44.5200    24.3940 
  241.1250   -16.5070     2.2620    62.0220    47.4260    42.4980    48.0100    24.4050 
