~V
VERS. 2.00: Ver 2.00
~W
STRT.M 53.0000:
STOP.M 282.0000:
STEP.M 0.1250:
NULL. -999.2500:
UWI. F10240:
~C
DEPT.M :
GR.API :
RML.OHMM :
RI. :
RXO.OHMM :
CALI.CM :
DEN.GM/CC :
SP.MV :
~A
# ...
   86.7500    86.2710     7.8010     5.1890     6.6930    25.2400     2.3300   -18.9500 
   86.8750    87.8990     7.0690     4.6130     6.3150    25.3210     2.3290   -17.8210 
   87.0000    88.7660     7.1080     4.4650     6.2460    25.3140     2.3140   -16.8940 
   87.1250    91.5220     7.8510     4.7400     6.3210    25.3220     2.2980   -16.2350 
   87.2500    94.3580     9.2390     5.4510     6.9170    25.3260     2.3040   -15.8320 
   87.3750    91.8090    11.0530     6.5420     9.3410    25.3460     2.3380   -15.6250 
   87.5000    82.3970    12.6820     7.7590    15.3110    25.3250     2.3810   -15.6680 
   87.6250    74.3220    13.3480     8.5640    18.0780    25.2190     2.3980   -15.9060 
   87.7500    73.2820    12.7330     8.5960    13.1350    25.0120     2.3770   -16.2360 
   87.8750    77.6870    11.2590     7.9550     8.9280    24.8720     2.3360   -16.5600 
   88.0000    82.3370     9.7820     7.0850     7.4360    24.8900     2.3080   -16.8710 
   88.1250    85.3170     8.8150     6.3830     7.1250    25.0560     2.3010   -17.1770 
   88.2500    88.7150     8.3840     5.9350     6.9790    25.2840     2.3060   -17.4680 
   88.3750    92.0130     8.2770     5.6870     7.0450    25.4980     2.3070   -17.7630 
   88.5000    94.1500     8.1670     5.4950     7.1200    25.6470     2.2980   -18.0590 
   88.6250    95.1440     7.8600     5.2360     6.6760    25.7420     2.2870   -18.3650 
   88.7500    94.4450     7.3990     4.9100     6.0890    25.8170     2.2790   -18.7160 
   88.8750    93.4730     6.9810     4.6030     5.6460    25.8750     2.2760   -19.1680 
   89.0000    93.9050     6.8960     4.4650     5.6450    25.9300     2.2720   -19.8090 
   89.1250    94.2800     7.2480     4.5670     5.9530    25.9480     2.2660   -20.6510 
   89.2500    90.3550     8.0640     4.9450     6.7620    25.8880     2.2520   -21.7230 
   89.3750    81.0420     9.2540     5.5890     8.6280    25.6520     2.2280   -23.0200 
   89.5000    70.8900    10.5350     6.4110    12.7470    25.1690     2.1960   -24.5230 
   89.6250    63.0480    11.4980     7.1720    13.5590    24.7190     2.1600   -26.0780 
   89.7500    56.7900    11.9320     7.6930    12.8320    24.4870     2.1300   -27.5330 
   89.8750    53.2440    11.8850     7.9140    12.3710    24.3990     2.1110   -28.8250 
   90.0000    54.4650    11.5950     7.8900    12.4210    24.3750     2.1060   -29.8480 
   90.1250    56.8330    11.3600     7.8020    12.7040    24.4040     2.1070   -30.4890 
   90.2500    56.3310    11.2400     7.7160    12.8420    24.4660     2.1030   -30.6950 
   90.3750    54.1940    11.1210     7.6060    12.8770    24.4590     2.0930   -30.4680 
   90.5000    54.9410    10.7850     7.3670    12.9570    24.3680     2.0850   -29.7010 
   90.6250    59.3740    10.2530     7.0060    12.9440    24.2820     2.0870   -28.4940 
   90.7500    67.4370     9.7260     6.6280    12.2870    24.3570     2.1050   -26.9760 
   90.8750    76.7910     9.4680     6.3810    10.6130    24.6680     2.1420   -25.2560 
   91.0000    82.2480     9.7520     6.4280     8.8750    25.1610     2.2020   -23.4330 
   91.1250    82.0370    10.5010     6.7550     9.7550    25.4650     2.2750   -21.6500 
   91.2500    79.2790    11.5020     7.2900    14.8870    25.5490     2.3440   -19.9940 
   91.3750    78.1460    12.3580     7.8500    20.0140    25.5340     2.3830   -18.5310 
   91.5000    79.7730    12.4850     8.1000    16.2190    25.4740     2.3790   -17.3920 
   91.6250    82.7450    11.8410     7.9210    10.4060    25.4140     2.3520   -16.5540 
   91.7500    84.8580    10.6870     7.3890     8.2770    25.3930     2.3290   -16.0050 
   91.8750    86.7970     9.4360     6.7060     7.8470    25.3990     2.3260   -15.7310 
   92.0000    88.3870     8.5270     6.1200     7.4040    25.4880     2.3340   -15.7000 
   92.1250    88.1650     8.0960     5.7630     6.7490    25.6080     2.3310   -15.8010 
   92.2500    87.7060     8.1530     5.6770     6.1550    25.6820     2.3130   -16.0070 
   92.3750    86.6280     8.6450     5.8510     6.1040    25.6870     2.2880   -16.3110 
   92.5000    82.8440     9.4970     6.2580     7.7680    25.6590     2.2720   -16.6990 
   92.6250    76.5490    10.3930     6.7370    10.7700    25.5420     2.2670   -17.2030 
   92.7500    72.0760    11.0120     7.1090    11.6150    25.3280     2.2700   -17.8580 
   92.8750    72.6780    11.1240     7.2290    10.5860    25.1210     2.2720   -18.5770 
   93.0000    76.3320    10.7050     7.0520     9.2120    25.1380     2.2640   -19.3110 
   93.1250    77.8440    10.1820     6.7840     8.4520    25.3030     2.2500   -20.1150 
   93.2500    75.5090     9.9800     6.6360     8.5490    25.4290     2.2280   -20.9700 
   93.3750    71.2230    10.4970     6.8190     9.2100    25.4240     2.2000   -21.8240 
   93.5000    69.2190    12.2160     7.6170    10.3510    25.3340     2.1850   -22.6580 
   93.6250    69.3690    15.0740     9.0810    12.8880    25.2730     2.2120   -23.4640 
   93.7500    68.8560    18.8600    11.2230    19.0690    25.3070     2.2910   -24.2510 
   93.8750    67.0960    22.8600    13.7860    32.7780    25.3260     2.3940   -25.0540 
   94.0000    66.4330    25.3990    15.8720    45.1770    25.3330     2.4400   -25.8800 
   94.1250    65.7110    25.4860    16.6050    38.0240    25.2940     2.4060   -26.7210 
   94.2500    62.6540    23.3710    15.8780    23.1240    25.1930     2.3180   -27.5620 
   94.3750    57.7010    20.3200    14.3190    16.3780    24.9840     2.2220   -28.3690 
   94.5000    55.4750    17.7460    12.7330    15.3080    24.8750     2.1460   -29.0880 
   94.6250    56.8770    16.1330    11.5420    15.3050    24.8510     2.0970   -29.7250 
   94.7500    58.8010    15.3940    10.7980    15.2610    24.8770     2.0680   -30.2420 
   94.8750    59.1960    15.2240    10.4120    15.0890    24.8690     2.0530   -30.6100 
   95.0000    60.0080    15.2990    10.2620    14.8840    24.8110     2.0560   -30.8190 
   95.1250    62.0640    15.3390    10.1790    14.8240    24.6940     2.0710   -30.9130 
   95.2500    65.1230    15.2810    10.1060    14.5030    24.5930     2.0960   -30.8730 
   95.3750    68.6610    15.1840    10.0520    14.0340    24.5320     2.1240   -30.7390 
   95.5000    71.5460    15.1880    10.0770    13.8000    24.5350     2.1530   -30.6220 
   95.6250    71.3750    15.3480    10.2040    13.7620    24.5610     2.1810   -30.5260 
   95.7500    68.4360    15.6200    10.4140    14.2000    24.6360     2.2020   -30.4350 
   95.8750    66.6990    15.8810    10.6430    17.0340    24.7310     2.2080   -30.4160 
   96.0000    66.7600    15.9530    10.7940    21.9580    24.7830     2.1920   -30.4660 
   96.1250    64.7000    15.8130    10.8280    22.1590    24.7940     2.1610   -30.4410 
   96.2500    60.5750    15.5300    10.7610    17.4180    24.8060     2.1200   -30.3390 
   96.3750    56.6600    15.1830    10.6220    15.2190    24.7990     2.0780   -30.1610 
   96.5000    55.0230    14.7850    10.4000    15.2570    24.7910     2.0500   -29.8220 
   96.6250    55.8700    14.2840    10.0760    15.2460    24.7820     2.0530   -29.2980 
   96.7500    58.7200    13.6240     9.6270    14.4830    24.8000     2.0900   -28.6220 
   96.8750    62.9400    12.8290     9.0760    12.5800    24.8160     2.1510   -27.8430 
   97.0000    66.0230    12.0690     8.5190    10.2090    24.8660     2.2060   -27.0540 
   97.1250    66.5210    11.5530     8.0870     9.5310    24.8900     2.2300   -26.3600 
   97.2500    65.6480    11.3810     7.8530     9.8430    24.8990     2.2240   -25.7850 
   97.3750    65.9090    11.5330     7.8320    10.5430    24.8760     2.2020   -25.3470 
   97.5000    67.2110    11.8850     7.9960    11.1430    24.8720     2.1790   -25.1080 
   97.6250    66.8410    12.2130     8.2160    11.4110    24.8640     2.1600   -25.0390 
   97.7500    65.1620    12.4070     8.4120    11.3880    24.8660     2.1460   -25.1260 
   97.8750    63.7660    12.4710     8.5540    11.5830    24.8430     2.1330   -25.3420 
