~V
VERS. 2.00: Ver 2.00
~W
STRT.M 53.0000:
STOP.M 276.0000:
STEP.M 0.1250:
NULL. -999.2500:
UWI. F10245:
~C
DEPT.M :
GR.API :
RML.OHMM :
RI. :
RXO.OHMM :
CALI.CM :
DEN.GM/CC :
SP.MV :
~A
# ...
  210.5000    58.9580    45.0570    38.7730    44.8030    24.4540     2.2720    -9.4200 
  210.6250    59.0560    45.9730    40.0230    47.0000    24.4620     2.2570    -9.6430 
  210.7500    59.1100    46.8390    41.0140    48.4110    24.4620     2.2440    -9.8360 
  210.8750    60.3480    47.8680    41.9970    48.6300    24.4620     2.2340   -10.0150 
  211.0000    60.7890    49.0350    43.0200    48.8410    24.4630     2.2280   -10.1790 
  211.1250    59.6900    50.1940    44.0170    50.4220    24.4550     2.2280   -10.3140 
  211.2500    58.8000    51.2410    44.9300    49.6030    24.4280     2.2330   -10.4120 
  211.3750    60.2690    52.2160    45.7930    46.9850    24.3610     2.2380   -10.5110 
  211.5000    62.4560    53.2850    46.7380    45.8300    24.2190     2.2450   -10.5840 
  211.6250    61.2000    54.7860    48.0390    45.3480    23.9680     2.2560   -10.6730 
  211.7500    56.9080    56.9770    49.9160    46.0380    23.7560     2.2680   -10.7930 
  211.8750    53.1690    60.1630    52.6360    48.4420    23.6490     2.2750   -10.9310 
  212.0000    53.0770    64.6520    56.4850    52.8180    23.6640     2.2690   -11.0810 
  212.1250    54.0490    71.0000    62.0100    56.6640    23.8370     2.2460   -11.2480 
  212.2500    53.1550    79.0160    69.1150    59.1600    24.0930     2.2160   -11.4520 
  212.3750    52.5320    88.3850    77.6130    65.1150    24.2260     2.1860   -11.6690 
  212.5000    53.4430    98.3210    86.8940    76.6600    24.1050     2.1650   -11.8890 
  212.6250    54.6110   107.2440    95.6480    94.8380    23.7070     2.1550   -12.1020 
  212.7500    54.6770   113.7810   102.5300   106.7340    23.2650     2.1550   -12.3240 
  212.8750    54.5420   117.2060   106.7500   106.0780    22.9600     2.1610   -12.5550 
  213.0000    55.6360   117.7830   108.3590   104.5270    22.7910     2.1690   -12.7580 
  213.1250    57.5000   116.3660   107.9400   101.7190    22.7450     2.1750   -12.9280 
  213.2500    58.8880   114.2110   106.6720    97.4190    22.6960     2.1780   -13.0770 
  213.3750    59.4100   111.5070   104.8400    85.3070    22.6480     2.1810   -13.2020 
  213.5000    60.1810   108.5650   102.2050    78.3370    22.6210     2.1840   -13.3220 
  213.6250    60.9020   104.1530    98.0290    76.5680    22.6070     2.1860   -13.4400 
  213.7500    60.5700    98.9770    92.4940    76.2760    22.6040     2.1880   -13.5280 
  213.8750    60.2860    94.4710    86.4260    76.1510    22.5860     2.1940   -13.5510 
  214.0000    59.9850    89.2860    81.3840    77.0800    22.5670     2.2060   -13.5810 
  214.1250    59.2290    87.9590    80.0870    74.6070    22.5450     2.2230   -13.6620 
  214.2500    58.5660    92.2870    83.8870    69.9640    22.5110     2.2340   -13.7310 
  214.3750    58.6050   102.6380    93.4750    71.8730    22.4950     2.2330   -13.8010 
  214.5000    59.0630   117.7790   108.0130    86.0390    22.5120     2.2180   -13.8520 
  214.6250    58.1290   134.0080   124.3850   110.2950    22.5740     2.1940   -13.8380 
  214.7500    58.1500   145.6940   137.2140   133.4950    22.6580     2.1730   -13.8190 
  214.8750    59.0530   148.4930   142.3150   153.6270    22.6970     2.1630   -13.8270 
  215.0000    60.5160   141.1310   138.0390   157.2920    22.7030     2.1680   -13.8230 
  215.1250    62.5700   126.8680   126.1690   127.8420    22.6960     2.1840   -13.7550 
  215.2500    62.4040   113.0240   112.9580   101.7300    22.6810     2.2020   -13.6660 
  215.3750    57.7050   102.1690   101.3850    90.4980    22.6730     2.2130   -13.5670 
  215.5000    51.0070    94.4640    92.1380    86.0150    22.6880     2.2160   -13.4780 
  215.6250    48.9470    89.2270    85.0190    82.9930    22.6960     2.2120   -13.4170 
  215.7500    50.8640    85.3750    79.4030    79.7070    22.6740     2.2070   -13.3540 
  215.8750    52.9270    81.0570    75.4730    74.1010    22.6210     2.2040   -13.2670 
  216.0000    54.0920    78.9600    73.5460    67.5220    22.6090     2.2050   -13.1690 
  216.1250    54.7850    79.5210    74.1240    61.2240    22.7090     2.2080   -13.0840 
  216.2500    55.7410    81.8400    76.5070    60.6900    22.8570     2.2130   -13.0360 
  216.3750    56.1830    84.9650    79.9040    64.5910    22.9740     2.2180   -13.0010 
  216.5000    55.4520    87.7080    83.2390    66.7930    23.0780     2.2240   -12.9640 
  216.6250    55.2010    88.6160    85.0960    68.4180    23.2350     2.2280   -12.9520 
  216.7500    56.7220    87.3810    84.9670    70.8550    23.4640     2.2310   -12.9220 
  216.8750    59.7310    84.2500    82.9060    71.6250    23.6870     2.2330   -12.9150 
  217.0000    61.7780    79.9630    79.5050    66.6690    23.8200     2.2360   -12.9360 
  217.1250    61.2670    75.4210    75.5740    59.6310    23.8800     2.2420   -12.9500 
  217.2500    59.9260    71.3020    71.8670    53.3310    23.9470     2.2470   -12.9580 
  217.3750    58.7650    67.9220    68.7170    49.6160    24.0060     2.2490   -12.9940 
  217.5000    57.4240    65.4160    66.2850    49.3110    24.0310     2.2460   -13.0780 
  217.6250    56.9880    63.8260    64.6750    49.0000    24.0260     2.2370   -13.1670 
  217.7500    57.4510    62.8670    63.5780    47.9270    24.0350     2.2250   -13.2780 
  217.8750    58.7060    62.1720    62.6920    47.7350    24.0510     2.2120   -13.3930 
  218.0000    60.1730    61.1560    61.6490    48.5110    24.0700     2.2000   -13.5260 
  218.1250    61.7960    59.8700    60.0260    48.5260    24.1050     2.1920   -13.6880 
  218.2500    63.3090    58.2410    57.8830    48.1620    24.1470     2.1860   -13.8540 
  218.3750    63.6280    56.2590    55.6130    46.5130    24.1330     2.1880   -14.0010 
  218.5000    62.6570    54.7650    53.8880    42.9620    24.0290     2.2040   -14.1750 
  218.6250    59.4170    53.7800    53.5770    38.7520    23.8760     2.2560   -14.3940 
  218.7500    55.2000    54.2430    54.6530    37.9710    23.6920     2.3430   -14.6590 
  218.8750    52.0010    56.0180    56.8330    42.1080    23.5120     2.4450   -14.9550 
  219.0000    50.4590    58.6390    59.6970    50.4520    23.3370     2.5160   -15.2400 
  219.1250    51.3560    62.5430    63.0700    65.6400    23.2230     2.5030   -15.5380 
  219.2500    53.3300    67.1170    67.2280    63.6740    23.1750     2.4340   -15.8570 
  219.3750    54.4120    73.6890    73.1100    48.3750    23.1470     2.3510   -16.1720 
  219.5000    55.5900    83.4070    81.8540    41.2690    23.0970     2.2800   -16.4380 
  219.6250    58.3740    97.2420    94.5310    51.1530    23.1720     2.2350   -16.6560 
  219.7500    59.0610   113.3850   109.5430    68.7770    23.5510     2.2070   -16.8360 
  219.8750    55.3840   129.5070   124.6890    88.0250    24.1270     2.1910   -16.9890 
  220.0000    52.6650   142.9300   137.3330   105.0480    24.5760     2.1820   -17.1060 
  220.1250    56.4610   151.0570   144.8280   118.9420    24.6960     2.1760   -17.1810 
  220.2500    58.9370   155.3950   148.4420   126.0520    24.6580     2.1720   -17.2260 
  220.3750    55.4310   158.2750   150.2980   128.8300    24.5760     2.1700   -17.2760 
  220.5000    50.9460   161.7400   152.3890   130.8420    24.5110     2.1720   -17.3220 
  220.6250    52.2930   167.0100   156.0410   125.2010    24.4730     2.1770   -17.3520 
  220.7500    55.5480   173.8170   161.1830   119.1750    24.4910     2.1820   -17.3600 
  220.8750    56.5410   181.7140   167.4790   127.5770    24.5580     2.1830   -17.3410 
  221.0000    55.3320   190.1120   174.4330   146.5560    24.6160     2.1790   -17.3120 
  221.1250    54.2640   198.3280   181.5290   159.4660    24.6340     2.1680   -17.2490 
  221.2500    53.2600   205.8200   188.3110   161.6910    24.5890     2.1560   -17.1550 
  221.3750    51.3110   212.1300   194.4200   162.1800    24.4900     2.1460   -17.0060 
  221.5000    49.7660   216.8080   199.4440   166.2900    24.4090     2.1390   -16.8200 
  221.6250    50.9070   218.9570   202.5250   164.8400    24.4070     2.1380   -16.6210 
