~V
VERS. 2.00: Ver 2.00
~W
STRT.M 50.0000:
STOP.M 283.0000:
STEP.M 0.1250:
NULL. -999.2500:
UWI. F10256:
~C
DEPT.M :
DEN.GM/CC :
GR.API :
RML.OHMM :
RI. :
RXO.OHMM :
CALI.CM :
SP.MV :
~A
# ...
  263.7500     2.4330    49.8170    10.5430     9.6540    10.1050    24.5740    -2.6330 
  263.8750     2.4430    52.9700    10.7040     9.8260     9.5020    24.6450    -2.6310 
  264.0000     2.4590    53.0820    10.9100    10.0260     9.2080    24.5850    -2.6590 
  264.1250     2.4780    50.7940    11.1660    10.2630    10.0430    24.5490    -2.7070 
  264.2500     2.4920    48.1070    11.4470    10.5250    11.5390    24.6110    -2.7670 
  264.3750     2.4960    46.5870    11.7350    10.8020    12.8470    24.6780    -2.8410 
  264.5000     2.4890    48.1790    12.0250    11.0850    12.7080    24.6760    -2.9190 
  264.6250     2.4740    50.1050    12.3190    11.3770    12.3390    24.6690    -2.9830 
  264.7500     2.4600    49.3210    12.6240    11.6790    12.4080    24.7450    -3.0430 
  264.8750     2.4520    47.9620    12.9390    11.9930    13.1720    24.7550    -3.0960 
  265.0000     2.4490    48.6450    13.2650    12.3200    14.6830    24.6480    -3.1480 
  265.1250     2.4510    48.5850    13.6000    12.6600    17.1560    24.6050    -3.2180 
  265.2500     2.4570    46.2910    13.9450    13.0110    19.5330    24.6710    -3.2710 
  265.3750     2.4670    44.5860    14.3070    13.3810    21.2820    24.7250    -3.3240 
  265.5000     2.4820    44.6430    14.6950    13.7800    19.8800    24.6700    -3.3780 
  265.6250     2.5000    45.6360    15.1350    14.2330    18.3290    24.6070    -3.4150 
  265.7500     2.5130    46.6750    15.6420    14.7530    17.4750    24.6680    -3.4630 
  265.8750     2.5150    46.2610    16.2210    15.3450    16.9890    24.7030    -3.5150 
  266.0000     2.5030    44.1200    16.8490    15.9910    16.2980    24.6310    -3.5320 
  266.1250     2.4790    41.8580    17.4440    16.6200    16.1930    24.5750    -3.5030 
  266.2500     2.4530    40.8150    17.8990    17.1290    15.9230    24.6470    -3.4740 
  266.3750     2.4300    40.3370    18.1110    17.4150    15.2760    24.7030    -3.4300 
  266.5000     2.4150    40.1680    18.0150    17.4030    13.9890    24.6300    -3.3790 
  266.6250     2.4080    41.1050    17.5750    17.0410    12.6410    24.6080    -3.3470 
  266.7500     2.4070    41.7690    16.9400    16.4690    12.3190    24.7070    -3.2980 
  266.8750     2.4120    42.0010    16.2360    15.8090    12.2800    24.7950    -3.2240 
  267.0000     2.4240    43.0200    15.5840    15.1760    12.5410    24.7480    -3.1500 
  267.1250     2.4420    44.8660    15.0800    14.6590    13.1970    24.6370    -3.0770 
  267.2500     2.4600    46.0240    14.7060    14.2490    14.3840    24.6630    -2.9970 
  267.3750     2.4720    45.0140    14.4210    13.9180    16.0290    24.7300    -2.9060 
  267.5000     2.4770    42.8430    14.1760    13.6310    16.9310    24.7000    -2.8110 
  267.6250     2.4770    42.4760    13.9410    13.3760    16.8040    24.6810    -2.7190 
  267.7500     2.4740    44.3240    13.7400    13.1630    16.3630    24.7170    -2.6220 
  267.8750     2.4720    46.7710    13.6250    13.0320    15.8230    24.8140    -2.5140 
  268.0000     2.4700    47.5320    13.6330    13.0080    14.7480    24.8300    -2.3960 
  268.1250     2.4680    45.9330    13.7500    13.0760    12.4540    24.7250    -2.2960 
  268.2500     2.4660    42.8370    13.8540    13.1380    11.2660    24.6470    -2.2200 
  268.3750     2.4630    40.0700    13.8180    13.0870    11.9650    24.7070    -2.1410 
  268.5000     2.4560    39.0280    13.5400    12.8360    14.0500    24.7890    -2.0320 
  268.6250     2.4480    40.7700    12.9680    12.3260    15.4640    24.7730    -1.9190 
  268.7500     2.4390    44.0110    12.2520    11.6700    13.6100    24.6560    -1.8300 
  268.8750     2.4310    46.5020    11.5420    10.9880    10.9140    24.5830    -1.7650 
  269.0000     2.4190    47.9210    10.9660    10.3890     9.2270    24.6730    -1.7300 
  269.1250     2.4030    48.4130    10.6140     9.9640     8.7420    24.8310    -1.6810 
  269.2500     2.3870    48.2300    10.4170     9.6780     8.5250    24.9200    -1.6290 
  269.3750     2.3740    47.2600    10.3000     9.4820     8.1550    24.8830    -1.5880 
  269.5000     2.3640    46.4030    10.1920     9.3200     7.6810    24.8560    -1.5800 
  269.6250     2.3490    47.1110    10.0440     9.1430     7.5810    24.9560    -1.5570 
  269.7500     2.3280    47.7850     9.8600     8.9400     7.5930    25.1110    -1.5120 
  269.8750     2.3020    48.1320     9.6600     8.7230     7.4090    25.2120    -1.4750 
  270.0000     2.2800    49.0960     9.4690     8.5130     7.0320    25.1940    -1.4470 
  270.1250     2.2710    50.1200     9.3090     8.3340     6.7200    25.1190    -1.4420 
  270.2500     2.2730    49.3050     9.1820     8.1920     6.7950    25.0110    -1.4200 
  270.3750     2.2840    47.0900     9.0880     8.0840     7.1320    24.9590    -1.3870 
  270.5000     2.3020    45.3990     9.0210     8.0020     7.5500    24.9780    -1.3350 
  270.6250     2.3240    44.8680     8.9750     7.9370     7.6350    25.0190    -1.3010 
  270.7500     2.3460    44.5220     8.9420     7.8790     7.3310    24.9590    -1.2780 
  270.8750     2.3650    45.0270     8.9190     7.8250     7.1910    24.8450    -1.2580 
  271.0000     2.3790    46.2290     8.9020     7.7720     7.1430    24.8150    -1.2440 
  271.1250     2.3870    46.0330     8.8800     7.7170     6.9230    24.9180    -1.2420 
  271.2500     2.3890    45.3830     8.8410     7.6480     6.6640    25.0560    -1.2540 
  271.3750     2.3830    45.5370     8.7690     7.5550     6.5390    25.1260    -1.2650 
  271.5000     2.3670    46.1370     8.6570     7.4320     6.5000    25.0970    -1.2800 
  271.6250     2.3390    46.5160     8.5050     7.2760     6.3160    24.9910    -1.3180 
  271.7500     2.3070    46.2530     8.3390     7.1100     6.1310    24.8970    -1.3500 
  271.8750     2.2800    45.7150     8.1890     6.9590     5.9460    24.8010    -1.3720 
  272.0000     2.2650    45.4930     8.0830     6.8470     5.7480    24.7020    -1.3700 
  272.1250     2.2670    45.9040     8.0500     6.7970     5.5540    24.6840    -1.3430 
  272.2500     2.2790    46.3330     8.0700     6.7950     5.3720    24.7940    -1.3230 
  272.3750     2.2990    46.9140     8.1160     6.8190     5.2890    24.9530    -1.3310 
  272.5000     2.3230    48.1510     8.1520     6.8420     5.4280    25.0810    -1.3490 
  272.6250     2.3510    49.0700     8.1370     6.8310     5.8080    25.1650    -1.3320 
  272.7500     2.3760    48.8360     8.0710     6.7810     6.0460    25.1750    -1.3180 
  272.8750     2.3960    48.8360     7.9710     6.7040     5.9540    25.0970    -1.2880 
  273.0000     2.4070    48.8360     7.8650     6.6170     5.8100    24.9640    -1.2650 
  273.1250     2.4030    48.8360     7.7830     6.5480     5.7510    24.9040    -1.2610 
  273.2500     2.3890    48.8360     7.7360     6.5090     5.8040    24.9140    -1.2570 
  273.3750     2.3720    48.8360     7.7240     6.5050     5.9180    24.9640    -1.2300 
  273.5000     2.3580    48.8360     7.7470     6.5340     5.9780    24.9380    -1.2210 
  273.6250     2.3470    48.8360     7.7980     6.5920     6.1550    24.9300    -1.2370 
  273.7500     2.3300    48.8360     7.8610     6.6590     6.3900    25.0370    -1.2510 
  273.8750     2.2960    48.8360     7.9170     6.7180     6.7230    25.1790    -1.2800 
  274.0000     2.2430    48.8360     7.9500     6.7520     7.2560    25.3530    -1.2970 
  274.1250     2.1840    48.8360     7.9440     6.7460     7.5540    25.5410    -1.2810 
  274.2500     2.1400    48.8360     7.9080     6.7100     6.5220    25.5660    -1.2520 
  274.3750     2.1250    48.8360     7.8550     6.6540     5.4720    25.3910    -1.2300 
  274.5000     2.1410    48.8360     7.8010     6.5950     5.0170    25.1630    -1.1710 
  274.6250     2.1860    48.8360     7.7580     6.5450     5.0240    25.1010    -1.1060 
  274.7500     2.2400    48.8360     7.7300     6.5120     5.1610    25.2960    -1.0630 
  274.8750     2.2890    48.8360     7.7190     6.4970     5.2950    25.5600    -1.0040 
