~V
VERS. 2.00: Ver 2.00
~W
STRT.M 30.0000:
STOP.M 271.0000:
STEP.M 0.1250:
NULL. -999.2500:
UWI. F10210:
~C
DEPT.M :
DEN.GM/CC :
GR.API :
RML.OHMM :
RI. :
RXO.OHMM :
CALI.CM :
SP.MV :
~A
# ...
  120.0000     2.4360    77.7650    10.3150     8.4810     8.1650    24.0690    -6.2750 
  120.1250     2.4920    69.2760    13.4790    10.5960    12.1840    24.0710    -6.0600 
  120.2500     2.5320    57.6320    17.4970    13.5270    18.0700    24.0590    -5.8180 
  120.3750     2.5520    47.8260    21.6640    16.8690    22.5550    24.0480    -5.5810 
  120.5000     2.5550    43.8960    25.0380    19.9370    23.7070    24.0580    -5.3730 
  120.6250     2.5500    45.1240    26.7800    21.9390    22.7670    24.0660    -5.2080 
  120.7500     2.5430    47.4380    27.5100    23.0630    21.8750    24.0630    -5.0780 
  120.8750     2.5380    49.6380    28.0290    23.7880    22.0020    24.0530    -4.9950 
  121.0000     2.5380    51.7520    28.8600    24.5220    23.0130    24.0600    -4.9480 
  121.1250     2.5420    52.1010    29.9830    25.3440    24.8800    23.9930    -4.9390 
  121.2500     2.5450    50.3120    30.8530    25.9860    26.8620    23.9740    -4.9790 
  121.3750     2.5470    48.0880    31.0350    26.1730    27.9350    23.9710    -5.0280 
  121.5000     2.5480    47.2090    30.4250    25.8170    26.1690    24.0010    -5.0650 
  121.6250     2.5490    47.6100    29.3120    25.0660    24.4120    24.1360    -5.0980 
  121.7500     2.5500    46.9010    28.2510    24.2920    22.6030    24.2970    -5.1490 
  121.8750     2.5460    45.6560    27.4500    23.6590    21.9310    24.3180    -5.2040 
  122.0000     2.5300    45.9010    26.8870    23.1840    21.6390    24.3170    -5.2680 
  122.1250     2.4940    48.7370    26.4380    22.8100    21.4110    24.3120    -5.3470 
  122.2500     2.4480    51.3110    26.0730    22.5160    19.6290    24.3180    -5.4070 
  122.3750     2.4080    52.3280    25.9230    22.3980    17.7390    24.3230    -5.4710 
  122.5000     2.3860    51.6860    26.1380    22.5720    16.3320    24.3180    -5.5450 
  122.6250     2.3860    50.9330    26.7570    23.0990    16.9160    24.3130    -5.6210 
  122.7500     2.3950    51.6440    27.4330    23.7400    19.1360    24.3170    -5.6740 
  122.8750     2.4000    51.8440    27.7880    24.2140    21.8440    24.3180    -5.7030 
  123.0000     2.3970    49.8610    27.5550    24.2880    22.1780    24.3240    -5.7110 
  123.1250     2.4010    48.2450    26.7480    23.8850    21.2510    24.3240    -5.7110 
  123.2500     2.4240    49.0640    25.8970    23.3390    20.6210    24.3810    -5.6900 
  123.3750     2.4570    50.6420    25.3970    22.9550    20.2760    24.5190    -5.6420 
  123.5000     2.4920    50.0750    25.4020    22.9210    20.8040    24.6060    -5.5660 
  123.6250     2.5170    48.2300    25.7840    23.2450    21.0670    24.8190    -5.4720 
  123.7500     2.5310    46.4290    26.1270    23.6360    19.9470    25.1050    -5.3840 
  123.8750     2.5350    44.8820    26.1770    23.8610    19.9040    25.3450    -5.3050 
  124.0000     2.5340    44.3250    25.8790    23.7940    21.2210    25.4260    -5.2260 
  124.1250     2.5320    44.9500    25.3430    23.4400    21.4250    25.4300    -5.1070 
  124.2500     2.5290    46.7180    24.7930    22.9960    20.8390    25.4160    -4.9770 
  124.3750     2.5270    49.7810    24.3400    22.5860    20.2980    25.4220    -4.8370 
  124.5000     2.5320    53.3290    24.0480    22.2720    19.7830    25.4130    -4.6970 
  124.6250     2.5410    55.3990    23.9610    22.0780    19.7050    25.3430    -4.5500 
  124.7500     2.5440    54.4940    23.9970    21.9600    20.7590    25.2170    -4.3680 
  124.8750     2.5340    51.2530    24.0610    21.8850    22.3490    25.2370    -4.1710 
  125.0000     2.5090    48.2990    24.0700    21.8330    22.4800    25.2170    -4.0020 
  125.1250     2.4800    47.3250    23.9970    21.8260    21.8340    25.0560    -3.8900 
  125.2500     2.4620    47.4480    23.9250    21.8960    20.5590    24.9320    -3.8140 
  125.3750     2.4620    47.8160    23.9480    22.0670    19.7910    24.9050    -3.7750 
  125.5000     2.4770    49.1480    24.1090    22.3270    19.8830    24.9150    -3.7660 
  125.6250     2.4950    49.5830    24.3750    22.6320    20.8320    24.8950    -3.7860 
  125.7500     2.5110    49.1930    24.6300    22.9090    21.6730    24.8020    -3.8580 
  125.8750     2.5220    49.9460    24.7800    23.0820    21.4920    24.6670    -3.9620 
  126.0000     2.5280    53.4800    24.7520    23.0780    20.7110    24.4900    -4.0670 
  126.1250     2.5330    56.6020    24.4820    22.8240    20.7770    24.3480    -4.1480 
  126.2500     2.5400    57.2360    24.0430    22.3940    19.8980    24.3180    -4.2260 
  126.3750     2.5470    56.8290    23.5040    21.8640    19.5280    24.3160    -4.2910 
  126.5000     2.5480    55.7500    22.9280    21.3140    18.3580    24.3290    -4.3310 
  126.6250     2.5460    52.3070    22.3910    20.8260    17.0880    24.4270    -4.3290 
  126.7500     2.5410    47.4980    21.9450    20.4380    17.1000    24.4820    -4.2890 
  126.8750     2.5350    46.2310    21.6260    20.1680    17.7060    24.4830    -4.2250 
  127.0000     2.5310    51.0100    21.4670    20.0390    16.8920    24.4770    -4.1670 
  127.1250     2.5290    56.3550    21.5220    20.0920    16.1220    24.4860    -4.1250 
  127.2500     2.5180    57.5400    21.7290    20.2850    16.7020    24.4920    -4.0670 
  127.3750     2.4830    55.6260    22.0110    20.5600    18.3460    24.4870    -3.9920 
  127.5000     2.4250    53.7930    22.2560    20.8320    18.6290    24.4790    -3.9250 
  127.6250     2.3730    53.0550    22.2770    20.9370    17.8320    24.4990    -3.8790 
  127.7500     2.3440    52.2770    21.9610    20.7530    17.1650    24.5430    -3.8550 
  127.8750     2.3320    51.7850    21.2720    20.2350    15.9490    24.6240    -3.8500 
  128.0000     2.3260    51.4860    20.3150    19.4690    14.6920    24.6410    -3.8470 
  128.1250     2.3300    51.9080    19.3270    18.6510    14.4320    24.6550    -3.8340 
  128.2500     2.3460    52.0230    18.5550    17.9940    14.2880    24.6520    -3.8510 
  128.3750     2.3750    52.1340    18.1290    17.6060    14.1810    24.6630    -3.8960 
  128.5000     2.4070    52.8910    18.0840    17.5260    14.4100    24.6680    -3.9520 
  128.6250     2.4260    53.6930    18.4040    17.7660    15.3070    24.6630    -3.9960 
  128.7500     2.4280    54.2710    18.9060    18.1800    15.9980    24.6700    -4.0300 
  128.8750     2.4240    55.3120    19.4510    18.6560    15.9900    24.7270    -4.0450 
  129.0000     2.4260    56.7580    19.9060    19.0910    15.9010    24.7740    -4.0400 
  129.1250     2.4340    55.5100    20.0980    19.3550    15.9780    25.0070    -4.0140 
  129.2500     2.4320    51.5970    19.9830    19.3780    15.3390    25.3060    -3.9820 
  129.3750     2.4220    48.7270    19.5780    19.1180    14.6870    25.4860    -3.9460 
  129.5000     2.4120    48.0180    18.9730    18.6060    14.5300    25.5090    -3.9130 
  129.6250     2.4090    49.0550    18.3190    17.9430    14.1920    25.5000    -3.9090 
  129.7500     2.4120    50.9660    17.7880    17.3360    13.3860    25.5000    -3.9380 
  129.8750     2.4170    53.4060    17.4710    16.9240    13.1160    25.4980    -3.9810 
  130.0000     2.4170    54.6420    17.3800    16.7600    14.0810    25.5040    -4.0430 
  130.1250     2.4050    54.1020    17.5030    16.8430    15.8340    25.4610    -4.1450 
  130.2500     2.3830    53.0040    17.7430    17.0640    16.3480    25.2780    -4.2750 
  130.3750     2.3660    51.8820    18.0430    17.3620    16.0230    25.0480    -4.4190 
  130.5000     2.3670    51.3960    18.3550    17.6800    15.1440    24.8260    -4.5630 
  130.6250     2.3900    51.1610    18.6680    17.9970    15.3720    24.5660    -4.6900 
  130.7500     2.4140    50.8270    19.0140    18.3470    15.9930    24.2730    -4.8140 
  130.8750     2.4290    50.5250    19.3950    18.7480    16.1220    24.1560    -4.9470 
  131.0000     2.4360    51.1710    19.7340    19.1450    15.7600    24.1490    -5.0830 
  131.1250     2.4360    52.7360    19.7880    19.3210    15.8120    24.1500    -5.2200 
