~V
VERS. 2.00: Ver 2.00
~W
STRT.M 52.0000:
STOP.M 271.0000:
STEP.M 0.1250:
NULL. -999.2500:
UWI. F10212:
~C
DEPT.M :
GR.API :
RML.OHMM :
RI. :
RXO.OHMM :
CALI.CM :
SP.MV :
DEN.GM/CC :
~A
# ...
  164.5000    77.8100    28.4060    26.9880    30.4470    23.8730   -14.0560     2.2410 
  164.6250    77.9630    24.2560    23.2680    25.2690    23.9920   -13.9690     2.2390 
  164.7500    79.7010    20.5500    19.8680    18.8700    24.0520   -13.9130     2.2400 
  164.8750    82.0320    17.8730    17.2860    14.1750    23.9720   -13.8840     2.2460 
  165.0000    83.5290    16.3620    15.6480    12.5940    23.8910   -13.8670     2.2590 
  165.1250    82.5420    15.9830    14.9930    13.2840    23.8630   -13.8950     2.2750 
  165.2500    82.3110    16.2570    14.9890    14.2500    23.8630   -13.9430     2.2860 
  165.3750    83.2000    16.9660    15.4660    14.5980    23.8710   -14.0010     2.2890 
  165.5000    82.9480    18.0350    16.3120    14.9220    23.8820   -14.0810     2.2870 
  165.6250    79.8840    19.7020    17.6210    15.9990    23.8970   -14.1710     2.2870 
  165.7500    77.0850    22.1780    19.5140    17.6310    23.9340   -14.2490     2.2900 
  165.8750    76.2230    25.7010    22.2200    20.1650    24.0290   -14.3080     2.2910 
  166.0000    74.5890    30.3300    25.9000    24.9470    24.2370   -14.3740     2.2890 
  166.1250    71.2190    35.8870    30.5870    33.1670    24.4220   -14.4530     2.2840 
  166.2500    68.6400    41.5790    35.6010    39.9870    24.5060   -14.5540     2.2740 
  166.3750    67.1110    46.7460    40.2460    43.0860    24.5070   -14.6770     2.2610 
  166.5000    66.5600    50.9470    43.9680    46.0330    24.4960   -14.8070     2.2450 
  166.6250    66.7830    53.9970    46.4920    49.2640    24.4940   -14.8880     2.2350 
  166.7500    68.3090    56.3720    48.3240    49.8840    24.5130   -14.9170     2.2300 
  166.8750    70.1890    58.3280    49.8180    49.8390    24.5330   -14.9460     2.2280 
  167.0000    69.1500    59.9580    51.1770    51.5190    24.5210   -15.0210     2.2260 
  167.1250    65.7090    61.2240    52.5030    55.6510    24.4940   -15.1260     2.2300 
  167.2500    64.2760    62.1950    53.8590    58.3370    24.4930   -15.2160     2.2350 
  167.3750    64.4540    62.8450    55.2090    56.2650    24.5060   -15.2790     2.2400 
  167.5000    64.4360    63.0900    56.4150    51.9840    24.5090   -15.3010     2.2430 
  167.6250    63.6870    62.7510    57.2070    49.6990    24.5180   -15.3150     2.2450 
  167.7500    66.1190    61.7430    57.3660    48.4350    24.5250   -15.3660     2.2460 
  167.8750    70.9650    59.6980    56.4430    45.2330    24.5070   -15.4530     2.2470 
  168.0000    73.7690    56.0980    53.8110    43.2310    24.4850   -15.5460     2.2500 
  168.1250    72.4470    50.3430    48.7090    44.1240    24.4330   -15.6550     2.2600 
  168.2500    69.8170    43.2650    42.0430    47.1340    24.2710   -15.8230     2.2730 
  168.3750    69.1880    36.0170    35.0970    44.5160    24.0120   -16.0320     2.2880 
  168.5000    71.6750    29.8530    29.1800    30.5020    23.8520   -16.2960     2.3030 
  168.6250    76.9700    25.9560    25.3350    18.2680    23.8960   -16.6150     2.3200 
  168.7500    81.6990    24.1540    23.3150    13.9740    23.9270   -16.9680     2.3370 
  168.8750    80.1790    24.2450    22.9330    13.6660    23.8890   -17.3480     2.3490 
  169.0000    74.0750    25.9880    24.0430    16.0150    23.7980   -17.7790     2.3530 
  169.1250    71.6630    29.4130    26.7980    21.2040    23.7790   -18.2600     2.3500 
  169.2500    74.1120    34.1970    30.9390    29.5770    23.7890   -18.7410     2.3450 
  169.3750    75.8060    40.4710    36.5510    43.9570    23.7610   -19.2210     2.3400 
  169.5000    72.5250    48.5470    43.9080    64.1350    23.7300   -19.6780     2.3390 
  169.6250    67.6790    58.9900    53.6630    87.7100    23.7170   -20.1140     2.3330 
  169.7500    64.8670    70.9270    65.1090    97.0220    23.7070   -20.5630     2.3170 
  169.8750    64.0410    82.7220    76.7370    99.0120    23.7110   -21.0110     2.2940 
  170.0000    63.8300    91.8740    86.0340   102.9220    23.7440   -21.4170     2.2750 
  170.1250    62.8710    95.6540    90.0080   100.7410    23.8140   -21.7600     2.2660 
  170.2500    62.1650    95.8380    90.0570    91.3980    23.9130   -22.0700     2.2640 
  170.3750    63.2640    95.1860    88.7800    78.8810    24.0600   -22.3800     2.2680 
  170.5000    65.8070    95.9520    88.5140    75.2210    24.2700   -22.7230     2.2750 
  170.6250    67.6560    99.3030    90.6820    81.1030    24.4600   -23.0990     2.2770 
  170.7500    68.3340   104.3520    94.7220    91.9820    24.6190   -23.4830     2.2750 
  170.8750    67.9930   110.0500    99.8060   106.9620    24.7060   -23.8720     2.2710 
  171.0000    67.1420   115.2060   104.8560   112.0800    24.6960   -24.2680     2.2680 
  171.1250    65.8120   118.6900   108.7110   104.3420    24.6460   -24.6570     2.2630 
  171.2500    63.9660   120.8030   111.3240    97.3860    24.6150   -25.0430     2.2560 
  171.3750    61.9790   122.3270   113.2200    95.2480    24.6260   -25.4150     2.2490 
  171.5000    60.3400   124.2660   115.2370    98.8560    24.6620   -25.7690     2.2460 
  171.6250    59.9760   128.0330   118.6370   104.5470    24.7260   -26.1200     2.2430 
  171.7500    59.0360   134.5660   124.3990   115.1200    24.8080   -26.4560     2.2370 
  171.8750    57.9690   145.0700   133.7320   123.4440    24.9330   -26.7460     2.2310 
  172.0000    58.4360   160.8260   147.9590   120.3680    25.1060   -26.9840     2.2250 
  172.1250    59.0990   183.7400   168.9740   135.1000    25.2430   -27.1830     2.2180 
  172.2500    57.2780   211.6520   194.7870   177.8870    25.3530   -27.3440     2.2060 
  172.3750    54.5260   240.1370   221.5850   227.2840    25.4940   -27.4670     2.1930 
  172.5000    54.8300   261.4940   243.0350   249.6840    25.5730   -27.5700     2.1800 
  172.6250    56.5920   265.6310   250.5140   242.8990    25.5150   -27.6730     2.1640 
  172.7500    56.2810   255.8750   245.3060   221.9450    25.3980   -27.7560     2.1480 
  172.8750    55.5860   239.9980   232.8480   190.1690    25.3620   -27.8150     2.1390 
  173.0000    57.2910   225.6720   220.0530   164.9200    25.4010   -27.8620     2.1440 
  173.1250    59.6310   217.6170   212.3640   159.2200    25.3730   -27.9270     2.1560 
  173.2500    60.5690   214.2280   209.4400   162.7460    25.1020   -28.0550     2.1670 
  173.3750    60.0490   212.4590   208.8300   179.8370    24.8100   -28.2290     2.1780 
  173.5000    59.0730   208.6730   207.0880   205.5960    24.6650   -28.4000     2.1910 
  173.6250    60.6530   200.0880   201.0230   203.0960    24.5800   -28.4900     2.2040 
  173.7500    64.8410   189.1350   192.0180   177.1570    24.4910   -28.5430     2.2130 
  173.8750    69.1460   179.5000   183.2060   157.3060    24.4420   -28.6060     2.2230 
  174.0000    72.5740   174.6620   178.1950   137.1660    24.4080   -28.7050     2.2350 
  174.1250    75.7940   178.1610   181.1240   127.4450    24.3310   -28.8410     2.2420 
  174.2500    75.6670   201.9800   191.9200   141.1060    24.2740   -28.9730     2.2440 
  174.3750    70.0590   233.6380   209.4800   183.6680    24.3440   -29.1110     2.2410 
  174.5000    62.6750   256.9150   230.7080   248.8780    24.4340   -29.2600     2.2310 
  174.6250    58.6850   276.0570   249.3710   276.1220    24.4630   -29.4310     2.2090 
  174.7500    57.5560   283.4070   259.0330   257.2980    24.4720   -29.5780     2.1840 
  174.8750    57.0720   274.6130   255.4900   226.1880    24.4280   -29.7100     2.1660 
  175.0000    57.7310   251.5740   238.9620   205.0350    24.3540   -29.8340     2.1550 
  175.1250    59.0150   222.0290   214.3330   202.0910    24.2950   -29.9580     2.1540 
  175.2500    59.1300   195.7940   190.6200   173.0660    24.1720   -30.0870     2.1610 
  175.3750    56.7620   177.0850   172.6510   139.9160    23.9370   -30.2170     2.1760 
  175.5000    54.5000   167.0930   162.5540   110.4090    23.6850   -30.3400     2.1990 
  175.6250    55.1040   166.2240   161.5340   103.9280    23.6820   -30.4490     2.2210 
