~V
VERS. 2.00: Ver 2.00
~W
STRT.M 56.0000:
STOP.M 281.0000:
STEP.M 0.1250:
NULL. -999.2500:
UWI. F10232:
~C
DEPT.M :
SP.MV :
GR.API :
RML.OHMM :
RI. :
RXO.OHMM :
CALI.CM :
DEN.GM/CC :
~A
# ...
   89.7500   -21.2650    50.4240     9.3280     7.3460     8.2200    25.2560     2.1720 
   89.8750   -21.2070    53.5200     9.3070     7.3240     8.2590    25.3120     2.1720 
   90.0000   -21.1730    55.3170     9.2930     7.3020     8.2850    25.2800     2.1750 
   90.1250   -21.1630    54.2350     9.2940     7.2850     8.3530    25.2390     2.1760 
   90.2500   -21.1790    51.2090     9.3070     7.2740     8.3590    25.2660     2.1710 
   90.3750   -21.1990    49.6290     9.3260     7.2660     8.2730    25.3690     2.1600 
   90.5000   -21.2050    50.3770     9.3410     7.2570     8.1290    25.4210     2.1470 
   90.6250   -21.2080    52.3610     9.3490     7.2470     8.0430    25.3300     2.1410 
   90.7500   -21.2020    53.8060     9.3510     7.2380     8.0170    25.1060     2.1430 
   90.8750   -21.1720    53.2130     9.3530     7.2350     7.9070    24.8300     2.1530 
   91.0000   -21.1060    51.5870     9.3580     7.2390     7.7660    24.5670     2.1640 
   91.1250   -21.0100    49.9000     9.3660     7.2480     7.6650    24.3660     2.1730 
   91.2500   -20.8900    47.6400     9.3780     7.2570     7.6840    24.2780     2.1800 
   91.3750   -20.7780    45.8010     9.3920     7.2620     7.7570    24.3230     2.1840 
   91.5000   -20.6670    47.0030     9.4080     7.2620     7.7680    24.3700     2.1830 
   91.6250   -20.5450    49.6180     9.4260     7.2620     7.7530    24.3150     2.1760 
   91.7500   -20.4050    49.5210     9.4480     7.2680     7.6750    24.1380     2.1620 
   91.8750   -20.2650    47.9090     9.4740     7.2820     7.5650    23.8700     2.1450 
   92.0000   -20.1290    49.5130     9.4970     7.3010     7.5300    23.5780     2.1360 
   92.1250   -19.9840    52.6530     9.5090     7.3180     7.5940    23.2590     2.1420 
   92.2500   -19.8340    54.1730     9.5060     7.3280     7.6840    22.9420     2.1620 
   92.3750   -19.6690    54.4160     9.4880     7.3260     7.7810    22.7550     2.1870 
   92.5000   -19.5220    53.8180     9.4640     7.3130     7.9460    22.7870     2.2020 
   92.6250   -19.4010    52.3290     9.4400     7.2950     8.0780    23.0930     2.1990 
   92.7500   -19.3050    50.5120     9.4180     7.2750     8.0390    23.6540     2.1850 
   92.8750   -19.2300    49.0990     9.3940     7.2580     7.9910    24.3250     2.1720 
   93.0000   -19.1420    48.9940     9.3640     7.2470     8.1160    24.8730     2.1700 
   93.1250   -19.0340    50.9290     9.3320     7.2440     8.3950    25.2390     2.1790 
   93.2500   -18.8960    53.8160     9.3090     7.2540     8.5650    25.5080     2.1930 
   93.3750   -18.6750    53.3520     9.3250     7.2910     8.4420    25.7460     2.1970 
   93.5000   -18.3640    50.0040     9.3980     7.3640     8.3000    25.9220     2.1910 
   93.6250   -17.9760    48.4760     9.5340     7.4760     8.3370    25.9480     2.1780 
   93.7500   -17.5300    51.9450     9.7080     7.6190     8.5260    25.7710     2.1700 
   93.8750   -17.0220    56.1860     9.8520     7.7550     8.7740    25.3450     2.1710 
   94.0000   -16.4570    55.9490     9.8840     7.8270     9.0270    24.8000     2.1770 
   94.1250   -15.8190    53.4130     9.7410     7.7840     9.1680    24.3370     2.1830 
   94.2500   -15.0930    53.4150     9.4060     7.5960     8.9950    24.0770     2.1850 
   94.3750   -14.3250    56.4960     8.9020     7.2570     8.4200    23.9150     2.1840 
   94.5000   -13.5500    58.9250     8.3520     6.8480     7.7520    23.7040     2.1900 
   94.6250   -12.7990    60.3710     7.8490     6.4410     7.0350    23.4520     2.2050 
   94.7500   -12.0890    63.2570     7.4690     6.1010     6.4180    23.2450     2.2300 
   94.8750   -11.4100    70.8770     7.2630     5.8810     6.0850    23.1630     2.2590 
   95.0000   -10.7880    77.9090     7.1740     5.7580     5.9190    23.1490     2.2820 
   95.1250   -10.2460    78.4380     7.1410     5.6970     5.8050    23.1940     2.2950 
   95.2500    -9.7990    73.6090     7.1040     5.6580     5.7610    23.2980     2.2950 
   95.3750    -9.4400    71.3050     7.0170     5.6040     5.7400    23.4690     2.2860 
   95.5000    -9.1640    72.3570     6.8960     5.5310     5.6170    23.6740     2.2750 
   95.6250    -8.9660    73.2500     6.7870     5.4640     5.4960    23.8610     2.2710 
   95.7500    -8.8280    73.5290     6.7460     5.4380     5.4680    23.9670     2.2730 
   95.8750    -8.7670    73.0920     6.8270     5.4930     5.5460    23.9740     2.2780 
   96.0000    -8.7530    71.6740     6.9990     5.6170     5.6760    23.9300     2.2790 
   96.1250    -8.7570    70.3740     7.2100     5.7800     5.8470    23.8620     2.2750 
   96.2500    -8.7640    70.7970     7.3920     5.9310     5.9810    23.7760     2.2670 
   96.3750    -8.7820    71.9860     7.4720     6.0110     5.9930    23.6700     2.2620 
   96.5000    -8.8000    71.3270     7.4490     6.0020     5.8250    23.5720     2.2650 
   96.6250    -8.8260    72.0960     7.3520     5.9150     5.5980    23.4960     2.2750 
   96.7500    -8.8550    76.0880     7.2270     5.7790     5.4290    23.3840     2.2900 
   96.8750    -8.8740    78.2500     7.1370     5.6340     5.4090    23.2330     2.3050 
   97.0000    -8.9110    74.6620     7.1160     5.5240     5.5010    23.1170     2.3150 
   97.1250    -9.0150    67.8630     7.1820     5.4740     5.6590    23.0740     2.3140 
   97.2500    -9.2180    64.5480     7.3550     5.5110     5.9320    23.0830     2.3010 
   97.3750    -9.4940    65.0300     7.7300     5.7100     6.3160    23.1190     2.2770 
   97.5000    -9.7910    64.9110     8.4190     6.1380     6.8050    23.1710     2.2550 
   97.6250   -10.0770    62.9640     9.6130     6.9140     7.4550    23.2400     2.2530 
   97.7500   -10.3560    59.4920    11.5080     8.1770     8.7030    23.3290     2.2870 
   97.8750   -10.6650    55.8270    14.2780    10.1130    11.6480    23.4920     2.3690 
   98.0000   -11.0110    53.6110    17.4560    12.4770    16.5010    23.7370     2.4740 
   98.1250   -11.3970    53.6920    20.3320    14.8350    23.0580    24.0200     2.5750 
   98.2500   -11.8060    55.4340    22.0170    16.5360    29.8820    24.2540     2.6360 
   98.3750   -12.2780    59.0160    21.4520    16.6650    33.5900    24.3470     2.6220 
   98.5000   -12.8180    62.4560    19.0790    15.3100    33.1220    24.3850     2.5490 
   98.6250   -13.4050    61.7650    15.8430    13.0700    28.8960    24.4370     2.4480 
   98.7500   -14.0120    56.7130    12.8390    10.7750    20.4090    24.5100     2.3450 
   98.8750   -14.5920    53.2380    10.8530     9.0690    13.1850    24.5810     2.2640 
   99.0000   -15.1050    52.9510     9.7470     7.9680     9.7690    24.6160     2.2080 
   99.1250   -15.5020    53.0380     9.2860     7.3720     8.7200    24.5840     2.1760 
   99.2500   -15.7880    52.3790     9.2150     7.1420     8.3610    24.4710     2.1620 
   99.3750   -15.9230    52.9280     9.3320     7.1650     8.1000    24.2650     2.1620 
   99.5000   -15.9310    55.4310     9.4690     7.2850     7.8640    23.9960     2.1680 
   99.6250   -15.8190    58.5640     9.5790     7.4330     7.7090    23.7170     2.1770 
   99.7500   -15.5870    59.3280     9.6500     7.5680     7.6770    23.5190     2.1880 
   99.8750   -15.2180    56.6430     9.6620     7.6480     7.8240    23.5610     2.1970 
  100.0000   -14.7220    55.8010     9.5880     7.6440     7.9420    23.8130     2.2070 
  100.1250   -14.1250    58.2710     9.3880     7.5270     7.9920    24.1970     2.2140 
  100.2500   -13.4350    60.3510     9.0430     7.2860     7.8470    24.5550     2.2170 
  100.3750   -12.6820    61.1920     8.5620     6.9250     7.4770    24.7540     2.2180 
  100.5000   -11.9170    63.1340     8.0410     6.5210     6.9790    24.8030     2.2200 
  100.6250   -11.1720    65.4130     7.5680     6.1370     6.4830    24.7380     2.2300 
  100.7500   -10.4830    66.2140     7.2090     5.8290     6.1690    24.5800     2.2490 
  100.8750    -9.8900    65.9020     7.0200     5.6460     6.0050    24.3810     2.2710 
