~V
VERS. 2.00: Ver 2.00
~W
STRT.M 58.0000:
STOP.M 273.0000:
STEP.M 0.1250:
NULL. -999.2500:
UWI. F10226:
~C
DEPT.M :
SP.MV :
DEN.GM/CC :
GR.API :
RML.OHMM :
RI. :
RXO.OHMM :
CALI.CM :
~A
# ...
  103.0000   -24.5730     2.2430    84.1270    11.3830     9.5370    11.2190    24.0860 
  103.1250   -24.4180     2.2140    84.5790    11.4190     9.4560    11.7430    24.0770 
  103.2500   -24.3570     2.1840    85.1580    11.6770     9.5530    12.6040    24.1110 
  103.3750   -24.4160     2.1650    84.9350    12.1000     9.8170    13.3510    24.1600 
  103.5000   -24.5650     2.1530    81.6370    12.5360    10.1460    14.7990    24.2350 
  103.6250   -24.7780     2.1440    77.1970    12.8720    10.4580    15.9470    24.3250 
  103.7500   -24.9890     2.1350    75.5530    13.0830    10.7080    16.4300    24.4220 
  103.8750   -25.1740     2.1370    76.0320    13.2970    10.9510    16.5480    24.5250 
  104.0000   -25.3100     2.1620    74.5290    13.7420    11.3230    16.5150    24.6220 
  104.1250   -25.3860     2.2110    71.2290    14.5810    11.9460    16.2930    24.7330 
  104.2500   -25.4130     2.2620    68.1030    15.8100    12.8620    15.8770    24.7930 
  104.3750   -25.3980     2.2830    65.3520    17.1470    13.9390    15.5170    24.6910 
  104.5000   -25.3710     2.2660    63.7390    18.0660    14.8020    15.2650    24.5600 
  104.6250   -25.3610     2.2220    64.8530    18.1710    15.0950    15.2120    24.4450 
  104.7500   -25.3930     2.1750    67.5990    17.3900    14.6790    15.1830    24.2570 
  104.8750   -25.4790     2.1490    67.4290    16.0180    13.7020    15.1780    24.0420 
  105.0000   -25.6030     2.1450    65.8760    14.6310    12.6020    15.1750    23.8750 
  105.1250   -25.7680     2.1540    66.9280    13.5260    11.6340    14.9270    23.8120 
  105.2500   -25.9890     2.1680    70.9390    12.7890    10.9080    14.4780    23.8480 
  105.3750   -26.2770     2.1790    73.4620    12.3930    10.4580    13.8930    24.0300 
  105.5000   -26.6260     2.1840    71.9700    12.1900    10.2000    13.2660    24.2900 
  105.6250   -27.0340     2.1830    70.1690    12.1240    10.0830    13.1280    24.5460 
  105.7500   -27.4890     2.1780    69.7320    12.1890    10.0890    13.2840    24.7170 
  105.8750   -27.9360     2.1730    69.7760    12.3930    10.2100    14.2240    24.7670 
  106.0000   -28.3570     2.1660    70.2940    12.6520    10.3870    14.8290    24.7280 
  106.1250   -28.7320     2.1540    70.6440    12.8630    10.5470    15.3190    24.6860 
  106.2500   -29.0180     2.1410    70.6320    12.9230    10.6110    15.8170    24.6720 
  106.3750   -29.1540     2.1320    69.7180    12.7500    10.4970    16.0490    24.6880 
  106.5000   -29.1730     2.1320    69.3440    12.4150    10.2410    15.8550    24.7520 
  106.6250   -29.1090     2.1400    70.1010    12.0240     9.9140    15.0690    24.8350 
  106.7500   -28.9670     2.1550    71.0260    11.6980     9.6050    14.0650    24.8770 
  106.8750   -28.7660     2.1660    71.2380    11.5860     9.4360    13.7220    24.8490 
  107.0000   -28.5340     2.1690    69.1060    11.7350     9.4520    13.4850    24.8710 
  107.1250   -28.2910     2.1630    65.4260    12.1390     9.6670    13.6520    25.1200 
  107.2500   -28.0580     2.1550    63.4920    12.7210    10.0370    14.0530    25.6420 
  107.3750   -27.8750     2.1500    64.8970    13.3130    10.4600    14.5320    26.2070 
  107.5000   -27.7100     2.1510    67.4000    13.7110    10.7810    14.9430    26.3500 
  107.6250   -27.5470     2.1570    68.0250    13.7970    10.8960    14.6360    26.0640 
  107.7500   -27.3810     2.1630    65.8590    13.5760    10.7840    13.6410    25.4980 
  107.8750   -27.2190     2.1690    61.9940    13.1600    10.4970    13.1600    25.0200 
  108.0000   -27.0880     2.1740    58.9780    12.7560    10.1750    12.8550    24.7700 
  108.1250   -26.9900     2.1770    57.8910    12.4800     9.9080    12.6430    24.7130 
  108.2500   -26.9100     2.1790    59.2140    12.3740     9.7400    12.8390    24.7390 
  108.3750   -26.8210     2.1750    62.9390    12.4300     9.6850    13.4200    24.7590 
  108.5000   -26.7340     2.1660    66.9790    12.5700     9.7020    13.6700    24.7550 
  108.6250   -26.6260     2.1500    69.1490    12.7460     9.7600    13.3930    24.7280 
  108.7500   -26.4940     2.1330    68.8560    12.9240     9.8340    13.2590    24.7310 
  108.8750   -26.3260     2.1260    66.8970    13.0700     9.8930    13.2290    24.8330 
  109.0000   -26.0900     2.1320    65.8530    13.1390     9.9050    13.0900    25.0220 
  109.1250   -25.7600     2.1510    67.6680    13.0710     9.8310    12.8510    25.2390 
  109.2500   -25.3270     2.1720    70.6620    12.8040     9.6280    12.4570    25.4190 
  109.3750   -24.7860     2.1810    71.2290    12.3130     9.2760    12.3740    25.3740 
  109.5000   -24.1450     2.1760    71.3980    11.7410     8.8650    12.1640    25.1220 
  109.6250   -23.4200     2.1690    74.4460    11.2670     8.5070    12.1880    24.7700 
  109.7500   -22.6450     2.1700    78.6320    11.0590     8.3110    12.6610    24.4130 
  109.8750   -21.8530     2.1770    78.8860    11.2760     8.3880    12.8050    24.3030 
  110.0000   -21.0540     2.1700    74.8020    11.8410     8.7130    13.2050    24.4480 
  110.1250   -20.2370     2.1300    69.2640    12.6160     9.2260    14.0470    24.6930 
  110.2500   -19.4020     2.0640    65.6000    13.3750     9.7960    15.1330    24.8240 
  110.3750   -18.5270     2.0040    66.7050    13.7680    10.1840    15.3810    25.2020 
  110.5000   -17.5980     1.9840    69.6830    13.6200    10.2140    14.0400    26.0900 
  110.6250   -16.6050     2.0150    71.0880    12.9090     9.8130    12.9090    27.0840 
  110.7500   -15.5170     2.0800    71.7150    11.7610     9.0400    11.0170    27.3430 
  110.8750   -14.3310     2.1470    77.8430    10.4120     8.0560     9.0490    26.2010 
  111.0000   -13.1300     2.1930    89.1000     9.1690     7.1040     7.5120    24.7760 
  111.1250   -11.9800     2.2140    98.0710     8.2270     6.3370     6.7310    23.8970 
  111.2500   -10.9290     2.2140   101.1090     7.6880     5.8360     6.1370    23.5370 
  111.3750   -10.0410     2.2110   102.2720     7.5900     5.6430     5.8900    23.4560 
  111.5000    -9.3130     2.2180   103.8750     7.7310     5.6520     6.0230    23.4680 
  111.6250    -8.7570     2.2420   103.2540     7.9070     5.7450     6.3380    23.5330 
  111.7500    -8.3890     2.2750   102.5700     7.9340     5.8010     6.1970    23.6340 
  111.8750    -8.2030     2.3040   105.7000     7.7010     5.7180     5.7100    23.6880 
  112.0000    -8.1230     2.3180   111.0240     7.3290     5.5320     5.1700    23.6720 
  112.1250    -8.1110     2.3170   116.0910     6.9680     5.3270     4.9460    23.6270 
  112.2500    -8.1270     2.3110   119.2230     6.7430     5.1780     4.9380    23.6300 
  112.3750    -8.1500     2.3140   117.7010     6.7430     5.1590     4.8610    23.6880 
  112.5000    -8.1790     2.3260   113.7720     6.9220     5.2580     4.8900    23.7480 
  112.6250    -8.2120     2.3430   111.0920     7.2100     5.4430     5.1110    23.7710 
  112.7500    -8.2320     2.3560   108.8510     7.5050     5.6480     5.5990    23.7500 
  112.8750    -8.2250     2.3600   105.0660     7.6620     5.7740     5.8790    23.6130 
  113.0000    -8.1650     2.3530   103.7170     7.6200     5.7630     5.9750    23.5000 
  113.1250    -8.0630     2.3340   105.5300     7.3790     5.6050     5.8800    23.4920 
  113.2500    -7.9380     2.3030   107.7850     7.0070     5.3410     5.3870    23.6150 
  113.3750    -7.8110     2.2720   106.9710     6.6360     5.0560     4.9480    23.8500 
  113.5000    -7.6960     2.2530   105.7720     6.3760     4.8370     4.7670    23.9760 
  113.6250    -7.5940     2.2550   106.4220     6.2860     4.7300     4.7470    24.0240 
  113.7500    -7.5190     2.2730   110.0400     6.3730     4.7490     4.7340    24.0570 
  113.8750    -7.4810     2.2970   114.4630     6.6110     4.8940     4.7280    24.1220 
  114.0000    -7.4990     2.3120   117.9350     6.8870     5.1000     4.8720    24.1890 
  114.1250    -7.5640     2.3130   119.2700     7.1060     5.3030     5.2220    24.2130 
