~V
VERS. 2.00: Ver 2.00
~W
STRT.M 54.0000:
STOP.M 277.0000:
STEP.M 0.1250:
NULL. -999.2500:
UWI. F10247:
~C
DEPT.M :
GR.API :
RML.OHMM :
RI. :
RXO.OHMM :
CALI.CM :
DEN.GM/CC :
SP.MV :
~A
# ...
  121.5000    75.0910     8.6640     6.6230     8.2350    23.5470     2.2270   -20.3920 
  121.6250    78.7190     8.2750     6.2780     7.0950    23.8140     2.2520   -19.9440 
  121.7500    80.1630     8.1860     6.1490     7.4420    23.9350     2.2600   -19.5660 
  121.8750    81.6470     8.2580     6.1690     8.5050    23.9220     2.2600   -19.2220 
  122.0000    83.4420     8.3510     6.2530     8.9690    23.9300     2.2560   -18.9010 
  122.1250    84.5880     8.3350     6.3020     8.1870    23.9830     2.2460   -18.6160 
  122.2500    84.9710     8.1740     6.2480     7.3620    24.1120     2.2310   -18.3980 
  122.3750    84.7650     8.0090     6.1550     7.1160    24.3240     2.2270   -18.2410 
  122.5000    83.4370     7.9340     6.0930     7.2510    24.5460     2.2480   -18.0800 
  122.6250    83.6510     7.9380     6.0820     7.2710    24.6370     2.3020   -17.9220 
  122.7500    87.1090     7.8750     6.0550     7.2390    24.7120     2.3750   -17.7530 
  122.8750    88.1800     7.6030     5.9110     8.4360    24.7740     2.4330   -17.6550 
  123.0000    83.7240     7.0710     5.5910    10.0000    24.8600     2.4550   -17.6250 
  123.1250    77.5380     6.3860     5.1280     7.3060    25.0130     2.4430   -17.6980 
  123.2500    78.2740     5.8160     4.6670     5.5460    25.0960     2.4150   -17.8670 
  123.3750    82.7300     5.5530     4.3660     5.1480    24.7980     2.3880   -18.1300 
  123.5000    84.9690     5.6900     4.3190     5.2520    24.5950     2.3610   -18.5160 
  123.6250    84.2510     6.2670     4.5780     5.2130    24.4890     2.3300   -19.0310 
  123.7500    79.4320     7.3080     5.2000     6.7290    24.3260     2.2930   -19.6600 
  123.8750    72.6100     8.5530     6.0460     9.6810    24.1020     2.2540   -20.3230 
  124.0000    67.0350     9.7240     6.9510    11.1960    23.9140     2.2150   -20.9810 
  124.1250    63.8640    10.5580     7.7210    10.7650    23.7990     2.1790   -21.5850 
  124.2500    61.1420    10.8670     8.1680    10.1290    23.6650     2.1530   -22.0950 
  124.3750    59.0390    10.8370     8.3380    10.2040    23.6030     2.1400   -22.5130 
  124.5000    59.8730    10.6820     8.3410    10.1440    23.5720     2.1410   -22.8080 
  124.6250    61.4400    10.5820     8.2970     9.9960    23.5030     2.1500   -22.9840 
  124.7500    60.8260    10.6220     8.2820     9.8950    23.3750     2.1540   -23.0150 
  124.8750    60.3970    10.7400     8.2920    10.0830    23.3410     2.1510   -22.9610 
  125.0000    60.1980    10.8750     8.3070    10.5690    23.4450     2.1440   -22.8610 
  125.1250    58.7510    10.9680     8.3110    10.9420    23.4920     2.1390   -22.7240 
  125.2500    58.8280    10.9690     8.2860    10.9740    23.4130     2.1430   -22.5830 
  125.3750    61.7950    10.8920     8.2360    10.8560    23.3710     2.1510   -22.4200 
  125.5000    64.5100    10.7780     8.1760    10.6900    23.4190     2.1620   -22.2800 
  125.6250    63.5640    10.6820     8.1300    10.6980    23.3610     2.1720   -22.1340 
  125.7500    61.6770    10.6580     8.1220    11.1440    23.0390     2.1790   -22.0430 
  125.8750    61.2150    10.6930     8.1490    11.7570    22.7120     2.1790   -21.9730 
  126.0000    59.3000    10.7620     8.2070    12.0950    22.5680     2.1710   -21.9400 
  126.1250    55.8910    10.8300     8.2830    12.2400    22.4980     2.1580   -21.9290 
  126.2500    56.4800    10.8590     8.3600    12.0270    22.3720     2.1450   -21.9170 
  126.3750    61.3720    10.8650     8.4220    11.6930    22.4500     2.1370   -21.8900 
  126.5000    64.0260    10.8740     8.4540    11.4740    22.8240     2.1350   -21.8130 
  126.6250    61.9850    10.8860     8.4360    11.4600    23.2890     2.1370   -21.6930 
  126.7500    61.0200    10.8650     8.3410    11.4820    23.5310     2.1390   -21.4980 
  126.8750    62.7690    10.8090     8.2010    11.4670    23.6320     2.1400   -21.2180 
  127.0000    62.4540    10.7900     8.0810    11.7180    23.6770     2.1460   -20.8600 
  127.1250    58.8100    10.9570     8.0860    11.9410    23.6900     2.1670   -20.4260 
  127.2500    55.9570    11.6160     8.4000    11.7550    23.7650     2.2150   -19.9330 
  127.3750    55.5250    12.9190     9.1190    11.9390    23.8960     2.2860   -19.3860 
  127.5000    57.0360    14.9820    10.3530    14.2590    24.0570     2.3680   -18.8070 
  127.6250    59.7760    17.8430    12.1840    19.4610    24.2120     2.4450   -18.2180 
  127.7500    61.3770    21.5370    14.7350    24.6230    24.3360     2.5050   -17.6340 
  127.8750    59.5940    25.6260    17.7600    26.0910    24.3880     2.5540   -17.1210 
  128.0000    54.5940    29.5170    20.8970    25.0610    24.3760     2.5980   -16.6480 
  128.1250    48.7790    32.3930    23.5660    25.6800    24.3400     2.6300   -16.2670 
  128.2500    44.7470    33.1720    24.9120    29.0830    24.3400     2.6380   -15.9590 
  128.3750    43.3910    32.0430    24.8480    33.4190    24.3810     2.6200   -15.7560 
  128.5000    43.7110    29.6470    23.6660    30.2490    24.4210     2.5890   -15.6290 
  128.6250    44.2090    26.9370    21.9810    23.0990    24.4290     2.5530   -15.5800 
  128.7500    44.5930    24.8320    20.4620    18.7530    24.3850     2.5250   -15.5800 
  128.8750    44.9020    23.5360    19.3930    17.1750    24.3340     2.5070   -15.6140 
  129.0000    45.8840    22.9400    18.7770    17.5230    24.2700     2.5000   -15.6760 
  129.1250    47.3620    22.7400    18.4690    18.6340    24.1650     2.5030   -15.7530 
  129.2500    47.5270    22.4830    18.1990    18.7220    24.0080     2.5100   -15.8460 
  129.3750    46.7610    21.7950    17.6860    16.8630    23.8640     2.5130   -15.9250 
  129.5000    46.5670    20.5440    16.7970    15.7210    23.7950     2.5050   -15.9850 
  129.6250    47.7880    18.8540    15.5790    15.5200    23.7730     2.4850   -16.0170 
  129.7500    49.7600    17.1220    14.2770    15.0200    23.6880     2.4580   -16.0090 
  129.8750    52.0360    15.8790    13.2490    13.5680    23.4740     2.4390   -15.9730 
  130.0000    54.1290    15.6090    12.8040    11.8900    23.2640     2.4400   -15.9040 
  130.1250    54.4840    16.7270    13.2200    11.5780    23.3020     2.4670   -15.8000 
  130.2500    52.7730    19.7230    14.9320    14.9980    23.5820     2.5180   -15.6540 
  130.3750    49.9330    24.0990    17.8390    19.9380    23.7760     2.5700   -15.4960 
  130.5000    48.1110    29.0460    21.6310    27.3500    23.8850     2.6060   -15.3420 
  130.6250    47.4110    33.1570    25.4000    34.7650    23.9410     2.6230   -15.2040 
  130.7500    46.6440    34.5420    27.4820    32.3810    23.9330     2.6240   -15.0990 
  130.8750    45.9710    33.5220    27.5640    26.2190    23.9050     2.6210   -15.0030 
  131.0000    46.3530    31.2530    26.3050    23.9680    23.9080     2.6150   -14.9490 
  131.1250    48.1210    28.8780    24.5980    24.4390    23.9780     2.5980   -14.9010 
  131.2500    50.4490    27.0040    23.0170    25.4220    24.0400     2.5710   -14.8890 
  131.3750    52.6550    25.5280    21.6650    23.6720    24.0210     2.5440   -14.8830 
  131.5000    53.1210    24.2430    20.4740    20.6810    23.9100     2.5260   -14.9010 
  131.6250    52.1140    23.0190    19.3770    18.7900    23.7750     2.5240   -14.9090 
  131.7500    53.2560    21.9610    18.4370    17.6470    23.7240     2.5320   -14.9170 
  131.8750    55.5470    21.2710    17.7670    17.4010    23.6910     2.5390   -14.9010 
  132.0000    55.2860    21.1150    17.4890    16.8690    23.6390     2.5420   -14.8520 
  132.1250    53.0630    21.5120    17.6480    16.6300    23.6020     2.5450   -14.8010 
  132.2500    53.6120    22.3270    18.2220    17.4060    23.5480     2.5540   -14.7440 
  132.3750    54.6900    23.1580    18.9320    18.1510    23.4750     2.5690   -14.6860 
  132.5000    52.6950    23.6650    19.4960    19.6060    23.4710     2.5850   -14.6150 
  132.6250    49.1640    23.6190    19.6680    21.5920    23.6160     2.5920   -14.5350 
