~V
VERS. 2.00: Ver 2.00
~W
STRT.M 50.0000:
STOP.M 274.0000:
STEP.M 0.1250:
NULL. -999.2500:
UWI. F10206:
~C
DEPT.M :
SP.MV :
DEN.GM/CC :
GR.API :
RML.OHMM :
RI. :
RXO.OHMM :
CALI.CM :
~A
   50.0000    48.0360  -999.2500  -999.2500  -999.2500  -999.2500  -999.2500  -999.2500 
   50.1250    46.6120  -999.2500  -999.2500  -999.2500  -999.2500  -999.2500  -999.2500 
   50.2500    45.5210  -999.2500  -999.2500  -999.2500  -999.2500  -999.2500  -999.2500 
   50.3750    44.7370  -999.2500  -999.2500  -999.2500  -999.2500  -999.2500  -999.2500 
   50.5000    44.2030  -999.2500  -999.2500  -999.2500  -999.2500  -999.2500  -999.2500 
   50.6250    43.9450  -999.2500  -999.2500  -999.2500  -999.2500  -999.2500  -999.2500 
   50.7500    43.9890  -999.2500  -999.2500  -999.2500  -999.2500  -999.2500  -999.2500 
   50.8750    44.3770  -999.2500  -999.2500  -999.2500  -999.2500  -999.2500  -999.2500 
   51.0000    45.1180  -999.2500  -999.2500  -999.2500  -999.2500  -999.2500  -999.2500 
   51.1250    46.3020  -999.2500  -999.2500  -999.2500  -999.2500  -999.2500  -999.2500 
   51.2500    47.8560  -999.2500  -999.2500  -999.2500  -999.2500  -999.2500  -999.2500 
   51.3750    49.7390  -999.2500  -999.2500  -999.2500  -999.2500  -999.2500  -999.2500 
   51.5000    51.8500  -999.2500  -999.2500  -999.2500  -999.2500  -999.2500  -999.2500 
   51.6250    54.0770  -999.2500  -999.2500  -999.2500  -999.2500  -999.2500  -999.2500 
   51.7500    56.3210  -999.2500  -999.2500  -999.2500  -999.2500  -999.2500  -999.2500 
   51.8750    58.5250  -999.2500  -999.2500  -999.2500  -999.2500  -999.2500  -999.2500 
   52.0000    60.6150  -999.2500  -999.2500  -999.2500  -999.2500  -999.2500  -999.2500 
   52.1250    62.4460  -999.2500  -999.2500  -999.2500  -999.2500  -999.2500  -999.2500 
   52.2500    64.0090  -999.2500    39.0520     0.1330     0.0700     1.5510    25.3050 
   52.3750    65.3470  -999.2500    39.0520     0.1330     0.0700     1.5510    25.3050 
   52.5000    66.4990  -999.2500    39.1050     0.1230     0.0570     1.5070    25.3030 
   52.6250    67.3560  -999.2500    39.4600     0.1100     0.0350     1.4100    25.2920 
   52.7500    67.9330  -999.2500    39.7220     0.0920     0.0200     1.2940    25.2720 
   52.8750    68.3040  -999.2500    39.4190     0.0680     0.0240     1.2080    25.2720 
   53.0000    68.5430  -999.2500    38.1610     0.0420     0.0520     1.1770    25.2710 
   53.1250    68.7010  -999.2500    36.9700     0.0240     0.1030     1.2080    25.2670 
   53.2500    68.7780  -999.2500    37.5030     0.0150     0.1510     1.2200    25.2720 
   53.3750    68.7140  -999.2500    39.8760     0.0180     0.1720     1.2130    25.2730 
   53.5000    68.5190  -999.2500    42.0950     0.0350     0.1560     1.2160    25.2730 
   53.6250    68.4400  -999.2500    40.7740     0.0710     0.1060     1.2360    25.2730 
   53.7500    68.6260  -999.2500    38.3530     0.1180     0.0580     1.2440    25.2730 
   53.8750    69.0780  -999.2500    37.3610     0.1610     0.0340     1.2620    25.2730 
   54.0000    69.7400     1.9810    37.6190     0.1850     0.0420     1.2830    25.2730 
   54.1250    70.6290     1.9810    38.2050     0.1810     0.0650     1.2960    25.2730 
   54.2500    71.6680     1.9800    38.8810     0.1660     0.0780     1.2930    25.2730 
   54.3750    72.8040     1.9760    39.3650     0.1510     0.0720     1.2780    25.2730 
   54.5000    73.9570     1.9720    39.7230     0.1380     0.0490     1.2520    25.2730 
   54.6250    74.9280     1.9700    39.8930     0.1290     0.0250     1.2460    25.2730 
   54.7500    75.5320     1.9710    39.2950     0.1320     0.0190     1.2730    25.2730 
   54.8750    75.6330     1.9720    37.4010     0.1520     0.0360     1.3010    25.2730 
   55.0000    75.2760     1.9730    34.2800     0.1800     0.0660     1.3120    25.2730 
   55.1250    74.5520     1.9730    31.4710     0.1940     0.0890     1.3150    25.2730 
   55.2500    73.6090     1.9730    30.7190     0.1800     0.0910     1.3110    25.2730 
   55.3750    72.4600     1.9740    31.8220     0.1440     0.0720     1.2580    25.2720 
   55.5000    71.1500     1.9790    33.5250     0.1120     0.0410     1.1580    25.2680 
   55.6250    69.7530     1.9880    34.0830     0.1050     0.0160     1.0800    25.2370 
   55.7500    68.4370     2.0000    34.4190     0.1160     0.0060     1.0850    25.1840 
   55.8750    67.2980     2.0130    34.6450     0.1300     0.0120     1.1060    25.1530 
   56.0000    66.3280     2.0220    33.2590     0.1340     0.0300     1.1070    25.1700 
   56.1250    65.4720     2.0260    30.8890     0.1240     0.0510     1.0950    25.2190 
   56.2500    64.7840     2.0240    30.7750     0.1060     0.0640     1.1190    25.2270 
   56.3750    64.3660     2.0220    32.8640     0.0860     0.0600     1.1550    25.2290 
   56.5000    64.2220     2.0210    34.7580     0.0710     0.0430     1.2060    25.2290 
   56.6250    64.2700     2.0250    35.5170     0.0770     0.0250     1.1910    25.2290 
   56.7500    64.3750     2.0320    36.4050     0.0990     0.0250     1.1830    25.2290 
   56.8750    64.5530     2.0360    37.1080     0.1260     0.0450     1.1720    25.2290 
   57.0000    64.8140     2.0320    37.7320     0.1460     0.0770     1.1540    25.2290 
   57.1250    65.1390     2.0180    40.8030     0.1500     0.0970     1.1390    25.2290 
   57.2500    65.4800     1.9980    44.3120     0.1390     0.0950     1.1460    25.2290 
   57.3750    65.7830     1.9780    45.8820     0.1270     0.0730     1.1730    25.2290 
   57.5000    65.9860     1.9620    45.3300     0.1210     0.0420     1.1990    25.2290 
   57.6250    66.0810     1.9520    44.6070     0.1220     0.0180     1.2160    25.2290 
   57.7500    66.0900     1.9490    43.9650     0.1260     0.0090     1.2270    25.2290 
   57.8750    65.9940     1.9510    43.9500     0.1400     0.0150     1.2340    25.2290 
   58.0000    65.8150     1.9560    44.9120     0.1660     0.0360     1.2320    25.2290 
   58.1250    65.5540     1.9630    43.6690     0.2040     0.0590     1.2100    25.2290 
   58.2500    65.1990     1.9770    39.3530     0.2470     0.0730     1.1690    25.2290 
   58.3750    64.8200     2.0000    35.5090     0.2870     0.0700     1.1130    25.2270 
   58.5000    64.5700     2.0360    35.2720     0.3260     0.0530     1.0450    25.2200 
   58.6250    64.5980     2.0830    36.4270     0.3800     0.0320     1.0060    25.2210 
   58.7500    64.8630     2.1230    35.9640     0.4520     0.0220     0.9710    25.2220 
   58.8750    65.2980     2.1400    35.5650     0.5180     0.0280     0.9350    25.2120 
   59.0000    65.8400     2.1230    36.7820     0.5400     0.0460     0.9040    25.1810 
   59.1250    66.3830     2.0740    38.6950     0.4810     0.0650     0.8880    25.0760 
   59.2500    66.7980     2.0160    40.1800     0.3650     0.0710     0.8740    24.9640 
   59.3750    66.8830     1.9710    39.4950     0.2340     0.0590     0.8650    24.8350 
   59.5000    66.3520     1.9540    36.9300     0.1400     0.0360     0.8310    24.9220 
   59.6250    64.7440     1.9870    34.9550     0.1060     0.0170     0.8370    25.0620 
   59.7500    61.9460     2.0690    35.6140     0.1020     0.0150     0.9220    25.3360 
   59.8750    57.5950     2.1940    40.1390     0.1170     0.0310     1.1210    25.4440 
   60.0000    51.3560     2.3370    46.3810     0.1660     0.0720     1.7330    25.2990 
   60.1250    43.0020     2.4460    51.5470     0.3170     0.1850     3.7280    24.6430 
   60.2500    33.5220     2.4940    54.8830     0.6580     0.4450     8.8810    24.4210 
   60.3750    23.5880     2.4850    59.2040     1.3350     0.9790    13.4970    24.4100 
   60.5000    13.7710     2.4410    66.1170     2.4350     1.9140    10.2400    24.3920 
   60.6250     4.6090     2.3900    71.3980     3.6290     3.2220     8.7460    23.7500 
   60.7500    -3.6490     2.3470    73.8760     4.2920     4.4430     8.8790    23.2270 
   60.8750   -10.5930     2.3140    75.9320     4.4330     5.2880     9.1590    23.1110 
   61.0000   -15.8130     2.2830    77.7250     4.4020     5.7420     9.2570    23.1020 
   61.1250   -18.9940     2.2480    78.6780     4.3620     5.8490     9.2060    23.1700 
