~V
VERS. 2.00: Ver 2.00
~W
STRT.M 49.0000:
STOP.M 279.0000:
STEP.M 0.1250:
NULL. -999.2500:
UWI. F10243:
~C
DEPT.M :
GR.API :
RML.OHMM :
RI. :
RXO.OHMM :
CALI.CM :
DEN.GM/CC :
SP.MV :
~A
# ...
  139.0000    68.0490    11.7230    11.5520    10.6130    23.6240     2.2950   -17.8380 
  139.1250    68.6890    10.3240    10.0800     8.6010    23.4450     2.2290   -17.9480 
  139.2500    66.3030     9.4340     9.0890     8.0180    23.4250     2.1890   -18.0680 
  139.3750    64.9010     9.0180     8.5650     7.9300    23.4500     2.1720   -18.1680 
  139.5000    67.5800     8.9820     8.4530     7.8640    23.4800     2.1700   -18.2140 
  139.6250    69.9440     9.0880     8.5250     7.8590    23.5160     2.1740   -18.2220 
  139.7500    69.3880     9.2200     8.6450     7.9230    23.5800     2.1780   -18.2530 
  139.8750    67.7900     9.3480     8.7700     8.1930    23.6460     2.1790   -18.2690 
  140.0000    68.6280     9.5150     8.9620     8.7770    23.6760     2.1860   -18.2230 
  140.1250    70.9530     9.7040     9.2350     9.6040    23.6970     2.2130   -18.1870 
  140.2500    71.8410     9.7790     9.4780    10.7840    23.7620     2.2660   -18.1230 
  140.3750    71.6170     9.5420     9.4770    12.6030    23.9060     2.3370   -17.9670 
  140.5000    72.1270     8.8420     8.9780    14.1960    24.1160     2.3950   -17.7420 
  140.6250    75.5380     7.9240     8.1460    12.9130    24.3070     2.4150   -17.5580 
  140.7500    82.1630     7.0800     7.2800     8.5090    24.4260     2.3950   -17.4740 
  140.8750    88.3460     6.5510     6.6600     6.0160    24.4070     2.3530   -17.4770 
  141.0000    87.4960     6.5220     6.5050     6.1830    24.2200     2.3210   -17.5070 
  141.1250    81.6460     6.9080     6.7690     7.7460    23.9550     2.3160   -17.5270 
  141.2500    74.5460     7.5870     7.3660     9.3400    23.7500     2.3360   -17.5660 
  141.3750    69.8040     8.3160     8.0890     9.8830    23.7380     2.3690   -17.6460 
  141.5000    70.3310     8.6880     8.5370     9.3170    23.9530     2.4000   -17.7060 
  141.6250    73.1440     8.5290     8.4790     9.8540    24.2230     2.4180   -17.7220 
  141.7500    74.8010     7.8900     7.9230    11.0780    24.4430     2.4170   -17.6250 
  141.8750    76.6800     6.9990     7.0590     9.0140    24.5690     2.3980   -17.4330 
  142.0000    83.2840     6.1800     6.1760     6.9550    24.6220     2.3690   -17.1660 
  142.1250    89.8030     5.6490     5.5240     5.8720    24.6530     2.3410   -16.8760 
  142.2500    92.7630     5.5230     5.2520     5.6440    24.6930     2.3160   -16.6390 
  142.3750    93.8390     5.8890     5.4820     5.8470    24.7220     2.2880   -16.4960 
  142.5000    91.3840     6.9740     6.4430     7.2640    24.7490     2.2430   -16.4520 
  142.6250    83.4570     8.8060     8.1200     9.6340    24.8170     2.1760   -16.4360 
  142.7500    75.6170    11.4100    10.5170    11.3120    24.9400     2.0920   -16.4720 
  142.8750    73.3020    14.6380    13.5490    13.1070    25.0860     2.0150   -16.5710 
  143.0000    73.6230    18.0920    17.0590    16.4520    25.0790     2.0010   -16.8040 
  143.1250    71.9630    21.0210    20.5190    20.3100    24.9120     2.0750   -17.0710 
  143.2500    67.4870    22.5320    23.1470    25.8630    24.6850     2.2320   -17.2580 
  143.3750    61.9990    21.8350    23.8310    37.6850    24.5560     2.4230   -17.3450 
  143.5000    60.5550    18.6400    21.3840    48.9690    24.5310     2.5680   -17.3640 
  143.6250    66.2510    14.5330    17.1630    39.9240    24.5420     2.6240   -17.3640 
  143.7500    76.7740    10.7990    12.8040    20.5820    24.5700     2.5910   -17.3540 
  143.8750    86.1270     8.1080     9.3780     9.7480    24.6070     2.5080   -17.2940 
  144.0000    89.8290     6.6010     7.3010     6.5420    24.6550     2.4220   -17.1890 
  144.1250    90.7050     5.8100     6.1490     5.7480    24.6970     2.3630   -17.1720 
  144.2500    91.2260     5.5120     5.6620     5.6470    24.7130     2.3350   -17.2300 
  144.3750    90.5950     5.5330     5.6080     5.5980    24.7070     2.3290   -17.2880 
  144.5000    90.4950     5.7270     5.7990     5.7660    24.6880     2.3310   -17.2980 
  144.6250    93.8260     5.9390     6.0380     5.7420    24.6790     2.3300   -17.2760 
  144.7500    99.1430     6.1040     6.2530     5.6860    24.6710     2.3240   -17.2490 
  144.8750   101.4880     6.1950     6.4150     5.7820    24.6730     2.3150   -17.2190 
  145.0000    99.4000     6.1980     6.4970     5.9240    24.6800     2.3090   -17.0950 
  145.1250    99.0770     6.1540     6.5180     5.8320    24.6620     2.3110   -16.8670 
  145.2500   102.3940     6.1040     6.5060     5.6230    24.6400     2.3220   -16.6340 
  145.3750   105.1980     6.0870     6.4890     5.5410    24.6110     2.3420   -16.4140 
  145.5000   104.3710     6.1140     6.4680     5.6780    24.5970     2.3670   -16.2150 
  145.6250   101.8910     6.1270     6.4120     6.0290    24.5800     2.3900   -16.0870 
  145.7500    99.7150     6.0590     6.2740     6.3170    24.5570     2.4010   -15.9980 
  145.8750    96.9310     5.8760     6.0190     6.0200    24.5450     2.3960   -15.9050 
  146.0000    95.2960     5.6260     5.6790     5.4850    24.5330     2.3790   -15.8550 
  146.1250    97.4100     5.4610     5.4110     5.3110    24.5290     2.3670   -15.8740 
  146.2500   101.4180     5.5280     5.3770     5.4700    24.5230     2.3730   -15.9490 
  146.3750   102.1810     5.9670     5.7290     5.9510    24.5050     2.4050   -16.1000 
  146.5000    93.5530     7.0270     6.6960     7.5700    24.4600     2.4640   -16.3120 
  146.6250    79.3200     8.7640     8.2800    11.1630    24.4210     2.5310   -16.4460 
  146.7500    66.4290    11.1790    10.4450    15.9120    24.4000     2.5920   -16.4570 
  146.8750    59.6050    14.0230    12.9530    18.2150    24.3940     2.6380   -16.4520 
  147.0000    57.6880    16.7190    15.2890    18.1320    24.3940     2.6640   -16.5090 
  147.1250    55.4660    18.7840    17.0480    19.7000    24.3940     2.6780   -16.5680 
  147.2500    51.4240    20.1150    18.1650    21.9360    24.3940     2.6860   -16.6040 
  147.3750    46.7730    20.8960    18.8250    23.8380    24.3940     2.6910   -16.5840 
  147.5000    47.2320    21.3750    19.2410    24.3970    24.4070     2.6960   -16.5100 
  147.6250    51.8040    21.7480    19.5550    23.2150    24.4440     2.6990   -16.4870 
  147.7500    55.6240    22.0250    19.7620    21.6490    24.4950     2.7010   -16.5430 
  147.8750    55.6060    22.1830    19.8700    21.7710    24.5250     2.7020   -16.5900 
  148.0000    53.8770    22.1840    19.8930    23.3820    24.5520     2.7040   -16.5260 
  148.1250    53.0330    22.0530    19.8320    23.1230    24.6050     2.7050   -16.4110 
  148.2500    51.2100    21.8090    19.6710    21.2560    24.6830     2.7030   -16.2540 
  148.3750    48.8020    21.4800    19.4160    20.6920    24.7710     2.6940   -16.0620 
  148.5000    47.5580    21.0840    19.0730    20.9910    24.8280     2.6770   -15.8390 
  148.6250    47.5410    20.6430    18.6760    20.9500    24.8500     2.6570   -15.6130 
  148.7500    48.3220    20.1640    18.2550    20.2570    24.8540     2.6410   -15.4190 
  148.8750    48.6360    19.6580    17.8310    20.3080    24.8540     2.6320   -15.2320 
  149.0000    49.9360    19.1440    17.4090    19.3330    24.8570     2.6250   -15.0600 
  149.1250    52.7740    18.6620    17.0050    18.7010    24.8710     2.6150   -14.9280 
  149.2500    55.7980    18.2600    16.6530    19.5270    24.8940     2.6010   -14.8240 
  149.3750    57.7150    17.9820    16.3820    18.9220    24.9100     2.5870   -14.7610 
  149.5000    58.0630    17.8840    16.2280    18.1520    24.9150     2.5760   -14.7850 
  149.6250    58.9470    17.9710    16.2300    16.6160    24.9170     2.5680   -14.8270 
  149.7500    60.3020    18.2680    16.4530    15.7330    24.9170     2.5580   -14.8270 
  149.8750    62.6300    18.7690    16.9120    15.1670    24.9150     2.5420   -14.8490 
  150.0000    67.3530    19.3440    17.5140    15.2830    24.9140     2.5220   -14.8900 
  150.1250    69.3060    19.6710    17.9580    13.8630    24.9170     2.5040   -14.8520 
