~V
VERS. 2.00: Ver 2.00
~W
STRT.M 57.0000:
STOP.M 281.0000:
STEP.M 0.1250:
NULL. -999.2500:
UWI. F10238:
~C
DEPT.M :
GR.API :
RML.OHMM :
RI. :
RXO.OHMM :
CALI.CM :
DEN.GM/CC :
SP.MV :
~A
# ...
  259.5000    60.3580     8.8050     6.5980     7.1220    23.9160     2.3610    -7.4870 
  259.6250    59.6650     8.8510     6.6750     7.5240    23.8470     2.3750    -7.4970 
  259.7500    60.8570     8.8520     6.7140     7.7340    23.8150     2.3850    -7.5040 
  259.8750    62.9650     8.8280     6.7300     7.7410    23.8500     2.3870    -7.5200 
  260.0000    62.6460     8.8100     6.7460     7.5820    23.9180     2.3840    -7.5340 
  260.1250    59.3420     8.8220     6.7720     7.3550    23.9710     2.3790    -7.5410 
  260.2500    55.9600     8.8780     6.8120     7.3070    23.9800     2.3750    -7.5430 
  260.3750    55.0670     8.9730     6.8670     7.4190    23.9750     2.3720    -7.5340 
  260.5000    55.6260     9.0820     6.9340     7.3960    23.9710     2.3700    -7.5240 
  260.6250    56.4710     9.1810     7.0080     7.0810    23.9690     2.3670    -7.5240 
  260.7500    58.5530     9.2450     7.0720     6.6550    23.9600     2.3630    -7.5390 
  260.8750    61.1630     9.2440     7.1010     6.3380    23.9430     2.3580    -7.5610 
  261.0000    61.4470     9.1690     7.0750     6.2560    23.9180     2.3570    -7.5950 
  261.1250    58.5070     9.0300     6.9900     6.3580    23.9000     2.3610    -7.6390 
  261.2500    54.7920     8.8580     6.8570     6.5100    23.9060     2.3650    -7.6800 
  261.3750    53.0080     8.6980     6.7090     6.5990    23.9270     2.3660    -7.7140 
  261.5000    53.8510     8.5890     6.5830     6.6390    23.9300     2.3630    -7.7390 
  261.6250    56.4380     8.5460     6.5020     6.7260    23.9030     2.3600    -7.7680 
  261.7500    58.2250     8.5700     6.4790     6.9280    23.8890     2.3630    -7.7920 
  261.8750    58.1690     8.6470     6.5080     7.1960    23.9210     2.3770    -7.7810 
  262.0000    58.3440     8.7460     6.5630     7.4410    24.0280     2.3930    -7.7480 
  262.1250    59.7080     8.8360     6.6230     7.7440    24.1830     2.4030    -7.7100 
  262.2500    61.2840     8.8770     6.6580     8.5130    24.3340     2.4030    -7.6730 
  262.3750    61.1120     8.8390     6.6410     9.4790    24.4590     2.3940    -7.6550 
  262.5000    58.4120     8.7240     6.5660     9.6980    24.5270     2.3840    -7.6580 
  262.6250    54.2330     8.5520     6.4430     9.0030    24.5600     2.3810    -7.6560 
  262.7500    52.1130     8.3650     6.3010     7.8850    24.5740     2.3840    -7.6370 
  262.8750    54.2920     8.2270     6.1820     7.0590    24.5670     2.3850    -7.6220 
  263.0000    57.5490     8.1930     6.1260     6.7170    24.5640     2.3810    -7.6200 
  263.1250    58.3400     8.2960     6.1560     6.6920    24.5710     2.3750    -7.6170 
  263.2500    57.1900     8.5330     6.2790     6.8990    24.5640     2.3770    -7.6070 
  263.3750    57.1130     8.8590     6.4770     7.6400    24.5490     2.3920    -7.5800 
  263.5000    58.6540     9.1790     6.7010     9.0530    24.5430     2.4130    -7.5350 
  263.6250    59.4640     9.4080     6.8940    10.5990    24.5350     2.4310    -7.4810 
  263.7500    58.1290     9.4690     6.9850    11.2570    24.5330     2.4380    -7.4350 
  263.8750    55.5260     9.3280     6.9360    10.9680    24.5370     2.4360    -7.4100 
  264.0000    53.5430     9.0460     6.7730    10.3980    24.5310     2.4250    -7.3900 
  264.1250    53.5700     8.7110     6.5570     9.8750    24.5150     2.4090    -7.3590 
  264.2500    55.5680     8.4490     6.3780     9.1250    24.5100     2.3900    -7.3230 
  264.3750    57.6840     8.3680     6.3100     8.2350    24.5100     2.3680    -7.3050 
  264.5000    57.9350     8.4900     6.3730     8.0060    24.5010     2.3460    -7.3010 
  264.6250    56.5260     8.7800     6.5440     8.0640    24.4750     2.3270    -7.2920 
  264.7500    55.1190     9.1370     6.7620     8.1540    24.4400     2.3170    -7.2720 
  264.8750    54.0300     9.4180     6.9440     8.2240    24.4050     2.3200    -7.2330 
  265.0000    52.2760     9.5010     7.0160     8.3760    24.2950     2.3320    -7.1900 
  265.1250    50.5400     9.3420     6.9480     8.5680    24.0110     2.3480    -7.1640 
  265.2500    50.9240     8.9820     6.7520     8.8600    23.6070     2.3560    -7.1410 
  265.3750    53.9350     8.5430     6.4870     9.0160    23.3600     2.3540    -7.1040 
  265.5000    56.6960     8.1610     6.2330     8.5920    23.3760     2.3470    -7.0680 
  265.6250    57.2270     7.9090     6.0440     7.7150    23.4560     2.3440    -7.0550 
  265.7500    56.5470     7.8180     5.9550     7.0080    23.5430     2.3500    -7.0590 
  265.8750    56.4950     7.8700     5.9680     6.7250    23.6450     2.3660    -7.0680 
  266.0000    57.1770     8.0120     6.0540     6.5570    23.8080     2.3900    -7.0730 
  266.1250    57.9420     8.2050     6.1810     6.4340    24.0140     2.4170    -7.0780 
  266.2500    57.8640     8.4000     6.3110     6.3600    24.1750     2.4410    -7.0990 
  266.3750    57.2790     8.5440     6.4080     6.3960    24.2510     2.4530    -7.1510 
  266.5000    57.4050     8.5930     6.4500     6.4970    24.3060     2.4490    -7.2260 
  266.6250    58.1810     8.5300     6.4290     6.5520    24.3600     2.4270    -7.3060 
  266.7500    58.5030     8.3790     6.3550     6.4570    24.4090     2.3980    -7.3760 
  266.8750    57.9100     8.2070     6.2550     6.2770    24.4600     2.3780    -7.4460 
  267.0000    57.6200     8.0920     6.1680     6.3230    24.5440     2.3770    -7.5270 
  267.1250    58.0970     8.0610     6.1140     6.4850    24.6250     2.3920    -7.6060 
  267.2500    58.2420     8.1050     6.1040     6.7280    24.6450     2.4110    -7.6490 
  267.3750    57.1870     8.1860     6.1290     7.0630    24.6250     2.4200    -7.6230 
  267.5000    56.2240     8.2630     6.1670     7.1720    24.6150     2.4170    -7.5400 
  267.6250    56.9940     8.3130     6.1970     7.0210    24.6230     2.4100    -7.4340 
  267.7500    58.5610     8.3290     6.2080     6.7770    24.6540     2.4070    -7.3290 
  267.8750    58.2360     8.3130     6.1980     6.5900    24.6920     2.4120    -7.2230 
  268.0000    56.1390     8.2860     6.1790     6.5590    24.7090     2.4180    -7.1130 
  268.1250    54.9090     8.2660     6.1640     6.5500    24.7070     2.4200    -7.0000 
  268.2500    55.3830     8.2770     6.1680     6.5090    24.6850     2.4180    -6.9050 
  268.3750    56.1980     8.3320     6.1980     6.5210    24.6570     2.4170    -6.8430 
  268.5000    56.4770     8.4210     6.2530     6.7110    24.6490     2.4220    -6.8070 
  268.6250    56.5590     8.5340     6.3240     7.1510    24.6690     2.4340    -6.7770 
  268.7500    57.1280     8.6560     6.3980     7.4500    24.6860     2.4440    -6.7440 
  268.8750    57.8020     8.7630     6.4630     7.1720    24.6960     2.4420    -6.7150 
  269.0000    57.5940     8.8370     6.5090     6.7740    24.6930     2.4300    -6.6950 
  269.1250    56.7870     8.8680     6.5340     6.5960    24.6900     2.4110    -6.6920 
  269.2500    56.8810     8.8540     6.5350     6.6920    24.6900     2.3920    -6.7020 
  269.3750    57.7630     8.8000     6.5130     6.8660    24.6920     2.3810    -6.7220 
  269.5000    57.9860     8.7180     6.4680     7.1490    24.6930     2.3750    -6.7390 
  269.6250    58.0950     8.6100     6.4030     7.5790    24.6920     2.3730    -6.7420 
  269.7500    58.6560     8.4710     6.3200     7.8430    24.6840     2.3770    -6.7420 
  269.8750    58.2160     8.3070     6.2240     7.4680    24.6730     2.3860    -6.7510 
  270.0000    56.0990     8.1410     6.1220     6.4840    24.6720     2.3900    -6.7570 
  270.1250    54.1980     7.9970     6.0220     5.9430    24.6770     2.3810    -6.7540 
  270.2500    54.0760     7.8930     5.9370     6.2860    24.6620     2.3600    -6.7440 
  270.3750    55.0390     7.8290     5.8740     6.7690    24.6320     2.3350    -6.7350 
  270.5000    55.5670     7.7880     5.8390     6.7000    24.6070     2.3220    -6.7490 
  270.6250    55.1720     7.7640     5.8360     6.4360    24.6000     2.3280    -6.7750 
