~V
VERS. 2.00: Ver 2.00
~W
STRT.M 30.0000:
STOP.M 271.0000:
STEP.M 0.1250:
NULL. -999.2500:
UWI. F10210:
~C
DEPT.M :
DEN.GM/CC :
GR.API :
RML.OHMM :
RI. :
RXO.OHMM :
CALI.CM :
SP.MV :
~A
# ...
   75.0000     2.1030    60.3250     9.1370     7.2210    12.4210    27.3790   -39.5850 
   75.1250     2.0940    60.0200     9.0330     7.1900    12.2670    27.4520   -39.6850 
   75.2500     2.0870    63.2970     8.9540     7.1410    11.8910    27.4780   -39.6990 
   75.3750     2.0810    64.4960     8.9160     7.0890    11.5030    27.4030   -39.6030 
   75.5000     2.0780    62.3280     8.9250     7.0490    11.2100    27.3940   -39.4100 
   75.6250     2.0830    60.0460     8.9620     7.0320    11.0300    27.4560   -39.0090 
   75.7500     2.0930    60.6800     8.9820     7.0230    10.9320    27.4150   -38.4130 
   75.8750     2.1030    64.9910     8.9610     7.0030    10.9680    27.2890   -37.6290 
   76.0000     2.1110    71.7820     8.9050     6.9610    11.2210    27.2230   -36.6830 
   76.1250     2.1130    76.8150     8.8580     6.9040    11.1440    27.2130   -35.6030 
   76.2500     2.1170    76.4190     8.8470     6.8570    10.4740    27.2170   -34.4900 
   76.3750     2.1210    74.2560     8.8550     6.8300     9.9940    27.2330   -33.3990 
   76.5000     2.1220    74.2230     8.8350     6.8100    10.0700    27.2730   -32.3510 
   76.6250     2.1220    76.4300     8.7370     6.7800    10.2810    27.4590   -31.4070 
   76.7500     2.1270    79.5410     8.5910     6.7470    10.3780    27.5460   -30.5480 
   76.8750     2.1400    81.9130     8.4600     6.7400     9.8870    27.0170   -29.8220 
   77.0000     2.1510    82.7110     8.4170     6.7980     9.0070    26.7800   -29.2770 
   77.1250     2.1380    81.5510     8.5060     6.9490     8.8280    26.9030   -28.9960 
   77.2500     2.0990    79.5010     8.6590     7.1460     9.4400    27.4520   -28.8870 
   77.3750     2.0460    76.4760     8.8090     7.3410    10.6590    28.4900   -28.8180 
   77.5000     2.0050    73.2000     8.9110     7.5020    11.5940    29.2590   -28.6430 
   77.6250     2.0000    73.9300     8.9470     7.6190    11.4950    29.2010   -28.2470 
   77.7500     2.0270    77.5400     8.9470     7.7050    10.8080    28.3750   -27.6400 
   77.8750     2.0740    80.6040     8.9150     7.7420    10.1730    26.9420   -26.8090 
   78.0000     2.1250    81.1010     8.8060     7.6790    10.9890    26.0230   -25.6910 
   78.1250     2.1680    81.7540     8.5100     7.4150    11.3550    25.8770   -24.0920 
   78.2500     2.2050    85.3610     8.0150     6.9600     9.9570    25.9140   -22.0720 
   78.3750     2.2340    93.2340     7.3650     6.3690     7.1770    26.0160   -19.8190 
   78.5000     2.2490   103.5820     6.6600     5.7350     5.2180    26.0530   -17.5810 
   78.6250     2.2520   110.3450     6.0120     5.1510     4.5640    26.0370   -15.5930 
   78.7500     2.2550   113.6940     5.4640     4.6540     4.6750    25.9330   -13.9170 
   78.8750     2.2650   115.9600     5.0690     4.2780     4.8970    25.7690   -12.5600 
   79.0000     2.2860   115.5700     4.9500     4.0920     5.0510    25.7060   -11.5770 
   79.1250     2.3180   111.3350     5.4850     4.3160     4.9280    25.6970   -11.1360 
   79.2500     2.3600   107.2840     6.9990     5.1370     5.3760    25.6910   -11.2170 
   79.3750     2.4060   102.6120     9.8700     6.8240     7.4220    25.6860   -11.7650 
   79.5000     2.4470    91.6360    14.2970     9.6220    13.0410    25.6730   -12.7070 
   79.6250     2.4590    76.3860    19.8070    13.5230    26.0740    25.6880   -14.0250 
   79.7500     2.4340    67.8640    23.9670    17.0380    36.4190    25.6940   -15.6470 
   79.8750     2.3660    67.2390    24.2890    18.2900    34.1220    25.6890   -17.5260 
   80.0000     2.2740    69.4390    20.7700    16.7730    21.9650    25.6810   -19.5940 
   80.1250     2.1950    70.4050    16.2280    13.9690    15.4230    25.6920   -21.7840 
   80.2500     2.1490    70.6580    12.9600    11.5970    13.3210    25.6930   -23.9680 
   80.3750     2.1300    71.8290    11.2010    10.0380    12.9680    25.7010   -26.0780 
   80.5000     2.1250    72.8900    10.5750     9.2250    12.8650    25.6890   -28.0300 
   80.6250     2.1250    68.6630    10.6810     9.0230    12.9030    25.6850   -29.7000 
   80.7500     2.1260    62.2990    10.9940     9.0970    13.0450    25.6840   -31.0650 
   80.8750     2.1220    60.3730    11.2500     9.2430    13.2860    25.6930   -32.1220 
   81.0000     2.1100    64.0120    11.3150     9.3060    13.3730    25.7180   -32.8600 
   81.1250     2.0880    65.5520    11.1280     9.1690    13.2190    25.8510   -33.2970 
   81.2500     2.0680    63.6290    10.7500     8.8480    12.8100    26.1690   -33.5470 
   81.3750     2.0550    62.1780    10.2290     8.4010    12.3360    26.3260   -33.6560 
   81.5000     2.0500    62.1770     9.7280     7.9660    12.2580    26.4000   -33.6790 
   81.6250     2.0610    62.8670     9.7160     7.8350    12.3330    26.4780   -33.6250 
   81.7500     2.0920    64.5480    10.6030     8.2400    12.3940    26.4950   -33.4850 
   81.8750     2.1500    66.1250    12.6740     9.3670    12.8320    26.5060   -33.2720 
   82.0000     2.2310    65.3710    15.8930    11.2720    15.1110    26.5030   -33.0460 
   82.1250     2.2980    63.8530    19.5170    13.6880    24.6530    26.3610   -32.8690 
   82.2500     2.3080    64.7060    21.7340    15.5100    40.1990    26.1750   -32.8000 
   82.3750     2.2640    66.9630    21.1200    15.6580    36.9260    26.0610   -32.8580 
   82.5000     2.2090    67.9880    17.9640    14.0230    19.1920    25.9560   -33.0230 
   82.6250     2.1790    67.3230    14.2440    11.6410    13.8360    25.9370   -33.3030 
   82.7500     2.1680    66.8100    11.5700     9.6520    12.7640    25.9530   -33.6740 
   82.8750     2.1580    66.0490    10.1900     8.3590    13.0120    26.0090   -34.1230 
   83.0000     2.1310    64.7930     9.8530     7.7450    12.9470    26.3130   -34.5930 
   83.1250     2.0970    63.1790    10.1930     7.7180    12.9100    26.7080   -34.9980 
   83.2500     2.0750    61.6280    10.6800     7.9610    13.0290    26.7780   -35.2900 
   83.3750     2.0690    59.5650    11.0660     8.2800    13.1790    26.7660   -35.4400 
   83.5000     2.0720    57.1870    11.2480     8.5370    13.2950    26.6350   -35.4130 
   83.6250     2.0780    56.3350    11.2180     8.6530    13.3130    26.4810   -35.1690 
   83.7500     2.0840    57.6700    11.1050     8.6660    13.2840    26.4680   -34.7550 
   83.8750     2.0890    59.5660    10.9920     8.6300    13.1760    26.5130   -34.1480 
   84.0000     2.0870    58.9220    10.9060     8.5830    13.1750    26.8320   -33.3390 
   84.1250     2.0810    55.6400    10.7900     8.5140    13.2250    27.0160   -32.2430 
   84.2500     2.0850    54.6620    10.5610     8.3800    13.1730    27.0540   -30.8190 
   84.3750     2.1030    57.7690    10.1750     8.1430    12.7990    27.0510   -29.0210 
   84.5000     2.1320    64.2370     9.6510     7.8040    11.5610    27.0020   -26.8530 
   84.6250     2.1680    73.4610     9.0970     7.4130     9.5080    26.8600   -24.3220 
   84.7500     2.2010    82.5050     8.6540     7.0590     7.9740    26.7520   -21.5930 
   84.8750     2.2140    89.6260     8.3920     6.8040     7.3910    27.0090   -18.8310 
   85.0000     2.1880    94.9150     8.3210     6.6790     7.0710    27.0400   -16.1670 
   85.1250     2.1080    98.1310     8.4040     6.6910     6.8230    27.0580   -13.7710 
   85.2500     1.9880    97.1510     8.5200     6.7640     6.8560    27.1430   -11.6940 
   85.3750     1.8590    92.4630     8.5920     6.8380     6.9740    27.3040   -10.0120 
   85.5000     1.7770    89.1970     8.5880     6.8780     6.7990    27.2440    -8.7410 
   85.6250     1.8080    89.7870     8.5180     6.8920     6.8120    27.1580    -7.9450 
   85.7500     1.9270    91.6600     8.4270     6.9190     6.8940    26.8350    -7.4870 
   85.8750     2.0800    93.1870     8.3460     6.9830     6.9590    26.3630    -7.2540 
   86.0000     2.1920    93.2920     8.3100     7.0810     6.9790    26.2220    -7.1620 
   86.1250     2.2220    92.5390     8.3480     7.1920     6.9910    26.2050    -7.1440 
