~V
VERS. 2.00: Ver 2.00
~W
STRT.M 50.0000:
STOP.M 281.0000:
STEP.M 0.1250:
NULL. -999.2500:
UWI. F10234:
~C
DEPT.M :
DEN.GM/CC :
GR.API :
RML.OHMM :
RI. :
RXO.OHMM :
CALI.CM :
SP.MV :
~A
# ...
  275.0000     2.3540    50.8530    10.2520     9.0270     7.8160    23.7200    -0.0240 
  275.1250     2.3620    50.8530    10.2650     9.0290     7.9760    23.7000    -0.0580 
  275.2500     2.3710    50.8530    10.2890     9.0290     8.0690    23.6780    -0.1040 
  275.3750     2.3790    50.8530    10.3170     9.0260     8.6460    23.6600    -0.1590 
  275.5000     2.3880    50.8530    10.3370     9.0210     9.7500    23.6430    -0.2080 
  275.6250     2.4030    50.8530    10.3350     9.0180     9.4940    23.6120    -0.2500 
  275.7500     2.4240    50.8530    10.3160     9.0170     7.8780    23.5510    -0.3390 
  275.8750     2.4430    50.8530    10.2900     9.0180     6.5710    23.4590    -0.4230 
  276.0000     2.4480    50.8530    10.2730     9.0220     5.7660    23.2990    -0.5620 
  276.1250     2.4280    50.8530    10.2760     9.0260     5.4040    22.9030    -0.6900 
  276.2500     2.3900    50.8530    10.2760     9.0260     5.5520    22.2730    -0.7390 
  276.3750     2.3420    50.8530    10.2760     9.0260     5.9620    21.4280    -0.8380 
  276.5000     2.2930    50.8530    10.2760     9.0260     5.9180    20.3930    -0.8540 
  276.6250     2.2490    50.8530    10.2760     9.0260     5.2950    19.2150    -0.8410 
  276.7500     2.2130    50.8530    10.2760     9.0260     4.9750    18.0040    -0.8150 
  276.8750     2.1870    50.8530    10.2760     9.0260     5.1650    16.8520    -0.7570 
  277.0000     2.1730    50.8530    10.2760     9.0260     5.5590    15.8560    -0.6960 
  277.1250     2.1690    50.8530    10.2760     9.0260     5.6230    15.1460    -0.6260 
  277.2500     2.1700    50.8530    10.2760     9.0260     5.6400    14.6550    -0.5800 
  277.3750     2.1750    50.8530    10.2760     9.0260     5.9590    14.2960    -0.5490 
  277.5000     2.1810    50.8530    10.2760     9.0260     6.3920    14.0360    -0.5490 
  277.6250     2.1910    50.8530    10.2760     9.0260     6.2820    13.7920  -999.2500 
  277.7500     2.2030    50.8530    10.2760     9.0260     6.0730    13.5080  -999.2500 
  277.8750     2.2170    50.8530    10.2760     9.0260     6.0950    13.1780  -999.2500 
  278.0000     2.2290    50.8530    10.2760     9.0260     6.2390    12.8170  -999.2500 
  278.1250     2.2340    50.8530    10.2760     9.0260     6.1270    12.4610  -999.2500 
  278.2500     2.2360    50.8530    10.2760     9.0260     5.9720    12.1490  -999.2500 
  278.3750     2.2380    50.8530    10.2760     9.0260     5.9020    11.9060  -999.2500 
  278.5000     2.2390    50.8530    10.2760     9.0260     5.8930    11.7520  -999.2500 
  278.6250     2.2400    50.8530    10.2760     9.0260     5.8930    11.7000  -999.2500 
  278.7500     2.2410    50.8530    10.2760     9.0260     5.8930    11.6920  -999.2500 
  278.8750     2.2430    50.8530    10.2760     9.0260     5.8920    11.6920  -999.2500 
  279.0000     2.2470    50.8530    10.2760     9.0260     5.8910    11.6910  -999.2500 
  279.1250     2.2490    50.8530    10.2760     9.0260     5.8910    11.6900  -999.2500 
  279.2500     2.2480    50.8530    10.2760     9.0260     5.8920    11.6890  -999.2500 
  279.3750     2.2450    50.8530    10.2760     9.0260     5.8930    11.6890  -999.2500 
  279.5000     2.2440    50.8530    10.2760     9.0260     5.8940    11.6880  -999.2500 
  279.6250     2.2440    50.8530    10.2760     9.0260     5.8950    11.6880  -999.2500 
  279.7500     2.2450    50.8530    10.2760     9.0260     5.8950    11.6890  -999.2500 
  279.8750     2.2450    50.8530    10.2760     9.0260     5.8950    11.6890  -999.2500 
  280.0000     2.2430    50.8530    10.2760     9.0260     5.8960    11.6890  -999.2500 
  280.1250     2.2400    50.8530    10.2760     9.0260     5.8960    11.6880  -999.2500 
  280.2500     2.2410    50.8530    10.2760     9.0260     5.8960    11.6880  -999.2500 
  280.3750  -999.2500    50.8530    10.2760     9.0260     5.8960    11.6880  -999.2500 
  280.5000  -999.2500    50.8530    10.2760     9.0260     5.8960    11.6870  -999.2500 
  280.6250  -999.2500    50.8530    10.2760     9.0260     5.8980    11.6870  -999.2500 
  280.7500  -999.2500    50.8530    10.2760     9.0260     5.8960    11.6870  -999.2500 
  280.8750  -999.2500    50.8530    10.2760     9.0260     5.8950    11.6860  -999.2500 
  281.0000  -999.2500    50.8530    10.2760     9.0260     5.8950    11.6860  -999.2500 
