~V
VERS. 2.00: Ver 2.00
~W
STRT.M 55.0000:
STOP.M 274.0000:
STEP.M 0.1250:
NULL. -999.2500:
UWI. F10255:
~C
DEPT.M :
GR.API :
RML.OHMM :
RI. :
RXO.OHMM :
CALI.CM :
DEN.GM/CC :
SP.MV :
~A
# ...
  246.2500    67.4630    12.4360    12.8310    15.1540    25.2880     2.2510    -6.2340 
  246.3750    66.7100    16.4400    16.8270    26.5240    24.9840     2.2390    -6.2040 
  246.5000    64.5640    21.5300    21.7590    35.4130    24.9670     2.2210    -6.1880 
  246.6250    62.4750    27.0660    26.9240    35.6530    24.9870     2.2490    -6.2280 
  246.7500    63.3720    32.3520    31.7150    36.4590    24.9090     2.3190    -6.2680 
  246.8750    66.6020    37.4830    36.3390    43.5100    24.7430     2.4010    -6.2800 
  247.0000    68.5210    43.1430    41.4800    56.1410    24.5520     2.4690    -6.2680 
  247.1250    67.6800    50.2420    47.8750    78.5960    24.6070     2.5140    -6.2160 
  247.2500    67.3970    58.3420    55.0380    93.7160    24.6630     2.5460    -6.1490 
  247.3750    68.2880    66.3220    61.9770   103.5620    24.6680     2.5730    -6.1090 
  247.5000    69.8920    72.9110    67.6910   117.2750    24.6040     2.5960    -6.0600 
  247.6250    71.7050    77.3400    71.7390   120.9520    24.5100     2.6150    -5.9780 
  247.7500    73.5210    80.8540    75.3460    98.5450    24.4290     2.6360    -5.9110 
  247.8750    73.7870    84.6770    79.8490    82.9970    24.4450     2.6600    -5.8710 
  248.0000    71.6840    88.2660    85.8920    77.9240    24.4930     2.6870    -5.8650 
  248.1250    69.3670    86.0010    90.9140    88.5020    24.4380     2.7100    -5.8910 
  248.2500    66.0570    74.0380    88.6800   119.0690    24.2410     2.7260    -5.9260 
  248.3750    60.2450    54.4430    74.7470   176.7820    24.1470     2.7270    -5.9470 
  248.5000    53.5690    34.3910    52.8400   163.3180    24.2880     2.7050    -5.9560 
  248.6250    51.1080    21.1590    33.2600   106.2400    24.4600     2.6550    -5.9610 
  248.7500    52.9190    13.8560    20.3050    46.4250    24.5850     2.5910    -5.9470 
  248.8750    55.7230    10.0300    12.9690    18.1130    24.6300     2.5280    -5.9200 
  249.0000    57.6170     7.9880     9.2040     8.9640    24.6230     2.4790    -5.8590 
  249.1250    58.2170     7.0590     7.6050     7.0220    24.5730     2.4510    -5.7690 
  249.2500    58.4110     6.7070     6.9740     6.7660    24.5570     2.4390    -5.6970 
  249.3750    59.0200     6.7230     6.9130     6.8020    24.6100     2.4370    -5.6710 
  249.5000    59.5310     6.9210     7.1420     6.8650    24.6420     2.4410    -5.6880 
  249.6250    59.4520     7.1350     7.4330     6.8930    24.6450     2.4490    -5.7020 
  249.7500    59.8020     7.2720     7.6530     6.8960    24.6350     2.4590    -5.7060 
  249.8750    60.3440     7.3260     7.7770     6.8530    24.6090     2.4690    -5.7060 
  250.0000    60.5300     7.3250     7.8170     6.7780    24.5400     2.4750    -5.7250 
  250.1250    59.6670     7.2980     7.7880     6.7360    24.4540     2.4700    -5.7990 
  250.2500    57.0080     7.2730     7.7210     6.7280    24.4150     2.4540    -5.8920 
  250.3750    54.0100     7.2600     7.6290     6.7570    24.4290     2.4330    -5.9630 
  250.5000    51.7360     7.2670     7.5240     6.8270    24.4710     2.4180    -6.0050 
  250.6250    50.7880     7.3010     7.4260     6.9680    24.5480     2.4170    -6.0370 
  250.7500    50.2220     7.3600     7.3470     7.0240    24.6620     2.4210    -6.0820 
  250.8750    51.2680     7.4400     7.2990     7.0050    24.7290     2.4240    -6.1300 
  251.0000    53.9300     7.5380     7.2880     7.0160    24.7390     2.4220    -6.1640 
  251.1250    54.5030     7.6480     7.3170     7.3230    24.7600     2.4180    -6.1900 
  251.2500    53.7070     7.7620     7.3740     7.9660    24.8440     2.4220    -6.2400 
  251.3750    53.0230     7.8780     7.4490     8.5210    24.9210     2.4340    -6.3000 
  251.5000    51.9700     7.9960     7.5330     8.5740    24.8840     2.4530    -6.3410 
  251.6250    49.8940     8.1210     7.6210     7.9930    24.7970     2.4710    -6.3590 
  251.7500    48.8650     8.2610     7.7150     7.6480    24.8120     2.4850    -6.3560 
  251.8750    48.9110     8.4160     7.8200     8.0900    24.8800     2.4920    -6.3530 
  252.0000    47.6200     8.5830     7.9370     8.7580    24.9210     2.4910    -6.3720 
  252.1250    45.4990     8.7430     8.0560     9.5760    24.8800     2.4850    -6.3790 
  252.2500    46.1190     8.8780     8.1590    10.3300    24.8250     2.4790    -6.3380 
  252.3750    48.4420     8.9710     8.2250    11.0770    24.7390     2.4770    -6.2560 
  252.5000    49.4500     9.0100     8.2420    11.5150    24.6570     2.4800    -6.1580 
  252.6250    48.1380     8.9810     8.1910    11.2190    24.5810     2.4850    -6.1090 
  252.7500    47.5560     8.9020     8.0920    10.8930    24.5640     2.4880    -6.1120 
  252.8750    46.8510     8.7900     7.9620    10.7390    24.5580     2.4880    -6.0970 
  253.0000    45.7630     8.6680     7.8260    10.9090    24.6170     2.4860    -6.0300 
  253.1250    46.8480     8.5650     7.7130    11.3540    24.5810     2.4840    -5.9200 
  253.2500    50.2360     8.4970     7.6350    10.7190    24.4180     2.4830    -5.8100 
  253.3750    53.4350     8.4680     7.5940     9.7530    24.2330     2.4780    -5.7460 
  253.5000    54.0220     8.4790     7.5890     8.7860    24.2550     2.4690    -5.7180 
  253.6250    51.8310     8.5340     7.6330     8.2010    24.4200     2.4590    -5.6640 
  253.7500    49.5780     8.6250     7.7260     8.1820    24.5090     2.4590    -5.5690 
  253.8750    49.1720     8.7430     7.8600     8.5540    24.6010     2.4700    -5.4790 
  254.0000    50.9350     8.8650     8.0070     8.7680    24.8420     2.4860    -5.4070 
  254.1250    51.9900     8.9430     8.1080     8.6630    24.9980     2.4890    -5.3660 
  254.2500    51.0950     8.9380     8.1190     8.6060    25.0450     2.4740    -5.3400 
  254.3750    49.5540     8.8390     8.0180     8.5000    25.0130     2.4480    -5.3050 
  254.5000    49.7140     8.6670     7.8280     8.3000    24.9470     2.4230    -5.2790 
  254.6250    52.6360     8.4750     7.6030     8.2340    24.9600     2.4150    -5.2900 
  254.7500    54.7820     8.3190     7.4050     7.9000    24.9380     2.4210    -5.3060 
  254.8750    53.9750     8.2210     7.2650     8.1260    24.8480     2.4360    -5.3190 
  255.0000    51.0060     8.1720     7.1840     8.6020    24.6760     2.4500    -5.3340 
  255.1250    48.5660     8.1520     7.1480     8.6410    24.7130     2.4580    -5.3160 
  255.2500    48.9480     8.1320     7.1230     8.2130    24.7520     2.4580    -5.2880 
  255.3750    52.1630     8.1110     7.1030     7.3760    24.5910     2.4530    -5.2610 
  255.5000    55.3040     8.0940     7.0890     6.6900    24.2710     2.4490    -5.1940 
  255.6250    54.3190     8.0930     7.0840     6.5890    24.0890     2.4540    -5.0700 
  255.7500    52.1280     8.1040     7.0850     6.7690    24.0410     2.4640    -4.9490 
  255.8750    51.9590     8.1200     7.0850     7.0350    24.0600     2.4670    -4.8560 
  256.0000    52.5490     8.1330     7.0790     7.2520    24.1450     2.4520    -4.7970 
  256.1250    51.2440     8.1450     7.0690     7.1520    24.3180     2.4150    -4.7650 
  256.2500    50.6280     8.1640     7.0640     6.8950    24.3860     2.3720    -4.7110 
  256.3750    52.8210     8.2050     7.0780     6.6390    24.4080     2.3350    -4.6210 
  256.5000    55.1780     8.2730     7.1230     6.4090    24.3000     2.3060    -4.5340 
  256.6250    53.9270     8.3700     7.2040     6.2890    23.8630     2.2760    -4.4700 
  256.7500    52.5790     8.4700     7.2970     6.1770    23.5660     2.2400    -4.4370 
  256.8750    52.7540     8.5460     7.3720     6.2650    23.5680     2.2060    -4.4260 
  257.0000    52.2710     8.5680     7.3990     6.4030    23.7140     2.1900    -4.4060 
  257.1250    49.8100     8.5110     7.3520     6.3810    23.9930     2.2020    -4.3940 
  257.2500    47.7030     8.3950     7.2520     6.2900    24.5110     2.2290    -4.4000 
  257.3750    47.6610     8.2490     7.1240     6.2320    24.9320     2.2550    -4.4110 
