~V
VERS. 2.00: Ver 2.00
~W
STRT.M 50.0000:
STOP.M 284.0000:
STEP.M 0.1250:
NULL. -999.2500:
UWI. F10254:
~C
DEPT.M :
GR.API :
RML.OHMM :
RI. :
RXO.OHMM :
CALI.CM :
DEN.GM/CC :
SP.MV :
~A
# ...
  185.0000    90.0790     6.2420     5.6220     6.4090    24.2330     2.4610    -1.6630 
  185.1250    88.3660     6.6860     5.9200     6.1590    24.6510     2.4870    -0.7850 
  185.2500    83.6580     7.3760     6.4600     6.5410    24.9730     2.5060    -0.2140 
  185.3750    80.2270     8.1040     7.0980     7.8620    25.0940     2.5110     0.0790 
  185.5000    79.8150     8.5750     7.5890     9.6180    25.0800     2.4980     0.2190 
  185.6250    81.6870     8.4210     7.5790     9.3360    24.9930     2.4720     0.3770 
  185.7500    84.5280     7.7290     7.0790     7.4570    24.8870     2.4450     0.5450 
  185.8750    86.2780     6.7580     6.2850     5.9180    24.7860     2.4230     0.7220 
  186.0000    85.6140     5.8170     5.4600     5.1210    24.6420     2.4060     0.9160 
  186.1250    83.6280     5.1770     4.8370     4.6770    24.4720     2.3920     1.0560 
  186.2500    81.5100     4.8580     4.4640     4.3270    24.3620     2.3780     1.1730 
  186.3750    80.9050     4.8280     4.3340     4.1140    24.4680     2.3660     1.3200 
  186.5000    82.6140     5.0320     4.4190     4.3700    24.7870     2.3590     1.4570 
  186.6250    84.9600     5.4230     4.6960     5.1800    25.0170     2.3610     1.4340 
  186.7500    86.1160     5.8750     5.0650     6.1520    25.0980     2.3700     1.3690 
  186.8750    85.5730     6.2880     5.4420     6.4520    25.1120     2.3800     1.3180 
  187.0000    84.0300     6.5780     5.7480     6.5740    25.1050     2.3850     1.1960 
  187.1250    82.5230     6.6830     5.9070     6.8090    25.0520     2.3800     1.0140 
  187.2500    83.1620     6.6580     5.9380     6.7470    24.9330     2.3670     0.8120 
  187.3750    86.5220     6.5630     5.8830     6.4250    24.7490     2.3520     0.5760 
  187.5000    89.2850     6.4540     5.7880     6.3220    24.6140     2.3370     0.3240 
  187.6250    88.1860     6.3520     5.6780     6.3090    24.5870     2.3270     0.1580 
  187.7500    85.2320     6.2600     5.5700     6.1780    24.7110     2.3200     0.0240 
  187.8750    85.0650     6.1840     5.4730     6.0620    24.9510     2.3140    -0.1830 
  188.0000    89.7890     6.1290     5.3950     5.9440    25.1300     2.3100    -0.4190 
  188.1250    95.8180     6.1230     5.3580     6.0540    25.1820     2.3100    -0.5930 
  188.2500    99.1120     6.1830     5.3780     6.0670    25.1710     2.3130    -0.7150 
  188.3750    98.9150     6.3140     5.4660     6.1100    25.0590     2.3180    -0.8760 
  188.5000    96.2770     6.4880     5.6050     6.2900    24.7700     2.3240    -1.1160 
  188.6250    92.3900     6.6280     5.7480     6.6010    24.4370     2.3280    -1.3570 
  188.7500    88.9460     6.6680     5.8330     7.1600    24.4340     2.3290    -1.5190 
  188.8750    87.0560     6.5810     5.8270     7.1640    24.6860     2.3280    -1.5890 
  189.0000    86.3280     6.4070     5.7430     6.7250    24.9480     2.3290    -1.6110 
  189.1250    85.0870     6.2590     5.6540     6.2810    25.0360     2.3330    -1.6010 
  189.2500    84.0360     6.2430     5.6420     6.2150    25.0220     2.3400    -1.5320 
  189.3750    84.3140     6.3940     5.7470     6.3260    24.9440     2.3500    -1.4150 
  189.5000    84.2740     6.6710     5.9550     6.5250    24.8410     2.3570    -1.2520 
  189.6250    82.5430     6.9410     6.1830     6.9190    24.7590     2.3590    -1.0650 
  189.7500    80.9550     7.0530     6.3080     7.3340    24.7290     2.3530    -0.9430 
  189.8750    81.0840     6.9400     6.2570     7.3400    24.7320     2.3410    -0.8890 
  190.0000    82.8470     6.6390     6.0410     6.7820    24.7520     2.3290    -0.8230 
  190.1250    84.5440     6.2880     5.7530     6.2200    24.7800     2.3190    -0.7270 
  190.2500    85.7640     6.0410     5.5240     5.8490    24.7870     2.3130    -0.6430 
  190.3750    86.0770     5.9750     5.4280     5.8180    24.7470     2.3090    -0.5750 
  190.5000    86.9120     6.0980     5.4930     6.1130    24.6480     2.3080    -0.5300 
  190.6250    88.3660     6.3840     5.7200     6.7050    24.5750     2.3110    -0.5600 
  190.7500    86.2740     6.7430     6.0340     7.3710    24.5470     2.3180    -0.5950 
  190.8750    80.3030     7.1370     6.3950     7.7550    24.5450     2.3270    -0.5650 
  191.0000    74.7210     7.5560     6.7830     7.8480    24.5470     2.3350    -0.5750 
  191.1250    75.2490     8.0220     7.2000     7.9780    24.5370     2.3370    -0.7310 
  191.2500    78.2050     8.5310     7.6400     8.4380    24.5150     2.3330    -0.9170 
  191.3750    78.5290     9.0050     8.0570     9.3330    24.4910     2.3230    -1.0540 
  191.5000    75.7700     9.2690     8.3230     9.8670    24.4790     2.3110    -1.1220 
  191.6250    75.1170     9.0840     8.2430     9.7200    24.4760     2.3040    -1.1780 
  191.7500    77.0490     8.5790     7.9000     9.7840    24.4660     2.3050    -1.2590 
  191.8750    79.1770     8.0510     7.5130     9.7000    24.4460     2.3120    -1.3210 
  192.0000    80.9740     7.8520     7.3410     8.2260    24.4270     2.3190    -1.3370 
  192.1250    81.5690     8.3720     7.6730     7.7870    24.3990     2.3170    -1.3260 
  192.2500    79.8430     9.5670     8.5470     9.7910    24.3480     2.3030    -1.3310 
  192.3750    75.9070    11.2350     9.9160    14.5190    24.2900     2.2810    -1.3110 
  192.5000    73.5160    12.9470    11.5290    18.0560    24.2270     2.2580    -1.2780 
  192.6250    73.4600    14.0210    12.8190    17.0050    24.1790     2.2400    -1.2210 
  192.7500    71.9480    14.2490    13.3980    14.4890    24.1680     2.2270    -1.1320 
  192.8750    71.0100    13.8290    13.2850    13.1430    24.2980     2.2170    -1.0770 
  193.0000    72.6000    13.1930    12.8010    13.0140    24.5950     2.2100    -1.0830 
  193.1250    75.1090    12.7140    12.2950    13.5870    24.9830     2.2050    -1.0620 
  193.2500    75.4560    12.4200    11.9000    13.9400    25.2230     2.2030    -1.0050 
  193.3750    76.0030    12.2240    11.6080    13.8070    25.2870     2.2080    -1.0460 
  193.5000    78.6350    12.1140    11.4280    13.2720    25.2660     2.2240    -1.1940 
  193.6250    79.9690    12.2960    11.5260    12.9320    25.2490     2.2550    -1.3780 
  193.7500    80.2910    13.0280    12.0870    13.5370    25.2320     2.2940    -1.5940 
  193.8750    78.9630    14.6290    13.3780    14.9540    25.2070     2.3280    -1.8450 
  194.0000    75.4800    17.4310    15.7390    17.9800    25.1870     2.3430    -2.1060 
  194.1250    70.4440    22.0030    19.8530    27.3100    25.1920     2.3260    -2.3860 
  194.2500    64.9740    29.6500    25.7550    39.7890    25.2170     2.2880    -2.7080 
  194.3750    61.1530    38.9070    33.2110    50.8970    25.2370     2.2450    -2.9720 
  194.5000    61.0080    46.9160    41.0790    61.0580    25.2260     2.2130    -3.1340 
  194.6250    64.6010    51.3020    46.1670    63.1550    25.1650     2.2020    -3.2090 
  194.7500    66.4210    49.4690    45.7080    60.8180    25.0780     2.2080    -3.2550 
  194.8750    64.5570    41.5910    39.2360    54.6400    24.9590     2.2240    -3.2520 
  195.0000    63.0560    30.9210    29.5060    38.9660    24.8770     2.2510    -3.1080 
  195.1250    66.6750    21.4980    20.6130    21.0540    24.7970     2.2900    -2.8170 
  195.2500    73.0570    14.7740    14.2440     9.9370    24.6650     2.3410    -2.5260 
  195.3750    77.9050    10.6260    10.2660     6.1340    24.5020     2.3980    -2.3220 
  195.5000    81.2870     8.4480     8.0610     5.3720    24.4120     2.4540    -2.1770 
  195.6250    84.5860     7.7600     7.2040     5.7740    24.4020     2.5030    -2.0520 
  195.7500    88.5030     7.8360     7.1150     6.3060    24.4360     2.5390    -1.9790 
  195.8750    91.7510     8.3630     7.5680     7.0240    24.4670     2.5590    -2.0030 
  196.0000    95.0470     9.1000     8.3560     7.8630    24.4790     2.5620    -2.1120 
  196.1250    97.7180     9.8580     9.2740     8.5860    24.4810     2.5480    -2.3740 
