~V
VERS. 2.00: Ver 2.00
~W
STRT.M 58.0000:
STOP.M 273.0000:
STEP.M 0.1250:
NULL. -999.2500:
UWI. F10226:
~C
DEPT.M :
SP.MV :
DEN.GM/CC :
GR.API :
RML.OHMM :
RI. :
RXO.OHMM :
CALI.CM :
~A
# ...
  193.0000   -24.5660     2.2830    76.6430    40.5470    35.7020    39.6180    23.4020 
  193.1250   -24.7170     2.2710    79.4500    37.4560    32.8240    31.9290    23.2610 
  193.2500   -24.9330     2.2480    82.5800    36.5840    31.5580    23.8980    23.0860 
  193.3750   -25.1750     2.2210    82.2600    39.6590    33.2170    26.0250    22.7820 
  193.5000   -25.3850     2.2010    78.6230    46.7540    38.0850    41.3230    22.4010 
  193.6250   -25.5930     2.1880    74.1470    57.6670    46.3470    62.9160    22.3820 
  193.7500   -25.8460     2.1840    72.2800    71.3780    57.5110    77.3660    22.8840 
  193.8750   -26.1410     2.1870    74.4530    85.3740    69.7390    82.9700    23.1980 
  194.0000   -26.4150     2.1920    76.4720    96.6250    80.1510    91.7150    23.2370 
  194.1250   -26.7120     2.1980    75.4260   103.8340    87.2230   100.0690    23.2260 
  194.2500   -27.0420     2.2040    71.7940   107.6580    91.1630   105.5160    23.2350 
  194.3750   -27.3000     2.2110    68.7510   109.4740    92.9440   103.8060    23.1400 
  194.5000   -27.4980     2.2120    69.1300   110.7000    93.8940   103.3740    22.9940 
  194.6250   -27.7350     2.2080    72.4440   111.9770    94.6800   105.2370    22.9160 
  194.7500   -27.9820     2.2000    75.0340   113.5930    95.6600   105.6000    23.0080 
  194.8750   -28.0890     2.1930    73.8970   115.4170    96.8690   103.1010    23.3250 
  195.0000   -28.1700     2.1930    70.8230   116.9280    98.0080    97.6170    23.6060 
  195.1250   -28.3170     2.1990    69.4500   117.8150    98.9040    91.2530    23.6940 
  195.2500   -28.3930     2.2060    70.6950   118.2510    99.6950    83.3860    23.5650 
  195.3750   -28.3850     2.2100    72.2860   118.9610   100.9210    78.4730    23.4560 
  195.5000   -28.4590     2.2110    72.0660   120.3890   102.8360    80.6780    23.4220 
  195.6250   -28.5720     2.2110    69.2630   122.2650   105.1880    90.5020    23.3810 
  195.7500   -28.5930     2.2120    65.8820   123.6790   107.2490   100.1650    23.2430 
  195.8750   -28.6420     2.2120    66.9190   123.1400   107.8080   104.3790    23.1150 
  196.0000   -28.8120     2.2110    69.9820   120.3920   106.5230   100.5340    23.0840 
  196.1250   -28.9580     2.2090    70.2310   116.1250   103.7490    85.2660    23.1460 
  196.2500   -29.0680     2.2070    68.5540   111.6990   100.4470    63.7230    23.2500 
  196.3750   -29.2900     2.2090    71.7030   108.7030    97.8730    60.4090    23.3560 
  196.5000   -29.5310     2.2120    76.2540   107.6110    96.5910    63.6940    23.4020 
  196.6250   -29.6740     2.2160    75.8780   108.4600    96.7360    70.5660    23.4020 
  196.7500   -29.7880     2.2170    72.2960   111.1360    98.3050    77.0870    23.3930 
  196.8750   -29.9730     2.2130    70.7350   115.9640   101.6500    79.3600    23.3850 
  197.0000   -30.1410     2.2080    68.9670   123.0390   106.9000    82.1740    23.3520 
  197.1250   -30.2610     2.2040    65.2820   132.6630   114.3150    83.6850    23.2900 
  197.2500   -30.3850     2.2060    62.0860   144.5630   123.6840    93.6920    23.2690 
  197.3750   -30.5100     2.2140    62.8880   157.1940   133.8370   118.7150    23.3440 
  197.5000   -30.5710     2.2250    65.1480   168.2070   142.9200   139.6100    23.4350 
  197.6250   -30.6040     2.2320    65.4100   176.4710   149.9550   152.0270    23.5140 
  197.7500   -30.6700     2.2290    63.6730   182.6240   155.2460   150.5370    23.5030 
  197.8750   -30.6740     2.2090    63.4010   188.9940   160.4350   131.3410    23.4450 
  198.0000   -30.5050     2.1780    64.5690   197.6390   167.2290   131.1350    23.5040 
  198.1250   -30.2560     2.1430    64.4690   208.8080   175.9620   155.1150    23.7420 
  198.2500   -30.0510     2.1120    62.9440   220.6410   185.3030   197.1270    24.2510 
  198.3750   -29.6990     2.0930    61.3800   228.8670   192.0360   214.4280    25.0190 
  198.5000   -29.1940     2.0810    59.2370   231.1150   194.2300   212.4770    25.5640 
  198.6250   -28.7070     2.0730    57.0080   227.8640   192.0090   199.7750    25.8550 
  198.7500   -28.2250     2.0660    57.1960   222.1740   187.5730   181.8110    26.0240 
  198.8750   -27.5910     2.0660    58.7230   218.6210   184.6650   169.2990    26.0780 
  199.0000   -26.9350     2.0770    58.1000   219.9740   185.9110   167.3670    25.9620 
  199.1250   -26.3960     2.1070    56.1140   227.4690   192.6440   176.2630    25.6820 
  199.2500   -25.8380     2.1570    55.1740   241.2210   205.1420   194.8520    25.3750 
  199.3750   -25.2130     2.2190    55.1450   260.4330   222.8770   230.3690    25.1220 
  199.5000   -24.7230     2.2730    54.2750   280.6030   241.9510   257.7950    24.7860 
  199.6250   -24.2970     2.3040    53.6560   296.1050   257.5890   267.4990    24.2950 
  199.7500   -23.8180     2.3030    55.8400   301.1030   264.8030   272.7480    23.7410 
  199.8750   -23.3690     2.2820    59.2310   290.6900   259.0560   287.1260    23.5760 
  200.0000   -23.0500     2.2680    60.1270   269.7060   243.7960   268.2900    23.7930 
  200.1250   -22.7330     2.2810    59.2810   243.8870   223.5560   219.7100    24.1880 
  200.2500   -22.3460     2.3190    59.9360   218.0390   202.5430   162.2990    24.5050 
  200.3750   -21.9800     2.3510    61.3980   195.2930   183.7960   137.2360    24.6310 
  200.5000   -21.6280     2.3570    61.2700   176.2540   168.1270   134.6280    24.6160 
  200.6250   -21.2690     2.3400    60.5860   161.5350   156.1040   137.3930    24.5100 
  200.7500   -20.8530     2.3330    62.0960   152.1370   148.6150   133.4360    24.4480 
  200.8750   -20.4010     2.3710    64.7430   151.0860   148.7630   125.1370    24.5530 
  201.0000   -19.9480     2.4530    64.7840   160.2770   159.5710   121.4120    24.7520 
  201.1250   -19.4150     2.5550    62.3290   182.3070   185.0890   160.2740    24.9060 
  201.2500   -18.8330     2.6480    58.3770   214.6780   224.4500   238.2680    24.8550 
  201.3750   -18.3400     2.7070    56.0060   223.1460   246.6730   319.9460    24.7230 
  201.5000   -17.8180     2.7290    55.3850   172.5860   204.0460   377.7770    24.5910 
  201.6250   -17.1920     2.7160    54.8590    97.4580   119.1520   373.1570    24.4820 
  201.7500   -16.6610     2.6700    54.4550    44.3890    53.1010   148.6260    24.4190 
  201.8750   -16.3300     2.6000    56.9340    20.0420    23.0880    39.0240    24.3780 
  202.0000   -15.9990     2.5250    63.8110     9.1360    10.6540    11.0000    24.2320 
  202.1250   -15.7170     2.4610    72.9070     4.4880     5.1230     4.6470    24.0760 
  202.2500   -15.6360     2.4160    81.1010     2.7950     2.9340     3.3450    23.9310 
  202.3750   -15.7250     2.3940    85.0640     2.7300     2.3810     4.2780    23.8410 
  202.5000   -15.9060     2.3900    84.8560     3.5580     2.6850     6.1310    23.7280 
  202.6250   -16.2370     2.3940    83.7360     5.0060     3.7080     7.7200    23.5880 
  202.7500   -16.7150     2.3960    84.2360     6.6810     5.2860     7.8850    23.4310 
  202.8750   -17.2520     2.3870    85.8930     7.8490     6.8800     7.7460    23.3030 
  203.0000   -17.8100     2.3690    87.1230     8.2140     7.8640     7.7630    23.2380 
  203.1250   -18.4470     2.3500    87.4540     7.9680     8.1390     8.0820    23.2960 
  203.2500   -19.1280     2.3310    87.5840     7.5120     7.9990     7.8740    23.3220 
  203.3750   -19.7520     2.3180    88.2870     7.1940     7.7610     7.1600    23.3060 
  203.5000   -20.3490     2.3100    87.8250     7.0960     7.5790     6.8970    23.4200 
  203.6250   -20.9760     2.3050    85.2840     7.2060     7.4800     7.2440    23.6780 
  203.7500   -21.5990     2.3070    84.8090     7.5090     7.4610     7.9030    23.8800 
  203.8750   -22.1590     2.3150    88.1150     8.0180     7.5420     7.8480    23.6980 
  204.0000   -22.7180     2.3310    89.5150     8.6870     7.7250     7.6680    23.3970 
  204.1250   -23.2900     2.3510    87.0650     9.4660     8.0100     7.9150    23.1960 
