~V
VERS. 2.00: Ver 2.00
~W
STRT.M 50.0000:
STOP.M 274.0000:
STEP.M 0.1250:
NULL. -999.2500:
UWI. F10208:
~C
DEPT.M :
SP.MV :
DEN.GM/CC :
GR.API :
RML.OHMM :
RI. :
RXO.OHMM :
CALI.CM :
~A
# ...
  106.2500   -24.2330     2.1610    47.7050     9.4980     7.6860    10.4700    24.5040 
  106.3750   -24.2430     2.1670    47.4610     9.6160     7.7470    10.2830    24.5380 
  106.5000   -24.2600     2.2070    50.5820     9.8020     7.8750    10.2610    24.4780 
  106.6250   -24.3320     2.2720    51.2780     9.9410     8.0020    11.3370    24.0940 
  106.7500   -24.4460     2.3270    48.1910     9.9570     8.0630    13.5940    23.6170 
  106.8750   -24.6520     2.3460    46.4640     9.8340     8.0250    14.2640    23.4800 
  107.0000   -24.9070     2.3200    47.6110     9.6160     7.9010    11.8270    23.2820 
  107.1250   -25.2410     2.2630    49.0550     9.3860     7.7300    10.4770    22.9340 
  107.2500   -25.5850     2.2030    48.3330     9.2050     7.5630     9.9280    22.4810 
  107.3750   -25.9010     2.1600    46.7370     9.0830     7.4170     9.9280    22.0750 
  107.5000   -26.1830     2.1390    45.8870     8.9980     7.2940     9.9870    21.9570 
  107.6250   -26.3520     2.1420    45.5690     8.9180     7.1850    10.1760    22.6310 
  107.7500   -26.4880     2.1600    45.8960     8.8320     7.0820    10.1780    23.1850 
  107.8750   -26.5370     2.1850    47.5670     8.7650     7.0000    10.0110    23.3520 
  108.0000   -26.4090     2.2100    49.1780     8.7500     6.9560     9.7780    23.2810 
  108.1250   -26.0700     2.2230    49.3620     8.8020     6.9680     9.5980    23.3410 
  108.2500   -25.6580     2.2180    48.9870     8.8880     7.0170     9.6220    23.4510 
  108.3750   -25.2600     2.1980    50.1210     8.9780     7.0890     9.7260    23.2960 
  108.5000   -24.8710     2.1720    52.5410     9.0510     7.1650     9.9310    22.8910 
  108.6250   -24.4560     2.1500    53.6520     9.0990     7.2270    10.1040    22.7500 
  108.7500   -24.0160     2.1350    53.9280     9.1300     7.2660     9.9820    22.8300 
  108.8750   -23.5540     2.1260    54.7770     9.1440     7.2820     9.6990    22.8030 
  109.0000   -23.1920     2.1170    55.1620     9.1360     7.2790     9.5620    22.7910 
  109.1250   -23.0620     2.1090    53.5690     9.0970     7.2490     9.6030    22.8370 
  109.2500   -23.0670     2.1020    51.7260     9.0390     7.1910     9.7350    22.9290 
  109.3750   -23.1720     2.0990    51.5680     8.9750     7.1050     9.9180    23.0400 
  109.5000   -23.2900     2.1010    52.4080     8.9180     7.0030    10.1350    22.8510 
  109.6250   -23.4680     2.1070    52.2970     8.8830     6.9120    10.2310    22.7500 
  109.7500   -23.6800     2.1150    51.2920     8.8630     6.8500    10.2650    22.7450 
  109.8750   -23.8790     2.1230    51.2600     8.8430     6.8160    10.2120    22.6430 
  110.0000   -24.0830     2.1320    53.4870     8.8100     6.7980    10.3630    22.5560 
  110.1250   -24.1960     2.1400    56.9410     8.7550     6.7790    10.4440    22.5380 
  110.2500   -24.1720     2.1460    60.2040     8.6910     6.7550     9.9900    22.5080 
  110.3750   -24.0700     2.1490    62.3010     8.6440     6.7370     9.1210    22.3530 
  110.5000   -23.9670     2.1480    62.3140     8.6420     6.7420     8.1630    22.1170 
  110.6250   -23.8620     2.1410    58.2370     8.6790     6.7780     8.0710    22.0770 
  110.7500   -23.7320     2.1310    52.3590     8.6840     6.8230     8.1980    22.0680 
  110.8750   -23.6300     2.1180    50.0730     8.5980     6.8440     8.4390    22.0720 
  111.0000   -23.5520     2.1000    53.1460     8.4200     6.8090     8.4980    22.1000 
  111.1250   -23.4440     2.0800    57.0150     8.2290     6.7030     8.4040    22.1940 
  111.2500   -23.3450     2.0630    55.1240     8.1180     6.5680     8.1930    22.4210 
  111.3750   -23.2780     2.0560    51.2660     8.1100     6.4450     7.9960    22.7700 
  111.5000   -23.1800     2.0650    51.3930     8.1670     6.3680     7.8660    23.2320 
  111.6250   -23.0080     2.0910    54.1010     8.2360     6.3560     8.0730    23.8030 
  111.7500   -22.7650     2.1210    54.1950     8.3030     6.3880     8.3200    24.1930 
  111.8750   -22.4490     2.1460    52.5000     8.3940     6.4560     8.5040    24.5940 
  112.0000   -22.0260     2.1570    51.9460     8.5160     6.5480     8.6680    24.6870 
  112.1250   -21.5110     2.1500    52.1200     8.5890     6.6240     8.7370    24.5490 
  112.2500   -20.9370     2.1360    52.9270     8.5060     6.6180     8.7520    24.3140 
  112.3750   -20.2080     2.1250    56.3150     8.2230     6.4790     8.7350    24.2370 
  112.5000   -19.3900     2.1290    63.6650     7.7930     6.2180     8.6350    24.3630 
  112.6250   -18.5690     2.1510    72.4270     7.3590     5.9070     7.8160    24.6020 
  112.7500   -17.7480     2.1810    76.7450     7.0470     5.6480     6.5800    24.8330 
  112.8750   -17.0090     2.2070    75.5800     6.8880     5.4790     5.8140    25.0990 
  113.0000   -16.3500     2.2250    73.2830     6.8280     5.3890     5.9800    25.0230 
  113.1250   -15.7960     2.2360    73.1330     6.7680     5.3310     6.5360    24.8960 
  113.2500   -15.3340     2.2500    72.7430     6.6480     5.2610     6.6120    24.7850 
  113.3750   -14.9590     2.2660    72.9170     6.4790     5.1790     6.0790    24.6420 
  113.5000   -14.7080     2.2790    74.6060     6.3100     5.1010     5.5780    24.4450 
  113.6250   -14.4890     2.2810    75.1630     6.2110     5.0560     5.8240    24.3520 
  113.7500   -14.2930     2.2770    75.2570     6.1990     5.0560     6.5250    24.3280 
  113.8750   -14.1120     2.2760    78.0320     6.2490     5.1000     6.8150    24.2820 
  114.0000   -13.9210     2.2870    85.0350     6.3060     5.1650     6.4250    24.2590 
  114.1250   -13.7990     2.3120    89.5500     6.3040     5.2040     6.0150    24.2320 
  114.2500   -13.7290     2.3390    87.4110     6.2290     5.1840     6.6300    24.1380 
  114.3750   -13.7320     2.3550    82.0620     6.0780     5.0900     8.0630    24.0530 
  114.5000   -13.7870     2.3520    78.6360     5.8630     4.9220     8.5520    24.0860 
  114.6250   -13.8830     2.3320    80.6940     5.6070     4.6980     6.5260    24.1940 
  114.7500   -14.0430     2.3070    83.8760     5.3630     4.4670     5.4110    24.2360 
  114.8750   -14.2260     2.2880    87.5780     5.1790     4.2710     5.0220    24.1890 
  115.0000   -14.3970     2.2810    91.5800     5.0940     4.1420     5.0560    24.1190 
  115.1250   -14.5110     2.2850    92.9750     5.1230     4.1030     5.1370    24.0980 
  115.2500   -14.5340     2.2950    91.8860     5.1970     4.1190     5.1090    24.0500 
  115.3750   -14.4660     2.3080    89.8150     5.2540     4.1570     5.0750    23.9540 
  115.5000   -14.2930     2.3220    89.2210     5.2650     4.1940     5.1470    23.9730 
  115.6250   -14.0900     2.3330    89.3350     5.2460     4.2260     5.2790    23.9410 
  115.7500   -13.8870     2.3370    88.4670     5.2660     4.2800     5.2900    23.9830 
  115.8750   -13.6620     2.3300    87.4340     5.3760     4.3820     5.3100    24.0690 
  116.0000   -13.4690     2.3150    86.3480     5.5980     4.5520     5.2510    24.0970 
  116.1250   -13.3270     2.2980    83.5690     5.9040     4.7960     5.3640    24.0830 
  116.2500   -13.2040     2.2860    80.2280     6.1850     5.0490     5.5880    24.0600 
  116.3750   -13.1120     2.2790    77.6690     6.3290     5.2330     5.7300    24.0320 
  116.5000   -13.0730     2.2730    76.8060     6.2580     5.2660     5.7560    23.8560 
  116.6250   -13.0820     2.2660    79.1480     5.9600     5.0930     5.8010    24.0590 
  116.7500   -13.1310     2.2630    83.7350     5.5770     4.7940     5.7080    24.1810 
  116.8750   -13.1700     2.2670    88.4910     5.2130     4.4530     5.2280    24.0730 
  117.0000   -13.2010     2.2810    89.7260     4.9300     4.1400     4.7800    24.0070 
  117.1250   -13.2250     2.3000    89.2660     4.7550     3.9090     4.6980    23.9270 
  117.2500   -13.2710     2.3150    89.4840     4.6490     3.7510     4.8310    23.9410 
  117.3750   -13.3530     2.3240    90.3210     4.5780     3.6530     4.9240    23.9280 
