~V
VERS. 2.00: Ver 2.00
~W
STRT.M 50.0000:
STOP.M 283.0000:
STEP.M 0.1250:
NULL. -999.2500:
UWI. F10256:
~C
DEPT.M :
DEN.GM/CC :
GR.API :
RML.OHMM :
RI. :
RXO.OHMM :
CALI.CM :
SP.MV :
~A
# ...
  140.0000     2.2380    48.9790    14.3470    14.4220    14.6790    24.4120   -11.2440 
  140.1250     2.2660    50.1960    13.5630    13.6250    12.8650    24.4580   -11.4270 
  140.2500     2.2930    52.0020    12.8560    12.7940    12.2180    24.4640   -11.5680 
  140.3750     2.2990    53.8510    12.2450    12.0050    11.9940    24.4530   -11.6850 
  140.5000     2.2760    55.6050    11.7430    11.3130    11.8180    24.4300   -11.8000 
  140.6250     2.2340    57.8340    11.4150    10.8030    11.6550    24.4480   -11.9090 
  140.7500     2.1980    59.4580    11.2790    10.4980    11.5840    24.5370   -11.9670 
  140.8750     2.1750    58.5620    11.3300    10.3980    11.5990    24.5750   -11.9740 
  141.0000     2.1660    55.6280    11.5090    10.4580    11.6710    24.4970   -11.9630 
  141.1250     2.1670    54.9650    11.7060    10.5940    11.7640    24.3710   -11.9550 
  141.2500     2.1720    56.6380    11.8200    10.6960    11.8240    24.2720   -11.9290 
  141.3750     2.1810    59.2230    11.8130    10.7090    11.7870    24.1530   -11.8860 
  141.5000     2.1910    61.6240    11.6920    10.6210    11.6320    24.0410   -11.8370 
  141.6250     2.2020    62.3760    11.4920    10.4480    11.2860    23.9850   -11.7830 
  141.7500     2.2110    63.1740    11.2890    10.2590    10.9340    23.8920   -11.7340 
  141.8750     2.2170    64.7870    11.1530    10.1160    10.7900    23.7970   -11.6740 
  142.0000     2.2210    65.0180    11.1690    10.0960    10.8740    23.7950   -11.6010 
  142.1250     2.2290    62.3390    11.4690    10.3150    11.0460    23.8680   -11.5330 
  142.2500     2.2420    62.0010    12.0660    10.7960    11.3500    23.9800   -11.4630 
  142.3750     2.2600    64.3130    12.9240    11.5340    11.9960    24.1640   -11.3640 
  142.5000     2.2760    65.0830    13.9160    12.4490    13.1650    24.3520   -11.2190 
  142.6250     2.2840    62.8180    14.7560    13.3310    14.9040    24.4070   -11.0680 
  142.7500     2.2870    62.8100    15.1480    13.8930    15.8760    24.3780   -10.9300 
  142.8750     2.2870    66.2120    14.8730    13.8940    15.8920    24.3110   -10.7940 
  143.0000     2.2850    68.4140    13.8830    13.2150    14.9910    24.1720   -10.6420 
  143.1250     2.2830    66.3860    12.2940    11.8880    13.4510    24.0350   -10.4550 
  143.2500     2.2800    63.4470    10.5490    10.3170    11.7300    24.0280   -10.2790 
  143.3750     2.2790    63.2140     8.9430     8.7910     9.6470    24.1050   -10.1290 
  143.5000     2.2830    66.9500     7.6530     7.4960     7.7160    24.1350    -9.9900 
  143.6250     2.2940    70.9960     6.7890     6.5550     6.7690    24.1020    -9.8400 
  143.7500     2.3070    71.8600     6.2350     5.8940     6.1740    23.9950    -9.6680 
  143.8750     2.3170    70.0510     5.8990     5.4510     5.6390    23.8620    -9.4950 
  144.0000     2.3240    70.1690     5.6840     5.1530     5.3670    23.8270    -9.3570 
  144.1250     2.3290    73.8650     5.5080     4.9360     5.2280    23.9320    -9.2390 
  144.2500     2.3330    76.0530     5.3340     4.7500     5.1250    24.1480    -9.1230 
  144.3750     2.3360    77.6560     5.1950     4.6080     5.0290    24.4130    -9.0230 
  144.5000     2.3370    81.6870     5.1590     4.5570     4.9030    24.5510    -8.9590 
  144.6250     2.3410    85.8520     5.3290     4.6780     4.8100    24.5270    -8.9100 
  144.7500     2.3520    85.8640     5.6950     4.9740     4.9090    24.4650    -8.9000 
  144.8750     2.3710    83.3500     6.1950     5.4050     5.3370    24.4360    -8.9160 
  145.0000     2.3930    81.1200     6.7010     5.8790     6.0570    24.3580    -8.9320 
  145.1250     2.4060    78.5850     7.0150     6.2240     6.9980    24.2160    -8.9870 
  145.2500     2.4070    76.9950     7.0460     6.3330     7.8660    24.0460    -9.0510 
  145.3750     2.3980    76.8700     6.8010     6.1790     7.9660    23.8320    -9.1100 
  145.5000     2.3840    76.7110     6.3880     5.8320     6.9940    23.6060    -9.1410 
  145.6250     2.3730    76.5240     5.9840     5.4390     5.9370    23.4640    -9.1770 
  145.7500     2.3620    78.1580     5.7090     5.1250     5.4470    23.3850    -9.2270 
  145.8750     2.3470    82.5400     5.5800     4.9260     5.2400    23.3060    -9.2840 
  146.0000     2.3280    86.3930     5.5500     4.8250     5.1440    23.2600    -9.3320 
  146.1250     2.3100    84.6270     5.5640     4.7970     5.2210    23.2490    -9.3960 
  146.2500     2.2980    79.5390     5.6040     4.8150     5.4340    23.2080    -9.4780 
  146.3750     2.2980    77.3520     5.7210     4.9110     5.6070    23.1470    -9.5850 
  146.5000     2.3130    80.5020     5.9950     5.1380     5.5680    23.1470    -9.7230 
  146.6250     2.3440    81.3830     6.4950     5.5630     5.5950    23.1900    -9.8450 
  146.7500     2.3800    75.7840     7.1030     6.1050     6.3030    23.2460    -9.9410 
  146.8750     2.4070    69.0100     7.6440     6.6350     7.7350    23.3910   -10.0340 
  147.0000     2.4120    68.0430     7.9170     6.9800     9.9860    23.5990   -10.1300 
  147.1250     2.3890    73.4770     7.7140     6.9280    13.0670    23.8010   -10.2100 
  147.2500     2.3530    77.6990     7.1530     6.5320    12.4240    24.0110   -10.2590 
  147.3750     2.3210    78.4480     6.4440     5.9480     7.9300    24.2000   -10.2900 
  147.5000     2.3020    77.9660     5.8320     5.3920     5.6100    24.3110   -10.3280 
  147.6250     2.2970    80.1010     5.5270     5.0580     5.2460    24.3380   -10.3660 
  147.7500     2.2960    81.4140     5.4980     4.9550     5.2910    24.3540   -10.4060 
  147.8750     2.2970    77.8470     5.6620     5.0430     5.2250    24.3440   -10.4680 
  148.0000     2.3020    70.5200     5.9090     5.2460     5.3180    24.3050   -10.5430 
  148.1250     2.3110    67.1440     6.1360     5.4850     5.6000    24.3060   -10.5750 
  148.2500     2.3190    70.6310     6.3120     5.7080     5.9120    24.3340   -10.6200 
  148.3750     2.3220    76.8020     6.4670     5.9190     6.2100    24.3400   -10.6500 
  148.5000     2.3140    80.0400     6.6600     6.1540     6.5630    24.3610   -10.6520 
  148.6250     2.2960    78.5860     6.9750     6.4700     6.4810    24.4380   -10.6800 
  148.7500     2.2760    74.7910     7.4050     6.8770     6.6770    24.4630   -10.6880 
  148.8750     2.2660    70.6790     7.8880     7.3340     7.2330    24.4480   -10.6470 
  149.0000     2.2720    70.0140     8.2920     7.7430     7.9020    24.4540   -10.5780 
  149.1250     2.2990    74.1980     8.4140     7.9190     7.9770    24.4660   -10.5370 
  149.2500     2.3330    78.2280     8.2000     7.7880     7.9410    24.4240   -10.5090 
  149.3750     2.3590    79.3490     7.6880     7.3570     7.9340    24.3770   -10.4880 
  149.5000     2.3630    80.0280     7.0170     6.7340     7.5880    24.3400   -10.4540 
  149.6250     2.3480    81.2360     6.4060     6.1100     6.5290    24.3190   -10.4300 
  149.7500     2.3300    79.8560     6.0170     5.6470     5.8100    24.2720   -10.4310 
  149.8750     2.3200    74.9680     5.9360     5.4340     5.7590    24.2620   -10.4580 
  150.0000     2.3230    69.5640     6.2050     5.5210     6.0320    24.2660   -10.4870 
  150.1250     2.3440    67.8280     6.9070     5.9940     6.3210    24.2340   -10.5120 
  150.2500     2.3770    67.8860     7.9900     6.8230     6.7990    24.2130   -10.5410 
  150.3750     2.4200    66.8760     9.4520     8.0220     7.6680    24.1820   -10.5790 
  150.5000     2.4690    63.5120    11.2530     9.5840     9.4530    24.0680   -10.6080 
  150.6250     2.5150    59.6600    13.3150    11.4950    11.3680    23.9270   -10.5860 
  150.7500     2.5520    55.1310    15.4190    13.5580    12.7450    23.8630   -10.5490 
  150.8750     2.5760    50.5710    17.3660    15.5790    14.8300    23.9230   -10.4880 
  151.0000     2.5870    47.7990    18.9670    17.3440    17.5810    23.9680   -10.4350 
  151.1250     2.5850    47.1580    20.0410    18.6220    18.3730    23.9800   -10.3580 
