~V
VERS. 2.00: Ver 2.00
~W
STRT.M 53.0000:
STOP.M 267.0000:
STEP.M 0.1250:
NULL. -999.2500:
UWI. F10211:
~C
DEPT.M :
GR.API :
RML.OHMM :
RI. :
RXO.OHMM :
CALI.CM :
SP.MV :
DEN.GM/CC :
~A
# ...
  255.5000    55.9470    11.7230    10.9760    10.6870    24.5200   -13.0480     2.5220 
  255.6250    55.4810    11.8280    11.0780    12.0330    24.4150   -13.0030     2.5020 
  255.7500    55.2940    11.9260    11.1640    12.1280    24.3080   -12.9520     2.4760 
  255.8750    55.9640    12.0290    11.2410    11.7620    24.2190   -12.8590     2.4610 
  256.0000    57.0300    12.1570    11.3290    11.1700    24.1760   -12.7930     2.4630 
  256.1250    58.5940    12.3170    11.4400    10.6730    24.1320   -12.7320     2.4700 
  256.2500    60.3550    12.4940    11.5730    10.4380    24.1450   -12.6900     2.4740 
  256.3750    61.2560    12.6620    11.7140    10.3200    24.1480   -12.6420     2.4740 
  256.5000    60.9130    12.7780    11.8320    10.0950    24.0880   -12.6340     2.4760 
  256.6250    60.3640    12.8100    11.8880     9.8480    24.0330   -12.6500     2.4770 
  256.7500    60.2810    12.7390    11.8600    10.0270    24.0380   -12.6680     2.4750 
  256.8750    60.4260    12.5690    11.7460    10.9560    24.1100   -12.7180     2.4720 
  257.0000    60.3990    12.3260    11.5700    12.0430    24.2120   -12.7690     2.4720 
  257.1250    60.3830    12.0840    11.3890    11.2100    24.3240   -12.8090     2.4750 
  257.2500    60.3830    11.9180    11.2630     9.9280    24.3970   -12.8380     2.4780 
  257.3750    60.3830    11.8870    11.2430     9.2510    24.4040   -12.8860     2.4790 
  257.5000    60.3830    12.0270    11.3660     9.0080    24.3350   -12.9220     2.4780 
  257.6250    60.3830    12.2980    11.6100     9.0270    24.2730   -12.9470     2.4750 
  257.7500    60.3830    12.6450    11.9370     9.5600    24.2700   -12.9530     2.4710 
  257.8750    60.3830    13.0030    12.2920    10.3100    24.2890   -12.9420     2.4710 
  258.0000    60.3830    13.2730    12.5900    11.1550    24.2500   -12.9080     2.4770 
  258.1250    60.3830    13.3900    12.7610    11.5060    24.2150   -12.8730     2.4880 
  258.2500    60.3830    13.3180    12.7640    11.3650    24.2230   -12.8320     2.4960 
  258.3750    60.3830    13.0590    12.5920    10.8590    24.2490   -12.7800     2.4980 
  258.5000    60.3830    12.6380    12.2560    10.5380    24.2730   -12.7420     2.4950 
  258.6250    60.3830    12.1250    11.8370    10.4460    24.2800   -12.7040     2.4910 
  258.7500    60.3830    11.5770    11.4060    10.4940    24.2710   -12.6570     2.4890 
  258.8750    60.3830    11.0620    11.0210    10.5110    24.2600   -12.6090     2.4890 
  259.0000    60.3830    10.6700    10.7450    10.5100    24.2720   -12.5660     2.4850 
  259.1250    60.3830    10.4400    10.5880    10.0360    24.2740   -12.5250     2.4800 
  259.2500    60.3830    10.3730    10.5330     9.3280    24.2540   -12.4870     2.4810 
  259.3750    60.3830    10.4330    10.5460     8.8740    24.2310   -12.4730     2.4880 
  259.5000    60.3830    10.5720    10.5910     8.6340    24.2310   -12.4480     2.4970 
  259.6250    60.3830    10.7190    10.6370     8.3730    24.2490   -12.4240     2.5050 
  259.7500    60.3830    10.8320    10.6700     8.2220    24.2600   -12.4310     2.5130 
  259.8750    60.3830    10.8880    10.6860     8.2130    24.2430   -12.4740     2.5200 
  260.0000    60.3830    10.8770    10.6820     8.3410    24.2260   -12.5350     2.5180 
  260.1250    60.3830    10.8300    10.6680     8.4770    24.2200   -12.6070     2.5050 
  260.2500    60.3830    10.7810    10.6500     8.5310    24.2220   -12.7030     2.4810 
  260.3750    60.3830    10.7520    10.6360     8.4690    24.2300   -12.7910     2.4500 
  260.5000    60.3830    10.7460    10.6310     8.3730    24.2250   -12.8780     2.4300 
  260.6250    60.3830    10.7460    10.6330     8.3150    24.2010   -12.9530     2.4320 
  260.7500    60.3830    10.7440    10.6400     8.3580    24.1450   -13.0130     2.4560 
  260.8750    60.3830    10.7420    10.6470     8.6740    24.0790   -13.0570     2.4840 
  261.0000    60.3830    10.7400    10.6540     9.5580    24.0900   -13.1070     2.5080 
  261.1250    60.3830    10.7370    10.6600    10.2180    24.1490   -13.1540     2.5260 
  261.2500    60.3830    10.7320    10.6670    10.1660    24.1730   -13.1850     2.5370 
  261.3750    60.3830    10.7270    10.6740    10.3030    24.1750   -13.2130     2.5410 
  261.5000    60.3830    10.7240    10.6790    11.1530    24.1880   -13.2290     2.5350 
  261.6250    60.3830    10.7280    10.6820    12.7250    24.1930   -13.2460     2.5240 
  261.7500    60.3830    10.7360    10.6860    14.4180    24.2180   -13.2520     2.5080 
  261.8750    60.3830    10.7450    10.6920    15.6820    24.2580   -13.2510     2.4970 
  262.0000    60.3830    10.7510    10.6970    16.7740    24.3130   -13.2180     2.4990 
  262.1250    60.3830    10.7540    10.7000    17.8430    24.3440   -13.1660     2.5050 
  262.2500    60.3830    10.7560    10.6960    18.5230    24.3750   -13.1330     2.5010 
  262.3750    60.3830    10.7540    10.6890    18.3090    24.3740   -13.1090     2.4930 
  262.5000    60.3830    10.7470    10.6820    17.8850    24.2940   -13.1040     2.4930 
  262.6250    60.3830    10.7350    10.6760    18.0050    24.2020   -13.1140     2.4990 
  262.7500    60.3830    10.7250    10.6710    18.6390    24.1760   -13.1480     2.4980 
  262.8750    60.3830    10.7230    10.6660    19.2950    24.2270   -13.2220     2.4870 
  263.0000    60.3830    10.7230    10.6650    19.7540    24.2960   -13.3580     2.4790 
  263.1250    60.3830    10.7230    10.6650    20.0970    24.1800   -13.5570     2.4830 
  263.2500    60.3830    10.7230    10.6650    19.3330    24.1270   -13.7890     2.5020 
  263.3750    60.3830    10.7230    10.6650    17.2130    24.1130   -13.8810     2.5160 
  263.5000    60.3830    10.7230    10.6650    16.7390    24.1220   -13.8960     2.4960 
  263.6250    60.3830    10.7230    10.6650    14.0810    24.1100   -13.8990     2.4430 
  263.7500    60.3830    10.7230    10.6650    11.8220    23.8760  -999.2500     2.3650 
  263.8750    60.3830    10.7230    10.6650    10.0660    23.3880  -999.2500     2.2730 
  264.0000    60.3830    10.7230    10.6650     9.3210    23.0850  -999.2500     2.1830 
  264.1250    60.3830    10.7230    10.6650     9.1130    23.0250  -999.2500     2.1070 
  264.2500    60.3830    10.7230    10.6650     9.1740    22.9540  -999.2500     2.0480 
  264.3750    60.3830    10.7230    10.6650     9.3170    22.6290  -999.2500     2.0060 
  264.5000    60.3830    10.7230    10.6650     9.4370    22.0500  -999.2500     1.9830 
  264.6250    60.3830    10.7230    10.6650     9.4610    21.2270  -999.2500     1.9770 
  264.7500    60.3830    10.7230    10.6650     9.2380    19.9140  -999.2500     1.9780 
  264.8750    60.3830    10.7230    10.6650     8.8590    18.2410  -999.2500     1.9810 
  265.0000    60.3830    10.7230    10.6650     8.6380    17.2820  -999.2500     1.9810 
  265.1250    60.3830    10.7230    10.6650     8.5820    17.0350  -999.2500     1.9790 
  265.2500    60.3830    10.7230    10.6650     8.5780    17.0090  -999.2500     1.9750 
  265.3750    60.3830    10.7230    10.6650     8.5760    17.0090  -999.2500     1.9720 
  265.5000    60.3830    10.7230    10.6650     8.5750    17.0080  -999.2500     1.9700 
  265.6250    60.3830    10.7230    10.6650     8.5740    17.0070  -999.2500     1.9690 
  265.7500    60.3830    10.7230    10.6650     8.5720    17.0020  -999.2500     1.9670 
  265.8750    60.3830    10.7230    10.6650     8.5700    16.9990  -999.2500     1.9670 
  266.0000    60.3830    10.7230    10.6650     8.5710    16.9970  -999.2500     1.9680 
  266.1250    60.3830    10.7230    10.6650     8.5730    16.9970  -999.2500     1.9690 
  266.2500    60.3830    10.7230    10.6650     8.5730    16.9970  -999.2500     1.9690 
  266.3750    60.3830    10.7230    10.6650     8.5720    16.9970  -999.2500     1.9670 
  266.5000    60.3830    10.7230    10.6650     8.5690    16.9970  -999.2500     1.9640 
  266.6250    60.3830    10.7230    10.6650     8.5670    16.9970  -999.2500     1.9600 
