~V
VERS. 2.00: Ver 2.00
~W
STRT.M 40.0000:
STOP.M 276.0000:
STEP.M 0.1250:
NULL. -999.2500:
UWI. F10236:
~C
DEPT.M :
SP.MV :
GR.API :
RML.OHMM :
RI. :
RXO.OHMM :
CALI.CM :
DEN.GM/CC :
~A
# ...
  220.0000   -13.2590    60.9670   110.2710    98.6170    57.8600    24.6120     2.2330 
  220.1250   -13.4460    57.7810   111.5630    99.6530    61.6570    24.6210     2.2350 
  220.2500   -13.6240    57.5960   113.9330   102.0020    66.0450    24.6180     2.2320 
  220.3750   -13.7970    59.9720   116.4090   104.7450    66.4830    24.6030     2.2290 
  220.5000   -13.9330    61.9580   117.6730   106.6690    62.5460    24.6010     2.2310 
  220.6250   -14.0700    61.1620   116.1110   106.3090    63.9530    24.6160     2.2380 
  220.7500   -14.1820    59.5040   112.0070   103.6360    66.3690    24.6180     2.2400 
  220.8750   -14.2990    59.5170   106.2680    99.1590    66.5510    24.5850     2.2350 
  221.0000   -14.4190    62.2470   100.2060    93.9010    58.3430    24.4560     2.2240 
  221.1250   -14.5380    64.6060    95.1990    89.1590    47.3150    24.1530     2.2120 
  221.2500   -14.6520    64.5810    91.2450    85.3340    39.2850    23.9420     2.2060 
  221.3750   -14.7660    64.5140    86.9470    81.4700    36.9270    23.8680     2.2090 
  221.5000   -14.8920    66.8480    79.9410    75.5010    38.8510    23.9090     2.2200 
  221.6250   -15.0270    69.9990    68.3900    65.4030    41.4490    24.0220     2.2390 
  221.7500   -15.1710    72.1100    55.1020    53.2860    43.9740    24.1830     2.2640 
  221.8750   -15.3240    74.1160    43.2650    42.0560    40.5170    24.2750     2.2980 
  222.0000   -15.4810    75.6250    34.9730    33.8330    30.2860    24.2760     2.3410 
  222.1250   -15.6450    73.4380    31.5570    29.9110    23.1230    24.2760     2.3770 
  222.2500   -15.8300    69.7510    31.9520    29.3870    26.4380    24.3560     2.3960 
  222.3750   -16.0160    66.9840    35.2470    31.6220    33.9180    24.4070     2.4040 
  222.5000   -16.1980    63.9750    39.7340    35.4040    39.9450    24.4190     2.4200 
  222.6250   -16.3510    58.5980    41.8870    37.8470    47.6910    24.3940     2.4590 
  222.7500   -16.5110    53.3410    39.3020    36.2920    51.6420    24.1900     2.5140 
  222.8750   -16.6560    49.8240    32.6590    30.8390    38.2110    23.9920     2.5690 
  223.0000   -16.7870    47.5060    24.9340    24.0050    19.8590    23.9900     2.5970 
  223.1250   -16.8910    44.9070    18.9000    18.3860    13.5560    24.2460     2.5720 
  223.2500   -16.9620    41.4160    14.8030    14.4050    12.4320    24.4780     2.5230 
  223.3750   -17.0010    38.1570    12.2420    11.7680    11.9970    24.6370     2.4800 
  223.5000   -17.0220    37.5280    10.7860    10.1320    10.4900    24.7830     2.4550 
  223.6250   -17.0170    40.4160    10.2410     9.3640     9.0330    24.9350     2.4420 
  223.7500   -16.9900    43.2230    10.2770     9.1680     8.6260    25.0400     2.4300 
  223.8750   -16.9450    43.2110    10.7660     9.4280     9.4520    25.0150     2.4220 
  224.0000   -16.8910    40.8530    11.5320     9.9990    11.4850    24.9750     2.4230 
  224.1250   -16.7940    38.9350    12.2410    10.6360    13.0060    24.9540     2.4320 
  224.2500   -16.6450    38.7030    12.5570    11.0170    12.7340    25.0670     2.4400 
  224.3750   -16.4600    39.6460    12.3640    10.9850    11.3870    25.3020     2.4440 
  224.5000   -16.2530    40.3810    11.7960    10.5840    10.2820    25.5790     2.4460 
  224.6250   -16.0360    40.0160    11.1350     9.9900    10.0220    25.6360     2.4460 
  224.7500   -15.8120    39.7720    10.5970     9.4010     9.8610    25.6020     2.4420 
  224.8750   -15.5890    39.8510    10.2050     8.8680     9.5100    25.5450     2.4360 
  225.0000   -15.3710    40.7560     9.9020     8.3950     8.5660    25.6180     2.4310 
  225.1250   -15.1900    42.5090     9.6310     7.9880     8.0950    26.1290     2.4260 
  225.2500   -15.0800    43.6570     9.4030     7.6600     7.4110    26.8520     2.4110 
  225.3750   -15.0510    44.2020     9.2920     7.4500     7.3790    27.1140     2.3900 
  225.5000   -15.0870    45.7570     9.3770     7.3980     8.0170    26.8290     2.3740 
  225.6250   -15.2190    47.3780     9.7250     7.5540     8.1120    26.4120     2.3680 
  225.7500   -15.3880    46.8630    10.2620     7.8720     8.7540    25.9860     2.3610 
  225.8750   -15.5930    45.0740    10.8930     8.2910    10.2510    25.6680     2.3520 
  226.0000   -15.8040    43.7830    11.4800     8.7150    11.1280    25.5020     2.3530 
  226.1250   -16.0070    42.8080    11.8510     9.0080    11.2160    25.7170     2.3650 
  226.2500   -16.1810    42.5470    11.9880     9.1340    11.0970    26.1870     2.3750 
  226.3750   -16.3060    43.9680    11.9520     9.1140    11.1830    26.5700     2.3770 
  226.5000   -16.3870    45.6260    11.8590     9.0220    11.2680    26.3780     2.3770 
  226.6250   -16.4100    45.2100    11.8190     8.9330    11.4750    26.0100     2.3790 
  226.7500   -16.3830    43.9600    11.8040     8.8550    11.0670    25.7630     2.3810 
  226.8750   -16.2970    42.2290    11.7020     8.7350    10.6700    25.5880     2.3890 
  227.0000   -16.1590    40.1210    11.4310     8.5280    10.8040    25.4920     2.4070 
  227.1250   -15.9980    40.0300    11.0320     8.2520    11.4550    25.5880     2.4230 
  227.2500   -15.8120    42.7340    10.7110     8.0250    11.4040    25.7800     2.4160 
  227.3750   -15.6180    46.3510    10.6320     7.9500     9.8720    25.9150     2.3830 
  227.5000   -15.3990    47.7770    10.8480     8.0770     9.0930    25.7270     2.3480 
  227.6250   -15.1430    45.7550    11.2590     8.3820    10.0960    25.4110     2.3350 
  227.7500   -14.8720    43.5280    11.5720     8.6890    11.6020    24.9310     2.3320 
  227.8750   -14.5690    43.6620    11.5860     8.8480    11.2350    24.4160     2.3240 
  228.0000   -14.2540    46.9230    11.2370     8.7780    10.0390    24.2050     2.3020 
  228.1250   -13.9180    49.1310    10.6090     8.4730     8.5700    24.9510     2.2630 
  228.2500   -13.5690    48.3550     9.9380     8.0650     7.3320    26.0410     2.2130 
  228.3750   -13.2210    47.6790     9.3500     7.6410     6.8630    26.8000     2.1690 
  228.5000   -12.8660    49.8060     8.8710     7.2490     7.0720    27.0870     2.1490 
  228.6250   -12.5050    53.6520     8.4580     6.9020     7.1340    27.5070     2.1540 
  228.7500   -12.1560    55.0740     8.0470     6.5810     6.9310    27.3780     2.1680 
  228.8750   -11.8580    52.5880     7.6260     6.2710     6.8940    26.8430     2.1870 
  229.0000   -11.6240    48.4720     7.2020     5.9540     6.9240    26.2700     2.2100 
  229.1250   -11.4290    47.9450     6.7820     5.6120     6.4270    25.7630     2.2300 
  229.2500   -11.2960    51.1570     6.3690     5.2560     5.9850    26.2150     2.2200 
  229.3750   -11.1900    53.3420     5.9640     4.9080     5.4860    27.3620     2.1630 
  229.5000   -11.1320    51.5830     5.5870     4.5960     5.1860    28.3860     2.0700 
  229.6250   -11.1500    50.3870     5.3080     4.3690     4.9950    28.8830     1.9910 
  229.7500   -11.2350    53.2660     5.1810     4.2510     4.8550    29.1150     1.9440 
  229.8750   -11.3650    59.6990     5.2480     4.2640     4.9350    28.5590     1.9210 
  230.0000   -11.5320    69.2480     5.5210     4.4240     5.1470    27.3010     1.9350 
  230.1250   -11.7650    78.4030     5.9990     4.7650     5.6290    25.7640     2.0270 
  230.2500   -12.0220    83.0360     6.5760     5.2450     6.4060    25.0480     2.1810 
  230.3750   -12.3160    83.6790     7.1670     5.8070     7.0870    24.7870     2.3380 
  230.5000   -12.6220    82.8450     7.6960     6.3720     7.4750    24.6660     2.4200 
  230.6250   -12.9410    83.1800     8.0860     6.8340     7.9670    24.5000     2.4220 
  230.7500   -13.2280    82.8880     8.3460     7.1580     8.4170    24.3560     2.4140 
  230.8750   -13.4950    81.4650     8.5100     7.3570     8.4890    24.2850     2.4120 
  231.0000   -13.7110    80.8610     8.6310     7.4660     8.2920    24.2900     2.4100 
  231.1250   -13.8920    85.3470     8.7590     7.5110     8.1860    24.2850     2.4060 
