~V
VERS. 2.00: Ver 2.00
~W
STRT.M 20.0000:
STOP.M 256.0000:
STEP.M 0.1250:
NULL. -999.2500:
UWI. F10201:
~C
DEPT.M :
DEN.GM/CC :
GR.API :
RML.OHMM :
RI. :
RXO.OHMM :
CALI.CM :
SP.MV :
~A
# ...
   65.0000     2.4150    94.9690     7.1790     6.5150     6.8800    25.2040   -34.0280 
   65.1250     2.5250    81.0640     9.7130     8.6420    12.7620    25.1450   -34.8000 
   65.2500     2.5950    68.6940    13.0070    11.2870    24.8540    25.1080   -35.7940 
   65.3750     2.5820    62.9110    15.5430    13.4920    32.3680    25.1240   -36.9220 
   65.5000     2.4860    61.4650    15.3160    14.0110    25.5630    25.2090   -38.1650 
   65.6250     2.3570    60.1960    12.8150    12.4510    16.5840    25.4750   -39.4650 
   65.7500     2.2460    60.3650    10.5480    10.3810    11.5280    25.8540   -40.6950 
   65.8750     2.1700    61.6490     9.1310     8.7030     9.7900    26.1450   -41.8330 
   66.0000     2.1330    61.1440     8.4810     7.6890     9.5040    26.2470   -42.8700 
   66.1250     2.1300    58.9260     8.4260     7.3360     9.6920    26.2300   -43.7520 
   66.2500     2.1440    58.7190     8.6430     7.3420    10.0510    26.2080   -44.4470 
   66.3750     2.1660    61.1600     8.9680     7.5380    10.3510    26.1960   -44.9960 
   66.5000     2.1900    64.3570     9.3020     7.8010    10.5200    26.1990   -45.4200 
   66.6250     2.2140    65.4250     9.5980     8.0580    10.5230    26.2290   -45.7310 
   66.7500     2.2350    62.9660     9.8400     8.2720    10.5220    26.2900   -45.9780 
   66.8750     2.2520    60.9180     9.9870     8.4170    10.9360    26.3890   -46.1430 
   67.0000     2.2620    61.8940     9.9560     8.4560    11.8900    26.4980   -46.2550 
   67.1250     2.2640    61.6400     9.6660     8.3440    12.7960    26.5730   -46.2630 
   67.2500     2.2570    59.2130     9.3030     8.1250    11.8480    26.5920   -46.2490 
   67.3750     2.2450    58.8280     9.0360     7.8640    10.2200    26.5550   -46.2070 
   67.5000     2.2290    60.5050     8.9090     7.6320     9.4630    26.4650   -46.0710 
   67.6250     2.2100    60.6740     8.8980     7.4840     9.5260    26.3120   -45.8400 
   67.7500     2.1890    63.1650     8.9310     7.4030     9.7660    26.2160   -45.5430 
   67.8750     2.1670    67.7790     8.9690     7.3550    10.1550    26.1350   -45.1210 
   68.0000     2.1520    68.5060     8.9810     7.3020    10.8660    26.0760   -44.5990 
   68.1250     2.1510    63.8980     8.9600     7.2260    10.4180    26.0180   -43.9690 
   68.2500     2.1630    61.6350     8.9330     7.1440    10.0840    25.9490   -43.2370 
   68.3750     2.1830    63.2360     8.9100     7.0660     9.9250    25.8750   -42.4380 
   68.5000     2.2020    64.5770     8.8920     6.9960    10.0520    25.8190   -41.5950 
   68.6250     2.2140    63.6050     8.8660     6.9310    10.0630    25.8020   -40.7680 
   68.7500     2.2180    62.5650     8.8220     6.8620     9.9970    25.7990   -39.9800 
   68.8750     2.2200    62.1830     8.7610     6.7890     9.8110    25.7980   -39.2570 
   69.0000     2.2200    63.6850     8.6940     6.7230     9.6020    25.7990   -38.6220 
   69.1250     2.2210    66.4600     8.6620     6.6890     9.4990    25.8010   -38.1120 
   69.2500     2.2230    67.4950     8.6840     6.6960     9.5400    25.8140   -37.7120 
   69.3750     2.2260    66.3840     8.7540     6.7380     9.6670    25.8430   -37.4170 
   69.5000     2.2290    65.3240     8.8390     6.7910     9.8180    25.8640   -37.2110 
   69.6250     2.2350    66.6140     8.8780     6.8160     9.8630    25.8710   -37.0880 
   69.7500     2.2430    68.3420     8.8400     6.7960     9.9910    25.8740   -37.0240 
   69.8750     2.2540    68.4480     8.7210     6.7300    10.0400    25.8830   -37.0150 
   70.0000     2.2650    66.5220     8.5540     6.6350     9.7580    25.9060   -37.0510 
   70.1250     2.2700    64.8420     8.3900     6.5360     9.6010    25.9380   -37.1510 
   70.2500     2.2630    67.6430     8.2690     6.4550     9.6140    25.9740   -37.2610 
   70.3750     2.2440    73.1050     8.2010     6.4010     9.7510    25.9930   -37.3800 
   70.5000     2.2180    76.2330     8.1790     6.3700     9.7130    25.9990   -37.5010 
   70.6250     2.1930    74.9710     8.1750     6.3530     9.5640    25.9920   -37.5410 
   70.7500     2.1770    72.3750     8.1620     6.3340     9.3210    25.9670   -37.5190 
   70.8750     2.1710    70.8270     8.1400     6.3110     9.0570    25.9240   -37.4340 
   71.0000     2.1720    69.9390     8.1180     6.2900     9.0040    25.8800   -37.2070 
   71.1250     2.1760    68.4550     8.1130     6.2780     9.0300    25.8420   -36.8520 
   71.2500     2.1840    68.0430     8.1280     6.2730     9.0620    25.7930   -36.4130 
   71.3750     2.1960    69.0740     8.1580     6.2680     8.9870    25.7430   -35.8650 
   71.5000     2.2100    71.1580     8.1920     6.2620     8.9360    25.6910   -35.2960 
   71.6250     2.2210    70.5710     8.2130     6.2540     8.8510    25.6540   -34.7770 
   71.7500     2.2280    69.6370     8.2160     6.2440     8.6990    25.6120   -34.2700 
   71.8750     2.2290    72.1510     8.2000     6.2260     8.5590    25.5660   -33.8090 
   72.0000     2.2270    76.2400     8.1670     6.1930     8.5190    25.5300   -33.4090 
   72.1250     2.2260    79.0080     8.1200     6.1440     8.4530    25.5110   -33.0780 
   72.2500     2.2250    81.5100     8.0690     6.0900     8.2510    25.4980   -32.8440 
   72.3750     2.2270    83.8130     8.0320     6.0460     8.2040    25.4830   -32.7470 
   72.5000     2.2300    83.4110     8.0280     6.0240     8.3170    25.4720   -32.7430 
   72.6250     2.2360    79.2740     8.0730     6.0410     8.5080    25.4730   -32.7620 
   72.7500     2.2420    74.4790     8.1260     6.0780     8.8370    25.4870   -32.8280 
   72.8750     2.2490    70.5350     8.1370     6.1040     9.1630    25.5070   -32.9430 
   73.0000     2.2560    68.7380     8.0760     6.0920     9.3400    25.5230   -33.0890 
   73.1250     2.2610    70.3690     7.9560     6.0340     9.5950    25.5420   -33.2460 
   73.2500     2.2610    75.6210     7.8490     5.9680     9.8650    25.5790   -33.4490 
   73.3750     2.2550    80.9540     7.8210     5.9410     9.4270    25.6050   -33.6750 
   73.5000     2.2430    80.9340     7.9140     5.9900     8.6110    25.5760   -33.8940 
   73.6250     2.2310    73.0880     8.1320     6.1360     8.7370    25.4970   -34.1520 
   73.7500     2.2270    65.0580     8.3860     6.3290     9.5170    25.4510   -34.3760 
   73.8750     2.2330    61.9500     8.6000     6.5180     9.9700    25.4380   -34.4990 
   74.0000     2.2450    60.9250     8.7210     6.6550    10.0140    25.4740   -34.5830 
   74.1250     2.2540    58.3510     8.7420     6.7090     9.5480    25.6260   -34.5630 
   74.2500     2.2520    56.7670     8.7350     6.7120     8.2650    25.8790   -34.3350 
   74.3750     2.2350    57.5580     8.7260     6.6850     7.2720    26.1190   -33.8780 
   74.5000     2.2020    59.3840     8.6800     6.6280     7.3400    26.2400   -33.1530 
   74.6250     2.1590    59.8610     8.4980     6.5050     8.5270    26.2670   -32.1250 
   74.7500     2.1190    60.6950     8.1730     6.3040     9.5430    26.2700   -30.8980 
   74.8750     2.0940    63.4750     7.8080     6.0630     9.3370    26.2330   -29.5060 
   75.0000     2.0950    66.8690     7.6290     5.8980     7.9930    26.0940   -27.9890 
   75.1250     2.1380    72.3080     7.9770     6.0280     7.7450    25.8240   -26.4310 
   75.2500     2.2210    80.1580     8.8890     6.5370     8.6680    25.6360   -24.8940 
   75.3750     2.3370    84.6060    10.2610     7.4250    10.3960    25.5240   -23.4710 
   75.5000     2.4570    81.8690    11.7510     8.5370    14.8800    25.4130   -22.2500 
   75.6250     2.5330    76.7260    12.5590     9.3810    23.9010    25.3660   -21.3150 
   75.7500     2.5400    76.1210    12.1860     9.4860    24.3930    25.3710   -20.6290 
   75.8750     2.4860    79.2910    10.7840     8.7900    15.2390    25.4340   -20.1910 
   76.0000     2.4080    83.3510     9.0560     7.6730     8.8420    25.5580   -19.9850 
   76.1250     2.3440    87.0370     7.7420     6.6480     7.1460    25.7110   -19.9540 
