~V
VERS. 2.00: Ver 2.00
~W
STRT.M 55.0000:
STOP.M 276.0000:
STEP.M 0.1250:
NULL. -999.2500:
UWI. F10239:
~C
DEPT.M :
SP.MV :
DEN.GM/CC :
GR.API :
RML.OHMM :
RI. :
RXO.OHMM :
CALI.CM :
~A
# ...
  268.7500   -11.5030     2.2930    57.5500    10.3020    10.2280     8.8460    24.9120 
  268.8750   -11.3490     2.3280    57.5500    10.2420    10.1600     9.4020    24.9330 
  269.0000   -11.1830     2.3370    57.5500    10.2750    10.1860    10.3130    24.6970 
  269.1250   -10.9930     2.3360    57.5500    10.4170    10.3260    10.5440    24.7860 
  269.2500   -10.7820     2.3420    57.5500    10.7000    10.6020    11.0230    25.0640 
  269.3750   -10.5430     2.3550    57.5500    11.0900    10.9690    11.0100    24.9680 
  269.5000   -10.2750     2.3670    57.5500    11.5250    11.3600    12.0060    24.6120 
  269.6250    -9.9410     2.3710    57.5500    11.9320    11.6910    12.9880    24.2710 
  269.7500    -9.6330     2.3640    57.5500    12.2290    11.8960    12.5410    24.0760 
  269.8750    -9.3640     2.3600    57.5500    12.3930    11.9920    11.5060    23.9690 
  270.0000    -9.0730     2.3750    57.5500    12.4520    12.0210    11.3110    23.8640 
  270.1250    -8.8360     2.4020    57.5500    12.4530    12.0230    12.7100    23.7380 
  270.2500    -8.6820     2.4240    57.5500    12.4390    12.0190    13.7250    23.5620 
  270.3750    -8.5500     2.4340    57.5500    12.4280    12.0110    15.9430    23.4490 
  270.5000    -8.4580     2.4410    57.5500    12.4220    12.0040    17.6690    23.3430 
  270.6250    -8.4570     2.4490    57.5500    12.4220    12.0000    18.2290    23.2080 
  270.7500    -8.5090     2.4540    57.5500    12.4220    12.0000    18.6350    23.1140 
  270.8750    -8.5960     2.4530    57.5500    12.4220    12.0000    20.4600    23.1080 
  271.0000    -8.7320     2.4550    57.5500    12.4220    12.0000    21.9960    23.1380 
  271.1250    -8.8490     2.4660    57.5500    12.4220    12.0000    21.4260    23.1490 
  271.2500    -8.9310     2.4810    57.5500    12.4220    12.0000    20.9020    23.1340 
  271.3750    -9.0570     2.4900    57.5500    12.4220    12.0000    21.1230    23.0990 
  271.5000    -9.1820     2.4900    57.5500    12.4220    12.0000    21.2770    23.0790 
  271.6250    -9.3030     2.4830    57.5500    12.4220    12.0000    20.7100    23.0580 
  271.7500    -9.4290     2.4780    57.5500    12.4220    12.0000    20.7020    23.0260 
  271.8750    -9.5350     2.4760    57.5500    12.4220    12.0000    21.9300    23.0560 
  272.0000    -9.6150     2.4770    57.5500    12.4220    12.0000    22.9790    23.0660 
  272.1250    -9.7040     2.4790    57.5500    12.4220    12.0000    23.4600    23.0130 
  272.2500    -9.7780     2.4770    57.5500    12.4220    12.0000    21.5280    22.9710 
  272.3750    -9.8390     2.4720    57.5500    12.4220    12.0000    19.9330    22.9440 
  272.5000    -9.9080     2.4650    57.5500    12.4220    12.0000    19.0340    22.9390 
  272.6250    -9.9600     2.4590    57.5500    12.4220    12.0000    17.7660    22.9460 
  272.7500    -9.9870     2.4510    57.5500    12.4220    12.0000    16.5170    22.9630 
  272.8750   -10.0210     2.4390    57.5500    12.4220    12.0000    15.5420    22.9910 
  273.0000   -10.1870     2.4290    57.5500    12.4220    12.0000    14.9400    23.0480 
  273.1250   -10.5080     2.4290    57.5500    12.4220    12.0000    14.7390    23.0480 
  273.2500   -10.8580     2.4390    57.5500    12.4220    12.0000    13.9430    22.9520 
  273.3750   -11.2160     2.4460    57.5500    12.4220    12.0000    13.0320    22.7090 
  273.5000   -11.5760     2.4420    57.5500    12.4220    12.0000    13.4640    22.5690 
  273.6250   -11.9520     2.4260    57.5500    12.4220    12.0000    14.3080    22.3320 
  273.7500   -12.3050     2.4090    57.5500    12.4220    12.0000    14.5490    21.8830 
  273.8750   -12.6190     2.4050    57.5500    12.4220    12.0000    13.6580    21.1940 
  274.0000   -12.7270     2.4120    57.5500    12.4220    12.0000    12.0990    20.2560 
  274.1250   -12.8410     2.4140    57.5500    12.4220    12.0000    10.0320    19.1800 
  274.2500  -999.2500     2.3860    57.5500    12.4220    12.0000     7.6050    17.7720 
  274.3750  -999.2500     2.3310    57.5500    12.4220    12.0000     5.5840    15.8210 
  274.5000  -999.2500     2.2710    57.5500    12.4220    12.0000     4.5790    13.7760 
  274.6250  -999.2500     2.2290    57.5500    12.4220    12.0000     4.2580    12.6060 
  274.7500  -999.2500     2.2140    57.5500    12.4220    12.0000     4.2000    12.2510 
  274.8750  -999.2500     2.2110    57.5500    12.4220    12.0000     4.1980    12.2170 
  275.0000  -999.2500     2.2090    57.5500    12.4220    12.0000     4.1950    12.2170 
  275.1250  -999.2500     2.2060    57.5500    12.4220    12.0000     4.1930    12.2170 
  275.2500  -999.2500     2.2040    57.5190    12.3920    11.9690     4.1620    12.1860 
  275.3750  -999.2500     2.2030  -445.3690  -488.2390  -488.6410  -496.0580  -488.4350 
  275.5000  -999.2500     2.2010  -999.2500  -999.2500  -999.2500  -999.2500  -999.2500 
  275.6250  -999.2500     2.2000  -999.2500  -999.2500  -999.2500  -999.2500  -999.2500 
  275.7500  -999.2500     2.2000  -999.2500  -999.2500  -999.2500  -999.2500  -999.2500 
  275.8750  -999.2500     2.2000  -999.2500  -999.2500  -999.2500  -999.2500  -999.2500 
  276.0000  -999.2500     2.2010  -999.2500  -999.2500  -999.2500  -999.2500  -999.2500 
