~V
VERS. 2.00: Ver 2.00
~W
STRT.M 55.0000:
STOP.M 270.0000:
STEP.M 0.1250:
NULL. -999.2500:
UWI. F10235:
~C
DEPT.M :
GR.API :
RML.OHMM :
RI. :
RXO.OHMM :
CALI.CM :
DEN.GM/CC :
SP.MV :
~A
# ...
   66.2500    96.6490    12.6250     7.0060     8.5610    24.3140     2.3190    -2.8000 
   66.3750    93.7130    14.0660     7.8680     9.3880    24.2860     2.3600    -4.0390 
   66.5000    89.6640    16.2350     9.0160     9.8230    24.4280     2.4050    -5.2190 
   66.6250    84.1290    18.6440    10.3200    11.3600    24.6210     2.4160    -6.3380 
   66.7500    78.4020    20.1660    11.4190    13.5120    24.7290     2.3770    -7.4430 
   66.8750    73.1600    20.1770    11.9800    13.9200    24.6660     2.2900    -8.5120 
   67.0000    69.6720    18.9670    11.9120    12.2840    24.4880     2.1870    -9.4700 
   67.1250    70.4230    17.5160    11.4470    11.2260    24.3530     2.1230   -10.2600 
   67.2500    73.3050    16.6030    11.0070    11.7930    24.4930     2.1190   -10.9580 
   67.3750    77.1190    16.3340    10.7550    15.4320    24.8140     2.1640   -11.6060 
   67.5000    79.1470    16.4700    10.6780    22.5240    24.9150     2.2220   -12.2420 
   67.6250    77.9810    16.5420    10.5710    22.7230    24.6510     2.2520   -12.8290 
   67.7500    76.4760    16.1790    10.2360    15.2680    24.3020     2.2480   -13.2810 
   67.8750    78.1550    15.3720     9.6790    11.8730    24.1020     2.2260   -13.5490 
   68.0000    83.7460    14.4030     9.0630    10.8870    23.9960     2.2060   -13.6370 
   68.1250    88.4860    13.6990     8.6200    10.5920    23.9230     2.1980   -13.5800 
   68.2500    89.0620    13.4120     8.4450    10.6530    23.8750     2.1980   -13.4840 
   68.3750    86.6440    13.4910     8.5420    10.9640    23.8510     2.2000   -13.4470 
   68.5000    83.1050    13.7670     8.8390    11.6310    23.8470     2.2060   -13.4930 
   68.6250    81.2260    14.0230     9.2250    12.4490    23.8780     2.2150   -13.6430 
   68.7500    81.9080    14.1010     9.5690    13.1300    23.9100     2.2210   -13.8760 
   68.8750    83.1360    13.9430     9.7940    13.3190    23.9230     2.2230   -14.1860 
   69.0000    83.9770    13.5700     9.8570    13.3610    23.9240     2.2180   -14.5710 
   69.1250    85.7590    13.0710     9.7590    12.8990    23.9240     2.2080   -15.0190 
   69.2500    86.2720    12.5890     9.5980    12.5700    23.9230     2.1990   -15.4930 
   69.3750    81.3190    12.1970     9.4340    12.2740    23.9140     2.1930   -15.9770 
   69.5000    73.5570    11.9100     9.3040    12.0900    23.8990     2.1910   -16.4630 
   69.6250    71.1810    11.7040     9.2180    12.0580    23.8930     2.1910   -16.9210 
   69.7500    73.6790    11.5130     9.1410    12.3900    23.9200     2.1930   -17.3520 
   69.8750    75.9900    11.3110     9.0470    12.6010    23.9570     2.1980   -17.7740 
   70.0000    77.3820    11.1050     8.9350    12.7330    23.9740     2.2070   -18.1640 
   70.1250    79.4560    10.9460     8.8390    12.4720    23.9840     2.2210   -18.4940 
   70.2500    81.3200    10.8640     8.7880    12.0630    23.9850     2.2330   -18.7890 
   70.3750    81.3580    10.8650     8.7930    11.8290    23.9970     2.2380   -19.0480 
   70.5000    79.1240    10.9240     8.8450    12.4650    24.0460     2.2360   -19.2890 
   70.6250    76.4430    10.9990     8.9150    13.0820    24.1470     2.2240   -19.5300 
   70.7500    75.3050    11.0510     8.9650    13.1770    24.2150     2.2070   -19.7890 
   70.8750    75.9600    11.0690     8.9890    12.6530    24.2200     2.1880   -20.1020 
   71.0000    75.9090    11.0620     8.9960    12.1180    24.1780     2.1710   -20.5050 
   71.1250    72.1650    11.0480     9.0090    12.8910    24.1340     2.1600   -21.0000 
   71.2500    67.2760    11.0420     9.0390    13.3590    24.1160     2.1560   -21.5470 
   71.3750    64.9630    11.0410     9.0770    13.4210    24.1060     2.1570   -22.1150 
   71.5000    66.0170    11.0260     9.1030    13.3230    24.0870     2.1580   -22.6480 
   71.6250    67.0460    10.9770     9.0870    13.4800    24.0380     2.1590   -23.1120 
   71.7500    66.7330    10.9060     9.0420    13.5920    23.9880     2.1570   -23.5250 
   71.8750    66.2110    10.8300     8.9870    13.5740    23.9490     2.1540   -23.8440 
   72.0000    64.8980    10.7650     8.9360    13.5050    23.9290     2.1520   -24.0130 
   72.1250    62.4290    10.7070     8.8920    13.4450    23.9340     2.1520   -24.0330 
   72.2500    60.5030    10.6430     8.8440    13.4790    23.9580     2.1550   -23.9480 
   72.3750    60.9300    10.5650     8.7830    13.4720    23.9750     2.1580   -23.7770 
   72.5000    63.8230    10.4780     8.7070    13.2400    23.9680     2.1630   -23.5520 
   72.6250    68.4790    10.3970     8.6200    13.2270    23.9400     2.1700   -23.3020 
   72.7500    73.2310    10.3390     8.5400    13.2910    23.9270     2.1800   -23.0370 
   72.8750    75.2910    10.3170     8.4850    13.3130    23.9310     2.1920   -22.7990 
   73.0000    74.9190    10.3490     8.4770    13.1720    23.9520     2.2020   -22.6720 
   73.1250    73.9240    10.4580     8.5460    12.9780    24.0120     2.2030   -22.7010 
   73.2500    71.7130    10.6220     8.6740    13.0010    24.1250     2.1920   -22.8550 
   73.3750    68.6050    10.8010     8.8290    13.7030    24.3260     2.1730   -23.1390 
   73.5000    67.3420    10.9360     8.9630    16.2310    24.5740     2.1520   -23.5460 
   73.6250    67.6270    10.9530     9.0110    20.3530    24.5790     2.1390   -24.0370 
   73.7500    67.1400    10.8550     8.9620    18.8730    24.4520     2.1350   -24.5430 
   73.8750    65.9620    10.6790     8.8390    14.6500    24.3760     2.1400   -25.0090 
   74.0000    66.3710    10.4870     8.6890    12.7790    24.4030     2.1500   -25.3730 
   74.1250    69.2150    10.3480     8.5660    12.7590    24.4130     2.1600   -25.6140 
   74.2500    70.5260    10.2790     8.4940    12.7310    24.4000     2.1700   -25.7830 
   74.3750    68.3940    10.2730     8.4780    12.6120    24.4100     2.1780   -25.9070 
   74.5000    64.9060    10.3110     8.5030    12.6490    24.4260     2.1810   -26.0310 
   74.6250    64.7850    10.3750     8.5490    12.7080    24.4200     2.1790   -26.2000 
   74.7500    66.1730    10.4480     8.5970    12.7280    24.3950     2.1750   -26.3930 
   74.8750    65.4250    10.5130     8.6330    12.8230    24.3790     2.1710   -26.6000 
   75.0000    66.1450    10.5490     8.6440    12.9460    24.3600     2.1700   -26.7980 
   75.1250    71.4740    10.5210     8.6080    12.9410    24.3560     2.1740   -26.9890 
   75.2500    75.8350    10.4270     8.5290    12.8880    24.4150     2.1860   -27.2020 
   75.3750    75.8840    10.2830     8.4180    12.8700    24.5100     2.2040   -27.3920 
   75.5000    73.3330    10.1280     8.2940    12.9260    24.5680     2.2240   -27.4800 
   75.6250    70.2170    10.0480     8.2090    12.9050    24.6010     2.2380   -27.4500 
   75.7500    67.3190    10.1150     8.2210    12.8700    24.6800     2.2350   -27.3750 
   75.8750    65.5290    10.3670     8.3690    12.7030    24.8400     2.2120   -27.2690 
   76.0000    64.1470    10.7750     8.6510    12.3270    25.0330     2.1700   -27.1750 
   76.1250    62.4680    11.2200     9.0040    13.8870    25.1270     2.1200   -27.0640 
   76.2500    62.8710    11.5350     9.2980    20.3370    25.0210     2.0820   -26.8690 
   76.3750    64.4000    11.6190     9.4420    28.9030    24.8100     2.0650   -26.5980 
   76.5000    64.3860    11.4730     9.4110    21.4460    24.5750     2.0760   -26.3130 
   76.6250    63.1230    11.2010     9.2620    14.6800    24.2820     2.1080   -26.0730 
   76.7500    64.6870    10.9770     9.1190    11.9310    23.9880     2.1420   -25.8900 
   76.8750    68.6440    10.8790     9.0440    11.3060    23.8720     2.1660   -25.7930 
   77.0000    71.2840    10.9040     9.0470    11.6970    23.9640     2.1740   -25.7800 
   77.1250    70.8520    10.9790     9.0930    12.3350    24.2050     2.1750   -25.8560 
   77.2500    69.6460    11.0180     9.1190    12.6640    24.3790     2.1800   -25.9620 
   77.3750    69.4200    11.0010     9.1080    12.7160    24.4830     2.1930   -26.0510 
