~V
VERS. 2.00: Ver 2.00
~W
STRT.M 56.0000:
STOP.M 275.0000:
STEP.M 0.1250:
NULL. -999.2500:
UWI. F10253:
~C
DEPT.M :
GR.API :
RML.OHMM :
RI. :
RXO.OHMM :
CALI.CM :
DEN.GM/CC :
SP.MV :
~A
# ...
  123.5000    73.8840     6.5240     5.5620     6.0960    22.7410     2.2420    -9.1180 
  123.6250    76.8600     6.2950     5.2930     5.7850    23.2450     2.2550    -9.0120 
  123.7500    77.1100     6.2630     5.1870     5.7050    23.6610     2.2600    -8.9000 
  123.8750    74.9220     6.3510     5.2070     5.7310    23.8780     2.2620    -8.8350 
  124.0000    72.2520     6.4410     5.2660     5.7830    23.9520     2.2640    -8.8070 
  124.1250    69.8380     6.4670     5.3080     5.7810    23.9610     2.2680    -8.8100 
  124.2500    70.3990     6.4020     5.2990     5.7200    23.9650     2.2740    -8.8720 
  124.3750    74.4640     6.2570     5.2290     5.6860    23.9840     2.2860    -8.9370 
  124.5000    76.6380     6.0970     5.1370     5.5460    23.9950     2.3020    -8.9530 
  124.6250    76.1200     5.9690     5.0590     5.3460    23.9990     2.3200    -8.9420 
  124.7500    75.9780     5.9060     5.0210     5.2070    23.9980     2.3350    -8.9240 
  124.8750    77.0900     5.9380     5.0500     5.3460    23.9960     2.3420    -8.8940 
  125.0000    77.1750     6.0570     5.1430     5.6360    23.9880     2.3420    -8.8980 
  125.1250    75.9170     6.2690     5.3050     5.8920    23.9670     2.3370    -8.9250 
  125.2500    74.6560     6.5790     5.5390     6.0230    23.9250     2.3270    -8.9450 
  125.3750    73.1860     6.9910     5.8500     6.1800    23.8440     2.3130    -8.9930 
  125.5000    70.9120     7.4360     6.1900     6.5230    23.7470     2.2950    -9.0840 
  125.6250    68.0770     7.8300     6.5030     6.9130    23.6590     2.2770    -9.2070 
  125.7500    64.7830     8.0800     6.7200     7.3130    23.6050     2.2610    -9.3390 
  125.8750    62.1770     8.0850     6.7610     7.4340    23.6060     2.2490    -9.4810 
  126.0000    60.6550     7.9160     6.6630     7.2140    23.6480     2.2400    -9.6000 
  126.1250    61.0440     7.7150     6.5170     6.8250    23.7280     2.2330    -9.7270 
  126.2500    63.9820     7.6940     6.4720     6.6630    23.8480     2.2270    -9.8610 
  126.3750    66.6340     8.1770     6.7680     7.0040    23.9480     2.2330    -9.9970 
  126.5000    65.8290     9.2520     7.5070     8.0700    24.0010     2.2610   -10.1430 
  126.6250    61.4000    10.8840     8.7200    10.4760    24.0460     2.3180   -10.2980 
  126.7500    56.6030    12.8310    10.2860    14.5430    24.1280     2.3970   -10.4740 
  126.8750    54.6350    14.5390    11.8510    19.4420    24.1580     2.4720   -10.6470 
  127.0000    55.2730    15.4730    12.9420    23.3070    24.0790     2.5080   -10.8230 
  127.1250    54.9850    15.3520    13.2290    23.3900    23.9740     2.4860   -10.9900 
  127.2500    51.8240    14.2910    12.6710    18.8460    23.8880     2.4170   -11.1480 
  127.3750    51.0600    12.8070    11.5760    14.0510    23.8260     2.3350   -11.2910 
  127.5000    55.3900    11.5570    10.5230    11.0130    23.7780     2.2680   -11.4060 
  127.6250    60.4520    10.7750     9.7640     9.6390    23.7530     2.2260   -11.4890 
  127.7500    59.9470    10.4320     9.3420     9.1840    23.7370     2.2050   -11.5170 
  127.8750    54.3340    10.3880     9.2040     8.9460    23.6670     2.2000   -11.5320 
  128.0000    51.0530    10.4260     9.1850     8.6790    23.5610     2.2030   -11.5620 
  128.1250    51.9910    10.4560     9.2030     8.5280    23.4820     2.2090   -11.5910 
  128.2500    54.8160    10.4540     9.2230     8.4970    23.5100     2.2160   -11.6240 
  128.3750    54.9990    10.4430     9.2470     8.5110    23.6640     2.2210   -11.6510 
  128.5000    52.3210    10.4650     9.2950     8.5390    23.7950     2.2220   -11.6710 
  128.6250    50.2440    10.5400     9.3820     8.5400    23.7970     2.2170   -11.6920 
  128.7500    51.0300    10.6700     9.5090     8.5620    23.6530     2.2090   -11.7370 
  128.8750    52.6410    10.8280     9.6560     8.6850    23.3770     2.2000   -11.7650 
  129.0000    52.3620    10.9650     9.7840     8.9620    23.1350     2.1930   -11.7570 
  129.1250    53.0180    11.0440     9.8610     9.2360    23.1430     2.1890   -11.7350 
  129.2500    55.8770    11.0470     9.8720     9.2910    23.4020     2.1860   -11.7280 
  129.3750    57.0870    10.9860     9.8200     9.1830    23.7000     2.1850   -11.7220 
  129.5000    54.6750    10.9240     9.7570     9.0100    23.8600     2.1830   -11.7110 
  129.6250    51.5970    10.9130     9.7270     8.9030    23.8960     2.1820   -11.6900 
  129.7500    50.0890    10.9850     9.7630     8.9450    23.9180     2.1800   -11.6270 
  129.8750    50.2110    11.1490     9.8800     9.0770    23.9350     2.1790   -11.5570 
  130.0000    50.0040    11.3490    10.0380     9.3330    23.9510     2.1780   -11.4970 
  130.1250    49.0970    11.5250    10.1920     9.6980    23.9550     2.1780   -11.4180 
  130.2500    48.1820    11.6210    10.2920    10.0680    23.9370     2.1790   -11.3060 
  130.3750    48.5220    11.5760    10.2790    10.2790    23.8960     2.1810   -11.1390 
  130.5000    48.8690    11.4100    10.1570    10.2940    23.8640     2.1820   -10.9630 
  130.6250    48.3610    11.1610     9.9530    10.0760    23.8450     2.1830   -10.7960 
  130.7500    47.5970    10.8950     9.7150     9.6050    23.8290     2.1850   -10.6750 
  130.8750    46.6790    10.7000     9.5190     9.0880    23.8330     2.1890   -10.6050 
  131.0000    45.6360    10.6120     9.4090     8.8070    23.8720     2.1920   -10.5540 
  131.1250    47.0390    10.6340     9.3990     8.8900    23.9120     2.1910   -10.5210 
  131.2500    51.3450    10.7460     9.4810     9.2780    23.9200     2.1840   -10.5250 
  131.3750    53.7360    10.9280     9.6460     9.7950    23.8690     2.1720   -10.5790 
  131.5000    52.6240    11.1520     9.8640    10.1650    23.7410     2.1660   -10.6640 
  131.6250    52.3290    11.4040    10.1190    10.8210    23.4960     2.1790   -10.7710 
  131.7500    54.7130    11.6610    10.3840    12.4430    23.1630     2.2130   -10.8700 
  131.8750    55.1820    11.8610    10.6050    14.5600    22.8960     2.2590   -10.9390 
  132.0000    53.1250    11.9390    10.7240    16.6380    22.8680     2.2920   -10.9960 
  132.1250    52.1570    11.8420    10.6870    17.1440    23.1370     2.2950   -11.0490 
  132.2500    53.6840    11.5580    10.4720    13.7830    23.5740     2.2690   -11.0740 
  132.3750    54.6620    11.1170    10.0930    10.8850    23.8430     2.2320   -11.1110 
  132.5000    54.0400    10.6350     9.6500     9.6270    23.8860     2.2050   -11.1520 
  132.6250    54.9270    10.1830     9.2140     9.1680    23.8100     2.1930   -11.1780 
  132.7500    58.4620     9.7980     8.8340     8.8560    23.6870     2.1950   -11.2050 
  132.8750    63.3560     9.5020     8.5450     8.6760    23.5080     2.2040   -11.2230 
  133.0000    66.4880     9.2950     8.3500     8.5880    23.3290     2.2150   -11.2280 
  133.1250    65.2460     9.2030     8.2690     8.4940    23.1980     2.2260   -11.2010 
  133.2500    60.9070     9.2610     8.3280     8.5080    23.1460     2.2340   -11.1410 
  133.3750    58.4990     9.5120     8.5710     8.5650    23.1540     2.2370   -11.0490 
  133.5000    58.9240     9.9000     8.9560     9.0320    23.2030     2.2330   -10.9290 
  133.6250    59.7800    10.3440     9.4250     9.6500    23.2970     2.2220   -10.7860 
  133.7500    58.6620    10.7130     9.8720    10.0410    23.4270     2.2070   -10.6250 
  133.8750    56.2940    10.7870    10.1010    10.2420    23.5850     2.1940   -10.4560 
  134.0000    54.4860    10.4700     9.9950    10.4390    23.7640     2.1890   -10.2970 
  134.1250    53.8160     9.7570     9.5140    10.4470    23.9180     2.1970   -10.1380 
  134.2500    55.1880     8.7650     8.7330    10.0130    23.9820     2.2170    -9.9990 
  134.3750    58.4160     7.7180     7.8280     8.9110    23.9140     2.2470    -9.8920 
  134.5000    61.1680     6.8450     7.0160     7.5290    23.7550     2.2760    -9.8090 
  134.6250    62.2140     6.2430     6.4020     6.5270    23.5500     2.2970    -9.7670 
