~V
VERS. 2.00: Ver 2.00
~W
STRT.M 60.0000:
STOP.M 276.0000:
STEP.M 0.1250:
NULL. -999.2500:
UWI. F10216:
~C
DEPT.M :
DEN.GM/CC :
GR.API :
RML.OHMM :
RI. :
RXO.OHMM :
CALI.CM :
SP.MV :
~A
# ...
  183.7500     2.1910    61.7730   129.6850   114.6070   138.2670    24.6490   -13.2840 
  183.8750     2.2110    60.1290   102.2890    92.9500   105.7420    24.6860   -13.1650 
  184.0000     2.2290    59.6480    80.2160    74.2730    71.0480    24.6250   -13.0660 
  184.1250     2.2430    61.5050    64.9440    60.7140    52.2570    24.5060   -12.9710 
  184.2500     2.2560    62.5780    54.2760    51.0230    46.2890    24.4390   -12.8630 
  184.3750     2.2720    61.7930    46.8640    44.1670    43.9810    24.3940   -12.7740 
  184.5000     2.2910    62.6430    41.6310    39.2510    40.8350    24.3470   -12.6910 
  184.6250     2.3070    66.9470    37.9920    35.7980    31.6800    24.3140   -12.6470 
  184.7500     2.3190    69.8260    35.2630    33.1860    27.4430    24.2980   -12.5970 
  184.8750     2.3280    70.6230    33.3610    31.2980    25.6360    24.2980   -12.5610 
  185.0000     2.3370    71.3930    32.4510    30.2270    24.8720    24.2720   -12.5650 
  185.1250     2.3430    73.4310    33.1620    30.4430    23.2660    24.2360   -12.5640 
  185.2500     2.3400    73.9060    35.8470    32.1980    22.4590    24.2350   -12.5820 
  185.3750     2.3240    71.7840    41.1570    36.0220    23.2690    24.2290   -12.5860 
  185.5000     2.2990    68.5260    49.7530    42.5680    27.3980    24.1810   -12.6170 
  185.6250     2.2740    64.5410    62.5780    52.9520    40.6550    24.0400   -12.6510 
  185.7500     2.2550    61.6520    78.2790    66.3170    53.6460    23.9430   -12.6790 
  185.8750     2.2440    61.1530    94.6340    80.8890    60.6170    23.9220   -12.7300 
  186.0000     2.2410    61.4410   108.1030    93.5180    59.4430    23.9620   -12.7480 
  186.1250     2.2460    60.9130   113.9340    99.8380    59.1270    24.0330   -12.8030 
  186.2500     2.2560    61.9870   112.3440    99.6890    57.6100    24.1410   -12.8560 
  186.3750     2.2650    65.0820   104.9800    94.2900    47.6260    24.2060   -12.9220 
  186.5000     2.2710    65.9090    94.1880    85.5430    35.4290    24.2460   -12.9760 
  186.6250     2.2750    62.5930    82.4300    75.4710    26.5450    24.3280   -13.0410 
  186.7500     2.2790    60.6150    72.0870    66.2780    30.8260    24.4630   -13.1270 
  186.8750     2.2850    61.8350    64.4510    59.2010    30.3560    24.5170   -13.1910 
  187.0000     2.2900    62.9460    60.1610    54.8860    24.4370    24.4330   -13.2910 
  187.1250     2.2920    61.9420    59.9310    54.0550    19.8710    24.3780   -13.3720 
  187.2500     2.2870    60.1630    62.6150    55.9330    21.5070    24.3530   -13.4780 
  187.3750     2.2780    59.4480    66.7890    59.5150    30.9710    24.3540   -13.5840 
  187.5000     2.2690    60.9640    70.1040    62.8490    42.7450    24.3430   -13.6840 
  187.6250     2.2730    63.3830    69.0890    62.6800    45.7240    24.3520   -13.8050 
  187.7500     2.2910    65.1990    63.6360    58.3710    42.1030    24.3650   -13.9170 
  187.8750     2.3170    68.0070    56.0950    51.6970    34.5930    24.3940   -14.0520 
  188.0000     2.3310    72.3450    50.0400    45.6900    21.8890    24.3750   -14.1810 
  188.1250     2.3100    75.2340    49.5460    43.6760    13.3210    24.3610   -14.3270 
  188.2500     2.2660    75.1930    56.0020    46.9520    10.3800    24.3500   -14.4850 
  188.3750     2.2190    71.8360    70.9850    57.1890    13.4540    24.3430   -14.6470 
  188.5000     2.1880    66.7270    95.7930    76.1720    25.8140    24.3160   -14.8490 
  188.6250     2.1800    62.8000   130.9810   105.4560    37.2230    24.2580   -15.0260 
  188.7500     2.1850    62.3790   167.3550   137.6140    43.4280    24.2210   -15.2380 
  188.8750     2.1970    63.3080   191.1660   161.1570    48.7450    24.1780   -15.4420 
  189.0000     2.2120    61.5470   191.8300   166.3360    53.3360    24.2030   -15.6400 
  189.1250     2.2280    57.9080   171.3140   152.1970    54.6460    24.2090   -15.8290 
  189.2500     2.2400    56.3320   146.0900   131.6730    54.0740    24.2220   -15.9890 
  189.3750     2.2490    57.6060   123.7580   112.0190    52.1200    24.2150   -16.1670 
  189.5000     2.2500    61.3520   107.0580    96.5580    42.7860    24.1780   -16.3080 
  189.6250     2.2450    64.9130    97.1760    86.8580    46.9540    24.1160   -16.4620 
  189.7500     2.2360    66.2940    92.3480    81.6340    47.4020    24.1200   -16.6050 
  189.8750     2.2270    65.3520    91.7190    80.2600    43.9700    24.1630   -16.7480 
  190.0000     2.2190    63.8410    94.3930    82.0850    39.8470    24.1270   -16.9090 
  190.1250     2.2110    62.7590    99.5460    86.5640    40.6730    24.1020   -17.0530 
  190.2500     2.2030    61.4010   105.4320    92.0960    49.0740    24.0550   -17.2150 
  190.3750     2.1940    60.1260   110.7020    97.4000    66.7410    24.0280   -17.3640 
  190.5000     2.1890    60.3390   114.0530   101.1680    91.5870    24.0040   -17.5340 
  190.6250     2.1950    61.0590   114.1810   101.9770    99.0950    24.0670   -17.7060 
  190.7500     2.2110    62.5850   112.0590   100.4230    95.6030    24.1640   -17.8250 
  190.8750     2.2320    63.7500   109.2340    97.7180    94.4800    24.2030   -17.9540 
  191.0000     2.2550    63.9850   107.4940    95.4160    92.3420    24.1970   -18.0560 
  191.1250     2.2790    64.5430   108.9290    95.3790    87.4650    24.2340   -18.1940 
  191.2500     2.2920    64.5290   113.9750    98.2750    83.9390    24.2960   -18.3100 
  191.3750     2.2870    61.9900   122.6800   104.3670    90.8840    24.3890   -18.4320 
  191.5000     2.2600    56.7190   134.5930   113.4350   103.5020    24.5180   -18.5590 
  191.6250     2.2230    54.3670   149.2960   125.3040   119.6770    24.5170   -18.6740 
  191.7500     2.1890    56.7890   165.2630   138.6890   135.6040    24.5870   -18.8410 
  191.8750     2.1740    60.2800   181.0430   152.4120   154.2170    24.6860   -18.9900 
  192.0000     2.1740    60.9940   194.8510   165.0330   173.6480    24.7780   -19.1600 
  192.1250     2.1770    57.1000   203.9440   174.4050   199.8960    24.8150   -19.2980 
  192.2500     2.1780    54.0350   207.2470   179.4110   202.3680    24.7260   -19.4420 
  192.3750     2.1770    54.1370   204.5220   179.4120   189.9430    24.5020   -19.5720 
  192.5000     2.1800    55.7290   197.6490   175.4280   180.2260    24.3080   -19.6750 
  192.6250     2.1860    55.7930   190.2800   170.1930   163.5520    24.2740   -19.7870 
  192.7500     2.1900    56.0480   185.5740   166.7140   145.3230    24.3040   -19.8480 
  192.8750     2.1910    57.8950   184.8460   166.4250   126.9680    24.3400   -19.9260 
  193.0000     2.1880    59.1590   188.2410   169.8690   124.1570    24.3420   -19.9830 
  193.1250     2.1820    58.5240   194.3360   176.6070   161.3270    24.3430   -20.0240 
  193.2500     2.1730    57.7850   198.1380   182.6600   177.5240    24.3420   -20.0760 
  193.3750     2.1640    58.6960   194.1290   182.8470   157.1350    24.3480   -20.0920 
  193.5000     2.1630    60.4080   179.3570   173.1740   136.0030    24.3550   -20.1270 
  193.6250     2.1750    61.0970   156.9280   154.2030   142.7930    24.4170   -20.1170 
  193.7500     2.1960    60.7130   136.6490   134.7280   148.1970    24.5280   -20.1310 
  193.8750     2.2140    58.8770   124.6620   121.3450   104.6830    24.5870   -20.1230 
  194.0000     2.2170    56.8460   124.1800   118.3070    67.0080    24.5310   -20.0990 
  194.1250     2.1980    55.9210   138.3310   129.9020    69.8630    24.4770   -20.0660 
  194.2500     2.1680    56.4070   163.6360   153.3710   115.6810    24.4640   -19.9900 
  194.3750     2.1420    56.5270   194.7520   183.7250   258.8720    24.4500   -19.9100 
  194.5000     2.1340    54.6800   220.1900   210.1660   516.8750    24.4460   -19.7840 
  194.6250     2.1470    54.1900   222.6240   215.8650   488.2940    24.3910   -19.6720 
  194.7500     2.1660    54.8170   207.2590   203.0340   272.9750    24.4270   -19.5110 
  194.8750     2.1790    56.5390   189.1990   184.4810   143.1320    24.5390   -19.3500 
