~V
VERS. 2.00: Ver 2.00
~W
STRT.M 53.0000:
STOP.M 282.0000:
STEP.M 0.1250:
NULL. -999.2500:
UWI. F10240:
~C
DEPT.M :
GR.API :
RML.OHMM :
RI. :
RXO.OHMM :
CALI.CM :
DEN.GM/CC :
SP.MV :
~A
# ...
   64.2500    67.3060     9.9020     8.1950    10.4140    24.2230     2.1400   -34.3030 
   64.3750    67.8910     9.4080     7.7960    10.2270    24.1980     2.1210   -34.4630 
   64.5000    70.0430     9.4270     7.6620     9.8730    24.1840     2.1160   -34.5010 
   64.6250    69.6740    10.5010     8.1270    10.5720    24.1560     2.1370   -34.4820 
   64.7500    67.0260    13.2340     9.6240    12.2500    24.1950     2.1990   -34.4620 
   64.8750    65.4370    18.2110    12.7010    16.4610    24.4390     2.3060   -34.4460 
   65.0000    65.8230    25.9560    18.1740    29.0100    24.9270     2.4440   -34.4610 
   65.1250    64.1810    34.1880    24.9340    49.4540    25.3340     2.5580   -34.5470 
   65.2500    59.5760    38.4760    29.8910    79.3150    25.5250     2.5940   -34.7470 
   65.3750    55.9090    35.3140    29.4110    92.2990    25.4750     2.5420   -35.0570 
   65.5000    56.7740    26.9650    23.7090    51.2020    25.1370     2.4260   -35.4740 
   65.6250    58.8680    19.4230    17.7020    23.3640    24.7350     2.3000   -35.9610 
   65.7500    60.8020    14.3780    13.2390    13.7200    24.4740     2.1920   -36.4700 
   65.8750    63.8810    11.6290    10.4480    11.3720    24.3610     2.1170   -36.9620 
   66.0000    66.8240    10.6780     9.0690    11.3550    24.2850     2.0840   -37.3880 
   66.1250    66.4170    10.5760     8.4670    11.4380    24.2500     2.0750   -37.7100 
   66.2500    64.4110    10.8250     8.3270    11.4170    24.2430     2.0760   -37.9000 
   66.3750    63.6640    11.0890     8.3870    11.5100    24.2290     2.0770   -37.9640 
   66.5000    63.7060    11.2400     8.4810    11.6250    24.1830     2.0780   -37.9210 
   66.6250    62.6710    11.3670     8.5720    11.5850    24.1390     2.0890   -37.8210 
   66.7500    61.8030    11.5370     8.6850    11.7080    24.1180     2.1150   -37.6930 
   66.8750    63.0520    11.7480     8.8280    13.8880    24.1110     2.1520   -37.5800 
   67.0000    64.8380    11.9140     8.9610    18.0070    24.0670     2.1840   -37.4980 
   67.1250    65.1180    11.9460     9.0240    18.4440    24.0070     2.1940   -37.4370 
   67.2500    64.6620    11.8230     8.9830    14.1690    23.9630     2.1800   -37.4040 
   67.3750    66.4790    11.6050     8.8550    11.5860    23.9610     2.1540   -37.3860 
   67.5000    70.5300    11.4150     8.7030    11.0080    23.9630     2.1350   -37.3690 
   67.6250    72.1370    11.3380     8.5990    10.9820    23.9710     2.1300   -37.3530 
   67.7500    70.4710    11.3750     8.5730    11.2060    23.9720     2.1360   -37.3320 
   67.8750    68.0330    11.4640     8.6050    11.4640    23.9610     2.1480   -37.2950 
   68.0000    68.4920    11.5240     8.6480    11.3690    23.9310     2.1520   -37.2400 
   68.1250    69.9520    11.5390     8.6620    11.1510    23.9010     2.1450   -37.1890 
   68.2500    70.0850    11.5370     8.6470    11.1170    23.8740     2.1290   -37.1370 
   68.3750    68.4500    11.5490     8.6200    11.1160    23.8200     2.1130   -37.0880 
   68.5000    66.0610    11.5880     8.6040    11.0870    23.7280     2.1060   -37.0380 
   68.6250    64.5290    11.6420     8.6010    11.0340    23.6440     2.1090   -36.9760 
   68.7500    63.8080    11.6970     8.6030    11.0040    23.5690     2.1170   -36.9140 
   68.8750    63.6860    11.7280     8.5980    11.0390    23.5050     2.1270   -36.8510 
   69.0000    63.1610    11.6900     8.5730    11.0090    23.4650     2.1340   -36.7980 
   69.1250    62.3810    11.5880     8.5320    11.1000    23.4640     2.1390   -36.7510 
   69.2500    61.3360    11.4720     8.4910    11.3450    23.5010     2.1410   -36.7130 
   69.3750    60.1710    11.4320     8.4840    11.6780    23.5280     2.1390   -36.6810 
   69.5000    60.8700    11.5990     8.5630    11.8670    23.4920     2.1350   -36.6430 
   69.6250    64.3430    11.9640     8.7370    11.8660    23.4900     2.1320   -36.6080 
   69.7500    67.4770    12.4130     8.9670    11.8050    23.5160     2.1370   -36.5640 
   69.8750    67.2730    12.7190     9.1390    12.0330    23.5570     2.1530   -36.4990 
   70.0000    65.2250    12.5330     9.0440    12.3820    23.5930     2.1790   -36.3860 
   70.1250    65.9730    11.8400     8.6340    12.2800    23.6310     2.2100   -36.2460 
   70.2500    70.3920    10.8400     8.0030    11.4510    23.6960     2.2340   -36.0880 
   70.3750    75.5340     9.8970     7.3480    10.0600    23.8180     2.2410   -35.9570 
   70.5000    77.6150     9.4730     6.9390     8.6200    23.9320     2.2200   -35.9290 
   70.6250    74.9170     9.6860     6.8860     8.2470    23.9960     2.1850   -36.0270 
   70.7500    68.9520    10.5070     7.2240     9.2270    24.0240     2.1580   -36.2530 
   70.8750    64.6420    11.7390     7.9040    11.7660    24.0550     2.1520   -36.5860 
   71.0000    64.4720    12.9740     8.7630    17.6200    24.0490     2.1650   -37.0230 
   71.1250    64.7790    13.7370     9.4720    23.3440    23.9830     2.1740   -37.5210 
   71.2500    64.0010    13.7940     9.7900    18.8080    23.8900     2.1640   -38.0590 
   71.3750    62.8020    13.2500     9.6680    13.2460    23.8360     2.1380   -38.5890 
   71.5000    62.1340    12.4540     9.2410    11.3990    23.9150     2.1140   -39.0330 
   71.6250    59.8740    11.7850     8.7830    11.3620    24.0220     2.1040   -39.3550 
   71.7500    56.8280    11.3800     8.4240    11.5330    24.0840     2.1100   -39.5680 
   71.8750    55.5570    11.2460     8.2200    11.6750    24.0810     2.1210   -39.7130 
   72.0000    57.0460    11.3230     8.1730    11.6650    24.0490     2.1310   -39.7800 
   72.1250    58.8690    11.4710     8.2060    11.5920    24.0270     2.1360   -39.7680 
   72.2500    58.3930    11.6310     8.2740    11.6120    24.0150     2.1370   -39.7150 
   72.3750    56.6380    11.7840     8.3540    11.7410    23.9880     2.1370   -39.6220 
   72.5000    55.9540    11.9270     8.4330    11.8540    23.9910     2.1360   -39.4500 
   72.6250    56.0150    12.0510     8.5020    11.9810    23.9940     2.1360   -39.2290 
   72.7500    56.4690    12.1110     8.5390    11.9780    23.9960     2.1370   -38.9810 
   72.8750    57.2780    12.0150     8.4980    11.9150    23.9830     2.1400   -38.6590 
   73.0000    57.6970    11.6140     8.2890    11.7920    23.9780     2.1470   -38.2820 
   73.1250    58.6940    10.9640     7.9190    11.5380    23.9640     2.1620   -37.9360 
   73.2500    63.4530    10.2760     7.4850    11.3090    23.9580     2.1870   -37.5760 
   73.3750    70.1940     9.8950     7.1740    11.1320    24.0090     2.2160   -37.2070 
   73.5000    70.1920    10.2900     7.2610    11.1120    24.1140     2.2370   -36.9600 
   73.6250    65.0140    11.4960     7.8270    12.3220    24.1950     2.2510   -36.8200 
   73.7500    60.8220    13.3620     8.8720    16.2740    24.2720     2.2610   -36.7530 
   73.8750    58.0570    15.4010    10.2060    25.9060    24.4260     2.2670   -36.8170 
   74.0000    54.6110    16.5700    11.2340    37.1760    24.5900     2.2600   -37.0510 
   74.1250    54.2390    16.2930    11.4060    28.3730    24.5910     2.2330   -37.3640 
   74.2500    57.9050    14.8050    10.6980    17.0890    24.4030     2.1870   -37.7820 
   74.3750    60.1040    12.9510     9.5640    13.0290    24.2560     2.1360   -38.3200 
   74.5000    57.6730    11.6410     8.5590    12.6570    24.1990     2.1010   -38.8490 
   74.6250    56.5720    11.0830     7.9180    12.8750    24.2140     2.0850   -39.3180 
   74.7500    59.8590    11.1620     7.6600    12.9650    24.2610     2.0800   -39.7320 
   74.8750    63.8890    11.6130     7.7020    12.8800    24.3540     2.0800   -40.0780 
   75.0000    64.3020    12.1350     7.9140    12.9900    24.4550     2.0800   -40.2950 
   75.1250    62.7210    12.5150     8.1320    13.0370    24.5600     2.0820   -40.4080 
   75.2500    61.8600    12.6950     8.2820    13.2920    24.6560     2.0880   -40.4350 
   75.3750    62.2160    12.6770     8.3320    13.7500    24.7690     2.0950   -40.3780 
