~V
VERS. 2.00: Ver 2.00
~W
STRT.M 57.0000:
STOP.M 281.0000:
STEP.M 0.1250:
NULL. -999.2500:
UWI. F10238:
~C
DEPT.M :
GR.API :
RML.OHMM :
RI. :
RXO.OHMM :
CALI.CM :
DEN.GM/CC :
SP.MV :
~A
# ...
  214.5000    67.0900    16.3030    10.5630    14.8790    23.9680     2.2390   -12.0640 
  214.6250    67.3370    19.0390    12.5070    17.9920    23.8540     2.2240   -12.2020 
  214.7500    68.1240    21.4420    14.5070    19.1010    23.8620     2.2290   -12.3000 
  214.8750    67.8210    22.9880    16.1420    18.8190    24.0300     2.2580   -12.3600 
  215.0000    67.4470    23.5690    17.1550    17.9900    24.3190     2.2990   -12.3720 
  215.1250    67.7790    23.3230    17.5110    18.1950    24.5540     2.3270   -12.3550 
  215.2500    67.5750    22.4830    17.2960    18.9240    24.5720     2.3280   -12.3160 
  215.3750    65.5470    21.3340    16.6750    18.1520    24.4660     2.3050   -12.2660 
  215.5000    62.8390    20.1780    15.8820    16.5760    24.4320     2.2790   -12.2320 
  215.6250    62.1080    19.1510    15.0430    15.4060    24.4750     2.2610   -12.2140 
  215.7500    64.6840    18.1860    14.1730    14.4630    24.5210     2.2520   -12.2130 
  215.8750    69.4390    17.0500    13.1780    13.7090    24.5210     2.2480   -12.2200 
  216.0000    72.8020    15.5500    11.9710    13.2480    24.4930     2.2500   -12.2610 
  216.1250    73.6280    13.7280    10.5860    12.4120    24.4670     2.2630   -12.3230 
  216.2500    73.9240    11.9930     9.2640    10.6410    24.4590     2.2820   -12.4100 
  216.3750    75.6790    10.9740     8.3620     8.8480    24.4670     2.2940   -12.5260 
  216.5000    77.6660    11.2460     8.1890     8.0710    24.5020     2.2970   -12.6660 
  216.6250    77.1800    13.4160     9.1030     9.0320    24.5560     2.3090   -12.8450 
  216.7500    72.9420    18.3280    11.7740    15.0940    24.5670     2.3420   -13.0550 
  216.8750    66.4630    26.4000    16.8430    32.8220    24.4980     2.3840   -13.2960 
  217.0000    60.0740    36.2860    23.9280    62.4250    24.4360     2.3950   -13.5530 
  217.1250    54.2100    44.5380    30.9880    80.0780    24.4650     2.3530   -13.8040 
  217.2500    51.2000    46.2420    34.1340    67.0220    24.5980     2.2720   -14.0400 
  217.3750    53.5890    40.7120    31.7900    44.0980    24.8090     2.1860   -14.2540 
  217.5000    58.8510    33.1600    27.0810    28.2450    24.9670     2.1260   -14.4520 
  217.6250    61.9670    27.3690    22.9150    20.8690    24.9630     2.1030   -14.6410 
  217.7500    61.6850    24.6450    20.6070    18.8950    24.8040     2.1100   -14.8190 
  217.8750    61.1540    24.7480    20.2840    19.0510    24.6060     2.1300   -14.9970 
  218.0000    61.9030    26.7790    21.5270    20.6500    24.4350     2.1430   -15.1700 
  218.1250    63.1270    29.9580    23.9680    24.2830    24.2850     2.1430   -15.3410 
  218.2500    64.8870    32.8450    26.6790    27.8680    24.1130     2.1410   -15.5020 
  218.3750    66.0290    33.5630    28.0950    29.0200    23.9590     2.1580   -15.6300 
  218.5000    64.4600    31.1330    27.0110    27.7530    23.9010     2.2030   -15.7270 
  218.6250    61.6090    26.1370    23.5320    24.8770    23.9130     2.2710   -15.7890 
  218.7500    61.1150    20.4120    19.0140    19.9510    23.9950     2.3360   -15.8270 
  218.8750    63.5390    15.6760    14.9540    14.0720    24.1730     2.3770   -15.8330 
  219.0000    66.7230    12.4860    12.0030    10.0810    24.3870     2.3900   -15.8180 
  219.1250    69.7550    10.7040    10.1610     8.8140    24.5300     2.3840   -15.8000 
  219.2500    72.8290    10.0630     9.2880     8.5630    24.5950     2.3660   -15.7810 
  219.3750    75.6980    10.2620     9.1910     8.5400    24.6220     2.3390   -15.7800 
  219.5000    77.7400    10.9280     9.5890     8.6810    24.6230     2.3150   -15.8010 
  219.6250    77.3300    11.7960    10.2680     9.1590    24.5910     2.3040   -15.8330 
  219.7500    74.2410    12.5660    10.9620     9.9020    24.5270     2.3080   -15.8740 
  219.8750    71.8350    12.9750    11.4110    10.4050    24.4490     2.3170   -15.9340 
  220.0000    71.3140    12.9430    11.4930    10.3700    24.3890     2.3190   -15.9980 
  220.1250    69.8330    12.5850    11.2510    10.1960    24.3880     2.3140   -16.0670 
  220.2500    68.2730    12.2750    10.9270    10.1960    24.4480     2.3090   -16.1450 
  220.3750    70.3040    12.5500    10.9010    10.2400    24.5330     2.3060   -16.2350 
  220.5000    73.7680    13.9240    11.5530    10.5880    24.5520     2.3010   -16.3260 
  220.6250    72.7200    16.9170    13.2770    12.0110    24.4490     2.2860   -16.4200 
  220.7500    67.2880    22.2380    16.7030    16.5440    24.2650     2.2560   -16.5190 
  220.8750    62.3560    30.3850    22.4460    27.4870    24.1050     2.2160   -16.6050 
  221.0000    59.1070    40.9140    30.4690    43.3950    24.0290     2.1780   -16.6860 
  221.1250    56.4520    52.5470    39.9950    54.5290    24.0040     2.1510   -16.7410 
  221.2500    56.2430    62.6570    49.0100    55.7650    23.9740     2.1400   -16.7780 
  221.3750    60.3000    68.8850    55.4040    55.0450    23.9150     2.1470   -16.7910 
  221.5000    64.9830    71.4260    58.8090    57.3790    23.8480     2.1640   -16.7750 
  221.6250    66.2700    72.1980    60.3090    61.1790    23.8080     2.1840   -16.7340 
  221.7500    64.3710    73.9940    61.8660    61.1430    23.7970     2.2060   -16.6520 
  221.8750    62.1250    79.2330    65.5450    56.9770    23.8090     2.2370   -16.5410 
  222.0000    60.1480    88.7630    72.5710    56.8330    23.8380     2.2930   -16.4080 
  222.1250    56.9460   101.0330    82.3580    70.0310    23.9030     2.3830   -16.2650 
  222.2500    53.6510   107.8590    89.3200   105.0300    24.0350     2.5030   -16.1100 
  222.3750    52.0670    97.9860    84.3690   148.5630    24.2080     2.6050   -15.9670 
  222.5000    50.6740    72.4190    65.7610   152.4300    24.3240     2.6350   -15.8460 
  222.6250    47.7560    44.3000    42.3440   100.8570    24.3650     2.5880   -15.7650 
  222.7500    44.1990    24.6400    24.3060    43.6900    24.3760     2.4960   -15.7570 
  222.8750    41.9140    14.4860    14.2490    17.2730    24.3750     2.3990   -15.8500 
  223.0000    41.5080     9.7390     9.1910     7.7880    24.3470     2.3250   -16.0620 
  223.1250    42.4030     8.0850     7.0050     5.9460    24.3100     2.2830   -16.4040 
  223.2500    43.7580     8.3040     6.5320     6.6750    24.2900     2.2760   -16.8910 
  223.3750    44.3770     9.6950     7.2100     9.0130    24.2440     2.2930   -17.4480 
  223.5000    43.5410    11.4890     8.5020    12.6260    24.1670     2.3180   -17.9580 
  223.6250    41.4820    12.9050     9.8350    15.3750    24.1560     2.3430   -18.3410 
  223.7500    38.9370    13.2080    10.5080    14.5040    24.2530     2.3620   -18.5350 
  223.8750    37.5720    12.3660    10.2440    11.0560    24.3650     2.3700   -18.5370 
  224.0000    37.9550    11.0860     9.4360     8.7490    24.4070     2.3680   -18.3890 
  224.1250    38.3800     9.9050     8.5020     7.9300    24.4030     2.3580   -18.1190 
  224.2500    38.0910     9.0860     7.7130     7.6530    24.4140     2.3470   -17.7500 
  224.3750    38.4770     8.6420     7.1600     7.3690    24.4440     2.3390   -17.3480 
  224.5000    39.8330     8.4720     6.8180     7.1070    24.4670     2.3380   -17.0320 
  224.6250    40.1400     8.5520     6.6780     6.9860    24.4980     2.3410   -16.8700 
  224.7500    38.0290     8.9190     6.7630     7.0490    24.5490     2.3470   -16.9150 
  224.8750    35.5400     9.5800     7.0790     7.4890    24.6020     2.3540   -17.1440 
  225.0000    34.8090    10.4230     7.5590     8.5650    24.5950     2.3600   -17.4730 
  225.1250    35.7260    11.2800     8.1060     9.8110    24.4520     2.3650   -17.8200 
  225.2500    37.5490    11.9130     8.5700    10.3010    24.1900     2.3640   -18.1130 
  225.3750    39.1410    12.1420     8.8120    10.0060    23.9120     2.3580   -18.3140 
  225.5000    40.2180    11.9540     8.7910     9.5450    23.7370     2.3500   -18.4050 
  225.6250    41.3990    11.4220     8.5230     9.1720    23.8130     2.3410   -18.3820 
