~V
VERS. 2.00: Ver 2.00
~W
STRT.M 58.0000:
STOP.M 273.0000:
STEP.M 0.1250:
NULL. -999.2500:
UWI. F10226:
~C
DEPT.M :
SP.MV :
DEN.GM/CC :
GR.API :
RML.OHMM :
RI. :
RXO.OHMM :
CALI.CM :
~A
# ...
  114.2500    -7.6800     2.3070   118.2530     7.2160     5.4510     5.3830    24.1550 
  114.3750    -7.8370     2.3070   115.8280     7.2110     5.5140     5.4130    24.0610 
  114.5000    -7.9920     2.3210   114.5520     7.1580     5.5250     5.3380    24.0660 
  114.6250    -8.1340     2.3440   113.4930     7.1010     5.5080     5.3460    24.1450 
  114.7500    -8.2770     2.3610   111.9220     7.0550     5.4840     5.1220    24.2200 
  114.8750    -8.4320     2.3480   111.7270     7.0110     5.4500     4.8840    24.2640 
  115.0000    -8.6040     2.3090   112.6100     6.9450     5.3930     4.8790    24.3450 
  115.1250    -8.7900     2.2610   113.8170     6.8420     5.3020     4.9980    24.4140 
  115.2500    -8.9860     2.2240   115.7020     6.7020     5.1740     4.9410    24.4250 
  115.3750    -9.1960     2.2150   117.7620     6.5440     5.0200     4.6190    24.4090 
  115.5000    -9.4350     2.2240   116.8760     6.3940     4.8600     4.4810    24.3890 
  115.6250    -9.6970     2.2420   114.5480     6.2820     4.7130     4.5290    24.3770 
  115.7500    -9.9580     2.2600   113.9240     6.2370     4.6020     4.6590    24.3770 
  115.8750   -10.1960     2.2730   114.7680     6.2930     4.5600     4.7190    24.4300 
  116.0000   -10.3990     2.2780   114.6450     6.4270     4.5860     4.6940    24.5040 
  116.1250   -10.5860     2.2710   112.3670     6.6110     4.6780     4.7590    24.5620 
  116.2500   -10.7640     2.2590   107.2150     6.8320     4.8370     5.0150    24.5540 
  116.3750   -10.9560     2.2660    98.4470     7.1620     5.1170     5.6090    24.5360 
  116.5000   -11.1590     2.3090    89.7900     7.7460     5.5930     6.0240    24.5210 
  116.6250   -11.3880     2.3890    84.5110     8.8150     6.3950     6.4430    24.5250 
  116.7500   -11.6710     2.4880    84.1670    10.6550     7.7040     7.3050    24.5220 
  116.8750   -12.0660     2.5740    85.2450    13.6990     9.8790    10.1570    24.4800 
  117.0000   -12.5970     2.6230    83.3560    17.8030    12.9640    16.1910    24.4010 
  117.1250   -13.2600     2.6230    80.0970    22.3620    16.6880    23.9270    24.2910 
  117.2500   -14.0470     2.5720    79.3990    26.0000    20.0630    30.6270    24.2120 
  117.3750   -14.9740     2.4800    81.6900    26.4810    21.1310    34.4160    24.1660 
  117.5000   -16.0310     2.3750    83.6370    23.9190    19.6370    34.4250    24.0960 
  117.6250   -17.1900     2.2790    84.6860    19.8030    16.6380    28.9870    23.9610 
  117.7500   -18.4180     2.2030    86.3210    15.8120    13.4770    20.4270    23.8050 
  117.8750   -19.6290     2.1510    87.1420    13.0740    11.0830    14.3480    23.7300 
  118.0000   -20.7650     2.1140    84.9520    11.5480     9.5350    12.2690    23.7210 
  118.1250   -21.7970     2.0890    80.4760    10.9860     8.7300    12.2950    23.7430 
  118.2500   -22.6890     2.0740    76.4830    11.0740     8.5120    12.6730    23.7650 
  118.3750   -23.3860     2.0720    75.7480    11.4750     8.7120    12.8940    23.7850 
  118.5000   -23.9090     2.0790    76.8960    11.8360     9.0400    13.3420    23.7870 
  118.6250   -24.2760     2.0910    77.6190    12.0070     9.3280    13.9200    23.7420 
  118.7500   -24.5050     2.1020    76.8090    11.9870     9.5160    13.8360    23.6110 
  118.8750   -24.6190     2.1050    76.9690    11.8360     9.6060    13.5850    23.5700 
  119.0000   -24.6190     2.0990    78.8540    11.6490     9.6580    13.4770    23.6520 
  119.1250   -24.4960     2.0880    81.1610    11.4790     9.7110    13.4880    23.8150 
  119.2500   -24.2450     2.0810    80.4910    11.3580     9.7910    13.4560    23.9530 
  119.3750   -23.8240     2.0890    76.5180    11.3570     9.9380    13.4680    24.0340 
  119.5000   -23.2300     2.1100    73.1620    11.5410    10.1830    13.7690    24.0740 
  119.6250   -22.4740     2.1410    72.1100    11.9540    10.5590    13.8190    24.0830 
  119.7500   -21.5360     2.1760    72.7410    12.5450    11.0450    13.5140    24.0540 
  119.8750   -20.3960     2.2120    71.7320    13.0680    11.4730    14.2170    24.0310 
  120.0000   -19.0990     2.2450    70.5780    13.2010    11.5910    15.3760    24.0610 
  120.1250   -17.6700     2.2710    71.5040    12.7450    11.2160    15.5040    24.1040 
  120.2500   -16.1890     2.2860    74.2190    11.7330    10.3620    12.2170    24.1170 
  120.3750   -14.7640     2.2890    79.5860    10.4160     9.2290     8.7120    24.0830 
  120.5000   -13.4720     2.2850    84.3410     9.1770     8.1380     7.1430    24.0610 
  120.6250   -12.3430     2.2870    84.8550     8.2710     7.2980     7.0430    24.0630 
  120.7500   -11.3900     2.3000    80.0710     7.8910     6.8590     7.7340    24.0970 
  120.8750   -10.6520     2.3290    74.7130     8.3640     7.0520     8.3510    24.1960 
  121.0000   -10.1210     2.3620    71.0810     9.8820     7.9980     8.8410    24.3150 
  121.1250    -9.7960     2.3920    66.2950    12.7690     9.9680    11.3460    24.4310 
  121.2500    -9.6420     2.4140    59.7790    17.2990    13.3010    18.5700    24.5550 
  121.3750    -9.6130     2.4340    53.5410    23.5870    18.4370    22.5370    24.5940 
  121.5000    -9.6400     2.4560    47.8160    30.3660    24.5910    22.3050    24.6090 
  121.6250    -9.6980     2.4780    42.6340    35.7740    30.2250    20.5270    24.5400 
  121.7500    -9.7890     2.4970    40.4060    38.2150    33.6360    19.3400    24.3670 
  121.8750    -9.9000     2.5080    43.5560    37.6190    34.1480    19.8750    24.2300 
  122.0000   -10.0010     2.5160    46.9820    36.2110    33.4090    20.9040    24.1410 
  122.1250   -10.0850     2.5230    46.8520    35.3450    32.6300    22.5030    24.1030 
  122.2500   -10.1330     2.5310    44.4430    35.4930    32.3950    25.9220    24.0570 
  122.3750   -10.1200     2.5410    43.2190    36.6680    32.9300    31.0240    23.9490 
  122.5000   -10.0410     2.5480    43.4380    38.2150    33.8930    36.7350    23.7620 
  122.6250    -9.8830     2.5520    44.1510    39.4510    34.8140    38.9140    23.6060 
  122.7500    -9.6610     2.5490    45.0650    39.8550    35.2510    36.5400    23.5590 
  122.8750    -9.4110     2.5430    44.8100    39.2520    34.9690    35.7210    23.6860 
  123.0000    -9.1600     2.5440    44.2280    38.2150    34.3150    35.4080    23.8580 
  123.1250    -8.9080     2.5550    44.5300    37.3200    33.6980    31.7250    23.9740 
  123.2500    -8.6620     2.5790    45.4190    36.9810    33.4550    28.3740    24.0230 
  123.3750    -8.4470     2.6100    44.8710    37.4070    33.7980    29.6920    24.1330 
  123.5000    -8.2880     2.6360    43.0650    38.2800    34.5380    34.4230    24.2430 
  123.6250    -8.1970     2.6530    41.3570    39.1970    35.4100    36.9800    24.2620 
  123.7500    -8.1620     2.6590    40.8150    39.6900    36.0720    34.5880    24.2100 
  123.8750    -8.1550     2.6530    41.2600    39.2130    36.0690    32.6910    24.1570 
  124.0000    -8.1680     2.6350    41.8070    37.8250    35.3250    32.6150    24.1140 
  124.1250    -8.2030     2.6040    41.9390    35.8570    34.0100    33.3550    24.0750 
  124.2500    -8.2700     2.5620    42.0370    33.7700    32.4510    30.6600    24.0730 
  124.3750    -8.3430     2.5150    43.4540    31.9670    30.9740    27.0230    24.1290 
  124.5000    -8.4050     2.4730    45.5620    30.4710    29.6570    24.7170    24.1970 
  124.6250    -8.4620     2.4460    47.2890    29.1320    28.4200    24.2310    24.2540 
  124.7500    -8.5100     2.4390    46.8000    27.7650    27.1370    24.7140    24.2920 
  124.8750    -8.5650     2.4540    45.5950    26.2510    25.7390    23.9740    24.2760 
  125.0000    -8.6280     2.4770    46.9130    24.7390    24.3490    21.3940    24.2430 
  125.1250    -8.6960     2.4970    49.7990    23.5070    23.1900    18.7030    24.2680 
  125.2500    -8.7590     2.5060    51.9090    22.8240    22.4780    17.8290    24.3100 
  125.3750    -8.8170     2.5000    50.7350    22.8900    22.4010    18.5010    24.3270 
