~V
VERS. 2.00: Ver 2.00
~W
STRT.M 60.0000:
STOP.M 271.0000:
STEP.M 0.1250:
NULL. -999.2500:
UWI. F10237:
~C
DEPT.M :
GR.API :
RML.OHMM :
RI. :
RXO.OHMM :
CALI.CM :
DEN.GM/CC :
SP.MV :
~A
# ...
  217.5000    55.9720    38.6650    39.1680    31.8270    24.0840     2.2550   -11.5470 
  217.6250    55.8560    36.0330    35.9230    23.1000    23.7350     2.2330   -11.8030 
  217.7500    59.0290    35.4500    34.4850    21.7870    23.4720     2.2190   -12.0220 
  217.8750    65.2000    37.1630    35.2250    25.6900    23.5950     2.2110   -12.1860 
  218.0000    70.4250    41.2550    38.3320    31.8010    24.1870     2.2060   -12.3590 
  218.1250    66.6730    48.0980    44.3110    40.6480    24.8860     2.1990   -12.4840 
  218.2500    57.6570    63.0950    52.5710    54.9110    25.4080     2.1910   -12.5860 
  218.3750    50.7170    80.7810    62.5270    73.6410    25.7050     2.1860   -12.7090 
  218.5000    48.6860    93.7130    73.2500    87.5880    25.8250     2.1870   -12.8320 
  218.6250    48.8450   105.6770    83.5070    97.1370    25.8640     2.1960   -12.9380 
  218.7500    49.5320   115.7800    92.4070   110.6890    25.8760     2.2100   -13.0820 
  218.8750    51.8410   123.7680    99.5620   125.4630    25.8540     2.2280   -13.1840 
  219.0000    54.3000   129.9120   105.0350   128.2010    25.7690     2.2390   -13.2950 
  219.1250    53.6900   134.3790   108.9130   120.5450    25.5060     2.2290   -13.4450 
  219.2500    51.5330   137.7280   111.8080   115.9970    25.2340     2.1970   -13.5320 
  219.3750    49.6700   140.3200   114.1110   119.9860    25.1830     2.1550   -13.6520 
  219.5000    49.5350   142.6760   116.3130   113.6560    25.4060     2.1200   -13.7590 
  219.6250    50.5050   144.8680   118.7010   102.3600    25.7490     2.1130   -13.7950 
  219.7500    50.6620   145.7190   120.5220   105.9180    25.7830     2.1320   -13.8670 
  219.8750    50.2510   143.2950   120.2990   118.9570    25.6320     2.1690   -13.9460 
  220.0000    49.5110   136.1380   116.6120   129.0200    25.5070     2.2070   -14.0210 
  220.1250    48.0770   124.2430   108.7230   128.8850    25.4100     2.2400   -14.0980 
  220.2500    47.6180   111.1620    98.9900   108.3500    25.2710     2.2730   -14.1800 
  220.3750    50.1270    99.6810    89.6950    81.6990    25.1070     2.3050   -14.2470 
  220.5000    53.5820    91.6880    82.7400    72.5580    24.9790     2.3320   -14.3290 
  220.6250    51.7140    88.8280    79.8820    74.6830    24.9430     2.3540   -14.4240 
  220.7500    48.4920    90.2960    80.8350    77.4830    24.9680     2.3810   -14.5200 
  220.8750    50.0020    94.6370    84.7690    77.5180    25.0090     2.4240   -14.5940 
  221.0000    55.7670    97.8020    88.6990    79.2070    25.0050     2.4970   -14.5550 
  221.1250    56.8620    91.0780    85.3060    94.6550    24.9260     2.6030   -14.5400 
  221.2500    51.2500    73.1680    71.4580   116.4980    24.8310     2.6980   -14.5480 
  221.3750    45.1660    50.7530    51.3000   105.9890    24.7820     2.7170   -14.4610 
  221.5000    42.9140    31.8420    32.6400    56.5090    24.7640     2.6400   -14.4050 
  221.6250    42.5990    20.5950    20.6760    24.8890    24.8580     2.5280   -14.4150 
  221.7500    40.3610    13.9700    13.7290    11.7020    24.9620     2.4440   -14.3440 
  221.8750    36.9760    10.4840     9.9880     8.1800    25.0820     2.3960   -14.3470 
  222.0000    35.8630     8.8650     8.0950     7.2200    25.2080     2.3740   -14.4840 
  222.1250    38.2560     8.4630     7.4170     6.9120    25.1760     2.3720   -14.6360 
  222.2500    41.5250     8.6120     7.3480     6.9570    25.0200     2.3800   -14.8710 
  222.3750    42.5130     9.0160     7.6150     7.6740    24.8840     2.3900   -15.2020 
  222.5000    39.6390     9.4610     7.9890     8.7100    24.8220     2.4000   -15.5330 
  222.6250    34.1450     9.8250     8.3150     8.6860    24.8160     2.4120   -15.8990 
  222.7500    29.9850    10.1480     8.5920     8.2670    24.8690     2.4240   -16.2500 
  222.8750    28.3450    10.5000     8.8710     8.1110    24.9120     2.4310   -16.5130 
  223.0000    29.0020    10.9150     9.1920     8.7180    24.8840     2.4240   -16.7290 
  223.1250    30.7210    11.3320     9.5120    10.5680    24.7920     2.3940   -16.8540 
  223.2500    32.8050    11.5850     9.6900    11.8890    24.7770     2.3570   -16.8970 
  223.3750    33.6310    11.5320     9.5870    11.5020    24.8520     2.3320   -16.9120 
  223.5000    32.1270    11.1580     9.1670    10.0360    24.9550     2.3330   -16.8180 
  223.6250    29.7360    10.6200     8.5480     8.7910    24.9950     2.3580   -16.5860 
  223.7500    28.6150    10.2080     7.9890     8.0140    25.0420     2.3880   -16.3720 
  223.8750    30.1950    10.0730     7.6400     7.6860    25.0650     2.4100   -16.1720 
  224.0000    34.4970    10.2440     7.5540     7.7450    25.0230     2.4220   -15.9900 
  224.1250    35.7560    10.6420     7.7080     8.3560    24.9620     2.4240   -15.8340 
  224.2500    32.5890    11.0350     7.9380     9.2260    24.9550     2.4210   -15.6680 
  224.3750    27.7470    11.2680     8.1160     9.7120    24.9830     2.4140   -15.5440 
  224.5000    26.5740    11.2750     8.1570     9.3720    25.0230     2.4090   -15.5110 
  224.6250    31.5490    11.0940     8.0430     8.7530    25.0620     2.4110   -15.5190 
  224.7500    37.5970    10.8890     7.8730     8.2570    25.0540     2.4190   -15.5550 
  224.8750    42.6770    10.7550     7.7220     8.0100    25.0270     2.4230   -15.5840 
  225.0000    46.0690    10.7250     7.6390     7.9530    25.0230     2.4150   -15.5350 
  225.1250    47.4050    10.7990     7.6520     8.2130    25.0850     2.3970   -15.5050 
  225.2500    46.2230    10.9380     7.7320     8.2920    25.1210     2.3830   -15.4280 
  225.3750    43.6040    11.1340     7.8610     8.0420    25.0770     2.3810   -15.2830 
  225.5000    43.2100    11.3630     8.0190     7.8880    25.0300     2.3880   -15.1560 
  225.6250    44.8130    11.5500     8.1620     8.1750    25.1160     2.3980   -14.9730 
  225.7500    44.5390    11.6010     8.2290     8.9060    25.2270     2.4040   -14.7700 
  225.8750    41.8380    11.4610     8.1740     9.3930    25.2670     2.4030   -14.5680 
  226.0000    38.7860    11.1470     7.9920     9.5160    25.2350     2.3970   -14.3290 
  226.1250    38.4500    10.7510     7.7230     9.3020    25.2280     2.3930   -14.0860 
  226.2500    40.0950    10.4040     7.4640     8.7910    25.1970     2.4000   -13.8420 
  226.3750    42.3880    10.1730     7.2740     8.4190    25.1980     2.4190   -13.5510 
  226.5000    43.3680    10.0640     7.1820     8.4580    25.2220     2.4420   -13.2360 
  226.6250    41.6920    10.0440     7.1820     8.8420    25.2280     2.4580   -12.9750 
  226.7500    39.1320    10.0330     7.2170     8.8830    25.1950     2.4590   -12.6950 
  226.8750    36.4790     9.9860     7.2490     8.3440    25.1980     2.4480   -12.4690 
  227.0000    34.3060     9.8910     7.2560     7.8380    25.2790     2.4320   -12.2900 
  227.1250    33.7540     9.7790     7.2420     7.8380    25.3800     2.4250   -12.0510 
  227.2500    33.9110     9.7090     7.2350     8.1040    25.4390     2.4280   -11.8810 
  227.3750    33.5280     9.6990     7.2470     8.0840    25.4870     2.4350   -11.7660 
  227.5000    33.2070     9.7040     7.2620     7.7890    25.5550     2.4420   -11.6000 
  227.6250    36.4950     9.6100     7.2180     7.5470    25.5640     2.4410   -11.5100 
  227.7500    40.9360     9.3300     7.0600     7.4870    25.5020     2.4190   -11.4660 
  227.8750    43.3580     8.8360     6.7560     7.3570    25.4500     2.3730   -11.3660 
  228.0000    44.1030     8.1730     6.3150     6.8520    25.4830     2.3220   -11.3130 
  228.1250    46.4690     7.4400     5.7770     5.9930    25.6260     2.2900   -11.2640 
  228.2500    49.8730     6.7650     5.2390     5.2000    25.7030     2.2730   -11.1790 
  228.3750    51.4210     6.2330     4.7820     4.7420    25.8390     2.2610   -11.1270 
  228.5000    51.5150     5.9060     4.4740     4.4230    25.9940     2.2600   -11.0990 
  228.6250    55.1230     5.8700     4.3950     4.3410    25.8660     2.2910   -11.0430 
