~V
VERS. 2.00: Ver 2.00
~W
STRT.M 47.0000:
STOP.M 270.0000:
STEP.M 0.1250:
NULL. -999.2500:
UWI. F10221:
~C
DEPT.M :
SP.MV :
GR.API :
RML.OHMM :
RI. :
RXO.OHMM :
CALI.CM :
DEN.GM/CC :
~A
# ...
   92.0000   -23.1150    71.1200     8.6520     7.3860    10.9290    24.1840     2.2550 
   92.1250   -22.2010    75.5710     9.0060     7.7350    12.8830    24.1510     2.3050 
   92.2500   -21.2510    77.1740     9.1030     7.8920    13.6280    23.9630     2.3600 
   92.3750   -20.3670    77.6520     8.8040     7.7270    12.5980    23.6630     2.3870 
   92.5000   -19.5710    81.9900     8.1210     7.2160     8.4080    23.4180     2.3590 
   92.6250   -18.8900    87.7410     7.3590     6.5940     6.6050    23.3170     2.3190 
   92.7500   -18.3880    90.3380     6.7180     6.0250     6.0410    23.3250     2.3000 
   92.8750   -18.0110    90.7300     6.2910     5.5960     5.8910    23.3410     2.3070 
   93.0000   -17.8560    93.1770     6.0990     5.3530     5.7400    23.2030     2.3230 
   93.1250   -17.8680    98.0220     6.0510     5.2360     5.6060    23.0300     2.3350 
   93.2500   -18.0130   101.3040     6.0930     5.1990     5.5020    23.0490     2.3420 
   93.3750   -18.2250    99.7320     6.1680     5.1950     5.4820    23.2400     2.3460 
   93.5000   -18.4950    95.3800     6.2310     5.1890     5.5230    23.4430     2.3510 
   93.6250   -18.8230    93.8830     6.3090     5.1980     5.6810    23.5280     2.3610 
   93.7500   -19.1920    94.3790     6.4910     5.2820     5.9070    23.6200     2.3750 
   93.8750   -19.6230    92.6020     6.8920     5.5220     6.2450    23.8090     2.3930 
   94.0000   -20.1200    85.5590     7.6540     6.0280     6.5870    23.9480     2.4160 
   94.1250   -20.7030    76.7920     8.6760     6.7670     8.1130    23.8640     2.4270 
   94.2500   -21.3320    69.5510     9.7400     7.6330    11.0060    23.6540     2.3950 
   94.3750   -22.0030    66.0680    10.5400     8.4090    11.5000    23.5760     2.3130 
   94.5000   -22.7130    66.7570    10.7610     8.7950    10.0000    23.7810     2.2260 
   94.6250   -23.3980    67.0800    10.5240     8.7910     9.1690    23.9550     2.1790 
   94.7500   -24.0230    66.2180    10.0600     8.5270     9.1580    24.0040     2.1720 
   94.8750   -24.5850    64.7760     9.6200     8.1960     9.4060    23.9920     2.1860 
   95.0000   -25.0290    63.3500     9.3610     7.9510     9.6760    23.9460     2.2030 
   95.1250   -25.3910    62.8560     9.2140     7.7910     9.6280    23.7990     2.2160 
   95.2500   -25.6840    62.5970     9.1130     7.6670     9.3700    23.5910     2.2240 
   95.3750   -25.8910    59.7790     9.0780     7.5730     9.1250    23.4440     2.2280 
   95.5000   -26.0010    57.3370     9.2460     7.5980     9.1860    23.4480     2.2320 
   95.6250   -26.0560    60.4170     9.6860     7.8130     9.3970    23.4150     2.2390 
   95.7500   -26.0970    64.8370    10.4150     8.2480     9.5690    23.1450     2.2500 
   95.8750   -26.0990    66.5320    11.3250     8.8600     9.9350    22.5950     2.2610 
   96.0000   -26.1180    67.1370    12.1000     9.4730    11.1200    22.0900     2.2650 
   96.1250   -26.1260    67.9300    12.4090     9.8310    12.3210    21.8640     2.2550 
   96.2500   -26.1340    66.5490    12.1110     9.7850    11.5810    21.8260     2.2320 
   96.3750   -26.1470    61.9990    11.3360     9.3750     9.7860    21.7770     2.2060 
   96.5000   -26.1750    57.7950    10.4280     8.7980     8.7600    21.7210     2.1860 
   96.6250   -26.2270    56.9850     9.7220     8.2940     8.3450    21.6830     2.1740 
   96.7500   -26.2560    60.5100     9.3190     7.9590     7.9690    21.5980     2.1730 
   96.8750   -26.2820    66.4510     9.1760     7.8020     7.5180    21.4140     2.1840 
   97.0000   -26.2600    68.6140     9.1980     7.7790     7.1580    21.1930     2.2000 
   97.1250   -26.2150    68.9120     9.2660     7.8020     6.9940    21.0200     2.2130 
   97.2500   -26.1500    70.5480     9.3410     7.8330     7.0680    20.9490     2.2240 
   97.3750   -26.0860    71.9720     9.4030     7.8530     7.2330    20.9780     2.2340 
   97.5000   -26.0270    70.3420     9.4280     7.9400     7.5120    21.1280     2.2380 
   97.6250   -25.9800    68.0860     9.3990     8.2290     8.0690    21.4870     2.2310 
   97.7500   -25.9600    69.5930     9.2970     8.7040     8.7050    22.0120     2.2140 
   97.8750   -25.9580    72.1520     9.1130     9.1360     8.9750    22.4770     2.1970 
   98.0000   -25.9430    69.8700     8.8830     9.0620     8.9520    22.7280     2.1900 
   98.1250   -25.9190    66.0500     8.7150     8.5170     9.0280    22.8550     2.1930 
   98.2500   -25.8850    64.3420     8.7410     7.9050     9.2000    23.0190     2.2030 
   98.3750   -25.8360    66.2580     9.0820     7.6240     9.1750    23.2450     2.2250 
   98.5000   -25.7490    71.2160     9.8150     7.9200     9.1030    23.4010     2.2780 
   98.6250   -25.6380    75.2250    10.7360     8.5850     9.1700    23.4220     2.3620 
   98.7500   -25.5360    75.0120    11.5680     9.3220     9.4270    23.3220     2.4530 
   98.8750   -25.4700    70.5060    11.9810     9.8190    10.0490    23.1890     2.4990 
   99.0000   -25.5070    67.0640    11.6520     9.7460    11.4560    23.0470     2.4520 
   99.1250   -25.6040    65.7460    10.8380     9.2390    11.9460    22.8970     2.3620 
   99.2500   -25.7200    63.8870     9.9360     8.5740    11.7530    22.9540     2.2810 
   99.3750   -25.8360    61.7060     9.3100     8.0240    11.3460    23.2580     2.2310 
   99.5000   -26.0040    60.6570     9.1980     7.7970    11.2720    23.5570     2.2100 
   99.6250   -26.1720    58.6010     9.4360     7.8560    11.0540    23.7620     2.2000 
   99.7500   -26.3120    56.4620     9.7860     8.0870    11.1030    23.9530     2.1920 
   99.8750   -26.3850    56.3790     9.9630     8.2860    11.1680    24.2110     2.1820 
  100.0000   -26.3900    58.7570     9.7080     8.2020    11.1600    24.3250     2.1710 
  100.1250   -26.3030    59.9190     9.1180     7.8340    10.9540    24.3480     2.1680 
  100.2500   -26.1610    61.1990     8.3880     7.3010    10.5060    24.3160     2.1770 
  100.3750   -26.0070    65.9800     7.7560     6.7830     9.6760    24.1980     2.2010 
  100.5000   -25.8700    73.0010     7.4600     6.4690     8.7070    23.8510     2.2270 
  100.6250   -25.7840    77.3620     7.4960     6.3950     8.7320    23.6210     2.2440 
  100.7500   -25.7540    75.4840     7.7850     6.5380     9.4770    23.5360     2.2500 
  100.8750   -25.8120    68.1790     8.2110     6.8290    10.4060    23.5000     2.2540 
  101.0000   -25.9230    63.4650     8.6840     7.2030    10.7930    23.4570     2.2650 
  101.1250   -26.0990    65.2010     9.1690     7.6080    10.9250    23.4120     2.2810 
  101.2500   -26.2830    68.5630     9.6690     8.0360    10.9730    23.4410     2.2960 
  101.3750   -26.4280    69.1470    10.1760     8.4780    11.1870    23.5270     2.3090 
  101.5000   -26.4850    67.3670    10.6010     8.8730    13.1480    23.5640     2.3280 
  101.6250   -26.4650    64.2140    10.8200     9.1200    16.9270    23.3690     2.3510 
  101.7500   -26.3850    60.9480    10.7380     9.1340    17.2420    22.9050     2.3540 
  101.8750   -26.2570    60.7730    10.3900     8.9080    12.1210    22.2310     2.3250 
  102.0000   -26.1020    66.7590     9.9840     8.5520     9.6720    21.6910     2.2820 
  102.1250   -25.9800    72.2140     9.8770     8.2490     8.9870    21.3460     2.2570 
  102.2500   -25.9170    72.1940    10.2920     8.0870     9.0920    21.1060     2.2490 
  102.3750   -25.9030    68.5910    11.1540     8.0650     9.5250    21.0230     2.2450 
  102.5000   -25.9520    66.3730    11.9160     8.0940    10.2330    21.2140     2.2360 
  102.6250   -26.0190    66.5840    11.8840     8.0360    10.6540    21.6620     2.2270 
  102.7500   -26.0770    68.4600    10.9710     7.8340    10.2510    22.1770     2.2210 
  102.8750   -26.0860    70.5210     9.7160     7.5130     9.4360    22.5690     2.2170 
  103.0000   -26.0940    71.9000     8.7590     7.1630     8.5870    22.8350     2.2140 
  103.1250   -26.0800    74.1360     8.2520     6.8870     8.0050    23.1490     2.2100 
