~V
VERS. 2.00: Ver 2.00
~W
STRT.M 50.0000:
STOP.M 274.0000:
STEP.M 0.1250:
NULL. -999.2500:
UWI. F10206:
~C
DEPT.M :
SP.MV :
DEN.GM/CC :
GR.API :
RML.OHMM :
RI. :
RXO.OHMM :
CALI.CM :
~A
# ...
  106.2500   -27.9560     2.1690    58.4600     7.7350     7.2080     9.9080    24.5340 
  106.3750   -27.7580     2.1750    54.0420     7.7210     7.1060     9.9880    24.5050 
  106.5000   -27.5500     2.1780    51.0660     7.7610     6.9890     9.9950    24.5230 
  106.6250   -27.3230     2.1780    50.6060     7.7820     6.8810     9.9080    24.6490 
  106.7500   -27.0710     2.1780    50.4970     7.7320     6.8100     9.8330    24.7230 
  106.8750   -26.8190     2.1780    50.9870     7.6040     6.7780     9.8240    24.4600 
  107.0000   -26.5610     2.1770    52.3590     7.4260     6.7410     9.8670    24.2660 
  107.1250   -26.3000     2.1730    54.0310     7.2170     6.6370    10.0990    24.1550 
  107.2500   -26.0330     2.1660    54.0060     6.9870     6.4850    10.2670    24.2620 
  107.3750   -25.7710     2.1560    52.8920     6.7490     6.3370    10.1780    24.5020 
  107.5000   -25.5050     2.1440    52.3750     6.5640     6.2350     9.7460    24.6870 
  107.6250   -25.2540     2.1340    53.1180     6.5350     6.2000     9.3720    24.7880 
  107.7500   -25.0510     2.1300    54.1610     6.6670     6.2110     9.5720    24.8250 
  107.8750   -24.8840     2.1320    54.8390     6.8990     6.2450    10.3340    24.8590 
  108.0000   -24.7180     2.1410    54.2110     7.1210     6.2900    10.6830    24.8460 
  108.1250   -24.5870     2.1540    53.4390     7.2270     6.3550    10.2480    24.6610 
  108.2500   -24.5320     2.1680    53.4570     7.2540     6.4390     9.8300    24.5580 
  108.3750   -24.5180     2.1820    54.3530     7.2890     6.5260     9.5630    24.6310 
  108.5000   -24.5470     2.1920    54.6420     7.4120     6.6310     9.4410    24.8960 
  108.6250   -24.6570     2.1920    54.7180     7.6810     6.8200    10.0020    25.1130 
  108.7500   -24.7700     2.1820    54.0350     8.0590     7.1110    10.6500    25.2800 
  108.8750   -24.8920     2.1620    51.0520     8.4950     7.4810    10.9200    25.3200 
  109.0000   -25.0660     2.1380    47.0570     8.9250     7.8750    10.9170    25.3400 
  109.1250   -25.1930     2.1190    46.2020     9.2790     8.2050    11.0020    25.2590 
  109.2500   -25.2830     2.1110    47.5530     9.5410     8.4370    11.1820    25.0830 
  109.3750   -25.3770     2.1130    48.7850     9.7080     8.5980    11.2060    24.9850 
  109.5000   -25.4380     2.1220    50.6770     9.7950     8.7280    11.1030    24.9470 
  109.6250   -25.4720     2.1330    54.0820     9.8210     8.8220    11.2460    24.7740 
  109.7500   -25.4900     2.1430    57.4170     9.8170     8.8590    11.2290    24.4270 
  109.8750   -25.5180     2.1480    58.1060     9.8010     8.8500    11.1080    24.3210 
  110.0000   -25.5240     2.1470    55.3900     9.8030     8.8440    10.9890    24.4610 
  110.1250   -25.5310     2.1390    52.2010     9.8770     8.9150    11.0220    24.7070 
  110.2500   -25.5690     2.1300    51.5810    10.0280     9.0720    11.2200    24.8450 
  110.3750   -25.5890     2.1230    52.0200    10.2180     9.2620    11.3030    24.8840 
  110.5000   -25.5850     2.1230    50.8240    10.3580     9.3760    11.2660    24.8900 
  110.6250   -25.5270     2.1280    48.5040    10.3120     9.2960    11.2510    24.8900 
  110.7500   -25.3890     2.1330    48.6200    10.0720     9.0720    11.2580    24.8900 
  110.8750   -25.1650     2.1360    50.4450     9.7110     8.7940    11.1450    24.8950 
  111.0000   -24.8890     2.1350    52.4180     9.3640     8.5520    10.8530    24.9180 
  111.1250   -24.5560     2.1320    53.5330     9.1750     8.4170    10.6330    25.0510 
  111.2500   -24.1110     2.1330    54.1040     9.1680     8.3890    10.7820    25.1170 
  111.3750   -23.6060     2.1380    54.7800     9.3160     8.4530    11.1720    25.1270 
  111.5000   -23.0400     2.1480    54.4480     9.5260     8.5790    11.5840    25.1030 
  111.6250   -22.3730     2.1550    53.6850     9.6130     8.6830    12.0120    24.9830 
  111.7500   -21.6720     2.1560    54.5490     9.4290     8.6260    11.6290    24.6850 
  111.8750   -20.8850     2.1520    56.7890     8.9260     8.2980    10.7790    24.4510 
  112.0000   -20.0180     2.1490    58.5880     8.1780     7.7020     9.9090    24.3390 
  112.1250   -19.1090     2.1590    58.7890     7.3680     6.9770     9.3840    24.2370 
  112.2500   -18.1960     2.1850    60.8900     6.7020     6.3300     8.8140    24.1220 
  112.3750   -17.3070     2.2220    65.9060     6.3110     5.8820     7.7940    24.2420 
  112.5000   -16.4840     2.2570    71.6930     6.2660     5.7070     6.7160    24.4660 
  112.6250   -15.7430     2.2710    74.2090     6.6090     5.8630     6.4820    24.5960 
  112.7500   -15.0470     2.2650    73.3530     7.1480     6.2400     7.0500    24.8280 
  112.8750   -14.4150     2.2570    70.6920     7.6680     6.7200     8.3880    25.0620 
  113.0000   -13.8540     2.2680    68.9340     7.9220     7.1220    10.6790    25.1560 
  113.1250   -13.3930     2.3110    71.8110     7.6700     7.1500    12.8270    25.1160 
  113.2500   -12.9960     2.3620    75.7090     7.0570     6.7660    10.0510    25.3500 
  113.3750   -12.6360     2.3960    76.6990     6.3240     6.1130     7.0390    25.8770 
  113.5000   -12.3100     2.3940    75.1780     5.6870     5.4150     6.0250    26.9460 
  113.6250   -12.0230     2.3620    74.4820     5.2750     4.8820     5.4840    27.7050 
  113.7500   -11.8240     2.3270    74.3850     5.0490     4.5640     5.1040    27.6060 
  113.8750   -11.7540     2.3060    73.5690     4.9610     4.4260     4.8730    26.9060 
  114.0000   -11.7420     2.3020    74.7530     4.9450     4.3780     5.0960    26.0250 
  114.1250   -11.7510     2.3100    78.4850     4.9470     4.3470     5.7520    25.4450 
  114.2500   -11.8120     2.3200    80.9290     4.9550     4.3300     6.3460    25.2670 
  114.3750   -11.8870     2.3260    82.0460     4.9960     4.3490     6.3350    25.2540 
  114.5000   -11.9490     2.3220    84.0670     5.0970     4.4170     6.1760    25.3830 
  114.6250   -12.0460     2.3050    85.6320     5.2700     4.5350     5.8890    25.6350 
  114.7500   -12.1050     2.2790    82.8170     5.4720     4.6780     5.8610    25.9050 
  114.8750   -12.1190     2.2480    77.3070     5.6490     4.8300     6.3990    26.1960 
  115.0000   -12.1330     2.2190    73.6000     5.7460     4.9820     7.1680    26.3610 
  115.1250   -12.1140     2.2040    73.9070     5.7190     5.0940     7.3210    26.4570 
  115.2500   -12.0870     2.2050    76.5800     5.6010     5.1080     6.6210    26.3740 
  115.3750   -12.0640     2.2170    79.4060     5.4260     4.9970     5.9600    26.3040 
  115.5000   -12.0470     2.2280    80.6340     5.2260     4.7870     6.1480    26.3250 
  115.6250   -12.0240     2.2250    80.4500     5.0130     4.5430     7.1920    26.5420 
  115.7500   -12.0140     2.2090    81.3890     4.8030     4.3380     7.7700    26.9170 
  115.8750   -12.0400     2.1910    83.9050     4.6200     4.1930     6.9950    27.4360 
  116.0000   -12.0900     2.1830    85.5440     4.4890     4.0840     6.4270    27.1970 
  116.1250   -12.1780     2.1920    85.2650     4.4390     3.9700     5.7240    26.6940 
  116.2500   -12.2940     2.2130    84.4010     4.4500     3.8650     5.2490    26.1110 
  116.3750   -12.4470     2.2420    83.5320     4.5060     3.8170     4.9830    25.5900 
  116.5000   -12.6330     2.2720    82.7370     4.5980     3.8600     4.8940    25.4090 
  116.6250   -12.8740     2.2950    83.7650     4.7590     3.9980     4.8980    25.7490 
  116.7500   -13.1700     2.3080    85.8900     5.0100     4.1890     5.3330    25.5420 
  116.8750   -13.4660     2.3120    85.5580     5.3540     4.4170     6.3970    25.2110 
  117.0000   -13.7930     2.3080    80.4290     5.7630     4.6740     7.5550    25.1800 
  117.1250   -14.2060     2.2960    76.0880     6.1760     4.9640     6.5140    25.1870 
  117.2500   -14.6080     2.2740    75.7890     6.5190     5.2530     6.1780    25.1480 
  117.3750   -14.9810     2.2420    75.9780     6.7420     5.4730     6.4330    24.8970 
