~V
VERS. 2.00: Ver 2.00
~W
STRT.M 53.0000:
STOP.M 282.0000:
STEP.M 0.1250:
NULL. -999.2500:
UWI. F10240:
~C
DEPT.M :
GR.API :
RML.OHMM :
RI. :
RXO.OHMM :
CALI.CM :
DEN.GM/CC :
SP.MV :
~A
# ...
  176.7500    73.1620    33.4920    29.5090    29.3000    24.3250     2.3290   -26.4220 
  176.8750    69.1960    41.9190    35.6110    36.3140    24.5580     2.3060   -26.5050 
  177.0000    62.5860    55.4400    46.8490    45.6930    24.7440     2.2730   -26.6330 
  177.1250    56.9100    73.1800    62.6400    50.5940    24.8580     2.2430   -26.7980 
  177.2500    54.1180    94.1770    82.0030    56.0280    24.9390     2.2160   -26.9680 
  177.3750    52.5220   116.5850   103.0110    69.2490    24.9920     2.1880   -27.1160 
  177.5000    51.3510   136.7060   122.3450   103.2110    25.0180     2.1640   -27.2250 
  177.6250    52.9050   150.2260   136.2550   117.8160    24.9760     2.1470   -27.3120 
  177.7500    55.4690   153.3910   141.2530   101.9930    24.9310     2.1420   -27.4040 
  177.8750    55.7660   145.7360   136.2540    80.2700    24.9480     2.1450   -27.5140 
  178.0000    54.6550   130.5370   123.1910    76.3760    24.9770     2.1540   -27.5770 
  178.1250    54.3450   114.3680   108.1280    76.0850    24.9850     2.1640   -27.5750 
  178.2500    54.8060   100.2770    94.3670    78.6280    24.9780     2.1770   -27.5470 
  178.3750    55.5050    89.5620    83.6000    72.6470    24.9720     2.1920   -27.5210 
  178.5000    56.6610    83.0760    76.8650    65.5810    24.9800     2.2080   -27.5000 
  178.6250    56.1340    79.9810    73.4060    61.0780    24.9750     2.2180   -27.5030 
  178.7500    54.5150    79.8460    72.8600    62.1170    24.9700     2.2200   -27.5150 
  178.8750    54.9290    81.9360    74.6700    66.4740    24.9730     2.2160   -27.5030 
  179.0000    56.6290    84.9850    77.9120    70.4290    24.9870     2.2100   -27.4900 
  179.1250    56.2730    87.0360    80.7310    72.6110    24.9930     2.2020   -27.4950 
  179.2500    54.5980    86.6830    81.6340    75.2950    25.0220     2.1940   -27.5130 
  179.3750    55.0290    83.3340    79.7440    79.8540    25.1020     2.1880   -27.5350 
  179.5000    57.3160    77.3170    74.9680    84.5480    25.2130     2.1880   -27.5410 
  179.6250    59.6250    70.5970    69.0540    80.7230    25.2760     2.1910   -27.4890 
  179.7500    63.0520    64.5010    63.3080    66.7270    25.3230     2.1970   -27.3830 
  179.8750    65.9490    59.8300    58.6120    53.1090    25.3440     2.2000   -27.2920 
  180.0000    65.0280    57.0420    55.5230    48.0160    25.3630     2.2000   -27.2400 
  180.1250    62.1990    55.4930    53.6100    47.8860    25.3500     2.2010   -27.2060 
  180.2500    60.1900    54.5910    52.4320    49.4940    25.3460     2.2080   -27.1870 
  180.3750    58.8420    53.7910    51.5200    52.9960    25.3390     2.2190   -27.1700 
  180.5000    57.7480    52.9220    50.6390    51.4920    25.3440     2.2280   -27.1670 
  180.6250    58.6060    52.4040    50.0240    48.3590    25.3330     2.2340   -27.2070 
  180.7500    61.3460    52.9050    50.1960    46.4150    25.3270     2.2360   -27.2880 
  180.8750    64.3930    55.1040    51.7380    47.4030    25.3040     2.2380   -27.3600 
  181.0000    64.8650    59.8880    55.4800    51.1830    25.3040     2.2390   -27.4140 
  181.1250    62.8930    66.8830    61.2490    59.5010    25.3000     2.2390   -27.4770 
  181.2500    60.6700    75.2160    68.4420    72.9520    25.3050     2.2340   -27.5400 
  181.3750    60.1080    82.9760    75.4760    83.2310    25.2940     2.2230   -27.5870 
  181.5000    58.5380    86.6900    79.2840    83.1780    25.2930     2.2090   -27.6300 
  181.6250    55.3410    85.2530    78.6030    84.1740    25.2860     2.1940   -27.6610 
  181.7500    53.0600    79.6980    74.0620    77.8830    25.2970     2.1850   -27.6870 
  181.8750    53.1930    72.7460    67.8550    65.4510    25.2940     2.1870   -27.7220 
  182.0000    53.8590    67.6110    62.7250    53.0470    25.3010     2.2010   -27.7420 
  182.1250    54.0840    65.5530    59.9990    48.6760    25.2970     2.2170   -27.7530 
  182.2500    54.6950    66.7000    59.9700    52.2410    25.3040     2.2260   -27.7550 
  182.3750    56.5980    70.4830    62.3460    60.4870    25.2970     2.2260   -27.7540 
  182.5000    60.6680    75.8220    66.4840    69.4370    25.2950     2.2230   -27.7710 
  182.6250    63.7230    80.8190    70.8070    75.0760    25.2880     2.2250   -27.8060 
  182.7500    63.7710    84.1730    74.1210    76.4380    25.2920     2.2340   -27.8500 
  182.8750    60.4190    85.2640    75.6780    75.9680    25.2850     2.2430   -27.8890 
  183.0000    56.6490    84.0820    75.1790    75.1050    25.2880     2.2470   -27.9230 
  183.1250    55.2690    81.8850    73.5470    75.3980    25.2930     2.2460   -27.9410 
  183.2500    55.5890    79.5790    71.5290    73.0000    25.2970     2.2430   -27.9500 
  183.3750    55.9520    77.8100    69.7510    68.4990    25.3060     2.2410   -27.9450 
  183.5000    54.7240    76.7500    68.5200    65.4510    25.3390     2.2410   -27.8980 
  183.6250    52.5880    75.5800    67.3090    66.8340    25.3660     2.2400   -27.8110 
  183.7500    51.9520    73.3350    65.3420    70.1010    25.3710     2.2340   -27.6970 
  183.8750    53.9640    69.4350    62.0590    72.8380    25.3660     2.2250   -27.5550 
  184.0000    56.9270    64.2120    57.5730    66.5090    25.3530     2.2230   -27.4130 
  184.1250    57.2750    59.4030    53.2100    54.4220    25.3480     2.2310   -27.2960 
  184.2500    56.6630    56.4950    50.1620    45.2090    25.3540     2.2510   -27.2010 
  184.3750    57.9420    56.4030    49.2620    43.8360    25.3820     2.2720   -27.1470 
  184.5000    58.6930    59.4930    51.0570    48.6900    25.4200     2.2800   -27.1390 
  184.6250    56.7830    64.0250    54.4050    54.5500    25.4950     2.2650   -27.1810 
  184.7500    55.0680    68.0210    57.8500    62.8660    25.5640     2.2320   -27.2450 
  184.8750    56.2310    69.4740    59.6690    74.6840    25.6150     2.1950   -27.3190 
  185.0000    58.2810    67.2650    58.5280    72.7570    25.6130     2.1720   -27.4010 
  185.1250    59.3510    63.7340    55.8970    57.0660    25.5500     2.1740   -27.4870 
  185.2500    60.5810    61.3460    53.6580    46.6170    25.4430     2.2030   -27.5770 
  185.3750    62.7160    61.8480    53.3330    48.4720    25.3820     2.2460   -27.6550 
  185.5000    63.8770    66.3060    56.0280    53.3610    25.3440     2.2750   -27.7160 
  185.6250    62.2070    73.1380    60.8410    63.2150    25.3390     2.2750   -27.7440 
  185.7500    59.2540    80.0480    66.2170    81.4100    25.3520     2.2500   -27.7580 
  185.8750    57.5100    83.9830    69.8410    88.8640    25.4010     2.2140   -27.7660 
  186.0000    57.6360    81.9710    69.2020    75.2740    25.4650     2.1860   -27.7430 
  186.1250    58.6000    76.0110    65.3740    70.2220    25.5320     2.1750   -27.6840 
  186.2500    60.1900    68.9950    60.3660    64.5380    25.5060     2.1800   -27.5930 
  186.3750    61.2260    63.4180    56.1410    59.7790    25.4560     2.1940   -27.4740 
  186.5000    62.2330    61.0180    54.2660    59.1220    25.4080     2.2060   -27.3340 
  186.6250    64.6510    61.4430    54.7120    61.1920    25.4030     2.2100   -27.1810 
  186.7500    67.1250    64.2410    57.2730    64.6100    25.4290     2.2050   -27.0110 
  186.8750    67.8080    68.4900    61.3370    68.9780    25.4620     2.1970   -26.8400 
  187.0000    65.8940    72.0890    65.2780    74.0730    25.4680     2.1930   -26.6800 
  187.1250    62.0040    72.3260    66.5440    78.8280    25.4690     2.1960   -26.5290 
  187.2500    57.9350    67.1470    62.8420    83.2850    25.4650     2.2050   -26.3920 
  187.3750    57.8550    56.5100    53.5760    71.0570    25.4690     2.2180   -26.2730 
  187.5000    64.0060    43.1100    41.1100    46.9310    25.4720     2.2310   -26.1150 
  187.6250    70.6450    31.2040    29.9040    28.7350    25.4700     2.2380   -25.9470 
  187.7500    74.9450    22.5690    21.7420    20.5000    25.4710     2.2340   -25.8110 
  187.8750    78.3200    17.3840    16.6850    14.0370    25.4700     2.2220   -25.6880 
