~V
VERS. 2.00: Ver 2.00
~W
STRT.M 63.0000:
STOP.M 280.0000:
STEP.M 0.1250:
NULL. -999.2500:
UWI. F10220:
~C
DEPT.M :
SP.MV :
DEN.GM/CC :
GR.API :
RML.OHMM :
RI. :
RXO.OHMM :
CALI.CM :
~A
# ...
  130.5000   -10.0850     2.5440    45.4240    24.9460    23.1060    18.7180    22.9160 
  130.6250   -10.1100     2.5580    44.5540    25.3860    23.7200    19.7490    23.0050 
  130.7500   -10.1030     2.5630    45.5450    25.2770    23.9080    20.9730    23.1920 
  130.8750   -10.0580     2.5620    47.3320    24.7400    23.6780    20.2070    23.3620 
  131.0000   -10.0040     2.5550    49.7610    23.9490    23.1370    19.1910    23.4760 
  131.1250    -9.9510     2.5420    51.7760    23.0810    22.4270    18.8160    23.5210 
  131.2500    -9.9150     2.5250    52.7310    22.3050    21.7050    18.3470    23.5250 
  131.3750    -9.8950     2.5120    53.3890    21.7050    21.1020    17.8070    23.4890 
  131.5000    -9.9020     2.5070    54.5140    21.3080    20.6730    16.9320    23.3740 
  131.6250    -9.9610     2.5120    55.3500    21.1030    20.4210    15.8130    23.2450 
  131.7500   -10.0560     2.5250    54.0380    21.0980    20.3530    15.0130    23.0960 
  131.8750   -10.1590     2.5430    53.4560    21.2260    20.4180    15.1580    22.9810 
  132.0000   -10.2490     2.5610    54.1170    21.4260    20.5720    15.8350    22.8800 
  132.1250   -10.3450     2.5730    55.0600    21.6260    20.7560    16.2990    22.8150 
  132.2500   -10.4370     2.5700    55.2950    21.7760    20.9110    16.1940    22.8360 
  132.3750   -10.4970     2.5600    53.9390    21.8820    21.0170    16.2160    22.9410 
  132.5000   -10.5280     2.5500    51.1710    21.9740    21.0860    16.5190    23.1030 
  132.6250   -10.5390     2.5400    49.4160    22.0940    21.1560    16.3720    23.2890 
  132.7500   -10.5750     2.5250    49.1900    22.3130    21.3040    15.5280    23.4600 
  132.8750   -10.6450     2.5060    49.1320    22.6760    21.5840    15.3300    23.6200 
  133.0000   -10.7380     2.4840    48.7100    23.2310    22.0500    16.3800    23.8520 
  133.1250   -10.8300     2.4550    48.6710    23.9940    22.7350    19.2730    24.3690 
  133.2500   -10.9320     2.4250    48.3200    24.8900    23.6170    22.5420    24.9550 
  133.3750   -11.0500     2.4130    49.6070    25.6690    24.4790    24.9490    25.2400 
  133.5000   -11.1670     2.4230    54.8300    26.0760    25.0650    25.7120    24.9370 
  133.6250   -11.2630     2.4440    61.5450    25.9300    25.1590    24.6860    24.4270 
  133.7500   -11.3450     2.4530    63.4970    25.1850    24.6340    22.6600    24.1610 
  133.8750   -11.4180     2.4440    61.0870    24.2090    23.7870    20.8340    24.2520 
  134.0000   -11.4770     2.4300    57.9570    23.3450    22.9210    19.5110    24.5540 
  134.1250   -11.4990     2.4220    57.4670    22.8590    22.3160    18.4900    24.7260 
  134.2500   -11.4850     2.4220    60.3300    22.9110    22.1960    19.0560    24.7040 
  134.3750   -11.4350     2.4230    62.9720    23.2700    22.4330    20.6580    24.6580 
  134.5000   -11.3700     2.4230    62.3800    23.6780    22.8200    22.1490    24.6630 
  134.6250   -11.3210     2.4220    58.7050    23.8920    23.1150    22.1190    24.8170 
  134.7500   -11.2730     2.4270    55.7540    23.7280    23.0990    21.8900    24.9920 
  134.8750   -11.2170     2.4380    54.8060    23.3010    22.8160    21.0430    24.9310 
  135.0000   -11.1510     2.4480    55.1780    22.7620    22.3760    20.0480    24.6160 
  135.1250   -11.0700     2.4460    55.6230    22.2600    21.9150    19.3610    24.1710 
  135.2500   -10.9520     2.4230    57.4130    21.8990    21.5450    18.6330    23.9440 
  135.3750   -10.8220     2.3780    59.5830    21.6330    21.2550    18.8620    24.4080 
  135.5000   -10.6780     2.3140    57.5570    21.3760    20.9780    18.7020    25.7700 
  135.6250   -10.4880     2.2460    50.3000    21.0500    20.6420    18.3420    27.6370 
  135.7500   -10.2730     2.2030    45.7390    20.6320    20.2100    18.0450    28.7810 
  135.8750   -10.0390     2.2020    48.5170    20.2190    19.7540    17.4500    28.7680 
  136.0000    -9.7640     2.2350    51.8180    19.9240    19.3740    15.7550    27.8530 
  136.1250    -9.4620     2.2840    51.1060    19.8330    19.1640    13.3100    26.3760 
  136.2500    -9.1560     2.3280    50.5550    19.9590    19.1720    12.1690    25.0920 
  136.3750    -8.8540     2.3600    52.2890    20.1310    19.2650    12.0130    24.5170 
  136.5000    -8.5510     2.3820    54.4010    20.1760    19.2930    12.4970    24.3760 
  136.6250    -8.2520     2.3980    55.6570    19.9540    19.1090    13.1590    24.3680 
  136.7500    -7.9540     2.4090    58.5860    19.4150    18.6140    13.3590    24.3770 
  136.8750    -7.6780     2.4160    60.4150    18.7850    17.9710    13.0140    24.3550 
  137.0000    -7.4790     2.4190    59.9290    18.3030    17.3850    12.5410    24.3310 
  137.1250    -7.3470     2.4180    57.5190    18.1470    17.0370    12.6630    24.3400 
  137.2500    -7.2490     2.4080    54.6640    18.4100    17.0570    13.7420    24.4620 
  137.3750    -7.1550     2.3900    53.3010    18.9220    17.3390    15.1380    24.6690 
  137.5000    -7.0640     2.3680    51.6110    19.5070    17.7580    16.1070    24.8370 
  137.6250    -6.9980     2.3450    49.9370    19.9780    18.1530    16.6210    24.9130 
  137.7500    -6.9450     2.3360    51.4280    20.1450    18.3330    16.5560    24.8750 
  137.8750    -6.8850     2.3580    54.5940    20.0320    18.2680    16.0610    24.6650 
  138.0000    -6.8070     2.4120    55.2590    19.7360    18.0080    15.2380    24.2520 
  138.1250    -6.7350     2.4700    51.7530    19.3930    17.6600    14.6170    23.9070 
  138.2500    -6.7020     2.4910    47.8720    19.1390    17.3460    14.3030    23.7660 
  138.3750    -6.7000     2.4830    45.6530    18.9880    17.1080    14.2450    23.7390 
  138.5000    -6.7120     2.4680    44.8300    18.8650    16.9070    15.0480    23.7800 
  138.6250    -6.7330     2.4560    46.0050    18.6400    16.6470    16.7070    23.9180 
  138.7500    -6.7830     2.4400    47.4950    18.1520    16.1960    17.4810    24.1030 
  138.8750    -6.8520     2.4220    47.8890    17.4300    15.5630    16.4990    24.1560 
  139.0000    -6.9200     2.4130    49.1860    16.5660    14.8180    14.8720    24.0210 
  139.1250    -6.9700     2.4220    53.3860    15.6780    14.0510    14.0060    23.7830 
  139.2500    -6.9730     2.4380    60.2350    14.8720    13.3460    13.2410    23.4180 
  139.3750    -6.9480     2.4460    65.8120    14.1460    12.7090    12.6750    22.9220 
  139.5000    -6.8960     2.4440    68.4810    13.4580    12.1170    12.0320    22.4670 
  139.6250    -6.8100     2.4330    66.9980    12.7800    11.5410    11.4260    22.3040 
  139.7500    -6.6820     2.4020    62.8020    12.1530    10.9990    10.8690    22.8480 
  139.8750    -6.5230     2.3570    60.3300    11.6500    10.5430    10.6140    24.0790 
  140.0000    -6.3590     2.3140    60.5550    11.3200    10.2200    10.3910    25.6410 
  140.1250    -6.2170     2.2880    60.3000    11.1370    10.0300    10.3530    26.9260 
  140.2500    -6.1100     2.2840    55.8100    10.9300     9.8650    10.2310    27.5720 
  140.3750    -6.0480     2.2860    52.4010    10.4670     9.5290    10.0770    27.8050 
  140.5000    -6.0100     2.2860    55.5120     9.6180     8.8850    10.1120    27.8370 
  140.6250    -5.9840     2.2860    64.1110     8.4320     7.9300     9.8280    27.7730 
  140.7500    -5.9620     2.2810    69.3210     7.0720     6.8290     8.4630    27.5270 
  140.8750    -5.9520     2.2600    70.9470     5.7700     5.8380     6.4760    27.1750 
  141.0000    -5.9520     2.2160    74.8920     5.1100     5.0890     5.1250    26.8390 
  141.1250    -5.9520     2.1550    82.5180     4.7760     4.6200     4.6570    26.5110 
  141.2500    -5.9270     2.1070    86.8750     4.7180     4.4290     4.7340    26.1810 
  141.3750    -5.8570     2.0950    85.2460     4.7730     4.3910     4.8470    25.9320 
  141.5000    -5.7860     2.1210    82.6280     4.8410     4.4190     4.8570    25.7860 
  141.6250    -5.7310     2.1710    84.7810     4.8590     4.4420     4.7540    25.7070 
