~V
VERS. 2.00: Ver 2.00
~W
STRT.M 56.0000:
STOP.M 270.0000:
STEP.M 0.1250:
NULL. -999.2500:
UWI. F10225:
~C
DEPT.M :
SP.MV :
DEN.GM/CC :
GR.API :
RML.OHMM :
RI. :
RXO.OHMM :
CALI.CM :
~A
# ...
   78.5000   -22.6080     2.3560    89.8050     5.7200     4.2790     5.7140    25.5780 
   78.6250   -22.5210     2.3630    89.8430     5.5640     4.0180     5.6310    25.5900 
   78.7500   -22.6950     2.3730    87.5830     5.8530     4.0620     5.7460    25.5370 
   78.8750   -23.0950     2.3930    83.8400     6.5570     4.4020     6.7800    25.3850 
   79.0000   -23.7110     2.4130    78.4280     7.6470     5.0390     9.5460    25.1400 
   79.1250   -24.5290     2.4010    71.9070     9.0360     5.9670    13.7820    24.8690 
   79.2500   -25.4770     2.3610    66.2390    10.4780     7.0570    14.6930    24.6280 
   79.3750   -26.5000     2.3200    61.9690    11.6980     8.1360    15.3550    24.4500 
   79.5000   -27.5390     2.2890    59.0360    12.4500     8.9950    19.4840    24.3520 
   79.6250   -28.5080     2.2490    57.2750    12.5380     9.4020    22.1080    24.2900 
   79.7500   -29.3360     2.1990    56.0380    12.1510     9.3970    18.6470    24.2460 
   79.8750   -29.9770     2.1600    54.6660    11.5940     9.1530    15.4970    24.2160 
   80.0000   -30.4270     2.1440    53.4860    11.1200     8.8470    14.6910    24.2120 
   80.1250   -30.6900     2.1420    53.3010    10.9070     8.6300    14.7800    24.2240 
   80.2500   -30.8220     2.1430    53.4670    10.9350     8.5450    14.8890    24.2410 
   80.3750   -30.7900     2.1410    53.7820    11.0600     8.5380    14.9190    24.2420 
   80.5000   -30.5690     2.1400    54.3370    11.1130     8.5040    14.7290    24.2010 
   80.6250   -30.2330     2.1400    55.7440    11.0000     8.3660    14.1460    24.1110 
   80.7500   -29.8830     2.1420    57.9080    10.8200     8.1690    13.2450    24.0230 
   80.8750   -29.5680     2.1440    61.7850    10.7230     8.0060    12.4340    23.9790 
   81.0000   -29.2890     2.1470    66.7040    10.7860     7.9380    11.9600    23.9830 
   81.1250   -29.0570     2.1510    67.9000    10.9030     7.9260    12.0020    24.0330 
   81.2500   -28.8530     2.1600    64.0540    10.8130     7.8110    12.3840    24.1250 
   81.3750   -28.7180     2.1770    59.8860    10.3210     7.4610    12.7950    24.2540 
   81.5000   -28.7010     2.2030    60.7440     9.4620     6.8760    12.4400    24.4740 
   81.6250   -28.8350     2.2300    66.0650     8.5450     6.2200    10.4360    24.7700 
   81.7500   -29.1310     2.2450    70.4120     7.9620     5.7220     8.0730    24.9880 
   81.8750   -29.5850     2.2340    71.5780     7.9440     5.5280     7.3810    25.0000 
   82.0000   -30.1640     2.2000    69.6140     8.5230     5.6960     8.9150    24.8010 
   82.1250   -30.8220     2.1640    65.1020     9.5640     6.2330    11.8790    24.6170 
   82.2500   -31.5060     2.1450    59.3330    10.6990     6.9740    13.8790    24.5800 
   82.3750   -32.1860     2.1400    54.1300    11.5790     7.6970    14.8980    24.6120 
   82.5000   -32.8350     2.1430    51.0300    12.0080     8.2030    15.4980    24.6700 
   82.6250   -33.3700     2.1480    51.2310    12.0040     8.3950    15.5650    24.7960 
   82.7500   -33.7060     2.1510    53.2020    11.8380     8.3950    15.0060    24.9670 
   82.8750   -33.8230     2.1490    54.3590    11.7020     8.3410    14.2480    25.1330 
   83.0000   -33.7590     2.1370    52.4800    11.6500     8.3030    13.9450    25.2770 
   83.1250   -33.5310     2.1230    48.7480    11.6430     8.2830    14.1720    25.3810 
   83.2500   -33.2020     2.1170    46.4680    11.6080     8.2410    14.2520    25.3910 
   83.3750   -32.7970     2.1230    46.3630    11.5110     8.1480    13.9740    25.2460 
   83.5000   -32.3070     2.1360    47.7100    11.3640     8.0100    13.6890    24.9640 
   83.6250   -31.7040     2.1440    51.5080    11.2120     7.8660    13.4280    24.6710 
   83.7500   -31.0300     2.1440    56.8500    11.0950     7.7530    13.1910    24.4830 
   83.8750   -30.3500     2.1420    60.8080    11.0180     7.6850    13.0680    24.3960 
   84.0000   -29.6920     2.1420    61.1760    10.9730     7.6630    13.2540    24.3060 
   84.1250   -29.0410     2.1510    59.2610    11.0080     7.7150    13.4820    24.2610 
   84.2500   -28.3490     2.1740    57.4920    11.2670     7.9080    13.5570    24.2520 
   84.3750   -27.6020     2.2120    57.2060    11.9310     8.3360    13.6880    24.2470 
   84.5000   -26.8140     2.2650    57.9140    13.0680     9.0530    14.1470    24.2310 
   84.6250   -26.0240     2.3400    58.2760    14.4410     9.9720    16.8240    24.2350 
   84.7500   -25.2070     2.4250    57.8110    15.4180    10.7300    26.4160    24.2560 
   84.8750   -24.3260     2.4860    57.6410    15.3560    10.8770    43.6110    24.2830 
   85.0000   -23.3810     2.4790    60.2870    14.0270    10.1740    42.2900    24.2930 
   85.1250   -22.4480     2.4120    66.5780    11.8740     8.8330    24.3090    24.3300 
   85.2500   -21.6200     2.3460    74.2710     9.8270     7.4540    11.8310    24.4530 
   85.3750   -20.9320     2.3100    80.3510     8.4400     6.4160     7.4200    24.5880 
   85.5000   -20.3820     2.2940    82.0840     7.8170     5.8280     6.7090    24.5170 
   85.6250   -19.9390     2.2850    78.7180     7.8530     5.6950     7.7590    24.1970 
   85.7500   -19.5770     2.2840    73.6610     8.2360     5.8760     9.6670    23.9190 
   85.8750   -19.2620     2.2960    73.0370     8.7210     6.2310    10.5530    23.9220 
   86.0000   -18.9900     2.3230    77.6890     9.1600     6.6370     9.0810    24.1530 
   86.1250   -18.7610     2.3620    81.4970     9.4590     6.9790     8.1890    24.3460 
   86.2500   -18.5590     2.4020    82.6470     9.5650     7.1810     9.5530    24.4070 
   86.3750   -18.3690     2.4220    83.7420     9.3900     7.1700    12.1710    24.4200 
   86.5000   -18.1700     2.4070    85.7210     8.8680     6.8960    11.4040    24.5080 
   86.6250   -17.9890     2.3750    86.0000     8.0520     6.3730     8.3210    24.6750 
   86.7500   -17.8800     2.3540    84.1410     7.1940     5.7710     6.3300    24.8610 
   86.8750   -17.9210     2.3460    82.6450     6.5490     5.2680     5.7700    25.0480 
   87.0000   -18.1190     2.3420    82.8610     6.2780     4.9920     5.6330    25.2330 
   87.1250   -18.4280     2.3350    85.2240     6.4600     5.0250     5.6390    25.3640 
   87.2500   -18.7710     2.3220    87.6310     6.9480     5.2930     5.9360    25.3180 
   87.3750   -19.1450     2.3050    88.8370     7.5320     5.6660     6.7260    25.1990 
   87.5000   -19.5950     2.2920    89.3080     7.9800     5.9930     7.6200    25.1030 
   87.6250   -20.1310     2.2910    89.3820     8.0230     6.0830     8.1030    25.0770 
   87.7500   -20.7230     2.3040    88.9200     7.6720     5.9070     8.0200    25.1540 
   87.8750   -21.3600     2.3290    88.0840     7.1930     5.6050     7.5050    25.3050 
   88.0000   -22.0670     2.3600    86.4590     6.9830     5.4080     6.8890    25.4650 
   88.1250   -22.9200     2.3890    83.8010     7.4860     5.5950     6.7880    25.6050 
   88.2500   -23.9570     2.4130    80.0630     8.7630     6.2680     8.4020    25.6380 
   88.3750   -25.1380     2.4230    74.3200    10.5900     7.4100    14.1800    25.3820 
   88.5000   -26.3740     2.3950    65.9470    12.4410     8.8140    27.7100    24.9180 
   88.6250   -27.5730     2.3150    58.3690    13.4420     9.9320    30.6290    24.3930 
   88.7500   -28.6920     2.2240    55.2400    13.2700    10.3270    22.2330    23.9610 
   88.8750   -29.6780     2.1620    55.8380    12.2550    10.0090    16.1830    23.7650 
   89.0000   -30.4680     2.1350    55.8600    11.0470     9.3340    14.0790    23.7630 
   89.1250   -30.9730     2.1280    54.1060    10.2380     8.7150    13.2880    23.8030 
   89.2500   -31.1690     2.1250    53.9060     9.8780     8.3080    12.9500    23.8010 
   89.3750   -31.0510     2.1270    56.1190     9.7160     8.0530    12.8010    23.8000 
   89.5000   -30.6440     2.1340    57.1900     9.4830     7.8190    12.7060    23.8730 
   89.6250   -30.0100     2.1540    55.1720     9.1160     7.5670    12.6500    24.0200 
