~V
VERS. 2.00: Ver 2.00
~W
STRT.M 50.0000:
STOP.M 270.0000:
STEP.M 0.1250:
NULL. -999.2500:
UWI. F10223:
~C
DEPT.M :
GR.API :
RML.OHMM :
RI. :
RXO.OHMM :
CALI.CM :
DEN.GM/CC :
SP.MV :
~A
# ...
  162.5000    71.0660    29.6900    28.0140    29.6930    24.6360     2.2800   -26.2020 
  162.6250    72.4240    30.5710    28.5670    30.7250    24.7000     2.2860   -26.1230 
  162.7500    70.2520    31.6370    29.3510    31.9040    24.6600     2.2870   -26.0600 
  162.8750    66.9480    32.6740    30.1800    33.0810    24.6580     2.2840   -26.0290 
  163.0000    64.8050    33.5300    30.9040    33.8780    24.6590     2.2780   -26.0340 
  163.1250    64.8120    34.1010    31.3930    34.2800    24.4880     2.2690   -26.0720 
  163.2500    65.2870    34.4450    31.6650    34.2950    24.0620     2.2570   -26.1180 
  163.3750    66.5130    34.6180    31.7570    34.3900    23.4570     2.2460   -26.1470 
  163.5000    67.8640    34.6760    31.7390    34.6600    23.1410     2.2400   -26.1600 
  163.6250    69.8390    34.6640    31.6740    34.6930    23.4360     2.2390   -26.1670 
  163.7500    71.7670    34.6220    31.6090    34.4910    24.0090     2.2430   -26.1430 
  163.8750    70.9790    34.5620    31.5520    34.4880    24.2760     2.2500   -26.0920 
  164.0000    69.2630    34.4900    31.5020    34.9070    24.3250     2.2610   -26.0230 
  164.1250    69.5910    34.4110    31.4600    34.9910    24.2540     2.2740   -25.9700 
  164.2500    68.6920    34.3090    31.4160    34.9580    24.0810     2.2850   -25.9450 
  164.3750    66.3050    34.1190    31.3250    34.9350    23.9490     2.2910   -25.9620 
  164.5000    66.2010    33.7190    31.0790    34.5310    23.9160     2.2930   -26.0020 
  164.6250    69.1840    32.8820    30.4760    34.1970    23.9260     2.2930   -26.0430 
  164.7500    69.3040    31.5760    29.4660    33.4990    23.8750     2.2940   -26.1110 
  164.8750    67.6060    29.8580    28.0810    31.5090    23.9100     2.2950   -26.1740 
  165.0000    67.5580    27.9260    26.4780    27.9390    24.1080     2.2970   -26.2250 
  165.1250    69.0960    26.0780    24.8940    24.3790    24.1810     2.2960   -26.2490 
  165.2500    68.6460    24.4970    23.4910    22.6170    24.1340     2.2930   -26.2580 
  165.3750    67.9260    23.2280    22.3210    21.9870    23.9340     2.2900   -26.2520 
  165.5000    70.7650    22.2400    21.3950    21.7700    23.6660     2.2880   -26.2590 
  165.6250    76.2180    21.5070    20.7340    21.7360    23.4170     2.2890   -26.2940 
  165.7500    78.4450    20.9780    20.2880    20.4520    23.2270     2.2900   -26.3370 
  165.8750    75.6320    20.7090    20.0890    18.6330    23.1450     2.2950   -26.4040 
  166.0000    69.6840    20.7580    20.1750    18.4520    23.1830     2.3010   -26.4830 
  166.1250    65.8570    21.0990    20.5470    19.3310    23.2510     2.3070   -26.5610 
  166.2500    65.7020    21.4460    20.9790    20.0530    23.3140     2.3100   -26.6340 
  166.3750    67.9740    21.4940    21.1920    20.8800    23.3660     2.3110   -26.7020 
  166.5000    70.9970    20.9920    20.9050    22.0380    23.4000     2.3100   -26.7490 
  166.6250    75.8740    19.8150    19.9350    21.0760    23.4230     2.3110   -26.7720 
  166.7500    82.4590    18.3250    18.6160    18.1140    23.4570     2.3130   -26.7810 
  166.8750    86.4310    16.8730    17.2820    15.3070    23.4940     2.3160   -26.8080 
  167.0000    85.3350    15.7510    16.2120    14.0170    23.5110     2.3210   -26.8740 
  167.1250    83.1950    15.2000    15.6370    13.0150    23.4980     2.3250   -26.9940 
  167.2500    83.9860    15.1390    15.5150    12.0460    23.4820     2.3290   -27.1540 
  167.3750    85.5280    15.4700    15.7930    12.7830    23.4790     2.3320   -27.3220 
  167.5000    84.3320    16.0740    16.3820    14.2530    23.4880     2.3330   -27.5060 
  167.6250    81.9090    16.8400    17.1860    15.7070    23.4900     2.3310   -27.7010 
  167.7500    78.9410    17.6190    18.0240    16.3790    23.4760     2.3250   -27.8930 
  167.8750    75.1220    18.3020    18.7640    16.5770    23.4240     2.3180   -28.0700 
  168.0000    72.0730    18.8080    19.3020    16.8130    23.2760     2.3100   -28.2420 
  168.1250    74.8900    19.0700    19.5390    17.2590    23.0250     2.3010   -28.4060 
  168.2500    80.9190    19.1700    19.5500    17.0600    22.8630     2.2940   -28.5860 
  168.3750    83.9120    19.2040    19.4180    16.7810    22.8560     2.2910   -28.8020 
  168.5000    83.0460    19.2770    19.2510    16.8210    22.9050     2.2960   -29.0390 
  168.6250    80.4770    19.5430    19.1960    17.2710    22.9540     2.3080   -29.3070 
  168.7500    78.5150    20.1770    19.4090    17.5890    23.0000     2.3180   -29.6050 
  168.8750    78.3150    21.5180    20.1180    18.0810    23.0390     2.3260   -29.9220 
  169.0000    80.5770    24.0910    21.6550    19.2380    23.0780     2.3310   -30.2390 
  169.1250    84.6460    29.1750    24.9040    21.8410    23.0860     2.3320   -30.5500 
  169.2500    85.2120    37.6700    30.7530    26.4140    23.1050     2.3310   -30.8270 
  169.3750    79.3970    50.8360    40.7120    34.5090    23.1150     2.3240   -31.0950 
  169.5000    69.7210    76.7740    56.4270    57.2530    23.1580     2.3100   -31.3650 
  169.6250    62.4440   104.9600    79.3190    86.5620    23.2610     2.2900   -31.6470 
  169.7500    59.9110   135.5150   104.9180   104.5890    23.3520     2.2740   -31.9410 
  169.8750    59.4260   161.2330   126.9930   104.8670    23.3930     2.2710   -32.2440 
  170.0000    58.5370   176.2480   140.6970   100.0250    23.3550     2.2770   -32.5590 
  170.1250    57.6300   180.5210   145.5950    96.4750    23.3010     2.2820   -32.8850 
  170.2500    58.2300   181.4710   147.3290    95.3580    23.2530     2.2800   -33.2140 
  170.3750    59.3060   182.0090   148.5050    89.9810    23.2550     2.2750   -33.5200 
  170.5000    59.4500   182.1630   149.5250    86.0270    23.2670     2.2730   -33.8080 
  170.6250    56.8560   180.3720   149.3460    89.2620    23.2980     2.2770   -34.0730 
  170.7500    53.1440   175.9440   147.3340   100.1820    23.3420     2.2870   -34.3010 
  170.8750    51.3390   168.3830   143.0040   109.8670    23.4680     2.3090   -34.4880 
  171.0000    54.0280   157.3920   135.9220   120.8250    23.6740     2.3430   -34.6410 
  171.1250    58.4590   143.2460   125.8010   122.9700    23.7870     2.3730   -34.7950 
  171.2500    59.7790   128.5760   114.4860   128.3130    23.7450     2.3860   -34.9760 
  171.3750    59.9270   115.6630   103.8990   118.3060    23.7170     2.3820   -35.1750 
  171.5000    61.9070   106.1460    95.6990    89.0630    23.8590     2.3680   -35.3590 
  171.6250    64.9080   101.3840    91.4110    70.3000    24.0630     2.3450   -35.5190 
  171.7500    65.1150   100.1490    90.3170    69.1280    24.0880     2.3180   -35.6540 
  171.8750    63.4870   101.0280    91.3540    74.7390    23.9240     2.2970   -35.7800 
  172.0000    60.7370   102.1440    92.9650    68.4110    23.5900     2.2860   -35.8810 
  172.1250    57.4910   101.2940    93.1910    58.9100    23.2920     2.2830   -35.9230 
  172.2500    56.7950    98.0170    91.2840    57.7580    23.1740     2.2820   -35.9200 
  172.3750    58.9020    93.0810    87.6130    61.2370    23.2740     2.2840   -35.8840 
  172.5000    61.7680    87.8740    83.3060    62.5120    23.4660     2.2880   -35.8420 
  172.6250    63.1710    83.5960    79.5550    66.1650    23.5940     2.2950   -35.8060 
  172.7500    64.1160    80.2570    76.5800    68.5980    23.6010     2.3020   -35.8040 
  172.8750    65.0380    77.6340    74.2210    67.1850    23.4630     2.3080   -35.8110 
  173.0000    66.7930    75.6180    72.3550    62.4190    23.1080     2.3120   -35.8150 
  173.1250    68.8980    74.5200    71.1890    61.2350    22.8140     2.3160   -35.8050 
  173.2500    68.3540    74.5060    70.9020    51.5820    22.7970     2.3160   -35.7650 
  173.3750    65.6910    75.5960    71.5990    50.9270    23.1190     2.3100   -35.7150 
  173.5000    63.2250    77.3430    72.9720    57.2100    23.6140     2.2990   -35.6660 
  173.6250    62.4440    78.8050    74.1990    66.5490    23.9520     2.2880   -35.6100 
