~V
VERS. 2.00: Ver 2.00
~W
STRT.M 60.0000:
STOP.M 271.0000:
STEP.M 0.1250:
NULL. -999.2500:
UWI. F10205:
~C
DEPT.M :
DEN.GM/CC :
GR.API :
RML.OHMM :
RI. :
RXO.OHMM :
CALI.CM :
SP.MV :
~A
# ...
   71.2500     2.2180   104.2900     4.6690     4.5480     4.4140    25.7370   -13.6700 
   71.3750     2.2050   102.0090     4.7620     4.5480     4.5600    25.6210   -12.6850 
   71.5000     2.1910    96.7880     4.9070     4.6270     4.9200    25.3120   -12.1220 
   71.6250     2.1740    94.1040     5.1050     4.7600     5.3970    24.9030   -12.1480 
   71.7500     2.1600    94.0360     5.4100     4.9480     6.1070    24.6810   -12.6320 
   71.8750     2.1600    93.2370     5.9210     5.2580     6.6690    24.5890   -13.3630 
   72.0000     2.1910    91.4500     6.7180     5.7840     7.0510    24.5510   -14.2710 
   72.1250     2.2640    89.7190     7.8020     6.6330     7.5070    24.5790   -15.2320 
   72.2500     2.3520    86.8930     8.8960     7.6550     9.1480    24.7190   -16.1720 
   72.3750     2.4210    82.1780     9.6530     8.5700    13.9320    24.8350   -17.1530 
   72.5000     2.4420    76.8880     9.7520     9.0240    22.4360    24.7570   -18.1650 
   72.6250     2.3970    73.9710     9.0140     8.7020    18.9390    24.4260   -19.1180 
   72.7500     2.3220    74.9650     7.8790     7.8750    11.3410    24.1430   -20.0450 
   72.8750     2.2490    78.2720     6.7690     6.8900     8.7460    24.0120   -21.0030 
   73.0000     2.1990    81.3360     5.9840     6.0520     8.4100    24.0270   -21.9730 
   73.1250     2.1810    80.6830     5.6720     5.5670     8.2520    24.2070   -22.9930 
   73.2500     2.1760    77.9300     5.6520     5.3720     8.4510    24.4770   -24.0150 
   73.3750     2.1750    75.1830     5.7790     5.3820     8.8730    24.6810   -24.9550 
   73.5000     2.1710    73.4080     5.9360     5.5010     9.2270    24.7400   -25.7210 
   73.6250     2.1630    72.5830     6.0450     5.6410     9.2850    24.7710   -26.1970 
   73.7500     2.1530    72.1660     6.0830     5.7430     9.2500    24.8310   -26.3460 
   73.8750     2.1470    72.6200     6.0300     5.7750     9.2680    24.9280   -26.1710 
   74.0000     2.1480    74.2950     5.8620     5.7120     9.3430    25.0860   -25.5680 
   74.1250     2.1620    78.5710     5.5550     5.5200     8.8660    25.2080   -24.3610 
   74.2500     2.1840    86.8190     5.1720     5.2280     7.8150    25.3570   -22.6750 
   74.3750     2.2080    97.7210     4.7820     4.8790     6.5990    25.5090   -20.6730 
   74.5000     2.2280   107.0220     4.4600     4.5380     5.8810    25.6150   -18.5610 
   74.6250     2.2440   109.4760     4.2810     4.2850     5.1840    25.6580   -16.6040 
   74.7500     2.2570   105.9950     4.2360     4.1500     4.9430    25.6580   -15.0060 
   74.8750     2.2690   101.1620     4.3120     4.1400     5.1420    25.6350   -13.8530 
   75.0000     2.2710    97.7080     4.5030     4.2480     5.9770    25.6140   -13.1780 
   75.1250     2.2500    94.5820     4.8780     4.5130     6.9400    25.6620   -13.0470 
   75.2500     2.2130    89.4880     5.4920     4.9680     7.5110    25.8490   -13.2480 
   75.3750     2.1860    84.2490     6.3840     5.6800     8.0460    26.1700   -13.6560 
   75.5000     2.2010    79.2810     7.4910     6.6710     8.9490    26.5020   -14.0690 
   75.6250     2.2750    74.0540     8.5230     7.8210    13.1770    26.4580   -14.1870 
   75.7500     2.3670    73.4610     9.0860     8.7470    20.2060    26.0500   -13.9080 
   75.8750     2.4320    80.3920     8.9320     9.0950    19.0970    25.3600   -13.2250 
   76.0000     2.4450    89.7750     8.1030     8.7170    11.0330    24.8410   -12.2440 
   76.1250     2.4090    93.6440     6.9340     7.7570     7.0310    24.7590   -11.0210 
   76.2500     2.3660    96.9060     5.9090     6.7240     5.7830    24.8630    -9.7570 
   76.3750     2.3420   103.3200     5.2300     5.8940     5.5910    24.9240    -8.5260 
   76.5000     2.3400   110.7430     4.8960     5.3590     5.4170    24.9620    -7.3740 
   76.6250     2.3540   116.0900     4.7950     5.0930     5.0330    25.0460    -6.3670 
   76.7500     2.3660   119.4390     4.7280     4.9350     4.7440    25.1790    -5.4940 
   76.8750     2.3620   122.4000     4.5990     4.7860     4.6080    25.3650    -4.7630 
   77.0000     2.3270   125.8890     4.3830     4.5890     4.5560    25.5450    -4.1690 
   77.1250     2.2530   127.6200     4.1370     4.3450     4.4930    25.9220    -3.7640 
   77.2500     2.1660   124.8600     4.0060     4.1440     4.3440    26.6870    -3.4640 
   77.3750     2.1070   120.0460     4.1660     4.1110     4.2810    27.4320    -3.2430 
   77.5000     2.1160   117.7290     4.8110     4.4090     4.4120    27.4120    -3.1440 
   77.6250     2.2160   114.1040     6.2260     5.3220     5.0730    26.5860    -3.2550 
   77.7500     2.3580   103.5750     8.2760     6.8820     7.5560    25.7570    -3.6230 
   77.8750     2.4840    89.8710    10.5820     8.9330    15.0830    25.4400    -4.2880 
   78.0000     2.5410    78.6700    12.4110    10.9250    29.0790    25.4300    -5.2500 
   78.1250     2.4990    71.4930    12.7520    11.8590    26.7700    25.4650    -6.5090 
   78.2500     2.3990    68.1240    11.7220    11.5040    14.7720    25.5230    -7.9840 
   78.3750     2.2890    67.9580     9.9720    10.2500     8.9950    25.6400    -9.6110 
   78.5000     2.2140    68.9240     8.3290     8.8040     7.7630    25.7320   -11.3170 
   78.6250     2.2030    67.6200     7.4390     7.8020     8.1020    25.7120   -13.0290 
   78.7500     2.2300    66.3510     7.2460     7.3430     8.2740    25.6830   -14.6090 
   78.8750     2.2630    67.6060     7.5920     7.3800     8.3150    25.6520   -15.9570 
   79.0000     2.2840    69.8970     8.2980     7.8160     8.5480    25.5690   -17.0360 
   79.1250     2.2940    70.0670     9.1640     8.5380    10.0210    25.4050   -17.8090 
   79.2500     2.3120    68.1060     9.9140     9.2880    14.9750    25.3380   -18.3910 
   79.3750     2.3390    66.6730    10.3320     9.8430    24.2990    25.3560   -18.8390 
   79.5000     2.3610    66.5860    10.2830    10.0210    24.8840    25.3540   -19.1960 
   79.6250     2.3500    66.0040     9.7320     9.7030    16.2690    25.3270   -19.5030 
   79.7500     2.3100    65.5860     8.9630     9.0910    10.9570    25.2880   -19.8000 
   79.8750     2.2590    66.2350     8.2110     8.3790     9.4180    25.3080   -20.0930 
   80.0000     2.2180    67.9260     7.6520     7.7360     9.1180    25.3850   -20.3990 
   80.1250     2.1970    69.3270     7.3900     7.3020     9.0310    25.4130   -20.7510 
   80.2500     2.1870    71.3170     7.3320     7.0690     9.0030    25.4340   -21.1550 
   80.3750     2.1820    72.4290     7.3890     7.0030     9.0660    25.5180   -21.6100 
   80.5000     2.1810    71.4550     7.4750     7.0450     9.1360    25.6570   -22.1260 
   80.6250     2.1830    70.3870     7.5360     7.1340     9.2090    25.7290   -22.6950 
   80.7500     2.1860    70.7000     7.5720     7.2250     9.2800    25.7710   -23.2950 
   80.8750     2.1900    71.0900     7.6020     7.3080     9.5140    25.8100   -23.9360 
   81.0000     2.1950    69.2700     7.6460     7.3840     9.8000    25.8440   -24.6040 
   81.1250     2.2000    67.6880     7.7110     7.4480    10.1010    25.8260   -25.2220 
   81.2500     2.2040    67.4210     7.7830     7.4980    10.2540    25.7750   -25.7480 
   81.3750     2.2060    66.9570     7.8460     7.5260    10.3120    25.7170   -26.1920 
   81.5000     2.2040    66.2950     7.8830     7.5320    10.2280    25.6250   -26.5330 
   81.6250     2.1970    66.5320     7.8820     7.5140     9.9040    25.4570   -26.8030 
   81.7500     2.1860    67.7030     7.8470     7.4760     9.7850    25.3460   -27.0580 
   81.8750     2.1730    67.6670     7.7800     7.4160    10.4030    25.4600   -27.2760 
   82.0000     2.1610    65.8630     7.6900     7.3340    10.8920    25.6230   -27.3930 
   82.1250     2.1570    64.1730     7.5870     7.2300    11.0670    25.6940   -27.3930 
   82.2500     2.1610    64.4810     7.4910     7.1200    11.0390    25.7340   -27.3050 
   82.3750     2.1710    66.9310     7.4130     7.0180    11.0430    25.8270   -27.1060 
