~V
VERS. 2.00: Ver 2.00
~W
STRT.M 56.0000:
STOP.M 270.0000:
STEP.M 0.1250:
NULL. -999.2500:
UWI. F10225:
~C
DEPT.M :
SP.MV :
DEN.GM/CC :
GR.API :
RML.OHMM :
RI. :
RXO.OHMM :
CALI.CM :
~A
# ...
  123.5000   -19.1560     2.4600    37.7010    22.5740    21.4090    17.4470    21.5700 
  123.6250   -19.1420     2.4610    37.7400    22.4930    21.3340    19.0550    21.5480 
  123.7500   -19.1360     2.4630    40.1020    22.8700    21.6570    20.6730    21.5440 
  123.8750   -19.1090     2.4610    42.4350    23.4480    22.2070    21.0670    21.5610 
  124.0000   -19.0480     2.4530    42.0860    23.8880    22.7220    20.9820    21.6060 
  124.1250   -18.9560     2.4430    39.9320    23.8370    22.8790    19.9170    21.6570 
  124.2500   -18.8640     2.4380    39.4180    23.2960    22.6130    18.5560    21.6730 
  124.3750   -18.8120     2.4460    41.7720    22.4830    22.0460    17.7470    21.6410 
  124.5000   -18.8130     2.4600    45.1190    21.6670    21.3650    17.3500    21.5880 
  124.6250   -18.8190     2.4760    45.8660    21.0480    20.7290    16.8770    21.5640 
  124.7500   -18.7970     2.4920    43.6430    20.5930    20.1800    16.3550    21.5730 
  124.8750   -18.7600     2.5070    40.5150    20.1840    19.6820    15.9390    21.5950 
  125.0000   -18.7270     2.5180    38.5910    19.7510    19.2060    15.7060    21.6060 
  125.1250   -18.7100     2.5210    39.2580    19.3520    18.7970    15.4920    21.5930 
  125.2500   -18.7160     2.5220    41.1000    19.1270    18.5410    15.4040    21.5650 
  125.3750   -18.7430     2.5240    42.6530    19.2070    18.5270    15.5220    21.5450 
  125.5000   -18.7450     2.5280    43.2250    19.6450    18.8080    16.2010    21.5380 
  125.6250   -18.7040     2.5270    41.4800    20.3620    19.3620    17.6460    21.5370 
  125.7500   -18.6640     2.5190    38.1520    21.0530    19.9680    19.0090    21.5320 
  125.8750   -18.6450     2.5070    36.7660    21.4020    20.3580    19.8410    21.5130 
  126.0000   -18.6400     2.4940    38.6760    21.2400    20.3470    20.3740    21.4670 
  126.1250   -18.6390     2.4870    40.6580    20.6660    19.9550    19.5140    21.4250 
  126.2500   -18.6170     2.4940    40.4810    20.1300    19.5210    18.1750    21.4600 
  126.3750   -18.5290     2.5120    40.7860    20.0410    19.3870    17.4740    21.6520 
  126.5000   -18.4030     2.5300    42.8930    20.5820    19.7410    18.2940    22.0180 
  126.6250   -18.3170     2.5390    43.2950    21.6890    20.6060    21.6880    22.5670 
  126.7500   -18.2590     2.5370    40.9580    22.9140    21.6680    27.1450    23.0990 
  126.8750   -18.1920     2.5220    38.1280    23.7500    22.5020    30.1440    23.3850 
  127.0000   -18.0970     2.4890    37.4130    23.8280    22.7370    27.5490    23.3660 
  127.1250   -17.9910     2.4490    39.4900    23.0580    22.2050    23.4180    23.3550 
  127.2500   -17.8980     2.4280    41.4030    21.8850    21.2470    21.1280    23.6230 
  127.3750   -17.8660     2.4400    41.2080    20.7680    20.2580    20.3400    23.9620 
  127.5000   -17.8830     2.4760    39.5380    19.9970    19.5160    19.1020    24.0700 
  127.6250   -17.8840     2.5080    39.0010    19.7390    19.2100    18.4050    23.8640 
  127.7500   -17.8460     2.5190    40.0100    19.8880    19.2920    18.8210    23.5570 
  127.8750   -17.7980     2.5150    41.1860    20.2530    19.6260    19.1940    23.1700 
  128.0000   -17.7720     2.5050    42.8570    20.6190    20.0280    18.8500    22.6470 
  128.1250   -17.7780     2.4970    45.5220    20.7130    20.2350    18.9510    22.2390 
  128.2500   -17.8120     2.4960    46.9910    20.4010    20.0760    19.5620    22.0590 
  128.3750   -17.8570     2.5030    46.3370    19.7050    19.5260    19.8260    22.0010 
  128.5000   -17.9080     2.5140    45.3370    18.7770    18.7000    19.2120    21.9620 
  128.6250   -17.9420     2.5210    46.1720    17.8520    17.8030    17.3690    21.9140 
  128.7500   -17.9780     2.5170    46.9230    17.1250    17.0280    15.6150    21.8380 
  128.8750   -18.0370     2.5010    45.9410    16.6970    16.4900    14.7290    21.7140 
  129.0000   -18.1090     2.4760    44.2720    16.5730    16.2250    14.6310    21.5840 
  129.1250   -18.1900     2.4460    44.3230    16.6850    16.2170    14.6620    21.5360 
  129.2500   -18.2610     2.4180    45.3840    16.8930    16.3620    14.3550    21.5770 
  129.3750   -18.3040     2.3990    45.3160    17.1180    16.5770    13.8480    21.6580 
  129.5000   -18.3010     2.3900    43.6600    17.3520    16.8360    13.2210    21.7060 
  129.6250   -18.2800     2.3910    41.6930    17.6700    17.1850    12.6290    21.6720 
  129.7500   -18.2790     2.3950    40.7940    18.1470    17.6730    12.5920    21.6060 
  129.8750   -18.2950     2.4000    41.5760    18.8000    18.3160    13.4650    21.5570 
  130.0000   -18.2940     2.4050    43.3810    19.5510    19.0500    14.9900    21.5450 
  130.1250   -18.2400     2.4100    44.3220    20.1550    19.6620    16.7190    21.5280 
  130.2500   -18.1430     2.4120    44.3840    20.3500    19.9010    18.0050    21.4890 
  130.3750   -18.0450     2.4100    44.7420    19.9970    19.6220    18.6750    21.4480 
  130.5000   -18.0000     2.4060    44.6140    19.1500    18.8700    19.3070    21.4400 
  130.6250   -18.0370     2.4070    43.4130    18.0600    17.8670    18.4190    21.4800 
  130.7500   -18.1020     2.4160    42.7030    17.0600    16.9130    16.4160    21.5330 
  130.8750   -18.1450     2.4360    42.9120    16.3480    16.1930    14.9050    21.5810 
  131.0000   -18.1800     2.4600    43.0610    15.9730    15.7710    14.7490    21.6230 
  131.1250   -18.2360     2.4770    43.3610    15.8800    15.6410    14.5910    21.6530 
  131.2500   -18.3100     2.4780    43.9170    15.8850    15.6760    14.4850    21.6680 
  131.3750   -18.3980     2.4660    42.8930    15.8090    15.7150    14.9020    21.6660 
  131.5000   -18.4720     2.4500    39.6690    15.5350    15.6210    15.1160    21.6420 
  131.6250   -18.5190     2.4350    37.3500    15.0390    15.3060    14.9980    21.6210 
  131.7500   -18.5370     2.4220    38.5380    14.4300    14.8240    14.2620    21.6150 
  131.8750   -18.5410     2.4110    41.9720    13.8220    14.2710    13.0340    21.6320 
  132.0000   -18.5560     2.4040    44.7500    13.2980    13.7400    11.8320    21.6810 
  132.1250   -18.5780     2.4050    46.4930    12.9450    13.3310    11.6750    21.7450 
  132.2500   -18.6310     2.4140    48.4750    12.7860    13.0890    12.1710    21.7930 
  132.3750   -18.6940     2.4290    49.4700    12.7950    13.0110    12.6500    21.7880 
  132.5000   -18.7450     2.4440    47.6690    12.8930    13.0430    12.9520    21.7250 
  132.6250   -18.7600     2.4500    45.4100    12.9530    13.0770    13.0900    21.6960 
  132.7500   -18.7690     2.4480    46.1490    12.9200    13.0370    12.9450    21.7110 
  132.8750   -18.8110     2.4450    48.8370    12.8650    12.9620    12.1790    21.7260 
  133.0000   -18.8840     2.4470    50.8210    12.9610    12.9890    11.2330    21.7050 
  133.1250   -18.9720     2.4470    51.9050    13.4880    13.3570    10.9530    21.6720 
  133.2500   -19.0310     2.4460    51.9960    14.5480    14.1870    12.2930    21.6650 
  133.3750   -19.0660     2.4410    51.0550    16.0850    15.4910    15.6490    21.6920 
  133.5000   -19.1100     2.4300    50.6780    17.8550    17.1210    19.8870    21.7550 
  133.6250   -19.2220     2.4170    53.2950    19.3830    18.6800    21.4850    21.8570 
  133.7500   -19.3780     2.4090    56.4980    20.3000    19.7440    20.3320    21.9350 
  133.8750   -19.5260     2.4060    57.0610    20.5170    20.1310    19.1220    21.9490 
  134.0000   -19.6310     2.4040    55.9270    20.2060    19.9440    18.9080    21.9310 
  134.1250   -19.7150     2.4000    56.4540    19.6810    19.4450    19.0160    21.9200 
  134.2500   -19.8160     2.3940    58.8360    19.2280    18.9220    18.5230    21.9300 
  134.3750   -19.9560     2.3850    61.6250    18.9830    18.5290    17.5130    21.9470 
  134.5000   -20.1290     2.3760    63.7240    19.0020    18.3530    16.8610    21.9590 
  134.6250   -20.2780     2.3710    66.2000    19.3760    18.5150    16.2910    21.9700 
