~V
VERS. 2.00: Ver 2.00
~W
STRT.M 55.0000:
STOP.M 270.0000:
STEP.M 0.1250:
NULL. -999.2500:
UWI. F10235:
~C
DEPT.M :
GR.API :
RML.OHMM :
RI. :
RXO.OHMM :
CALI.CM :
DEN.GM/CC :
SP.MV :
~A
# ...
  167.5000    87.8890    22.3720    20.8480    21.8290    24.7700     2.2870    -8.3800 
  167.6250    86.1460    22.3730    20.8070    22.4700    24.7640     2.2870    -8.3260 
  167.7500    82.4080    22.3010    20.6960    22.4390    24.7250     2.2870    -8.2510 
  167.8750    79.3380    22.0550    20.4180    22.1370    24.6850     2.2880    -8.2390 
  168.0000    79.0670    21.5840    19.9210    21.9530    24.6660     2.2890    -8.2660 
  168.1250    80.8130    20.9170    19.2200    21.2370    24.6840     2.2880    -8.2260 
  168.2500    84.9400    20.2360    18.4900    19.7910    24.7240     2.2870    -8.1550 
  168.3750    90.8670    19.6990    17.8840    18.1560    24.7390     2.2860    -8.1160 
  168.5000    94.4160    19.4170    17.5080    17.4580    24.7340     2.2850    -8.0690 
  168.6250    91.1100    19.4600    17.4390    17.9540    24.7490     2.2840    -8.0250 
  168.7500    86.4950    19.7150    17.5870    18.9510    24.7700     2.2810    -7.9820 
  168.8750    84.0120    20.0760    17.8630    19.7580    24.7750     2.2770    -7.9200 
  169.0000    82.3560    20.4270    18.1600    19.9700    24.7790     2.2700    -7.8650 
  169.1250    82.8720    20.6540    18.3580    20.1750    24.7760     2.2650    -7.8990 
  169.2500    86.8490    20.7580    18.4300    20.4630    24.7510     2.2630    -7.9670 
  169.3750    91.8020    20.8080    18.4260    20.7560    24.7210     2.2660    -7.9800 
  169.5000    93.5240    20.9280    18.4560    20.4250    24.6790     2.2710    -7.9730 
  169.6250    90.8470    21.2790    18.6720    19.6570    24.6400     2.2730    -8.0240 
  169.7500    86.8250    21.8750    19.0970    19.5230    24.6130     2.2710    -8.1310 
  169.8750    83.8410    22.6630    19.6970    20.8610    24.5970     2.2660    -8.2390 
  170.0000    83.1010    23.5380    20.3980    23.7500    24.5960     2.2610    -8.3680 
  170.1250    82.5420    24.3640    21.1010    26.0120    24.5690     2.2570    -8.4980 
  170.2500    81.0700    25.0720    21.7150    25.0940    24.5050     2.2530    -8.6160 
  170.3750    78.5380    25.6510    22.2060    23.2750    24.4190     2.2460    -8.7750 
  170.5000    76.9030    26.0980    22.5870    25.1320    24.3370     2.2380    -9.0030 
  170.6250    77.7820    26.3230    22.8040    27.4950    24.2920     2.2330    -9.2410 
  170.7500    81.4380    26.2900    22.7950    26.4190    24.2650     2.2340    -9.4550 
  170.8750    84.4820    26.0470    22.5720    24.4600    24.2780     2.2420    -9.7180 
  171.0000    83.8430    25.8170    22.3210    25.6480    24.3580     2.2520    -9.9730 
  171.1250    83.4230    26.0610    22.4240    24.4340    24.4170     2.2550   -10.1880 
  171.2500    85.5080    27.0220    23.1240    22.5000    24.4280     2.2500   -10.4520 
  171.3750    87.5990    28.6900    24.5030    22.7280    24.4130     2.2410   -10.7780 
  171.5000    84.9690    30.7030    26.3540    29.1640    24.4500     2.2350   -11.0980 
  171.6250    78.8310    32.2800    28.0220    35.8460    24.5070     2.2410   -11.3470 
  171.7500    74.4940    32.8360    28.8310    34.6210    24.5110     2.2540   -11.5530 
  171.8750    73.5370    32.1910    28.5040    30.5220    24.4700     2.2700   -11.6970 
  172.0000    75.6720    30.5960    27.2010    27.5190    24.4010     2.2850   -11.7930 
  172.1250    79.7100    28.5930    25.4100    25.5960    24.3270     2.2960   -11.8590 
  172.2500    82.9800    26.7930    23.7590    23.3960    24.2710     2.3050   -11.8530 
  172.3750    84.6460    25.4570    22.4950    22.0330    24.1970     2.3090   -11.7160 
  172.5000    85.0830    24.6810    21.6880    21.2840    24.1090     2.3090   -11.4990 
  172.6250    84.9280    24.6290    21.4720    21.1000    24.1330     2.3030   -11.3630 
  172.7500    83.8780    25.2730    21.8420    21.5930    24.1580     2.2940   -11.2870 
  172.8750    81.8910    26.6440    22.8470    22.6170    24.1770     2.2830   -11.2460 
  173.0000    80.1030    28.6510    24.4700    23.8660    24.1850     2.2730   -11.3200 
  173.1250    78.8070    30.9890    26.5900    26.7700    24.1460     2.2680   -11.5380 
  173.2500    75.9880    33.0120    28.6670    30.6870    24.1020     2.2670   -11.8140 
  173.3750    73.9270    34.1490    30.1210    31.1830    24.0750     2.2690   -12.1830 
  173.5000    74.7940    34.0500    30.4800    31.0450    24.0680     2.2720   -12.6310 
  173.6250    78.5300    32.7020    29.5610    31.6590    24.0510     2.2740   -13.0160 
  173.7500    81.5520    30.9820    28.1460    29.9010    24.0390     2.2750   -13.3590 
  173.8750    82.8990    29.6760    26.9740    26.5550    24.0390     2.2740   -13.7100 
  174.0000    83.6190    29.4070    26.6170    23.9700    24.0090     2.2700   -13.9960 
  174.1250    82.7730    30.6330    27.5510    24.4470    23.9910     2.2620   -14.1740 
  174.2500    79.3350    32.8130    29.4990    28.2430    23.9960     2.2540   -14.3550 
  174.3750    75.9930    35.1710    31.9180    35.1230    24.0120     2.2510   -14.5410 
  174.5000    76.1630    36.7090    33.8230    38.4750    24.0360     2.2540   -14.7030 
  174.6250    77.4460    36.3430    33.8350    35.7710    24.0880     2.2620   -14.8910 
  174.7500    75.8430    34.3990    32.0900    31.9430    24.1780     2.2710   -15.1100 
  174.8750    75.1870    31.6550    29.4290    27.6970    24.2950     2.2780   -15.3020 
  175.0000    79.5290    29.1030    26.8740    23.8820    24.4370     2.2830   -15.5230 
  175.1250    84.6380    27.7810    25.3450    22.3530    24.6040     2.2850   -15.8960 
  175.2500    84.9220    27.9920    25.0680    25.6590    24.7100     2.2840   -16.3730 
  175.3750    82.3740    29.9870    26.2580    33.4170    24.7490     2.2800   -16.9140 
  175.5000    79.3550    34.0500    29.2150    38.4630    24.8150     2.2710   -17.5590 
  175.6250    74.5560    40.9760    34.8500    36.9080    24.9210     2.2600   -18.4170 
  175.7500    69.6330    50.5550    43.2710    42.4720    25.0470     2.2510   -19.4630 
  175.8750    66.6390    62.3320    54.3720    62.4120    25.0880     2.2490   -20.6300 
  176.0000    66.3850    74.8170    67.0030   102.1180    25.1090     2.2510   -21.8580 
  176.1250    67.7660    84.6110    77.9760   111.9100    25.1050     2.2560   -23.0460 
  176.2500    68.5380    89.1010    83.9360    91.2280    25.0880     2.2600   -24.1270 
  176.3750    68.7750    87.4580    83.3340    75.8720    25.0500     2.2650   -25.0820 
  176.5000    67.6290    81.1260    77.4540    66.4600    25.0010     2.2730   -25.9230 
  176.6250    68.5110    73.0680    69.4700    66.6370    24.8920     2.2810   -26.5840 
  176.7500    74.2520    66.3560    62.5740    62.2830    24.8350     2.2840   -27.0490 
  176.8750    80.7330    62.3340    58.0900    53.8430    24.8670     2.2790   -27.4110 
  177.0000    81.7130    61.2780    56.6100    47.9070    24.9410     2.2660   -27.7260 
  177.1250    78.1040    63.3590    58.7720    58.2620    25.0130     2.2530   -28.0000 
  177.2500    76.5490    67.8550    63.6990    67.8220    25.0750     2.2460   -28.2650 
  177.3750    76.8610    74.2600    70.5440    74.9260    25.1210     2.2460   -28.5380 
  177.5000    74.4110    81.3220    77.8900    85.6800    25.1410     2.2490   -28.7910 
  177.6250    69.1920    86.8370    83.5140    93.2320    25.1330     2.2520   -29.0230 
  177.7500    64.3120    89.6660    86.2680    90.4480    25.1700     2.2510   -29.2580 
  177.8750    62.5240    89.5740    85.9940    82.0140    25.2210     2.2500   -29.4840 
  178.0000    64.4970    86.9510    83.2430    76.3130    25.2720     2.2520   -29.6180 
  178.1250    68.1000    82.4250    78.6540    76.4590    25.3110     2.2600   -29.5950 
  178.2500    70.6310    77.2950    73.4870    71.3940    25.3230     2.2730   -29.5070 
  178.3750    72.5300    72.4310    68.6160    64.3940    25.3110     2.2870   -29.4050 
  178.5000    73.2320    68.5720    64.7790    59.3480    25.2740     2.2980   -29.2520 
  178.6250    70.6920    66.5030    62.7760    56.8540    25.2280     2.3020   -28.9920 
