~V
VERS. 2.00: Ver 2.00
~W
STRT.M 55.0000:
STOP.M 276.0000:
STEP.M 0.1250:
NULL. -999.2500:
UWI. F10239:
~C
DEPT.M :
SP.MV :
DEN.GM/CC :
GR.API :
RML.OHMM :
RI. :
RXO.OHMM :
CALI.CM :
~A
# ...
  167.5000   -15.0810     2.3560    81.0560    12.8410    11.4000    11.2640    24.8930 
  167.6250   -15.2770     2.3390    81.6850    13.5620    11.8580    11.7130    24.8680 
  167.7500   -15.4550     2.3280    83.4560    14.6540    12.7130    12.9320    24.8590 
  167.8750   -15.6150     2.3240    83.4120    15.8290    13.7470    14.4700    24.8640 
  168.0000   -15.7500     2.3240    81.9940    16.7790    14.7070    16.4020    24.8770 
  168.1250   -15.8680     2.3250    79.7140    17.1970    15.2910    18.1290    24.8830 
  168.2500   -15.9630     2.3260    77.6840    16.9060    15.2690    18.4750    24.9010 
  168.3750   -16.0300     2.3320    78.0470    16.1470    14.7820    17.0140    24.9400 
  168.5000   -16.0770     2.3430    81.0610    15.1850    14.0430    14.5090    25.0210 
  168.6250   -16.1240     2.3550    83.8670    14.2470    13.2540    13.1870    25.1900 
  168.7500   -16.1890     2.3680    83.6030    13.4370    12.5360    13.2430    25.4030 
  168.8750   -16.3180     2.3850    81.4240    12.7270    11.9050    12.8120    25.5660 
  169.0000   -16.5260     2.4030    80.5980    12.0860    11.3560    11.4970    25.6340 
  169.1250   -16.7900     2.4180    82.8260    11.5070    10.8880    10.2060    25.6490 
  169.2500   -17.0760     2.4200    86.5690    11.0100    10.5130     9.8930    25.6590 
  169.3750   -17.3510     2.4100    88.9120    10.6080    10.2260     9.8220    25.6600 
  169.5000   -17.6160     2.3910    88.6220    10.3140    10.0300     9.6760    25.6570 
  169.6250   -17.8850     2.3730    86.8710    10.1250     9.9190     9.4310    25.6530 
  169.7500   -18.1730     2.3650    85.5230    10.0180     9.8650     9.2020    25.6590 
  169.8750   -18.4590     2.3660    84.9190     9.9500     9.8250     9.0260    25.6630 
  170.0000   -18.7430     2.3670    82.9220     9.8890     9.7660     8.9440    25.6650 
  170.1250   -19.0150     2.3640    78.5930     9.8040     9.6610     8.8620    25.6650 
  170.2500   -19.2680     2.3570    75.5750     9.6550     9.4800     8.6560    25.6620 
  170.3750   -19.5340     2.3540    77.0360     9.4380     9.2240     8.2820    25.6570 
  170.5000   -19.8230     2.3540    80.7710     9.1640     8.9030     7.9370    25.6630 
  170.6250   -20.1170     2.3590    83.5100     8.8660     8.5440     7.7880    25.6890 
  170.7500   -20.3980     2.3680    84.9020     8.6120     8.2020     7.8170    25.7380 
  170.8750   -20.6510     2.3790    88.1520     8.5250     7.9800     7.8180    25.7990 
  171.0000   -20.8610     2.3870    93.2950     8.7880     8.0140     7.9910    25.8660 
  171.1250   -21.0520     2.3900    95.0680     9.6920     8.4980     8.6210    25.9270 
  171.2500   -21.2750     2.3840    88.7060    11.7150     9.7430    10.4960    25.9920 
  171.3750   -21.5380     2.3690    78.7480    15.1420    11.9890    15.1210    26.0580 
  171.5000   -21.8110     2.3510    70.9010    20.1380    15.5440    23.0760    26.0960 
  171.6250   -22.0750     2.3350    66.8490    26.3740    20.5340    28.9450    26.1200 
  171.7500   -22.3320     2.3290    66.7160    32.6950    26.4460    31.7070    26.1740 
  171.8750   -22.6150     2.3300    70.1860    37.3930    31.6230    37.8350    26.2750 
  172.0000   -22.9400     2.3380    73.7110    39.6080    34.7300    41.2780    26.3700 
  172.1250   -23.2900     2.3460    74.8050    39.9900    35.7960    38.0570    26.4300 
  172.2500   -23.6440     2.3450    73.0290    40.4190    36.2330    33.6850    26.4720 
  172.3750   -23.9700     2.3310    70.1910    42.4680    37.5840    36.9210    26.5280 
  172.5000   -24.2760     2.3120    67.0250    46.6260    40.4960    46.6670    26.5530 
  172.6250   -24.5740     2.2930    63.7640    52.7320    45.1620    58.6020    26.5260 
  172.7500   -24.8710     2.2790    60.0770    60.0040    51.2800    62.9130    26.5190 
  172.8750   -25.1590     2.2690    56.3520    66.8800    57.5420    61.7150    26.5930 
  173.0000   -25.4110     2.2640    56.0570    72.2000    62.7520    61.2320    26.7010 
  173.1250   -25.6230     2.2650    59.6150    75.5530    66.2640    69.1310    26.7760 
  173.2500   -25.7710     2.2680    62.8120    77.3570    68.2520    79.1160    26.8090 
  173.3750   -25.8780     2.2700    64.1180    78.5760    69.5640    78.0290    26.8100 
  173.5000   -25.9600     2.2670    64.7330    79.4870    70.5190    72.6970    26.8070 
  173.6250   -26.0330     2.2630    65.4280    79.9470    71.0600    70.7770    26.8170 
  173.7500   -26.0790     2.2590    65.8630    79.7300    71.0000    74.6980    26.8510 
  173.8750   -26.0700     2.2590    64.9510    79.1190    70.5660    77.8920    26.8900 
  174.0000   -26.0130     2.2620    61.8480    78.6900    70.2270    73.8780    26.9200 
  174.1250   -25.9240     2.2640    58.6360    79.2820    70.6880    67.7920    26.9310 
  174.2500   -25.8260     2.2610    58.5270    81.8340    72.7870    65.7790    26.9260 
  174.3750   -25.7280     2.2550    60.7050    86.4420    76.7220    73.0100    26.9150 
  174.5000   -25.6140     2.2490    62.4690    92.6700    82.2440    85.9960    26.8960 
  174.6250   -25.4740     2.2470    61.9910    99.1990    88.3310    98.5870    26.8240 
  174.7500   -25.3100     2.2480    58.1870   103.7160    93.0690   102.0330    26.6490 
  174.8750   -25.1480     2.2520    53.4300   104.4230    94.7490    93.7420    26.4860 
  175.0000   -25.0140     2.2580    52.2730   100.8880    92.7270    83.0990    26.4570 
  175.1250   -24.9080     2.2600    57.1120    94.2610    87.6870    77.9910    26.4700 
  175.2500   -24.8290     2.2590    63.8840    86.5610    81.2280    74.5700    26.5610 
  175.3750   -24.7690     2.2550    65.5710    79.6720    75.1660    68.2630    26.5860 
  175.5000   -24.7170     2.2490    62.6430    74.4080    70.3820    61.5550    26.5350 
  175.6250   -24.6570     2.2420    60.2290    71.0710    67.2710    57.0890    26.3490 
  175.7500   -24.6030     2.2360    61.3240    69.6400    65.9020    56.5020    26.1160 
  175.8750   -24.5930     2.2330    62.7780    69.4500    65.7300    55.5880    26.0840 
  176.0000   -24.6340     2.2320    61.7290    70.0260    66.3570    52.5680    26.1130 
  176.1250   -24.7110     2.2350    59.7740    70.8220    67.3120    50.4810    26.1290 
  176.2500   -24.8080     2.2410    59.4110    71.2520    68.0630    52.8360    26.1570 
  176.3750   -24.8990     2.2460    60.3460    71.0810    68.3270    55.2530    26.2240 
  176.5000   -24.9840     2.2500    61.0290    70.4810    68.2040    57.2420    26.2860 
  176.6250   -25.0850     2.2510    61.5550    69.8920    68.0440    57.3150    26.3630 
  176.7500   -25.2170     2.2470    63.1810    69.8570    68.2900    54.8350    26.4470 
  176.8750   -25.3660     2.2390    64.9480    70.7410    69.2650    53.7920    26.5430 
  177.0000   -25.4940     2.2290    65.7700    72.7320    71.2020    56.2810    26.6300 
  177.1250   -25.5960     2.2210    67.0570    75.4330    73.8910    62.9140    26.6500 
  177.2500   -25.6700     2.2180    69.0740    77.4290    76.1880    67.4970    26.6250 
  177.3750   -25.7550     2.2200    68.6400    76.9230    76.3610    69.1650    26.6480 
  177.5000   -25.8800     2.2280    64.0310    72.9890    73.3190    78.9270    26.7690 
  177.6250   -26.0570     2.2410    59.4660    66.3190    67.4100    84.3780    26.8900 
  177.7500   -26.2560     2.2570    60.3700    59.2150    60.6080    69.7900    26.9500 
  177.8750   -26.4410     2.2660    64.0710    54.2240    55.4490    50.5700    26.9860 
  178.0000   -26.6310     2.2660    65.3680    52.5880    53.2580    40.7290    26.9980 
  178.1250   -26.8310     2.2600    63.2420    54.7200    54.6430    39.7120    26.8600 
  178.2500   -27.0460     2.2550    61.7500    60.4250    59.7750    50.7000    26.5150 
  178.3750   -27.2700     2.2530    64.0810    67.8760    67.1970    68.8490    26.2560 
  178.5000   -27.4650     2.2550    67.3440    74.9760    74.9230    88.3780    26.3730 
  178.6250   -27.6280     2.2570    67.2210    79.3680    80.2990    90.4970    26.5620 
