~V
VERS. 2.00: Ver 2.00
~W
STRT.M 50.0000:
STOP.M 281.0000:
STEP.M 0.1250:
NULL. -999.2500:
UWI. F10222:
~C
DEPT.M :
GR.API :
RML.OHMM :
RI. :
RXO.OHMM :
CALI.CM :
DEN.GM/CC :
SP.MV :
~A
# ...
  106.2500    75.6610     8.9610     7.1800    11.2470    26.5910     2.1540   -33.3200 
  106.3750    71.5070     9.2210     7.3600    11.2670    26.5830     2.1610   -32.9680 
  106.5000    65.9010     9.3880     7.4890    11.4940    26.5800     2.1710   -32.6500 
  106.6250    62.4030     9.2790     7.4330    11.2640    26.5860     2.1820   -32.2740 
  106.7500    64.7920     8.8630     7.1580    10.0110    26.4960     2.1850   -31.8850 
  106.8750    72.1820     8.2150     6.7110     7.9720    26.1680     2.1770   -31.5790 
  107.0000    79.6060     7.5170     6.2090     6.3500    25.5000     2.1700   -31.3160 
  107.1250    84.6380     7.0230     5.8070     6.0390    24.7520     2.1790   -31.1280 
  107.2500    86.8730     6.8390     5.5910     6.3710    24.4250     2.1960   -31.1000 
  107.3750    85.4750     6.9730     5.5890     7.3240    24.1960     2.2050   -31.1590 
  107.5000    81.7120     7.3440     5.7740     8.8010    23.8080     2.2000   -31.2690 
  107.6250    78.9560     7.8110     6.0810     9.5420    23.4730     2.1910   -31.5140 
  107.7500    77.7770     8.2190     6.3910     9.7290    23.4100     2.1850   -31.7860 
  107.8750    76.2020     8.5040     6.6460     9.5370    23.7320     2.1780   -32.0400 
  108.0000    74.2530     8.6700     6.8210     9.5220    24.3830     2.1650   -32.2720 
  108.1250    72.5950     8.7590     6.9300     9.9040    25.2140     2.1460   -32.4060 
  108.2500    69.6030     8.8290     7.0120    10.4930    26.1220     2.1260   -32.4470 
  108.3750    65.6750     8.8970     7.0770    10.7240    26.4900     2.1150   -32.4480 
  108.5000    64.3700     8.9630     7.1230    10.6490    26.1640     2.1170   -32.3850 
  108.6250    67.8550     9.0320     7.1440    10.4330    25.3900     2.1340   -32.2740 
  108.7500    70.9520     9.1120     7.1530     9.9720    24.8800     2.1530   -32.1750 
  108.8750    70.6960     9.2020     7.1530     9.4690    24.7120     2.1650   -32.0220 
  109.0000    68.0380     9.2910     7.1470     9.1500    24.6880     2.1680   -31.8130 
  109.1250    65.0850     9.3400     7.1370     9.1410    24.7660     2.1640   -31.6640 
  109.2500    61.7740     9.3160     7.1150     9.4830    25.0090     2.1580   -31.5030 
  109.3750    59.3010     9.2010     7.0620     9.5810    25.2860     2.1540   -31.2820 
  109.5000    59.6940     9.0240     6.9770     9.5180    25.4880     2.1530   -31.0890 
  109.6250    61.1640     8.9130     6.9170     9.9340    25.7710     2.1570   -30.8230 
  109.7500    62.1360     9.0210     6.9780    10.6410    26.2420     2.1620   -30.4680 
  109.8750    63.5030     9.4220     7.2260    11.3470    26.7960     2.1700   -30.1170 
  110.0000    65.9860    10.0690     7.6570    11.9440    27.1970     2.1830   -29.7240 
  110.1250    66.5180    10.7540     8.1800    13.3720    27.1110     2.2030   -29.2330 
  110.2500    64.4470    11.1620     8.5790    15.6170    26.6670     2.2280   -28.7460 
  110.3750    61.9790    11.0830     8.6800    15.7660    26.1200     2.2500   -28.2400 
  110.5000    59.3740    10.5190     8.4350    12.3990    25.8730     2.2540   -27.6450 
  110.6250    56.9040     9.7090     7.9550    10.7300    26.0210     2.2230   -27.0230 
  110.7500    56.0580     9.0150     7.4870    10.1740    26.2300     2.1840   -26.3460 
  110.8750    58.0300     8.5830     7.1490    10.0870    26.3290     2.1600   -25.5600 
  111.0000    60.9340     8.3760     6.9620    10.1590    26.2770     2.1560   -24.7480 
  111.1250    62.8540     8.1920     6.8380     9.6750    26.0250     2.1700   -23.8990 
  111.2500    66.5230     7.8300     6.6200     8.7830    25.7830     2.1940   -22.9730 
  111.3750    72.2120     7.2740     6.2600     7.8670    25.7430     2.2160   -22.0710 
  111.5000    80.7700     6.6610     5.8210     6.7000    25.7740     2.2340   -21.2290 
  111.6250    90.1030     6.2090     5.4490     5.6160    25.7710     2.2500   -20.4510 
  111.7500    94.7660     6.0070     5.2340     5.1870    25.7320     2.2660   -19.8360 
  111.8750    94.2710     6.0450     5.1940     5.3470    25.6250     2.2730   -19.3620 
  112.0000    91.4940     6.2350     5.2970     5.9110    25.4390     2.2710   -18.9610 
  112.1250    93.4190     6.4160     5.4540     6.1320    25.3640     2.2770   -18.7280 
  112.2500    99.2760     6.4460     5.5430     5.9290    25.4310     2.2990   -18.6170 
  112.3750   105.2270     6.2810     5.5070     5.6590    25.5890     2.3310   -18.5250 
  112.5000   110.3080     5.9740     5.3520     5.6940    25.7840     2.3590   -18.4930 
  112.6250   109.9300     5.6400     5.1320     5.6040    25.9380     2.3620   -18.5360 
  112.7500   104.0280     5.3770     4.9250     5.4410    26.0010     2.3460   -18.5310 
  112.8750    99.5810     5.2070     4.7700     5.2970    25.9240     2.3260   -18.5570 
  113.0000   104.0520     5.1180     4.6840     5.1240    25.7660     2.3160   -18.6660 
  113.1250   114.9870     5.1110     4.6720     5.0820    25.6270     2.3240   -18.7330 
  113.2500   119.9850     5.1750     4.7180     5.1490    25.4720     2.3360   -18.7870 
  113.3750   115.8370     5.3070     4.8160     5.2420    25.3840     2.3460   -18.9180 
  113.5000   108.9490     5.4880     4.9490     5.3080    25.3550     2.3490   -19.0470 
  113.6250   104.2310     5.6730     5.0880     5.3370    25.4020     2.3480   -19.1420 
  113.7500   101.7360     5.8060     5.1920     5.3770    25.4690     2.3470   -19.3020 
  113.8750    99.7270     5.8480     5.2250     5.3880    25.5280     2.3450   -19.4610 
  114.0000    99.1410     5.7840     5.1650     5.2540    25.4790     2.3430   -19.6170 
  114.1250   102.4340     5.6080     4.9920     5.0990    25.3330     2.3420   -19.8590 
  114.2500   107.1640     5.3580     4.7480     4.9850    25.0960     2.3410   -20.1160 
  114.3750   111.5690     5.0550     4.4610     4.9060    24.8890     2.3420   -20.3730 
  114.5000   113.6590     4.7300     4.1670     4.8850    24.7470     2.3450   -20.6870 
  114.6250   111.2880     4.4810     3.9350     4.9400    24.7080     2.3490   -21.0210 
  114.7500   107.3930     4.4620     3.8500     5.0080    24.7900     2.3540   -21.3750 
  114.8750   105.7720     4.8790     4.0220     5.1290    24.9660     2.3640   -21.8080 
  115.0000   106.1200     5.9770     4.5770     5.5890    25.1920     2.3830   -22.2400 
  115.1250   103.0380     8.1630     5.7910     7.4110    25.4580     2.4120   -22.6740 
  115.2500    97.4650    11.3130     7.7370    11.1360    25.7100     2.4510   -23.1960 
  115.3750    90.4900    14.9930    10.3640    16.0370    25.9210     2.4940   -23.7510 
  115.5000    81.0970    18.1300    13.0810    20.8590    25.8370     2.5270   -24.3050 
  115.6250    71.7490    18.7810    14.2880    22.3320    25.5380     2.5240   -24.9670 
  115.7500    67.3150    16.8930    13.4790    19.7390    25.1260     2.4850   -25.6250 
  115.8750    67.5120    13.7270    11.4770    14.9800    24.8610     2.4170   -26.2370 
  116.0000    68.5350    10.7970     9.4100    11.6650    24.7940     2.3310   -26.8590 
  116.1250    69.9780     9.0410     7.9710    10.5930    24.9730     2.2530   -27.3950 
  116.2500    73.2520     8.2590     7.1400    10.3630    25.2800     2.2000   -27.8240 
  116.3750    75.3820     8.1820     6.8130    10.5040    25.6200     2.1700   -28.1850 
  116.5000    74.3670     8.5070     6.8470    10.7390    25.8340     2.1510   -28.4540 
  116.6250    71.4230     8.9430     7.0850    10.9780    25.5880     2.1330   -28.5710 
  116.7500    68.4360     9.2620     7.3290    11.3030    25.5320     2.1160   -28.6170 
  116.8750    66.5960     9.3960     7.4950    11.5690    25.5640     2.1040   -28.5670 
  117.0000    67.3990     9.3680     7.5630    11.8370    25.5170     2.1060   -28.4440 
  117.1250    71.4100     9.2360     7.5500    12.0360    25.3570     2.1300   -28.3380 
  117.2500    74.7710     9.0940     7.5100    12.1240    25.3020     2.1650   -28.1800 
  117.3750    75.6730     8.9860     7.4670    11.9950    25.2860     2.1920   -27.9580 
