~V
VERS. 2.00: Ver 2.00
~W
STRT.M 57.0000:
STOP.M 259.0000:
STEP.M 0.1250:
NULL. -999.2500:
UWI. F10209:
~C
DEPT.M :
SP.MV :
DEN.GM/CC :
GR.API :
RML.OHMM :
RI. :
RXO.OHMM :
CALI.CM :
~A
# ...
  214.5000    -9.6350     2.2370    71.4530    24.7180    21.8820    29.5230    24.4760 
  214.6250    -9.8520     2.2390    73.0280    25.5420    22.7290    28.3940    24.4790 
  214.7500    -9.9620     2.2390    76.4720    25.8450    23.1670    27.4570    24.4980 
  214.8750   -10.0360     2.2300    78.3470    25.5330    23.0560    27.4450    24.5280 
  215.0000   -10.2000     2.2130    76.9980    24.9090    22.6170    27.8200    24.5550 
  215.1250   -10.4270     2.1930    74.4440    24.3170    22.1250    27.2600    24.5660 
  215.2500   -10.6270     2.1790    74.2300    24.1330    21.8930    25.2600    24.5650 
  215.3750   -10.7110     2.1790    76.3150    24.8040    22.3090    23.8610    24.5600 
  215.5000   -10.7370     2.1890    76.2540    26.3090    23.4280    25.7330    24.5570 
  215.6250   -10.8040     2.2000    73.9840    28.4870    25.2120    30.6390    24.5580 
  215.7500   -10.9200     2.2030    71.9020    30.9680    27.4490    34.9840    24.5620 
  215.8750   -10.9960     2.1950    71.3450    33.1850    29.7400    37.6330    24.5650 
  216.0000   -10.9780     2.1830    71.7490    34.8340    31.7200    38.4180    24.5610 
  216.1250   -10.8960     2.1710    72.6390    35.9670    33.3140    39.0120    24.5630 
  216.2500   -10.8470     2.1660    71.9980    36.8940    34.6830    39.5570    24.5840 
  216.3750   -10.9490     2.1740    67.0420    39.1680    36.1300    40.3790    24.6020 
  216.5000   -11.1640     2.1910    62.3230    44.0820    37.7830    41.8240    24.5670 
  216.6250   -11.3560     2.2110    62.4840    45.5660    39.4710    44.1530    24.4790 
  216.7500   -11.4940     2.2240    65.6660    46.4350    40.7520    43.5420    24.4030 
  216.8750   -11.6400     2.2220    65.8260    45.8210    40.8570    42.4510    24.3170 
  217.0000   -11.8390     2.2090    64.1860    43.7100    39.6350    44.9440    24.2580 
  217.1250   -12.0320     2.1940    64.3130    40.4410    37.2580    47.1900    24.2250 
  217.2500   -12.1220     2.1840    66.8580    36.6880    34.2470    40.5730    24.2930 
  217.3750   -12.0960     2.1780    68.9380    33.2790    31.3110    31.4150    24.2970 
  217.5000   -12.0370     2.1740    70.6900    30.6510    28.9280    27.5720    24.2350 
  217.6250   -12.0370     2.1720    71.8430    28.9410    27.2760    27.4780    24.1170 
  217.7500   -12.0800     2.1740    71.0210    28.1070    26.3800    29.8460    23.9880 
  217.8750   -12.0550     2.1800    70.0150    28.1240    26.2780    31.6530    23.9550 
  218.0000   -11.9510     2.1850    71.4590    28.7480    26.7730    30.8660    24.0990 
  218.1250   -11.8660     2.1840    74.5530    30.0060    27.8670    30.0450    24.3620 
  218.2500   -11.8970     2.1760    75.1490    32.0480    29.6670    31.4850    24.5370 
  218.3750   -12.0550     2.1670    72.7560    35.2610    32.5200    33.3310    24.5930 
  218.5000   -12.2350     2.1640    71.3440    39.6300    36.4500    38.0360    24.5820 
  218.6250   -12.4340     2.1710    71.2900    45.1510    41.5090    44.6440    24.5670 
  218.7500   -12.7390     2.1900    69.8280    51.6810    47.6060    52.3860    24.5540 
  218.8750   -13.2330     2.2140    65.5360    59.0320    54.5750    61.0800    24.5460 
  219.0000   -13.8250     2.2340    62.2980    66.7520    61.9130    66.3410    24.5520 
  219.1250   -14.4260     2.2410    60.7350    74.6100    69.3150    65.1470    24.4460 
  219.2500   -14.9670     2.2310    59.7610    82.3480    76.4890    60.0100    24.0820 
  219.3750   -15.4430     2.2050    59.5630    89.1430    82.7160    59.1710    23.6310 
  219.5000   -15.9340     2.1760    59.8500    93.8930    87.1370    76.2760    23.6070 
  219.6250   -16.4070     2.1540    59.0250    95.6030    88.9220   104.9600    23.9340 
  219.7500   -16.7850     2.1430    57.8090    94.3010    88.0170   122.0420    24.3490 
  219.8750   -17.0340     2.1420    57.6760    91.2350    85.3450   104.0610    24.6210 
  220.0000   -17.2890     2.1440    58.0830    88.3210    82.6460    80.4260    24.8910 
  220.1250   -17.5940     2.1440    60.3260    86.0860    80.5670    69.6460    25.1290 
  220.2500   -17.8960     2.1400    65.0720    84.1590    78.9670    80.7160    25.2090 
  220.3750   -18.0720     2.1370    67.1750    81.7290    77.2200   104.9470    25.1170 
  220.5000   -18.1860     2.1400    64.5270    78.7840    75.1090   106.3780    25.0680 
  220.6250   -18.3140     2.1470    61.3730    76.1170    73.1350    82.4280    24.9890 
  220.7500   -18.4820     2.1580    60.6390    74.9060    72.2500    65.7460    24.9160 
  220.8750   -18.6380     2.1670    61.9690    76.5740    73.7970    69.3070    24.9300 
  221.0000   -18.7200     2.1720    62.9270    80.8590    77.7540    83.5400    24.9820 
  221.1250   -18.7390     2.1740    63.1460    86.8660    83.4410    99.0610    24.9880 
  221.2500   -18.7690     2.1740    60.0990    92.6820    89.1720   106.3390    24.9280 
  221.3750   -18.9050     2.1730    56.0780    95.2580    92.1110   105.8430    24.9020 
  221.5000   -19.0350     2.1720    56.9430    94.0740    91.4860   100.6540    24.9020 
  221.6250   -19.0640     2.1720    60.3500    90.5610    88.3000    91.1360    24.7700 
  221.7500   -19.0740     2.1720    61.3090    87.0350    84.5660    77.0510    24.4590 
  221.8750   -19.1950     2.1740    60.0970    85.6180    82.3530    66.5150    24.2680 
  222.0000   -19.3760     2.1730    62.4500    86.2760    81.9600    69.6200    24.2150 
  222.1250   -19.5530     2.1680    67.7730    88.0260    82.6680    84.8350    24.2780 
  222.2500   -19.6970     2.1630    69.4260    89.3520    83.2280   100.4650    24.3750 
  222.3750   -19.8450     2.1610    65.6740    88.8260    82.4310    97.7540    24.3360 
  222.5000   -20.0660     2.1630    61.7670    87.1020    80.6900    84.4240    24.2790 
  222.6250   -20.3280     2.1680    60.9030    85.7200    79.2140    72.9760    24.2480 
  222.7500   -20.5090     2.1690    63.6230    86.3910    79.4840    65.5630    24.2670 
  222.8750   -20.6280     2.1630    67.2470    90.6440    83.0060    75.0670    24.3190 
  223.0000   -20.7950     2.1510    68.0110    97.4410    89.0260    90.4830    24.3570 
  223.1250   -21.0590     2.1360    64.9440   104.9030    96.0190   106.3710    24.3320 
  223.2500   -21.3450     2.1250    61.1560   110.3030   101.6960   119.9040    24.2170 
  223.3750   -21.4930     2.1220    60.8190   110.2180   103.0240   124.4590    24.1000 
  223.5000   -21.5100     2.1270    62.8220   105.0760    99.8410   114.2060    24.0140 
  223.6250   -21.5130     2.1370    64.6080    96.7120    93.2650   101.4790    24.0120 
  223.7500   -21.5160     2.1460    64.0390    87.4530    85.1800    93.7710    24.1010 
  223.8750   -21.4010     2.1570    61.4710    78.9630    77.1860    83.8050    24.1400 
  224.0000   -21.1040     2.1780    61.3220    71.3360    69.7250    72.8850    24.1340 
  224.1250   -20.7050     2.2250    63.3070    64.0620    62.4860    64.2330    24.0910 
  224.2500   -20.3620     2.3030    64.2800    56.6100    55.0580    61.8300    23.9870 
  224.3750   -20.1120     2.3970    64.1250    49.0420    47.5540    62.6280    24.0050 
  224.5000   -19.8490     2.4700    65.0370    42.2010    40.7800    48.3710    24.0510 
  224.6250   -19.5780     2.4970    65.9810    36.8900    35.4700    34.1900    24.1550 
  224.7500   -19.4100     2.4720    66.5490    33.5220    31.9630    26.9090    24.1890 
  224.8750   -19.4070     2.4110    68.3060    32.4480    30.5410    24.4650    24.0600 
  225.0000   -19.4890     2.3460    69.9300    33.1190    30.7490    29.5190    23.9640 
  225.1250   -19.5260     2.2970    69.3300    35.2450    32.4130    36.3660    24.0250 
  225.2500   -19.4710     2.2690    68.7760    38.6440    35.4140    37.8010    24.1190 
  225.3750   -19.4400     2.2700    71.4030    43.7420    40.1540    39.1490    24.1030 
  225.5000   -19.4740     2.2950    75.7420    50.5310    46.5890    45.1340    23.9410 
  225.6250   -19.4620     2.3380    77.9560    58.3380    54.0830    53.4000    23.6530 
