~V
VERS. 2.00: Ver 2.00
~W
STRT.M 52.0000:
STOP.M 254.0000:
STEP.M 0.1250:
NULL. -999.2500:
UWI. F10213:
~C
DEPT.M :
DEN.GM/CC :
GR.API :
RML.OHMM :
RI. :
RXO.OHMM :
CALI.CM :
SP.MV :
~A
# ...
  232.0000     2.3840    67.3460     8.9880     7.8620     8.8300    24.9740    -9.7590 
  232.1250     2.3770    69.3400     9.1240     8.0000     8.7900    24.9830    -9.7440 
  232.2500     2.3770    66.4640     9.1750     8.0660     8.7910    24.9880    -9.7530 
  232.3750     2.3840    62.9250     9.1290     8.0450     8.5830    24.9900    -9.7440 
  232.5000     2.3870    63.1680     8.9840     7.9340     8.2140    24.9900    -9.7410 
  232.6250     2.3860    63.8960     8.7410     7.7370     8.0890    24.9900    -9.7660 
  232.7500     2.3890    62.0080     8.4450     7.4930     8.1220    24.9900    -9.8330 
  232.8750     2.3970    59.1080     8.1500     7.2400     8.0750    24.9900    -9.9000 
  233.0000     2.4040    57.2700     7.9410     7.0360     7.7790    24.9890    -9.9670 
  233.1250     2.4060    58.3990     7.9500     6.9870     7.6180    24.9870   -10.0390 
  233.2500     2.4090    61.2520     8.2000     7.1300     7.9290    24.9840   -10.1380 
  233.3750     2.4100    63.3180     8.6510     7.4610     9.0360    24.9800   -10.2690 
  233.5000     2.4060    61.9040     9.1870     7.9060    11.5610    24.9610   -10.4250 
  233.6250     2.3900    58.8730     9.5810     8.2980    15.2510    24.8920   -10.5870 
  233.7500     2.3670    57.2840     9.6760     8.4720    17.0320    24.7400   -10.7270 
  233.8750     2.3400    56.2060     9.4520     8.3730    14.5230    24.6000   -10.8900 
  234.0000     2.3190    54.4200     9.0570     8.0830    10.2950    24.5290   -11.0600 
  234.1250     2.3160    54.2590     8.7520     7.7890     8.4500    24.4990   -11.2140 
  234.2500     2.3260    57.0370     8.7040     7.6550     8.1260    24.4680   -11.3860 
  234.3750     2.3400    61.0070     8.9520     7.7490     8.3690    24.4010   -11.5910 
  234.5000     2.3500    63.6880     9.4350     8.0660     8.8030    24.2410   -11.7920 
  234.6250     2.3590    62.9820    10.0100     8.5440     9.8520    24.0610   -11.9720 
  234.7500     2.3790    59.4040    10.4960     9.0260    11.1660    24.0050   -12.1220 
  234.8750     2.4130    54.1930    10.8000     9.4040    11.9120    24.1280   -12.2160 
  235.0000     2.4540    50.4090    10.9020     9.6200    11.8750    24.3760   -12.2560 
  235.1250     2.4810    52.7040    10.8370     9.6590    11.7560    24.7330   -12.2330 
  235.2500     2.4870    59.4100    10.7220     9.6150    11.7680    24.9220   -12.1610 
  235.3750     2.4880    65.6290    10.6320     9.5590    11.7350    24.9780   -12.0350 
  235.5000     2.4960    67.5190    10.6080     9.5400    11.2090    24.9860   -11.8650 
  235.6250     2.5060    65.6120    10.6650     9.5830    10.9640    24.9910   -11.7080 
  235.7500     2.5010    64.7630    10.7690     9.6710    11.0210    25.0000   -11.5630 
  235.8750     2.4840    65.3740    10.8900     9.7910    11.5880    25.0060   -11.4410 
  236.0000     2.4660    67.0100    10.9980     9.9230    12.4540    24.9990   -11.3590 
  236.1250     2.4550    68.7660    11.0510    10.0330    12.7610    24.9600   -11.2780 
  236.2500     2.4460    68.1330    11.0240    10.0840    12.4550    24.9280   -11.2030 
  236.3750     2.4390    63.9910    10.8860    10.0340    12.1160    24.9240   -11.1140 
  236.5000     2.4340    60.0420    10.6240     9.8610    11.9690    24.8270   -11.0290 
  236.6250     2.4310    61.6740    10.2520     9.5630    11.5310    24.4640   -10.9270 
  236.7500     2.4250    63.6110     9.8590     9.2190    10.5130    24.0070   -10.8180 
  236.8750     2.4170    62.1820     9.5150     8.8990     9.4780    23.7340   -10.7150 
  237.0000     2.4150    61.1040     9.2730     8.6580     9.0510    23.7860   -10.6020 
  237.1250     2.4250    63.8240     9.1720     8.5420     9.0790    24.1510   -10.5040 
  237.2500     2.4390    65.9760     9.1770     8.5250     8.9170    24.6090   -10.4430 
  237.3750     2.4480    65.1000     9.2530     8.5810     8.7170    24.8990   -10.4420 
  237.5000     2.4530    62.5610     9.3570     8.6740     8.7460    24.9920   -10.4610 
  237.6250     2.4580    60.5260     9.4330     8.7550     8.9840    25.0120   -10.5250 
  237.7500     2.4640    58.4900     9.4460     8.7860     9.3490    25.0470   -10.6510 
  237.8750     2.4670    58.0480     9.3830     8.7460     9.5910    25.0560   -10.8220 
  238.0000     2.4640    59.1410     9.2550     8.6380     9.5760    24.9760   -11.0470 
  238.1250     2.4560    60.5450     9.1050     8.4900     9.3930    24.8140   -11.3300 
  238.2500     2.4470    62.0350     8.9970     8.3650     9.3160    24.6820   -11.5940 
  238.3750     2.4360    62.9390     8.9690     8.3040     9.8530    24.7210   -11.8300 
  238.5000     2.4210    63.4100     9.0310     8.3240    10.7930    25.0180   -12.0480 
  238.6250     2.4070    63.8400     9.1670     8.4260    11.2360    25.1240   -12.2120 
  238.7500     2.4000    65.3010     9.3140     8.5580    11.2910    25.0780   -12.3470 
  238.8750     2.4000    66.9940     9.4280     8.6790    10.9390    24.9940   -12.4470 
  239.0000     2.4010    66.7960     9.4850     8.7610    10.2310    24.8920   -12.4820 
  239.1250     2.4020    63.9600     9.4830     8.7920    10.1030    24.7340   -12.4470 
  239.2500     2.4060    60.5500     9.4620     8.7990    10.1740    24.6510   -12.3930 
  239.3750     2.4130    59.7600     9.4670     8.8190     9.8170    24.5860   -12.3440 
  239.5000     2.4140    61.7910     9.5330     8.8810     9.3020    24.5630   -12.2860 
  239.6250     2.3980    62.4240     9.6640     8.9910     9.3090    24.6640   -12.1720 
  239.7500     2.3770    60.3820     9.8040     9.1070     9.3640    24.8410   -12.0090 
  239.8750     2.3690    57.4780     9.8890     9.1790     9.3920    24.9580   -11.7950 
  240.0000     2.3840    56.5730     9.8610     9.1640     9.4190    25.0020   -11.5780 
  240.1250     2.4150    57.7530     9.6910     9.0290    10.2380    25.0770   -11.3980 
  240.2500     2.4390    58.2340     9.4580     8.8330    11.0690    25.1280   -11.2270 
  240.3750     2.4490    58.0650     9.2400     8.6340    11.2740    25.1420   -11.0470 
  240.5000     2.4490    59.7130     9.0930     8.4850    10.5030    25.1380   -10.8950 
  240.6250     2.4470    63.5650     9.0510     8.4280     9.2740    25.1280   -10.7990 
  240.7500     2.4460    65.6920     9.0770     8.4430     8.7990    25.1140   -10.7330 
  240.8750     2.4440    64.5050     9.1350     8.5050     8.9400    25.0880   -10.6990 
  241.0000     2.4390    62.5410     9.1950     8.5870     9.6640    25.0460   -10.6570 
  241.1250     2.4330    60.8760     9.2430     8.6700    10.4110    25.0390   -10.6460 
  241.2500     2.4270    61.4730     9.2780     8.7430    10.5010    25.0210   -10.6660 
  241.3750     2.4260    64.7000     9.3070     8.8010    10.2210    25.0030   -10.7360 
  241.5000     2.4300    66.1440     9.3350     8.8470    10.2610    24.9920   -10.8580 
  241.6250     2.4330    62.5970     9.3760     8.8960    10.3400    24.9880   -11.0310 
  241.7500     2.4320    59.9870     9.4390     8.9650    10.1870    24.9840   -11.2180 
  241.8750     2.4290    62.3900     9.5360     9.0650    10.2150    24.9930   -11.4200 
  242.0000     2.4340    67.5330     9.6690     9.1970    10.4490    24.9990   -11.6390 
  242.1250     2.4480    68.8040     9.8290     9.3500    11.0820    24.9690   -11.8300 
  242.2500     2.4570    66.3330     9.9810     9.4970    11.4900    24.9690   -12.0150 
  242.3750     2.4540    62.9100    10.0910     9.6130    11.8420    25.0270   -12.1630 
  242.5000     2.4440    60.9290    10.1260     9.6710    12.1970    25.0630   -12.2740 
  242.6250     2.4320    60.0100    10.0480     9.6310    12.2600    25.0580   -12.3700 
  242.7500     2.4160    58.9890     9.8810     9.5060    12.3390    25.0330   -12.4450 
  242.8750     2.3940    58.5510     9.6820     9.3390    12.3550    25.0180   -12.4830 
  243.0000     2.3680    58.5510     9.5520     9.2100    11.8460    25.0240   -12.4880 
  243.1250     2.3380    58.5510     9.6310     9.2450    11.7280    25.0100   -12.4830 
