~V
VERS. 2.00: Ver 2.00
~W
STRT.M 50.0000:
STOP.M 278.0000:
STEP.M 0.1250:
NULL. -999.2500:
UWI. F10217:
~C
DEPT.M :
SP.MV :
DEN.GM/CC :
GR.API :
RML.OHMM :
RI. :
RXO.OHMM :
CALI.CM :
~A
# ...
  207.5000   -10.3520     2.3190    75.7880     4.8010     4.8520     5.2170    24.3610 
  207.6250   -10.5450     2.2840    81.2220     4.8450     4.9030     5.1720    24.2770 
  207.7500   -10.7540     2.2660    85.6230     4.8610     4.9120     5.1750    24.2770 
  207.8750   -10.9730     2.2710    87.3300     4.8480     4.8730     5.3440    24.3060 
  208.0000   -11.2180     2.2930    90.0660     4.8150     4.7930     5.5910    24.3160 
  208.1250   -11.4790     2.3180    91.9510     4.7860     4.6930     5.5610    24.3360 
  208.2500   -11.7550     2.3360    90.7140     4.7950     4.6120     5.1360    24.3440 
  208.3750   -12.0640     2.3440    90.9510     4.8790     4.5850     5.1290    24.2920 
  208.5000   -12.3780     2.3470    92.8960     5.0850     4.6540     5.5170    24.2040 
  208.6250   -12.7330     2.3490    91.9060     5.4810     4.8830     5.8280    24.2590 
  208.7500   -13.1160     2.3510    86.5800     6.0360     5.2640     6.4670    24.3400 
  208.8750   -13.5310     2.3500    80.8360     6.7190     5.7760     7.1430    24.3940 
  209.0000   -13.9530     2.3450    78.4910     7.5130     6.4040     8.3780    24.4310 
  209.1250   -14.4060     2.3340    79.6220     8.5150     7.2070    10.6130    24.4400 
  209.2500   -14.8830     2.3220    80.5140     9.8700     8.2620    11.8910    24.3950 
  209.3750   -15.3840     2.3120    77.3970    11.8190     9.7250    12.3400    24.3410 
  209.5000   -15.8940     2.3110    71.5770    17.5320    11.8120    14.1180    24.2780 
  209.6250   -16.4250     2.3230    67.9710    22.2730    14.9160    22.0230    24.1650 
  209.7500   -16.9460     2.3420    66.1990    28.0630    18.9950    32.9160    24.0450 
  209.8750   -17.4640     2.3540    64.1820    34.3880    23.8290    39.1880    23.9380 
  210.0000   -17.9750     2.3460    62.6500    40.4840    28.8360    36.9600    23.9350 
  210.1250   -18.4460     2.3100    63.8430    45.5450    33.1650    34.7940    23.9760 
  210.2500   -18.8720     2.2620    65.8150    49.9130    36.7850    36.4380    23.9480 
  210.3750   -19.2610     2.2220    65.8710    54.3190    40.2070    39.4060    23.9100 
  210.5000   -19.6290     2.2070    63.2470    59.2950    43.9350    41.7070    23.9240 
  210.6250   -19.9630     2.2310    60.3160    64.8870    48.1580    45.2580    23.9810 
  210.7500   -20.2760     2.2750    59.8130    70.5570    52.5790    53.5610    24.0380 
  210.8750   -20.5520     2.3200    61.2860    75.7350    56.8390    65.5400    24.0870 
  211.0000   -20.8130     2.3440    62.3630    79.7050    60.4300    71.4960    24.1000 
  211.1250   -21.0590     2.3280    61.2210    81.2860    62.4620    64.7840    24.1230 
  211.2500   -21.3040     2.2830    59.1150    80.4010    62.7110    59.0920    24.2500 
  211.3750   -21.5450     2.2280    57.4940    77.4480    61.2660    56.1810    24.3770 
  211.5000   -21.7830     2.1810    58.6990    73.5250    58.7670    52.8380    24.4340 
  211.6250   -21.9920     2.1560    62.3500    70.2000    56.3120    50.1680    24.4220 
  211.7500   -22.1920     2.1500    64.1020    68.4140    54.8050    50.0240    24.3720 
  211.8750   -22.3880     2.1560    63.2980    68.5660    54.6720    51.7820    24.3540 
  212.0000   -22.5400     2.1680    62.3450    70.7920    56.1380    52.3610    24.4100 
  212.1250   -22.6350     2.1770    64.2890    75.2760    59.5120    53.0910    24.4850 
  212.2500   -22.6650     2.1820    66.2970    81.1630    64.2210    55.7590    24.5380 
  212.3750   -22.6270     2.1830    65.3440    87.6140    69.6550    59.1150    24.5580 
  212.5000   -22.5220     2.1810    61.9490    93.5530    74.9740    62.0800    24.5490 
  212.6250   -22.3980     2.1770    59.9300    97.4480    78.9580    61.6130    24.5140 
  212.7500   -22.2590     2.1730    61.4360    98.7410    81.0030    59.6270    24.4700 
  212.8750   -22.0980     2.1690    63.2200    97.2970    80.8560    57.3650    24.4330 
  213.0000   -21.9420     2.1660    63.6140    93.5340    78.7200    56.1640    24.4300 
  213.1250   -21.8020     2.1650    64.2580    88.0740    74.9750    54.2290    24.4660 
  213.2500   -21.6800     2.1650    65.5240    82.1120    70.5850    51.9760    24.5340 
  213.3750   -21.5850     2.1660    66.7180    76.3980    66.1630    50.9350    24.5860 
  213.5000   -21.5510     2.1680    67.0020    71.5590    62.2350    50.8290    24.5860 
  213.6250   -21.5060     2.1710    66.5280    68.3660    59.4420    50.5670    24.5220 
  213.7500   -21.4540     2.1740    65.0910    66.9040    57.9550    48.5740    24.4030 
  213.8750   -21.4060     2.1770    62.8210    67.2310    57.9130    46.8490    24.2320 
  214.0000   -21.3560     2.1780    61.0170    69.1940    59.2840    46.9530    24.0380 
  214.1250   -21.3070     2.1760    61.8630    72.5630    61.9980    48.6880    23.9240 
  214.2500   -21.2770     2.1750    63.6540    76.5030    65.3750    51.8060    24.0260 
  214.3750   -21.2460     2.1740    63.6480    80.3850    68.8610    57.3500    24.2760 
  214.5000   -21.1850     2.1740    60.8000    83.6640    71.9200    56.0270    24.5360 
  214.6250   -21.1440     2.1730    58.1370    85.8410    74.0340    52.2740    24.6400 
  214.7500   -21.0850     2.1700    58.7330    87.0850    75.2820    50.1110    24.6510 
  214.8750   -21.0300     2.1650    60.1380    87.6530    75.8630    50.0150    24.6440 
  215.0000   -20.9960     2.1600    59.4590    87.8720    76.0700    50.2360    24.6470 
  215.1250   -20.9500     2.1560    59.1350    88.0480    76.1870    50.1870    24.6590 
  215.2500   -20.9230     2.1520    61.0720    88.3850    76.4240    50.6270    24.6650 
  215.3750   -20.9320     2.1510    64.0430    88.9430    76.8800    52.4620    24.6420 
  215.5000   -20.9780     2.1540    64.3250    89.6260    77.5310    55.3380    24.5910 
  215.6250   -21.0240     2.1630    63.1390    90.0960    78.1520    58.5850    24.5470 
  215.7500   -21.1150     2.1740    63.4200    90.0370    78.4300    60.3990    24.5090 
  215.8750   -21.2160     2.1830    64.3750    89.2900    78.1710    60.3490    24.4770 
  216.0000   -21.3260     2.1900    65.1070    87.9150    77.3560    58.2030    24.4590 
  216.1250   -21.4390     2.1920    63.4890    86.1780    76.1380    54.0050    24.4570 
  216.2500   -21.5360     2.1920    60.2840    84.5450    74.9150    50.9610    24.4660 
  216.3750   -21.5970     2.1910    58.3580    83.2940    73.9540    49.1740    24.4850 
  216.5000   -21.6370     2.1890    57.3140    82.5540    73.4000    47.9800    24.5110 
  216.6250   -21.6630     2.1850    57.3220    82.3940    73.3440    47.6500    24.5500 
  216.7500   -21.6610     2.1780    59.1320    82.6290    73.6430    47.8360    24.5930 
  216.8750   -21.6410     2.1700    60.2820    83.1660    74.2060    48.6370    24.6260 
  217.0000   -21.5880     2.1610    58.6760    83.9780    74.9820    48.9150    24.6650 
  217.1250   -21.5500     2.1540    55.6780    85.1840    76.0470    48.5160    24.7250 
  217.2500   -21.5060     2.1510    54.3220    86.7840    77.4150    48.5020    24.7550 
  217.3750   -21.4660     2.1510    54.3790    88.7470    79.0910    49.3050    24.7820 
  217.5000   -21.4110     2.1530    55.1460    90.9180    80.9980    50.6830    24.8250 
  217.6250   -21.3590     2.1530    56.8450    92.8980    82.8860    53.5670    24.8680 
  217.7500   -21.3230     2.1510    58.5910    94.2390    84.3660    56.0420    24.8260 
  217.8750   -21.3040     2.1510    59.9300    94.6370    85.1230    56.3930    24.7080 
  218.0000   -21.3260     2.1530    60.3960    94.0400    85.0350    54.9520    24.6250 
  218.1250   -21.3580     2.1590    60.6660    92.5170    84.1090    54.9690    24.6450 
  218.2500   -21.3990     2.1610    62.1280    90.3670    82.6330    56.1000    24.6860 
  218.3750   -21.4310     2.1560    64.0060    87.4330    80.4990    57.2690    24.6630 
  218.5000   -21.4720     2.1460    64.6490    83.3200    77.3340    55.5600    24.5620 
  218.6250   -21.5040     2.1400    64.7400    77.5490    72.5870    54.5090    24.5220 
