~V
VERS. 2.00: Ver 2.00
~W
STRT.M 50.0000:
STOP.M 275.0000:
STEP.M 0.1250:
NULL. -999.2500:
UWI. F10202:
~C
DEPT.M :
GR.API :
RML.OHMM :
RI. :
RXO.OHMM :
CALI.CM :
SP.MV :
DEN.GM/CC :
~A
# ...
  140.0000    55.5890    20.5160    18.6060    18.1430    25.7710     1.0860     2.2220 
  140.1250    52.6870    20.2910    18.3600    16.7750    26.9180     0.7250     2.0840 
  140.2500    45.3650    20.0660    18.1210    17.1720    28.3440     0.3570     1.9570 
  140.3750    40.0090    19.9200    17.9770    18.8270    29.4260     0.0260     1.8700 
  140.5000    41.6670    19.8720    17.9500    19.5790    30.0550    -0.1100     1.8300 
  140.6250    45.2800    19.8680    17.9830    19.1770    30.3510     0.0180     1.8370 
  140.7500    45.3010    19.7960    17.9440    18.7470    30.4160     0.1280     1.8770 
  140.8750    43.4030    19.5730    17.7440    18.2610    30.1880     0.2330     1.9440 
  141.0000    44.0920    19.1690    17.3510    17.6650    29.8620     0.4940     2.0300 
  141.1250    47.1640    18.6020    16.7940    16.6020    29.5020     0.8320     2.1230 
  141.2500    50.5120    17.9830    16.1890    14.6370    29.1700     1.0830     2.2120 
  141.3750    54.0030    17.3920    15.6180    13.3990    28.8800     1.2210     2.2880 
  141.5000    57.6400    16.8920    15.1390    13.8890    28.7620     1.1410     2.3490 
  141.6250    60.4270    16.5440    14.8140    15.4950    28.9060     0.7510     2.3900 
  141.7500    60.4040    16.3170    14.6160    15.5610    29.2660     0.2840     2.4110 
  141.8750    58.9110    16.1600    14.4960    14.2050    29.6540    -0.1140     2.4170 
  142.0000    70.1750    15.9890    14.3680    13.1570    29.7220    -0.3720     2.4140 
  142.1250    90.4020    15.6880    14.1040    13.1930    29.3860    -0.4270     2.4180 
  142.2500    93.3020    15.2230    13.6600    13.9830    29.1620    -0.3420     2.4280 
  142.3750    74.9130    14.6230    13.0660    14.0680    29.2710    -0.2010     2.4310 
  142.5000    57.0240    13.9870    12.4240    13.3210    29.7060    -0.0430     2.4110 
  142.6250    56.6970    13.4910    11.9190    12.7980    30.2370     0.1660     2.3640 
  142.7500    57.2520    13.2680    11.6840    12.8850    30.6070     0.4270     2.3130 
  142.8750    54.7330    13.4040    11.8030    12.7000    30.5960     0.5740     2.2790 
  143.0000    54.8240    13.9180    12.3000    13.0390    30.2430     0.4940     2.2780 
  143.1250    56.5520    14.7510    13.1460    14.5570    30.0440     0.2640     2.3130 
  143.2500    55.2040    15.6030    14.0470    15.2710    29.8710     0.1860     2.3610 
  143.3750    52.6370    16.0960    14.6260    16.2690    29.6380     0.3280     2.4100 
  143.5000    53.5170    15.7370    14.4700    16.6280    29.5400     0.5130     2.4440 
  143.6250    58.7550    13.9610    13.2140    16.0830    29.7020     0.6470     2.4490 
  143.7500    63.9970    11.2600    11.2610    14.5500    29.9200     0.6840     2.4250 
  143.8750    68.9370     8.4370     9.0970    11.3820    30.1090     0.6930     2.3780 
  144.0000    74.7700     6.2470     7.1740     7.4400    30.2690     0.8730     2.3230 
  144.1250    81.1150     5.0630     5.8280     5.2520    30.3280     1.3240     2.2760 
  144.2500    86.6510     4.4880     4.9910     4.5450    30.3180     1.6880     2.2470 
  144.3750    90.7380     4.2730     4.5680     4.4250    30.2480     1.7900     2.2370 
  144.5000    92.5750     4.2770     4.4420     4.4500    30.1690     1.7330     2.2450 
  144.6250    93.2930     4.4180     4.5140     4.5370    30.0990     1.6860     2.2660 
  144.7500    96.0200     4.5770     4.6480     4.6210    30.0500     1.6390     2.2870 
  144.8750    99.1690     4.6960     4.7750     4.6770    30.0370     1.5730     2.3010 
  145.0000   101.5530     4.7430     4.8520     4.8190    30.1150     1.3490     2.3020 
  145.1250    98.9560     4.7090     4.8500     4.4970    30.2650     0.8830     2.2940 
  145.2500    92.8090     4.6350     4.7880     4.0380    30.4310     0.3940     2.2880 
  145.3750    86.4810     4.5570     4.6890     4.0250    30.5690     0.0270     2.2880 
  145.5000    83.3220     4.5040     4.5860     4.1900    30.6210    -0.2260     2.2900 
  145.6250    84.4440     4.4950     4.5090     4.4160    30.6310    -0.5690     2.2890 
  145.7500    85.7870     4.5140     4.4660     4.5710    30.6580    -0.8450     2.2810 
  145.8750    86.4540     4.5450     4.4480     4.7190    30.6540    -1.0250     2.2730 
  146.0000    86.0600     4.5840     4.4450     4.7190    30.4900    -1.1900     2.2690 
  146.1250    84.7200     4.6590     4.4860     4.6910    30.1970    -1.4430     2.2770 
  146.2500    85.2510     4.8140     4.6430     4.6420    29.9070    -1.8040     2.2920 
  146.3750    87.5480     5.0650     4.9710     4.5920    29.6990    -2.1910     2.3080 
  146.5000    89.1720     5.3620     5.4120     4.5650    29.5340    -2.5390     2.3170 
  146.6250    89.8250     5.5550     5.7130     4.5360    29.3600    -2.8150     2.3090 
  146.7500    91.5170     5.5420     5.6750     4.4420    29.2010    -3.1010     2.2860 
  146.8750    93.9490     5.3270     5.3070     4.3260    29.0750    -3.3680     2.2540 
  147.0000    93.9780     5.0110     4.8050     4.2920    28.9260    -3.5830     2.2210 
  147.1250    90.6570     4.7520     4.4390     4.3530    28.5690    -3.8270     2.1930 
  147.2500    87.4670     4.6160     4.2770     4.4790    28.0650    -4.0950     2.1710 
  147.3750    85.5650     4.5850     4.2510     4.5980    27.5820    -4.4190     2.1540 
  147.5000    86.0660     4.6060     4.2630     4.6340    27.2130    -4.8520     2.1410 
  147.6250    91.8390     4.6420     4.2610     4.6170    26.6160    -5.2020     2.1400 
  147.7500    97.0660     4.6850     4.2510     4.5760    25.9890    -5.4350     2.1530 
  147.8750    97.6660     4.7410     4.2510     4.5190    25.3700    -5.6140     2.1830 
  148.0000    96.1170     4.8090     4.2690     4.4770    24.8760    -5.7070     2.2230 
  148.1250    97.1240     4.8720     4.3040     4.5660    24.5660    -5.4110     2.2650 
  148.2500    99.8780     4.9120     4.3370     4.6980    24.3180    -4.7790     2.2990 
  148.3750    99.3340     4.9200     4.3550     4.6480    24.1690    -4.0370     2.3190 
  148.5000    98.1100     4.9000     4.3550     4.6080    24.0320    -3.3330     2.3230 
  148.6250   106.8020     4.8690     4.3390     4.6230    23.9220    -2.7830     2.3130 
  148.7500   114.7600     4.8450     4.3210     4.6610    24.0370    -2.3280     2.2980 
  148.8750   113.5590     4.8370     4.3070     4.6450    24.2520    -1.8880     2.2870 
  149.0000   105.6900     4.8430     4.2990     4.6160    24.3490    -1.4530     2.2830 
  149.1250    99.8620     4.8520     4.2930     4.6150    24.3690    -1.1630     2.2890 
  149.2500    96.4460     4.8510     4.2860     4.6490    24.3860    -0.9460     2.3010 
  149.3750    92.6290     4.8330     4.2720     4.6830    24.3620    -0.6930     2.3150 
  149.5000    94.2380     4.7930     4.2470     4.6670    24.3030    -0.2440     2.3280 
  149.6250    96.4210     4.7290     4.2070     4.5730    24.2790     0.3590     2.3410 
  149.7500    94.3860     4.6520     4.1550     4.4290    24.2860     0.9460     2.3530 
  149.8750    93.2760     4.5720     4.0910     4.2790    24.2750     1.4190     2.3650 
  150.0000    95.0810     4.5060     4.0220     4.2010    24.2730     1.8490     2.3760 
  150.1250    96.1540     4.4760     3.9520     4.1680    24.2650     2.1900     2.3830 
  150.2500    97.5490     4.4760     3.8840     4.1630    24.2430     2.3620     2.3840 
  150.3750   100.7640     4.4870     3.8120     4.1790    24.1980     2.4700     2.3760 
  150.5000   102.6340     4.4830     3.7350     4.1720    24.1600     2.4900     2.3600 
  150.6250    99.4160     4.4590     3.6610     4.1280    24.1740     2.2930     2.3420 
  150.7500    96.0020     4.4590     3.6180     4.0590    24.1890     1.9350     2.3330 
  150.8750    97.9210     4.5360     3.6410     3.9480    24.0550     1.5950     2.3350 
  151.0000   103.2130     4.7350     3.7700     3.8840    23.7230     1.3310     2.3390 
  151.1250   103.1860     5.0930     4.0590     4.1290    23.3760     1.1670     2.3280 
