~V
VERS. 2.00: Ver 2.00
~W
STRT.M 50.0000:
STOP.M 281.0000:
STEP.M 0.1250:
NULL. -999.2500:
UWI. F10222:
~C
DEPT.M :
GR.API :
RML.OHMM :
RI. :
RXO.OHMM :
CALI.CM :
DEN.GM/CC :
SP.MV :
~A
# ...
  263.7500    64.5210    15.9720    14.3740    16.4640    26.3890     2.4760   -14.7750 
  263.8750    64.6460    16.1630    14.5470    17.5030    26.3560     2.4740   -14.8190 
  264.0000    64.6600    16.3430    14.7090    17.4940    26.3680     2.4690   -14.8620 
  264.1250    63.9690    16.5040    14.8540    17.5520    26.3150     2.4590   -14.9220 
  264.2500    65.3670    16.6510    14.9860    18.9300    26.3670     2.4530   -14.9850 
  264.3750    67.9620    16.7910    15.1120    20.4060    26.4410     2.4580   -15.0440 
  264.5000    68.6910    16.9270    15.2340    20.8370    26.4740     2.4710   -15.0900 
  264.6250    66.0020    17.0360    15.3330    20.0950    26.5200     2.4760   -15.1580 
  264.7500    65.4900    17.0840    15.3760    17.9930    26.4550     2.4720   -15.2200 
  264.8750    69.6130    17.0430    15.3390    15.9860    26.1860     2.4700   -15.2670 
  265.0000    72.5960    16.9150    15.2230    15.1010    25.7300     2.4800   -15.3120 
  265.1250    69.0790    16.7330    15.0590    15.1650    25.3400     2.5040   -15.3460 
  265.2500    64.5860    16.5710    14.9140    14.9290    25.5500     2.5250   -15.3620 
  265.3750    62.1780    16.4900    14.8410    14.5240    25.9760     2.5320   -15.3730 
  265.5000    62.7110    16.5210    14.8690    15.6910    26.2410     2.5240   -15.4000 
  265.6250    64.7240    16.6650    14.9990    17.6320    26.4120     2.5070   -15.4160 
  265.7500    66.0860    16.8460    15.1610    18.4930    26.6000     2.4870   -15.4470 
  265.8750    65.4980    16.9960    15.2960    18.2280    26.6830     2.4650   -15.4920 
  266.0000    64.4880    17.0550    15.3500    17.6770    26.6860     2.4470   -15.5490 
  266.1250    65.3310    16.9740    15.2760    17.6170    26.6180     2.4380   -15.6330 
  266.2500    66.7280    16.7950    15.1150    17.8570    26.5850     2.4310   -15.7270 
  266.3750    66.3500    16.5740    14.9160    17.8380    26.4550     2.4150   -15.8210 
  266.5000    63.8040    16.3800    14.7420    17.6430    26.2460     2.3880   -15.8990 
  266.6250    60.7500    16.3060    14.6750    16.9690    26.2350     2.3670   -15.9730 
  266.7500    60.1010    16.3790    14.7410    16.5580    26.3590     2.3670   -16.0410 
  266.8750    62.1300    16.5850    14.9270    16.1980    26.4930     2.3890   -16.1220 
  267.0000    65.3440    16.8540    15.1680    15.9890    26.5520     2.4190   -16.2000 
  267.1250    67.3130    17.0390    15.3350    15.9360    26.5770     2.4460   -16.2380 
  267.2500    66.7700    17.0310    15.3280    15.8390    26.5860     2.4690   -16.2810 
  267.3750    64.0800    16.7980    15.1190    15.4330    26.5430     2.4890   -16.3470 
  267.5000    61.7940    16.4280    14.7860    14.9480    26.4790     2.4970   -16.4160 
  267.6250    62.7400    16.1200    14.5080    14.7650    26.4980     2.4940   -16.4750 
  267.7500    65.8950    16.0290    14.4260    16.0030    26.5170     2.4930   -16.5180 
  267.8750    70.3820    16.2020    14.5820    18.5400    26.4310     2.5000   -16.5520 
  268.0000    72.5360    16.5850    14.9260    21.3610    26.3300     2.5150   -16.5710 
  268.1250    68.6120    17.0250    15.3220    24.2360    26.2370     2.5220   -16.6050 
  268.2500    62.1920    17.3460    15.6120    23.6900    26.1580     2.5070   -16.6430 
  268.3750    59.1990    17.4850    15.7360    20.7030    26.1060     2.4700   -16.6570 
  268.5000    63.0060    17.4670    15.7200    18.7920    26.1670     2.4250   -16.6830 
  268.6250    70.4270    17.3720    15.6350    17.2880    26.2170     2.3950   -16.6990 
  268.7500    72.8980    17.2940    15.5650    17.2880    26.2190     2.3870   -16.7360 
  268.8750    70.5500    17.2630    15.5370    17.4610    26.1850     2.4010   -16.7780 
  269.0000    69.7710    17.2730    15.5460    17.7120    26.1180     2.4280   -16.7890 
  269.1250    71.9930    17.3130    15.5820    16.1350    26.0310     2.4570   -16.8240 
  269.2500    72.9370    17.3890    15.6500    16.4380    25.9630     2.4780   -16.8790 
  269.3750    70.8230    17.5080    15.7570    17.0780    25.9110     2.4850   -16.9120 
  269.5000    68.4340    17.6560    15.8900    17.8860    25.8650     2.4810   -16.9380 
  269.6250    66.3260    17.8050    16.0250    19.1340    25.8470     2.4770   -17.0000 
  269.7500    65.3240    17.9420    16.1480    20.9990    25.9310     2.4790   -17.0220 
  269.8750    67.0520    18.0620    16.2560    22.4780    25.9250     2.4820   -17.0440 
  270.0000    69.9750    18.1490    16.3340    20.1240    25.8440     2.4800   -17.1180 
  270.1250    70.4780    18.1570    16.3410    17.7340    25.8250     2.4810   -17.1530 
  270.2500    68.1980    18.0660    16.2600    16.4180    25.7610     2.4880   -17.1520 
  270.3750    66.7690    17.8720    16.0850    16.1160    25.7030     2.4880   -17.1740 
  270.5000    66.7690    17.6150    15.8530    15.8400    25.6930     2.4740   -17.1990 
  270.6250    66.7690    17.3750    15.6380    16.4070    25.7440     2.4650   -17.1800 
  270.7500    66.7690    17.1780    15.4600    18.1480    25.7040     2.4740   -17.1450 
  270.8750    66.7690    16.9830    15.2850    20.7080    25.6010     2.4880   -17.1020 
  271.0000    66.7690    16.7380    15.0640    22.5490    25.5920     2.4910   -17.0370 
  271.1250    66.7690    16.3780    14.7410    26.4390    25.8070     2.4870   -16.9790 
  271.2500    66.7690    15.8960    14.3060    30.2090    26.0320     2.4890   -16.9370 
  271.3750    66.7690    15.2990    13.7690    29.4830    25.9910     2.4940   -16.8810 
  271.5000    66.7690    14.6300    13.1670    25.5420    25.6120     2.4880   -16.8320 
  271.6250    66.7690    13.9380    12.5440    18.8000    25.2450     2.4630   -16.7820 
  271.7500    66.7690    13.2590    11.9330    13.1670    25.0960     2.4360   -16.7230 
  271.8750    66.7690    12.5970    11.3370     9.4790    25.0680     2.4220   -16.6640 
  272.0000    66.7690    11.9340    10.7400     7.7990    25.0640     2.4270   -16.6200 
  272.1250    66.7690    11.2470    10.1220     7.5220    25.0710     2.4420   -16.6120 
  272.2500    66.7690    10.5680     9.5110     7.5660    25.1370     2.4520   -16.5660 
  272.3750    66.7690     9.9620     8.9660     7.8380    25.2740     2.4500   -16.5080 
  272.5000    66.7690     9.4990     8.5490     8.1910    25.4210     2.4360   -16.4210 
  272.6250    66.7690     9.2720     8.3450     8.4980    25.5390     2.4100   -16.3610 
  272.7500    66.7690     9.2770     8.3490     8.5360    25.6870     2.3830   -16.3370 
  272.8750    66.7690     9.4930     8.5440     8.7740    25.8200     2.3720   -16.3130 
  273.0000    66.7690     9.8530     8.8670     9.2500    25.8920     2.3850   -16.2770 
  273.1250    66.7690    10.2410     9.2170     9.5980    25.7020     2.4170   -16.1950 
  273.2500    66.7690    10.5410     9.4870     9.9060    25.2750     2.4500   -16.1350 
  273.3750    66.7690    10.7050     9.6340    10.0340    24.8500     2.4760   -16.0930 
  273.5000    66.7690    10.7420     9.6680     9.9510    24.5830     2.4900   -16.0780 
  273.6250    66.7690    10.6940     9.6240     9.3120    24.4670     2.4860   -16.0510 
  273.7500    66.7690    10.6250     9.5620     8.6350    24.4140     2.4710   -16.0300 
  273.8750    66.7690    10.5550     9.5000     8.2560    24.3960     2.4550   -16.0410 
  274.0000    66.7690    10.4820     9.4330     8.1570    24.3860     2.4470   -16.0370 
  274.1250    66.7690    10.4060     9.3650     8.1450    24.3270     2.4510   -16.0460 
  274.2500    66.7690    10.3530     9.3180     8.0900    24.2900     2.4610   -16.0840 
  274.3750    66.7690    10.3410     9.3070     8.0310    24.2830     2.4710   -16.1000 
  274.5000    66.7690    10.3770     9.3390     8.0360    24.2980     2.4770   -16.1190 
  274.6250    66.7690    10.4600     9.4140     8.1670    24.2940     2.4800   -16.1440 
  274.7500    66.7690    10.5670     9.5100     8.1050    24.2350     2.4810   -16.1360 
  274.8750    66.7690    10.6760     9.6090     7.8940    24.0980     2.4770   -16.1090 
