~V
VERS. 2.00: Ver 2.00
~W
STRT.M 50.0000:
STOP.M 273.0000:
STEP.M 0.1250:
NULL. -999.2500:
UWI. F10249:
~C
DEPT.M :
DEN.GM/CC :
GR.API :
RML.OHMM :
RI. :
RXO.OHMM :
CALI.CM :
SP.MV :
~A
# ...
  117.5000     2.2420    77.6510     8.4120     7.6050     9.9700    23.7990   -13.5540 
  117.6250     2.2010    74.3010     8.0710     7.2440     9.2610    23.7970   -13.5860 
  117.7500     2.1700    69.5500     7.8600     6.9890     8.6350    23.7640   -13.5640 
  117.8750     2.1480    67.4310     7.8250     6.8150     8.2180    23.8020   -13.4990 
  118.0000     2.1410    70.1540     8.1410     6.8350     7.8640    24.0130   -13.4020 
  118.1250     2.1670    73.5670     9.1180     7.3360     7.4490    24.3270   -13.1750 
  118.2500     2.2360    74.0880    10.6720     8.4080     7.4270    24.5160   -12.8530 
  118.3750     2.3390    74.7230    12.4690     9.9970     8.8890    24.5150   -12.5260 
  118.5000     2.4490    76.7890    13.8520    11.6990    13.6010    24.3790   -12.2080 
  118.6250     2.5150    78.2760    13.8420    12.4090    22.3140    24.3610   -11.8610 
  118.7500     2.5180    80.4410    12.4450    11.6140    21.8270    24.4580   -11.5480 
  118.8750     2.4680    86.4570    10.2150     9.7790    13.5730    24.6340   -11.3170 
  119.0000     2.3980    95.1140     7.9860     7.8100     7.9590    24.8130   -11.1360 
  119.1250     2.3420   100.3170     6.4980     6.3850     6.2550    24.9020   -11.0310 
  119.2500     2.3080   103.8410     5.7360     5.5270     5.7930    24.9010   -10.9960 
  119.3750     2.2920   106.1710     5.4890     5.1260     5.8270    24.8640   -10.9850 
  119.5000     2.2850   105.3890     5.4930     5.0140     5.8060    24.8110   -11.0150 
  119.6250     2.2890   100.4410     5.5280     5.0160     5.6850    24.7660   -11.1260 
  119.7500     2.3010    97.2480     5.4910     4.9980     5.3300    24.7260   -11.2630 
  119.8750     2.3160    99.4530     5.3940     4.9400     5.1250    24.6710   -11.3610 
  120.0000     2.3270   103.4750     5.2890     4.8690     4.9800    24.6270   -11.4470 
  120.1250     2.3270   103.8390     5.2470     4.8320     4.8570    24.5150   -11.6010 
  120.2500     2.3170   101.9350     5.3030     4.8610     4.8740    24.2570   -11.8120 
  120.3750     2.3010    98.9700     5.4840     4.9800     5.0960    23.9260   -12.0470 
  120.5000     2.2830    95.3960     5.8070     5.2010     5.2440    23.7030   -12.2780 
  120.6250     2.2620    91.7060     6.2820     5.5480     5.6810    23.6020   -12.4990 
  120.7500     2.2400    88.8380     6.8210     5.9800     6.5670    23.4760   -12.7130 
  120.8750     2.2150    85.3710     7.3110     6.4310     7.3630    23.3060   -12.9230 
  121.0000     2.1930    78.9330     7.6080     6.7850     7.8240    23.1600   -13.0970 
  121.1250     2.1830    74.3280     7.5260     6.8490     8.1820    23.1980   -13.1700 
  121.2500     2.1900    76.9840     7.1030     6.5920     7.8970    23.4320   -13.1230 
  121.3750     2.2140    84.6650     6.4510     6.0820     7.3910    23.7300   -13.0130 
  121.5000     2.2490    93.1650     5.7480     5.4720     6.5050    24.0030   -12.8560 
  121.6250     2.2840   100.6950     5.2010     4.9410     5.4030    24.3140   -12.6130 
  121.7500     2.3110   104.1960     4.8920     4.5790     4.9090    24.5280   -12.3670 
  121.8750     2.3260   102.2620     4.8310     4.4100     4.8130    24.6200   -12.1930 
  122.0000     2.3280    98.5670     4.9750     4.4280     5.0160    24.6070   -12.0940 
  122.1250     2.3180    99.0630     5.2600     4.6160     5.3700    24.5640   -12.0240 
  122.2500     2.3010    99.3030     5.5630     4.8830     5.4650    24.5050   -12.0340 
  122.3750     2.2850    95.6240     5.7940     5.1570     5.6520    24.3920   -12.1530 
  122.5000     2.2730    91.9230     5.8830     5.3570     5.9960    24.2210   -12.3350 
  122.6250     2.2710    92.5900     5.7620     5.3870     6.2310    24.0640   -12.5560 
  122.7500     2.2750    96.1230     5.4880     5.2440     6.1570    24.0860   -12.7510 
  122.8750     2.2830   100.3240     5.1410     4.9730     5.9350    24.3260   -12.8940 
  123.0000     2.2940   106.0850     4.8300     4.6610     5.2680    24.5040   -13.0270 
  123.1250     2.3030   112.9080     4.6860     4.4210     4.7990    24.5470   -13.2180 
  123.2500     2.3080   112.9000     4.7260     4.3090     4.6940    24.5300   -13.4340 
  123.3750     2.3060   102.6730     4.9060     4.3310     5.0850    24.4630   -13.6110 
  123.5000     2.2950    90.5090     5.1190     4.4380     6.0810    24.4020   -13.7760 
  123.6250     2.2800    86.4830     5.2320     4.5240     6.4000    24.4040   -13.9990 
  123.7500     2.2680    85.8650     5.2570     4.5350     6.2470    24.4180   -14.2490 
  123.8750     2.2700    83.6870     5.3480     4.5310     6.0790    24.4320   -14.4860 
  124.0000     2.2980    81.9970     5.7770     4.6690     6.0200    24.4570   -14.7090 
  124.1250     2.3670    81.7490     6.9940     5.2600     6.4310    24.4980   -14.9000 
  124.2500     2.4670    77.8440     9.0910     6.5120     9.1280    24.4950   -15.0460 
  124.3750     2.5750    70.6050    11.9340     8.5990    17.1210    24.4760   -15.1970 
  124.5000     2.6580    64.9370    14.9060    11.4080    28.1290    24.4450   -15.3890 
  124.6250     2.6710    62.9990    16.6480    13.9170    34.1010    24.4230   -15.5570 
  124.7500     2.6150    61.3280    16.4680    14.7130    31.1550    24.3680   -15.7660 
  124.8750     2.5070    59.2900    14.6610    13.5650    23.3370    24.2420   -16.0620 
  125.0000     2.3820    58.7030    12.2870    11.5010    14.2350    24.0910   -16.3730 
  125.1250     2.2820    60.3640    10.4740     9.6930    10.6530    24.0110   -16.6660 
  125.2500     2.2220    61.0400     9.4320     8.4850     9.4580    23.9720   -16.9660 
  125.3750     2.1990    60.6870     8.9990     7.8230     9.4730    23.9620   -17.2610 
  125.5000     2.1970    62.1770     8.9680     7.5640     9.4550    23.9600   -17.5090 
  125.6250     2.2020    64.8930     9.1050     7.5630     9.1800    23.9890   -17.7120 
  125.7500     2.2030    65.7390     9.1610     7.6020     8.7380    24.1150   -17.8390 
  125.8750     2.2010    65.8370     9.0410     7.5630     8.4920    24.3560   -17.8850 
  126.0000     2.2050    69.1310     8.7240     7.3920     8.4370    24.5490   -17.9020 
  126.1250     2.2210    74.9730     8.2340     7.0710     8.1680    24.6110   -17.9590 
  126.2500     2.2490    79.9180     7.6890     6.6680     7.4750    24.5960   -18.0130 
  126.3750     2.2850    84.3340     7.1900     6.2600     6.5120    24.5400   -18.0580 
  126.5000     2.3180    86.9970     6.8330     5.9280     5.9840    24.4890   -18.1500 
  126.6250     2.3330    86.3200     6.7220     5.7620     5.8380    24.4090   -18.3310 
  126.7500     2.3310    83.9800     6.8210     5.7630     5.8650    24.2870   -18.5970 
  126.8750     2.3150    80.8300     7.0730     5.9090     6.4180    24.1200   -18.9400 
  127.0000     2.2930    75.5480     7.3870     6.1460     7.1920    24.0130   -19.3370 
  127.1250     2.2710    70.6790     7.6560     6.3940     7.4520    24.0560   -19.7350 
  127.2500     2.2510    70.2760     7.8270     6.5820     7.4340    24.2300   -20.1530 
  127.3750     2.2330    72.1590     7.9010     6.6880     7.4010    24.4670   -20.5980 
  127.5000     2.2160    71.9760     7.9170     6.7220     7.5180    24.6610   -21.0440 
  127.6250     2.2050    71.0740     7.9430     6.7250     7.6680    24.7150   -21.4570 
  127.7500     2.2030    71.6050     8.0420     6.7560     7.8030    24.6950   -21.8220 
  127.8750     2.2120    72.7840     8.2560     6.8630     7.8910    24.6550   -22.1390 
  128.0000     2.2280    73.1230     8.6000     7.0740     8.0030    24.6410   -22.3840 
  128.1250     2.2430    69.9640     9.0530     7.4060     8.2440    24.6450   -22.5490 
  128.2500     2.2460    65.6090     9.5130     7.7990     8.6970    24.6170   -22.7170 
  128.3750     2.2340    62.6700     9.8810     8.1750     9.2730    24.5770   -22.8950 
  128.5000     2.2090    62.4270    10.0660     8.4390     9.3740    24.5930   -23.0380 
  128.6250     2.1800    62.4640     9.9940     8.4880     9.0790    24.6120   -23.1220 
