~V
VERS. 2.00: Ver 2.00
~W
STRT.M 50.0000:
STOP.M 281.0000:
STEP.M 0.1250:
NULL. -999.2500:
UWI. F10234:
~C
DEPT.M :
DEN.GM/CC :
GR.API :
RML.OHMM :
RI. :
RXO.OHMM :
CALI.CM :
SP.MV :
~A
# ...
  185.0000     2.2180    54.6490   204.9590   174.9050   169.4470    23.0210    -7.0370 
  185.1250     2.2200    53.4710   185.8050   160.0710   134.3390    22.9240    -7.0360 
  185.2500     2.2180    54.1300   164.0700   142.4360    98.9820    22.8290    -6.9980 
  185.3750     2.2190    55.9520   144.3110   125.7850    79.0090    22.7450    -6.9780 
  185.5000     2.2260    57.5570   129.2510   112.7140    68.2910    22.6840    -6.9700 
  185.6250     2.2350    60.0890   120.7000   105.1400    62.1020    22.6520    -7.0110 
  185.7500     2.2390    63.2560   117.2610   102.1070    64.1460    22.6430    -7.0650 
  185.8750     2.2360    63.0830   117.7830   102.7800    75.3750    22.6400    -7.1140 
  186.0000     2.2250    60.4110   120.3190   105.6410    90.0580    22.6100    -7.1590 
  186.1250     2.2080    60.9810   121.5530   108.0430   102.1850    22.5340    -7.1990 
  186.2500     2.1890    63.8310   118.8130   107.4690   113.9140    22.4270    -7.2510 
  186.3750     2.1760    65.0830   111.5070   103.0100   116.1370    22.3040    -7.2890 
  186.5000     2.1780    61.8290   101.3470    95.6630   103.5190    22.1800    -7.2940 
  186.6250     2.2030    57.1100    91.5550    87.8860    78.0730    22.0940    -7.3180 
  186.7500     2.2440    55.1280    84.3450    81.9100    59.7270    22.0560    -7.3550 
  186.8750     2.2830    55.9870    80.2840    78.5270    55.4230    22.0660    -7.3000 
  187.0000     2.3050    57.2500    78.9920    77.6230    58.1870    22.1250    -7.2630 
  187.1250     2.2990    54.6040    79.4070    78.3990    61.3100    22.2150    -7.2880 
  187.2500     2.2750    50.1770    79.0410    78.5270    63.6860    22.3020    -7.3030 
  187.3750     2.2420    49.0470    75.6400    75.6760    65.9990    22.3730    -7.3410 
  187.5000     2.2150    51.3830    68.2920    68.7320    65.5150    22.4190    -7.4040 
  187.6250     2.2110    53.9780    58.6310    59.1300    55.1050    22.4480    -7.4920 
  187.7500     2.2310    56.3930    50.4580    50.6250    42.2000    22.4750    -7.5990 
  187.8750     2.2640    59.8050    46.3730    45.5730    33.2800    22.5220    -7.7700 
  188.0000     2.2900    61.6470    48.4870    45.7880    29.8280    22.6260    -7.9350 
  188.1250     2.2880    58.8630    60.7050    55.2280    44.4420    22.8150    -8.0930 
  188.2500     2.2630    54.0500    84.4100    76.0180    94.3480    23.0550    -8.2760 
  188.3750     2.2280    49.2140   121.9340   110.6900   193.2180    23.3030    -8.4590 
  188.5000     2.1920    45.4770   172.5330   157.7580   269.9420    23.5160    -8.6360 
  188.6250     2.1630    46.6330   221.8510   202.1740   284.8700    23.6420    -8.8070 
  188.7500     2.1400    50.6900   244.7000   221.9190   209.1420    23.6670    -8.9750 
  188.8750     2.1260    52.9560   235.9350   213.3620   134.0570    23.5750    -9.1060 
  189.0000     2.1230    51.2270   213.6950   191.8010    96.6360    23.3710    -9.2220 
  189.1250     2.1390    48.3810   197.2820   174.3040    77.5050    23.0900    -9.3400 
  189.2500     2.1710    48.6070   191.1410   165.8900    61.9780    22.8170    -9.3960 
  189.3750     2.2140    50.5140   194.8220   166.4720    53.5410    22.5890    -9.4210 
  189.5000     2.2570    49.1490   206.5350   174.5300    51.4900    22.4170    -9.3930 
  189.6250     2.2790    44.8640   223.2300   187.5320    48.4550    22.3060    -9.3730 
  189.7500     2.2750    44.7850   238.2940   200.0080    48.6840    22.2350    -9.2830 
  189.8750     2.2540    50.1630   245.1770   206.8370    52.1140    22.1970    -9.2030 
  190.0000     2.2280    53.3690   239.0080   204.0180    54.8680    22.1870    -9.1430 
  190.1250     2.2130    50.6170   218.7690   189.9410    50.7410    22.1870    -9.0270 
  190.2500     2.2120    48.8450   193.0190   170.6190    43.1860    22.1950    -8.9810 
  190.3750     2.2210    51.3250   167.6520   150.6990    37.2780    22.2120    -8.9810 
  190.5000     2.2290    55.0420   146.0080   133.2510    34.4750    22.2370    -9.0270 
  190.6250     2.2280    55.6190   129.6440   120.0020    33.8410    22.2710    -9.0840 
  190.7500     2.2210    54.5510   116.8760   109.7890    32.4080    22.3150    -9.1890 
  190.8750     2.2190    53.7510   106.4560   101.5370    30.0770    22.3690    -9.3030 
  191.0000     2.2270    53.3220    97.2660    94.2110    26.1320    22.4190    -9.4180 
  191.1250     2.2450    53.4220    88.5460    86.9840    22.4210    22.4690    -9.5310 
  191.2500     2.2630    55.0960    80.0970    79.6400    21.1550    22.5190    -9.6310 
  191.3750     2.2740    57.7840    72.3200    72.5530    22.1700    22.5640    -9.7320 
  191.5000     2.2770    59.0160    65.7730    66.3210    23.3380    22.6020    -9.8390 
  191.6250     2.2790    59.0660    61.2700    61.7920    22.4630    22.6290    -9.9080 
  191.7500     2.2790    60.4860    58.7560    59.0450    21.1470    22.6440    -9.9730 
  191.8750     2.2740    61.6320    58.1810    58.0820    22.2730    22.6480   -10.0070 
  192.0000     2.2590    58.3960    59.3850    58.7730    25.1200    22.6520   -10.0460 
  192.1250     2.2410    53.5480    62.5940    61.3170    29.0510    22.6820   -10.1130 
  192.2500     2.2290    53.0330    67.6750    65.5840    34.6490    22.7460   -10.1710 
  192.3750     2.2280    54.9130    74.7680    71.6810    45.5020    22.8490   -10.2110 
  192.5000     2.2310    54.8620    83.7680    79.4800    57.9950    22.9780   -10.2540 
  192.6250     2.2280    52.8630    94.1360    88.4450    72.7960    23.1180   -10.2950 
  192.7500     2.2170    52.5580   104.2180    97.0950   104.3020    23.2520   -10.3760 
  192.8750     2.2030    54.3300   112.5000   104.1120   138.1750    23.3610   -10.4840 
  193.0000     2.1910    56.6220   118.1690   108.7880   135.6200    23.4280   -10.5530 
  193.1250     2.1850    56.1290   121.7190   111.5060   104.6090    23.4220   -10.6600 
  193.2500     2.1790    52.2390   125.4430   114.3180    89.8670    23.3560   -10.7330 
  193.3750     2.1700    48.3000   130.8610   118.7420    97.1390    23.2540   -10.8150 
  193.5000     2.1610    47.7830   138.2740   125.3170   111.7750    23.1390   -10.8950 
  193.6250     2.1610    49.7840   145.7390   132.6990   112.4860    23.0420   -11.0440 
  193.7500     2.1720    51.9590   149.3660   137.3580   100.6750    22.9770   -11.1570 
  193.8750     2.1910    53.4130   146.1040   136.2490    96.1640    22.9530   -11.2750 
  194.0000     2.2150    53.0510   135.7210   128.5240   113.4830    22.9660   -11.4260 
  194.1250     2.2350    51.4500   121.1230   116.0290   117.4280    23.0140   -11.5300 
  194.2500     2.2460    51.3830   107.2590   103.3230    96.0730    23.0740   -11.6610 
  194.3750     2.2460    53.1560    96.5190    92.9090    74.0990    23.1200   -11.8150 
  194.5000     2.2340    54.8790    89.7730    85.9370    66.3800    23.1420   -11.9870 
  194.6250     2.2160    55.6740    87.4630    83.0630    73.2340    23.1350   -12.1220 
  194.7500     2.2020    56.4480    88.4870    83.3470    75.4660    23.1070   -12.2130 
  194.8750     2.1970    57.2960    92.7970    86.7240    73.9400    23.0720   -12.2950 
  195.0000     2.2000    57.5180   100.9240    93.6280    75.3290    23.0350   -12.3290 
  195.1250     2.2040    54.7210   115.3480   106.3730    86.6800    22.9930   -12.2880 
  195.2500     2.2030    50.3930   137.4930   126.5470   105.8560    22.9510   -12.2100 
  195.3750     2.2000    48.1120   169.1660   156.0880   133.6280    22.9140   -12.0730 
  195.5000     2.1970    48.0280   210.1510   194.6490   153.5020    22.8800   -11.9260 
  195.6250     2.1980    47.0220   252.9020   234.9510   196.3040    22.8520   -11.7460 
  195.7500     2.2050    44.2690   277.8170   260.2140   282.7730    22.8310   -11.6300 
  195.8750     2.2140    42.8240   266.7420   255.3370   341.0040    22.8210   -11.5230 
  196.0000     2.2230    43.2170   221.7270   219.5040   265.0670    22.8240   -11.4500 
  196.1250     2.2280    43.9580   167.6930   170.1510   160.1280    22.8290   -11.4840 
