~V
VERS. 2.00: Ver 2.00
~W
STRT.M 60.0000:
STOP.M 271.0000:
STEP.M 0.1250:
NULL. -999.2500:
UWI. F10205:
~C
DEPT.M :
DEN.GM/CC :
GR.API :
RML.OHMM :
RI. :
RXO.OHMM :
CALI.CM :
SP.MV :
~A
# ...
  251.2500     2.4640    81.7740    12.9680    12.2740    14.9270    23.4670    -0.4060 
  251.3750     2.4510    79.6130    12.9920    12.2850    14.9040    23.6320    -0.4150 
  251.5000     2.4490    77.2140    13.0520    12.3380    15.4640    23.7900    -0.3850 
  251.6250     2.4580    77.5630    13.2140    12.4740    17.4670    23.9620    -0.2780 
  251.7500     2.4740    77.1200    13.5030    12.7070    19.4600    24.1940    -0.1340 
  251.8750     2.4900    76.0410    13.9250    13.0460    19.8190    24.3830     0.0040 
  252.0000     2.5020    77.4120    14.4570    13.4840    20.3510    24.4810     0.1160 
  252.1250     2.5010    80.7510    15.0430    14.0060    22.0700    24.4870     0.2200 
  252.2500     2.4890    83.0910    15.5820    14.5530    22.5480    24.4030     0.3570 
  252.3750     2.4710    84.1370    15.9790    15.0590    21.1370    24.2450     0.5260 
  252.5000     2.4540    85.0760    16.1420    15.4340    19.8090    24.0750     0.6900 
  252.6250     2.4460    82.9870    15.9680    15.5350    19.6390    24.0650     0.8070 
  252.7500     2.4480    78.5050    15.5220    15.3420    19.4430    24.1970     0.9090 
  252.8750     2.4610    75.4640    14.8820    14.8730    18.4680    24.3600     1.0390 
  253.0000     2.4800    75.1220    14.1570    14.2170    16.5370    24.4750     1.2140 
  253.1250     2.4990    75.1630    13.4770    13.5020    14.1120    24.4420     1.3980 
  253.2500     2.5050    74.4050    12.9250    12.8580    12.7870    24.4130     1.5290 
  253.3750     2.4940    74.3410    12.5270    12.3420    12.2630    24.4570     1.6230 
  253.5000     2.4680    75.8620    12.2650    11.9600    11.7660    24.5230     1.7390 
  253.6250     2.4440    78.0450    12.0980    11.7000    11.4470    24.4790     1.8780 
  253.7500     2.4320    79.2840    11.9720    11.5080    10.8680    24.3080     2.0260 
  253.8750     2.4320    78.6650    11.8920    11.3770    10.1800    24.2330     2.1650 
  254.0000     2.4300    78.9530    11.8980    11.3210    10.1000    24.3310     2.2400 
  254.1250     2.4150    82.1660    12.0520    11.3910    10.6720    24.4670     2.2410 
  254.2500     2.3940    84.1590    12.3270    11.5820    11.1550    24.4660     2.1940 
  254.3750     2.3840    82.5320    12.6620    11.8670    11.3750    24.3990     2.0600 
  254.5000     2.3940    79.3820    12.9670    12.1800    11.6640    24.3360     1.8370 
  254.6250     2.4280    78.4570    13.1390    12.4180    11.3540    24.3520     1.5870 
  254.7500     2.4670    80.6390    13.1740    12.5240    10.0490    24.4810     1.3360 
  254.8750     2.5020    83.4760    13.1210    12.5010     9.2360    24.6440     1.0820 
  255.0000     2.5260    83.6880    13.0600    12.4070     8.8300    24.6940     0.8670 
  255.1250     2.5330    80.3510    13.0800    12.3450     9.2290    24.6400     0.7090 
  255.2500     2.5210    77.8080    13.1920    12.3800    10.3420    24.6970     0.6250 
  255.3750     2.4910    76.9110    13.3540    12.5100    11.6450    24.8020     0.6280 
  255.5000     2.4490    75.8270    13.4820    12.6690    13.5530    24.8030     0.6960 
  255.6250     2.4130    73.7430    13.4510    12.7210    21.3000    24.7430     0.7890 
  255.7500     2.3970    73.2250    13.2270    12.5840    29.6390    24.6670     0.8940 
  255.8750     2.4050    73.6050    12.8280    12.2460    27.9650    24.6630     1.0130 
  256.0000     2.4330    73.2900    12.3320    11.7680    18.5710    24.6920     1.1410 
  256.1250     2.4700    72.1850    11.8700    11.2650    12.3020    24.6890     1.2770 
  256.2500     2.5050    72.3770    11.5440    10.8520    10.5630    24.6700     1.4070 
  256.3750     2.5310    74.8560    11.3920    10.5790    10.4980    24.6400     1.5410 
  256.5000     2.5470    76.1210    11.3960    10.4530    10.8160    24.7030     1.6540 
  256.6250     2.5510    74.1450    11.5010    10.4560    10.6810    24.7960     1.7190 
  256.7500     2.5480    70.8390    11.6240    10.5240    10.9640    24.8400     1.7700 
  256.8750     2.5390    69.0430    11.7400    10.6350    11.5030    24.8470     1.8200 
  257.0000     2.5280    70.3120    11.8720    10.7960    11.7150    24.8750     1.8670 
  257.1250     2.5190    74.2080    12.0890    11.0550    11.6460    24.9150     1.8660 
  257.2500     2.5200    76.5590    12.4260    11.4190    11.7310    24.9200     1.8060 
  257.3750     2.5300    74.9530    12.8670    11.8610    12.2280    24.9070     1.6870 
  257.5000     2.5460    71.8380    13.3360    12.3040    13.7380    24.9330     1.5560 
  257.6250     2.5600    71.5520    13.6650    12.5960    17.5550    24.9650     1.4650 
  257.7500     2.5690    72.4300    13.7400    12.6470    21.5850    24.9500     1.3610 
  257.8750     2.5720    72.7610    13.5270    12.4280    23.7970    24.8740     1.2250 
  258.0000     2.5680    72.3960    13.0940    12.0000    23.7830    24.8030     1.0800 
  258.1250     2.5470    72.3270    12.6070    11.5000    18.9710    24.7240     0.9640 
  258.2500     2.5090    72.3220    12.2500    11.1040    15.8160    24.6440     0.8820 
  258.3750     2.4610    73.3760    12.1200    10.9150    14.9780    24.5610     0.8310 
  258.5000     2.4230    76.4070    12.2380    10.9740    16.7970    24.4840     0.8180 
  258.6250     2.4230    77.7550    12.5580    11.2700    18.5400    24.4590     0.8100 
  258.7500     2.4550    74.9750    12.8960    11.6410    22.2620    24.4550     0.8050 
  258.8750     2.5010    72.6630    13.0970    11.9370    25.2490    24.4740     0.8100 
  259.0000     2.5350    75.2900    13.0470    12.0230    24.4150    24.5040     0.8300 
  259.1250     2.5410    79.0360    12.6930    11.7890    16.5050    24.5000     0.8600 
  259.2500     2.5320    77.9580    12.1990    11.3440    12.3230    24.4550     0.9090 
  259.3750     2.5110    75.3130    11.7180    10.8160    10.9440    24.3620     1.0250 
  259.5000     2.4950    74.8650    11.3650    10.3360    10.4870    24.1750     1.1780 
  259.6250     2.4880    75.9160    11.1980    10.0230    10.6780    23.8740     1.3210 
  259.7500     2.4870    75.9940    11.1530     9.8760    10.5290    23.5920     1.4460 
  259.8750     2.4870    74.9920    11.1750     9.8690    10.3400    23.4430     1.5610 
  260.0000     2.4860    73.9670    11.2270     9.9570    10.2830    23.4910     1.6660 
  260.1250     2.4820    73.7710    11.2940    10.0900    10.8160    23.7210     1.7390 
  260.2500     2.4780    73.7540    11.3680    10.2170    12.2560    24.0460     1.7640 
  260.3750     2.4790    73.8090    11.4450    10.3190    14.1530    24.2550     1.6980 
  260.5000     2.4880    74.3500    11.5160    10.3900    14.8100    24.2790     1.5740 
  260.6250     2.5030    75.4050    11.5690    10.4350    14.1570    24.2450     1.4370 
  260.7500     2.5200    75.7130    11.6070    10.4700    12.7470    24.2810     1.3480 
  260.8750     2.5300    75.7630    11.6370    10.5100    11.5760    24.3360     1.2920 
  261.0000     2.5310    75.7630    11.6750    10.5690    10.9120    24.3430     1.2960 
  261.1250     2.5210    75.7630    11.7410    10.6610     9.7330    24.2710     1.3510 
  261.2500     2.5030    75.7630    11.8350    10.7840     8.4970    24.1700     1.4640 
  261.3750     2.4780    75.7630    11.9390    10.9200     8.0100    24.1300     1.6950 
  261.5000     2.4550    75.7630    12.0210    11.0430     8.1420    24.2140     1.9980 
  261.6250     2.4400    75.7630    12.0460    11.1240     8.6090    24.3240     2.2740 
  261.7500     2.4420    75.7630    12.0210    11.1640     8.9340    24.3540     2.4960 
  261.8750     2.4640    75.7630    11.9720    11.1760     9.3170    24.3690     2.6540 
  262.0000     2.4910    75.7630    11.9300    11.1810     9.8720    24.3890     2.6970 
  262.1250     2.5080    75.7630    11.9110    11.1840    10.6990    24.4080     2.6890 
  262.2500     2.5030    75.7630    11.8900    11.1680    10.6740    24.4030     2.6240 
  262.3750     2.4770    75.7630    11.8250    11.1010    10.4490    24.3710     2.4820 
