~V
VERS. 2.00: Ver 2.00
~W
STRT.M 50.0000:
STOP.M 281.0000:
STEP.M 0.1250:
NULL. -999.2500:
UWI. F10222:
~C
DEPT.M :
GR.API :
RML.OHMM :
RI. :
RXO.OHMM :
CALI.CM :
DEN.GM/CC :
SP.MV :
~A
   50.0000    46.8460    12.5030     0.6000     0.7230    25.3100  -999.2500    89.3210 
   50.1250    49.0760    12.0200     0.5970     0.7210    25.3050  -999.2500    88.7090 
   50.2500    52.4740    11.3660     0.5900     0.7230    25.3030  -999.2500    88.0840 
   50.3750    54.2690    10.6300     0.5900     0.7320    25.3030  -999.2500    87.4780 
   50.5000    52.5010     9.8840     0.6050     0.7320    25.3020  -999.2500    86.9140 
   50.6250    48.7800     9.0880     0.6340     0.7270    25.2990  -999.2500    86.3870 
   50.7500    45.1260     8.2190     0.6550     0.7240    25.3010  -999.2500    85.9000 
   50.8750    41.2910     7.3640     0.6500     0.7230    25.3090  -999.2500    85.4490 
   51.0000    38.4900     6.6810     0.6140     0.7230    25.3210  -999.2500    85.0020 
   51.1250    39.1550     6.4240     0.5690     0.7260    25.3330     1.9690    84.5810 
   51.2500    40.0570     6.6150     0.5380     0.7300    25.3330     1.9690    84.1860 
   51.3750    39.6760     7.1230     0.5260     0.7410    25.3400     1.9700    83.7850 
   51.5000    38.6520     7.6110     0.5220     0.7640    25.3510     1.9710    83.3450 
   51.6250    38.9610     7.5930     0.5130     0.8000    25.3630     1.9690    82.8900 
   51.7500    40.7700     7.1510     0.5010     0.8280    25.3650     1.9670    82.4560 
   51.8750    41.5330     6.6600     0.4880     0.8260    25.3670     1.9660    81.9670 
   52.0000    40.3830     6.4280     0.4770     0.8420    25.3710     1.9670    81.4750 
   52.1250    38.8320     6.4990     0.4720     0.8640    25.3750     1.9630    80.9410 
   52.2500    38.7400     6.5540     0.4720     0.8870    25.3780     1.9570    80.3300 
   52.3750    39.3740     6.3330     0.4750     0.9050    25.3790     1.9510    79.7100 
   52.5000    40.1960     5.7750     0.4770     0.9260    25.3820     1.9490    79.0860 
   52.6250    41.5840     5.0160     0.4750     0.9450    25.3830     1.9440    78.4430 
   52.7500    42.9650     4.2740     0.4700     0.9420    25.3880     1.9360    77.7880 
   52.8750    44.4260     3.6570     0.4660     0.9090    25.4020     1.9210    77.1380 
   53.0000    45.8010     3.2390     0.4680     0.8610    25.4340     1.9000    76.5210 
   53.1250    45.3690     3.1460     0.4820     0.8130    25.4430     1.8870    75.9690 
   53.2500    42.9050     3.3850     0.4970     0.7650    25.4450     1.8960    75.4360 
   53.3750    41.0560     3.9200     0.5010     0.7570    25.4440     1.9200    74.9170 
   53.5000    42.4430     4.5790     0.4860     0.8030    25.4440     1.9460    74.4070 
   53.6250    45.6230     4.9140     0.4630     0.8330    25.4470     1.9600    73.8660 
   53.7500    47.6050     4.6460     0.4510     0.8400    25.4470     1.9680    73.2950 
   53.8750    47.5540     3.9580     0.4530     0.9100    25.4420     1.9770    72.7460 
   54.0000    45.9630     3.2910     0.4690     1.0030    25.4420     1.9840    72.1700 
   54.1250    45.7410     2.9450     0.4870     1.0610    25.4300     1.9830    71.5380 
   54.2500    46.5650     2.8280     0.5000     1.0050    25.4290     1.9770    70.9550 
   54.3750    46.2040     2.8140     0.5050     0.9920    25.4290     1.9720    70.3890 
   54.5000    42.0030     2.8010     0.5100     0.9550    25.4440     1.9690    69.7820 
   54.6250    37.4070     2.7280     0.5190     0.8450    25.4520     1.9690    69.1070 
   54.7500    37.7720     2.6180     0.5240     0.7350    25.4550     1.9750    68.4010 
   54.8750    41.3420     2.5080     0.5230     0.7590    25.4620     1.9840    67.6220 
   55.0000    42.1680     2.4320     0.5220     0.8320    25.4740     1.9930    66.7460 
   55.1250    39.2820     2.4190     0.5240     0.8900    25.4550     2.0000    65.7850 
   55.2500    37.1030     2.4890     0.5280     0.8920    25.4510     2.0100    64.7760 
   55.3750    36.2850     2.7000     0.5310     0.8730    25.4310     2.0200    63.7080 
   55.5000    35.9920     3.1340     0.5310     0.8510    25.3570     2.0220    62.5990 
   55.6250    36.7670     3.9460     0.5340     0.8330    25.3160     2.0110    61.4590 
   55.7500    37.5480     5.1310     0.5380     0.8310    25.2990     1.9990    60.3030 
   55.8750    38.4390     6.5970     0.5450     0.8560    25.2980     1.9910    59.1610 
   56.0000    39.8120     8.0480     0.5490     0.8650    25.2940     1.9840    58.0130 
   56.1250    40.1110     8.9690     0.5460     0.8880    25.2840     1.9730    56.8380 
   56.2500    38.9450     9.3590     0.5440     0.9020    25.2600     1.9640    55.6130 
   56.3750    39.1580     9.4800     0.5510     0.9100    25.2170     1.9600    54.3710 
   56.5000    41.4750     9.5180     0.5650     0.8800    25.1710     1.9610    53.0980 
   56.6250    42.2210     9.4510     0.5770     0.8430    25.1580     1.9630    51.7190 
   56.7500    41.8080     9.2250     0.5790     0.8110    25.1810     1.9640    50.1940 
   56.8750    41.2920     8.8630     0.5700     0.7900    25.2350     1.9650    48.5140 
   57.0000    41.0060     8.4920     0.5510     0.7590    25.2810     1.9680    46.7780 
   57.1250    43.4580     8.2980     0.5350     0.7470    25.2930     1.9860    45.0040 
   57.2500    49.7320     8.3380     0.5310     0.7890    25.2910     2.0240    43.1480 
   57.3750    57.6530     8.6070     0.5420     0.8250    25.2890     2.0720    41.1550 
   57.5000    63.1250     9.1050     0.5600     0.8070    25.2920     2.1100    39.0240 
   57.6250    64.4930     9.8970     0.5710     0.7750    25.2740     2.1210    36.7820 
   57.7500    63.8690    10.7300     0.5640     0.7710    25.1620     2.1100    34.4520 
   57.8750    62.2470    10.9040     0.5310     0.7740    24.8960     2.0800    31.9700 
   58.0000    61.7760     9.5810     0.4650     0.7910    24.5670     2.0370    29.2080 
   58.1250    63.4000     6.8640     0.3730     0.7990    24.4650     2.0070    26.1110 
   58.2500    64.6560     4.2420     0.2770     0.8080    24.5210     2.0150    22.6540 
   58.3750    64.3400     2.3950     0.1970     0.8580    24.6900     2.0650    18.7540 
   58.5000    62.4360     1.3980     0.1460     0.8930    25.0580     2.1450    14.4160 
   58.6250    63.0140     1.1720     0.1370     0.9320    25.6750     2.2420     9.6520 
   58.7500    66.4200     1.4820     0.1800     1.2020    26.2080     2.3470     4.6410 
   58.8750    72.0080     2.3730     0.3110     2.1920    26.6280     2.4400    -0.4120 
   59.0000    77.6340     4.0740     0.6040     5.0520    27.0220     2.4650    -5.3250 
   59.1250    77.4430     7.1700     1.2520     8.2870    27.1500     2.3760    -9.8920 
   59.2500    74.5090    10.6910     2.3240     9.6820    26.6840     2.2530   -13.9990 
   59.3750    74.8550    11.7750     3.7110     9.7840    25.6710     2.1630   -17.4920 
   59.5000    80.7990     9.8450     4.9790     9.5840    24.8980     2.1320   -20.2800 
   59.6250    87.3570     7.7620     5.6380     9.4420    24.6450     2.1500   -22.2950 
   59.7500    90.4770     6.6330     5.9090     9.7550    24.5720     2.1790   -23.7030 
   59.8750    92.5330     6.2390     6.0740     9.7830    24.5040     2.2050   -24.6200 
   60.0000    93.0220     6.3070     6.2810     9.1950    24.4600     2.2280   -25.2020 
   60.1250    89.5010     6.6420     6.5340     8.3610    24.4690     2.2500   -25.5490 
   60.2500    87.7820     7.0060     6.7600     7.9150    24.4850     2.2690   -25.7770 
   60.3750    90.5520     7.2250     6.8890     7.7880    24.5240     2.2830   -25.9130 
   60.5000    95.5680     7.1830     6.8630     7.1250    24.5940     2.2900   -26.0350 
   60.6250    98.4750     6.8010     6.6710     6.8130    24.6830     2.2860   -26.1190 
   60.7500   100.6170     6.1780     6.4310     6.6990    24.7400     2.2740   -26.2830 
   60.8750   101.0480     5.5040     6.2530     6.7030    24.7680     2.2650   -26.5380 
   61.0000    97.8240     5.0290     6.2170     6.6000    24.7660     2.2640   -26.8300 
   61.1250    94.9330     5.0000     6.3330     6.6920    24.6980     2.2680   -27.1590 
