~V
VERS. 2.00: Ver 2.00
~W
STRT.M 60.0000:
STOP.M 276.0000:
STEP.M 0.1250:
NULL. -999.2500:
UWI. F10216:
~C
DEPT.M :
DEN.GM/CC :
GR.API :
RML.OHMM :
RI. :
RXO.OHMM :
CALI.CM :
SP.MV :
~A
# ...
   71.2500     2.0950    65.7990    11.3370     7.9540     9.6930    23.3790   -30.6670 
   71.3750     2.0780    70.1190    10.8330     7.7260     9.3600    23.3980   -30.7340 
   71.5000     2.0740    71.3150    10.3850     7.4620     9.1860    23.4190   -30.7720 
   71.6250     2.0900    69.2470    10.2900     7.3450     9.2130    23.4130   -30.7630 
   71.7500     2.1390    67.7060    10.6160     7.4610     9.4020    23.4050   -30.7430 
   71.8750     2.2220    65.7510    11.3160     7.8180     9.6070    23.4090   -30.6990 
   72.0000     2.3100    61.9650    12.2050     8.3410     9.6460    23.4060   -30.6460 
   72.1250     2.3390    59.1190    12.8940     8.8300     9.9350    23.2490   -30.5970 
   72.2500     2.3000    59.0060    13.0620     9.0580    10.1700    22.9410   -30.5260 
   72.3750     2.2190    59.0330    12.6180     8.9220    10.3100    22.6860   -30.4550 
   72.5000     2.1370    58.6830    11.7620     8.4860    10.3140    22.5900   -30.3620 
   72.6250     2.0900    60.2360    10.9020     7.9470    10.2880    22.6140   -30.2620 
   72.7500     2.0760    61.4650    10.3470     7.5210    10.1960    22.6750   -30.1440 
   72.8750     2.0860    60.5550    10.1660     7.2900    10.2040    22.7890   -30.0260 
   73.0000     2.1100    59.0030    10.2750     7.2510    10.2530    22.8890   -29.8950 
   73.1250     2.1390    59.2860    10.4990     7.3350    10.3050    23.0020   -29.7650 
   73.2500     2.1590    59.3230    10.6480     7.4210    10.5290    23.0980   -29.6460 
   73.3750     2.1630    58.4810    10.6520     7.4430    10.5550    23.1650   -29.5280 
   73.5000     2.1530    58.2500    10.5240     7.3870    10.1170    23.1820   -29.4100 
   73.6250     2.1400    59.6900    10.3390     7.2790    10.1390    23.1680   -29.2730 
   73.7500     2.1320    61.1840    10.1950     7.1750    10.1660    23.1220   -29.1520 
   73.8750     2.1290    61.2930    10.1350     7.1080    10.0970    23.0580   -29.0170 
   74.0000     2.1260    59.7720    10.1580     7.0880     9.9000    22.9640   -28.9120 
   74.1250     2.1240    58.5020    10.2230     7.1030    10.1410    22.9140   -28.8090 
   74.2500     2.1260    57.8100    10.2700     7.1140    10.3670    22.9480   -28.7150 
   74.3750     2.1350    57.9960    10.2810     7.1000    10.3520    23.0510   -28.6260 
   74.5000     2.1450    58.7390    10.2670     7.0590    10.2270    23.1740   -28.5490 
   74.6250     2.1480    59.7140    10.2610     7.0090    10.1410    23.2880   -28.4940 
   74.7500     2.1420    59.0650    10.2890     6.9770     9.9140    23.3530   -28.4370 
   74.8750     2.1270    57.5690    10.3600     6.9810     9.8430    23.3440   -28.4030 
   75.0000     2.1100    55.7950    10.4630     7.0260     9.9740    23.2950   -28.3560 
   75.1250     2.0960    55.0210    10.5750     7.1020    10.0760    23.2630   -28.3000 
   75.2500     2.0840    57.4180    10.6780     7.1870    10.1110    23.2540   -28.2170 
   75.3750     2.0770    60.8680    10.7680     7.2660    10.1720    23.2290   -28.1160 
   75.5000     2.0740    61.0670    10.8480     7.3270    10.2660    23.1740   -28.0050 
   75.6250     2.0790    56.7560    10.9140     7.3660    10.3040    23.1100   -27.8820 
   75.7500     2.0890    54.0680    10.9410     7.3820    10.1660    23.0960   -27.7710 
   75.8750     2.1030    54.4240    10.9020     7.3680    10.0500    23.1170   -27.6330 
   76.0000     2.1180    55.7260    10.7990     7.3240    10.0100    23.1820   -27.4950 
   76.1250     2.1330    58.7280    10.6660     7.2520     9.9890    23.2300   -27.3400 
   76.2500     2.1460    62.3600    10.5610     7.1760     9.7970    23.2160   -27.2010 
   76.3750     2.1550    63.5220    10.5130     7.1080     9.5150    23.1330   -27.0470 
   76.5000     2.1610    60.0280    10.5160     7.0560     9.5140    23.0670   -26.8880 
   76.6250     2.1640    56.1320    10.5370     7.0210     9.8670    23.0990   -26.7020 
   76.7500     2.1660    56.8580    10.5390     6.9920    10.1030    23.1320   -26.5010 
   76.8750     2.1690    61.1040    10.5150     6.9620    10.1260    23.1220   -26.3050 
   77.0000     2.1720    64.7040    10.4830     6.9330    10.0130    23.1340   -26.1030 
   77.1250     2.1700    62.6850    10.4740     6.9180    10.1110    23.2030   -25.9040 
   77.2500     2.1660    59.2990    10.4850     6.9170    10.5910    23.2700   -25.6860 
   77.3750     2.1640    60.0190    10.4940     6.9250    10.7350    23.2890   -25.4600 
   77.5000     2.1690    65.0330    10.4690     6.9260    10.5020    23.2720   -25.2030 
   77.6250     2.1790    68.9020    10.3720     6.9010    10.2020    23.2740   -24.9380 
   77.7500     2.1860    69.9760    10.2170     6.8490    10.1520    23.2960   -24.6700 
   77.8750     2.1830    71.4480    10.0390     6.7860    10.4940    23.3010   -24.4070 
   78.0000     2.1700    73.6700     9.8980     6.7440    10.9530    23.1850   -24.1560 
   78.1250     2.1560    73.3870     9.8810     6.7680    10.0790    22.8800   -23.9000 
   78.2500     2.1450    71.0570    10.0310     6.8850     9.4210    22.6160   -23.6500 
   78.3750     2.1360    68.4610    10.3640     7.1110     9.0120    22.5240   -23.3960 
   78.5000     2.1250    66.7510    10.8120     7.4240     8.8410    22.5470   -23.1450 
   78.6250     2.1160    65.4730    11.1560     7.7100     9.1100    22.6830   -22.8710 
   78.7500     2.1210    64.5170    11.1410     7.7950     9.3970    22.9140   -22.5850 
   78.8750     2.1470    66.3740    10.6040     7.5460     9.8390    23.2250   -22.2670 
   79.0000     2.1900    73.2080     9.5940     6.9520     9.8250    23.5410   -21.9400 
   79.1250     2.2350    82.1530     8.4450     6.1800     8.5410    23.9150   -21.6400 
   79.2500     2.2730    87.9410     7.5860     5.5170     6.6080    24.2460   -21.3760 
   79.3750     2.3010    89.9540     7.1950     5.1060     5.8170    24.5150   -21.1860 
   79.5000     2.3160    89.2780     7.2640     4.9790     5.8220    24.6320   -21.0880 
   79.6250     2.3100    87.8690     7.6630     5.1110     6.7800    24.6280   -21.0930 
   79.7500     2.2900    86.3220     8.0690     5.3300     8.1910    24.5450   -21.1750 
   79.8750     2.2590    85.4110     8.2760     5.5130     8.2600    24.4510   -21.3520 
   80.0000     2.2310    85.2110     8.2750     5.6130     7.1710    24.3250   -21.5910 
   80.1250     2.2310    83.2340     8.3020     5.7130     6.4280    24.1320   -21.8790 
   80.2500     2.2590    80.2480     8.6120     5.9450     6.7020    23.8510   -22.2150 
   80.3750     2.2940    76.8750     9.3060     6.3860     7.2820    23.6380   -22.5650 
   80.5000     2.3030    72.9830    10.3120     7.0390     8.3720    23.5700   -22.9120 
   80.6250     2.2750    66.3520    11.3520     7.7890    10.2540    23.5600   -23.2410 
   80.7500     2.2310    59.9750    12.0710     8.3980    11.1510    23.6830   -23.5520 
   80.8750     2.1920    58.9330    12.3110     8.7070    10.6260    23.8990   -23.8210 
   81.0000     2.1670    61.7080    12.1380     8.6950    10.1190    23.8430   -24.0500 
   81.1250     2.1490    61.4460    11.7570     8.4460    10.0040    23.4510   -24.2250 
   81.2500     2.1330    56.9120    11.4120     8.1470    10.0760    23.1350   -24.3450 
   81.3750     2.1180    52.7340    11.1760     7.8900    10.1540    22.9890   -24.4140 
   81.5000     2.1070    52.7650    11.0360     7.7030     9.9280    22.9740   -24.4380 
   81.6250     2.0990    56.4270    11.0150     7.6020     9.6550    22.9810   -24.4570 
   81.7500     2.0920    59.4200    11.2930     7.6450     9.7890    22.8870   -24.4580 
   81.8750     2.0920    60.3660    12.2120     7.9910    10.2740    22.6210   -24.4770 
   82.0000     2.1200    60.0350    14.0710     8.8260    10.8080    22.4180   -24.4960 
   82.1250     2.1970    58.6940    17.0260    10.3660    11.3720    22.5080   -24.5420 
   82.2500     2.2920    55.7580    20.3030    12.3520    14.1510    22.8980   -24.5850 
   82.3750     2.3470    52.9780    22.7010    14.2020    23.6700    23.3750   -24.6560 
