~V
VERS. 2.00: Ver 2.00
~W
STRT.M 53.0000:
STOP.M 267.0000:
STEP.M 0.1250:
NULL. -999.2500:
UWI. F10211:
~C
DEPT.M :
GR.API :
RML.OHMM :
RI. :
RXO.OHMM :
CALI.CM :
SP.MV :
DEN.GM/CC :
~A
   53.0000  -999.2500  -999.2500  -999.2500  -999.2500  -999.2500     0.0000  -999.2500 
   53.1250  -999.2500  -999.2500  -999.2500  -999.2500  -999.2500     0.0000  -999.2500 
   53.2500  -999.2500  -999.2500  -999.2500  -999.2500  -999.2500     0.0000  -999.2500 
   53.3750  -999.2500  -999.2500  -999.2500  -999.2500  -999.2500     0.0000  -999.2500 
   53.5000  -999.2500  -999.2500  -999.2500  -999.2500  -999.2500   100.1910  -999.2500 
   53.6250  -999.2500  -999.2500  -999.2500  -999.2500  -999.2500   125.5220     1.9180 
   53.7500  -999.2500  -999.2500  -999.2500  -999.2500  -999.2500   125.8580     1.9180 
   53.8750  -999.2500  -999.2500  -999.2500  -999.2500  -999.2500   126.1580     1.9160 
   54.0000  -999.2500  -999.2500  -999.2500  -999.2500  -999.2500   126.4630     1.9150 
   54.1250  -999.2500  -999.2500  -999.2500  -999.2500  -999.2500   126.8010     1.9130 
   54.2500  -999.2500  -999.2500  -999.2500  -999.2500  -999.2500   127.1490     1.9090 
   54.3750  -999.2500  -999.2500  -999.2500  -999.2500  -999.2500   127.4770     1.9020 
   54.5000  -999.2500  -999.2500  -999.2500  -999.2500  -999.2500   127.7870     1.8990 
   54.6250  -999.2500  -999.2500  -999.2500  -999.2500  -999.2500   128.0860     1.9020 
   54.7500  -999.2500  -999.2500  -999.2500  -999.2500  -999.2500   128.3410     1.9090 
   54.8750  -999.2500  -999.2500  -999.2500  -999.2500  -999.2500   128.5360     1.9100 
   55.0000  -999.2500  -999.2500  -999.2500  -999.2500  -999.2500   128.6580     1.9060 
   55.1250  -999.2500  -999.2500  -999.2500  -999.2500  -999.2500   128.7590     1.9070 
   55.2500  -999.2500  -999.2500  -999.2500  -999.2500  -999.2500   128.8490     1.9170 
   55.3750  -999.2500  -999.2500  -999.2500  -999.2500  -999.2500   128.8940     1.9290 
   55.5000  -999.2500  -999.2500  -999.2500  -999.2500  -999.2500   128.8600     1.9350 
   55.6250  -999.2500  -999.2500  -999.2500  -999.2500  -999.2500   128.7540     1.9380 
   55.7500  -999.2500  -999.2500  -999.2500  -999.2500  -999.2500   128.6110     1.9450 
   55.8750  -999.2500  -999.2500  -999.2500  -999.2500  -999.2500   128.4410     1.9540 
   56.0000  -999.2500  -999.2500  -999.2500  -999.2500  -999.2500   128.2690     1.9620 
   56.1250  -999.2500  -999.2500  -999.2500  -999.2500  -999.2500   128.0690     1.9690 
   56.2500  -999.2500  -999.2500  -999.2500  -999.2500  -999.2500   127.8760     1.9780 
   56.3750  -999.2500  -999.2500  -999.2500  -999.2500  -999.2500   127.7500     1.9870 
   56.5000  -999.2500  -999.2500  -999.2500  -999.2500  -999.2500   127.6660     1.9900 
   56.6250  -999.2500  -999.2500  -999.2500  -999.2500  -999.2500   127.5970     1.9820 
   56.7500  -999.2500  -999.2500  -999.2500  -999.2500  -999.2500   127.5420     1.9700 
   56.8750  -999.2500  -999.2500  -999.2500  -999.2500  -999.2500   127.4830     1.9630 
   57.0000  -999.2500  -999.2500  -999.2500  -999.2500  -999.2500   127.3560     1.9670 
   57.1250  -999.2500  -999.2500  -999.2500  -999.2500  -999.2500   127.1610     1.9740 
   57.2500  -999.2500  -999.2500  -999.2500  -999.2500  -999.2500   126.8690     1.9760 
   57.3750  -999.2500  -999.2500  -999.2500  -999.2500  -999.2500   126.4680     1.9710 
   57.5000    48.4530     0.5000     0.2240     3.0770    25.3150   126.0200     1.9680 
   57.6250    48.4530     0.5000     0.2240     3.0770    25.3150   125.5520     1.9730 
   57.7500    47.5750     0.4630     0.2250     3.2210    25.3150   125.0350     1.9870 
   57.8750    46.9870     0.3720     0.2290     3.7790    25.3150   124.4950     2.0080 
   58.0000    49.4740     0.2700     0.2370     3.1620    25.3150   123.9760     2.0310 
   58.1250    52.4740     0.1950     0.2450     2.7230    25.3150   123.4680     2.0460 
   58.2500    53.8940     0.1480     0.2490     2.7120    25.3150   122.9600     2.0430 
   58.3750    55.0210     0.1250     0.2420     3.0940    25.3150   122.4350     2.0230 
   58.5000    55.9830     0.1260     0.2250     3.0840    25.3170   121.9180     1.9980 
   58.6250    55.1000     0.1500     0.2050     2.5930    25.3190   121.3810     1.9770 
   58.7500    52.2040     0.1930     0.1880     2.2290    25.3220   120.8510     1.9580 
   58.8750    48.6340     0.2400     0.1790     2.2240    25.3240   120.3370     1.9400 
   59.0000    46.1120     0.2640     0.1790     2.5240    25.3220   119.8430     1.9270 
   59.1250    44.5880     0.2630     0.1860     2.9460    25.3190   119.3310     1.9260 
   59.2500    45.3410     0.2500     0.2000     3.2340    25.3160   118.8180     1.9320 
   59.3750    49.3640     0.2340     0.2170     2.8610    25.3160   118.3250     1.9380 
   59.5000    53.4160     0.2140     0.2310     2.4750    25.3250   117.7860     1.9400 
   59.6250    53.7190     0.1940     0.2420     2.3120    25.3370   117.2080     1.9380 
   59.7500    50.7910     0.1900     0.2460     2.3970    25.3390   116.5720     1.9370 
   59.8750    48.6110     0.2280     0.2450     2.4760    25.3330   115.8570     1.9400 
   60.0000    50.3770     0.3230     0.2400     2.5660    25.3280   115.0690     1.9520 
   60.1250    53.5040     0.4410     0.2350     2.6830    25.3270   114.2370     1.9770 
   60.2500    54.7530     0.5150     0.2320     2.7510    25.3290   113.3430     2.0100 
   60.3750    54.0110     0.4980     0.2310     2.8650    25.3320   112.3690     2.0480 
   60.5000    54.3290     0.4020     0.2290     3.2410    25.3340   111.3230     2.0900 
   60.6250    55.9020     0.2950     0.2250     3.6090    25.3300   110.2220     2.1330 
   60.7500    56.3060     0.2190     0.2220     3.4110    25.2900   109.0680     2.1760 
   60.8750    55.1750     0.1780     0.2240     3.1380    25.1520   107.8360     2.2100 
   61.0000    54.6410     0.1570     0.2350     2.7890    24.8700   106.4630     2.2400 
   61.1250    54.6450     0.1450     0.2510     2.3420    24.5680   104.9320     2.2700 
   61.2500    54.3220     0.1370     0.2650     1.9520    24.3530   103.2230     2.2980 
   61.3750    54.3190     0.1340     0.2740     1.7840    24.2400   101.2920     2.3230 
   61.5000    56.1230     0.1360     0.2720     1.7590    24.2040    99.0020     2.3420 
   61.6250    58.0240     0.1350     0.2610     1.7810    24.1960    96.2990     2.3580 
   61.7500    57.8580     0.1270     0.2430     1.8850    24.1950    93.1010     2.3700 
   61.8750    56.6530     0.1140     0.2210     2.0110    24.1940    89.3310     2.3780 
   62.0000    55.8530     0.0980     0.1970     2.0550    24.1830    84.8160     2.3900 
   62.1250    54.9190     0.0810     0.1730     2.0450    24.1550    79.5090     2.4070 
   62.2500    53.4490     0.0600     0.1470     2.1190    24.1270    73.3510     2.4310 
   62.3750    51.7990     0.0380     0.1200     2.3540    24.1180    66.2510     2.4580 
   62.5000    50.7120     0.0210     0.0960     2.9380    24.1440    58.0440     2.4880 
   62.6250    50.4160     0.0120     0.0760     3.5660    24.2090    48.9160     2.5230 
   62.7500    51.1390     0.0120     0.0680     3.6200    24.3300    39.1050     2.5580 
   62.8750    52.0700     0.0320     0.0860     2.9290    24.5270    28.9880     2.5740 
   63.0000    54.3920     0.1090     0.1790     3.0100    24.8270    19.1280     2.5300 
   63.1250    58.9400     0.3090     0.4150     3.9990    25.1220     9.9110     2.4260 
   63.2500    63.3660     0.7520     0.9030     5.6290    25.5590     1.5620     2.2950 
   63.3750    64.8600     1.6080     1.7850     7.2830    26.4890    -5.7350     2.1700 
   63.5000    64.3680     2.9470     3.1580     9.3930    28.3440   -11.6370     2.0720 
   63.6250    64.1240     4.2400     4.7030    12.3570    30.6340   -16.1970     2.0090 
   63.7500    63.4590     5.0060     5.9980    13.0970    32.2770   -19.5070     1.9830 
   63.8750    62.4710     5.2880     6.8290    11.7020    32.4970   -21.8100     1.9880 
   64.0000    63.5820     5.3240     7.1840    10.6980    31.4770   -23.4370     2.0120 
   64.1250    66.4460     5.2690     7.2310    10.4900    30.0640   -24.6970     2.0470 
