~V
VERS. 2.00: Ver 2.00
~W
STRT.M 50.0000:
STOP.M 281.0000:
STEP.M 0.1250:
NULL. -999.2500:
UWI. F10222:
~C
DEPT.M :
GR.API :
RML.OHMM :
RI. :
RXO.OHMM :
CALI.CM :
DEN.GM/CC :
SP.MV :
~A
# ...
  140.0000    78.4500    20.4000    18.5730    19.4790    30.0320     2.4030   -20.7700 
  140.1250    75.8760    20.4160    18.5960    19.8120    29.8750     2.3900   -20.8020 
  140.2500    73.7040    20.4030    18.5630    20.0400    29.6520     2.3890   -20.8290 
  140.3750    74.5990    20.4010    18.5190    19.4690    29.5180     2.4000   -20.8780 
  140.5000    77.9950    20.3480    18.4360    18.9590    29.4050     2.4190   -20.9060 
  140.6250    79.7580    20.0890    18.1940    20.1490    29.2120     2.4460   -20.9080 
  140.7500    78.8470    19.6390    17.7930    20.4400    29.0780     2.4690   -20.9290 
  140.8750    76.8780    19.1880    17.3640    18.8120    29.1650     2.4760   -20.9450 
  141.0000    77.2160    19.0460    17.1380    16.7650    29.4760     2.4630   -20.9570 
  141.1250    78.5900    19.6320    17.4380    16.3700    29.7520     2.4490   -20.9930 
  141.2500    77.5370    20.9170    18.2970    17.9670    29.8300     2.4450   -21.0040 
  141.3750    73.1800    22.6560    19.6050    21.0400    29.7640     2.4460   -21.0020 
  141.5000    68.5160    24.3680    21.0430    23.9180    29.3850     2.4420   -21.0570 
  141.6250    66.2770    25.3700    22.0410    25.3710    28.8290     2.4370   -21.0810 
  141.7500    65.4420    25.4870    22.3280    24.4300    28.7210     2.4400   -21.1010 
  141.8750    66.2730    24.8440    21.9230    22.3500    28.9140     2.4470   -21.1540 
  142.0000    70.3210    23.7150    21.0230    20.1040    29.0450     2.4480   -21.1760 
  142.1250    75.3420    22.2900    19.7950    18.6620    29.0330     2.4440   -21.2250 
  142.2500    77.3930    20.7150    18.4190    19.3210    29.2200     2.4430   -21.2840 
  142.3750    77.4660    19.1020    17.0190    19.8650    29.6620     2.4400   -21.3150 
  142.5000    78.6170    17.6500    15.7650    17.6280    30.2520     2.4280   -21.3490 
  142.6250    78.2500    16.6950    14.8970    14.2400    30.9190     2.4140   -21.4470 
  142.7500    73.3810    16.3310    14.4790    13.2390    31.4010     2.4060   -21.5330 
  142.8750    66.4900    16.5540    14.5320    13.9070    31.8550     2.4060   -21.6330 
  143.0000    62.4760    17.2290    14.9910    15.5200    32.2200     2.4080   -21.7840 
  143.1250    63.2960    18.1020    15.7100    16.4410    32.2570     2.4100   -21.8930 
  143.2500    64.7740    18.8060    16.3750    16.4180    31.8560     2.4120   -22.0140 
  143.3750    66.0650    19.0500    16.7180    15.3290    31.2080     2.4060   -22.2230 
  143.5000    68.3790    18.6300    16.5150    14.2960    30.8340     2.3730   -22.4280 
  143.6250    71.9030    17.4090    15.5940    14.4090    31.0550     2.3050   -22.6070 
  143.7500    73.2210    15.6890    14.2010    15.3890    31.3630     2.2260   -22.8380 
  143.8750    70.6970    13.7430    12.5710    14.6530    31.4140     2.1660   -23.0410 
  144.0000    68.6390    11.8530    10.9440    11.7830    31.1570     2.1410   -23.2360 
  144.1250    71.3590    10.2730     9.5340     9.3920    30.7070     2.1540   -23.4510 
  144.2500    72.6900     9.0280     8.3840     8.6440    30.2920     2.1810   -23.6400 
  144.3750    72.5970     8.1010     7.4990     8.1310    29.9610     2.2070   -23.8050 
  144.5000    74.1220     7.4500     6.8530     7.3990    29.7590     2.2240   -23.9460 
  144.6250    77.7030     7.0510     6.4400     6.8210    29.5620     2.2380   -24.0590 
  144.7500    78.7330     6.8190     6.1850     6.4940    29.3860     2.2500   -24.1790 
  144.8750    77.1670     6.7300     6.0550     6.5390    29.4790     2.2510   -24.2800 
  145.0000    76.5420     6.7470     6.0210     7.0740    29.9460     2.2330   -24.2900 
  145.1250    76.3330     6.8140     6.0430     7.4120    30.4090     2.1990   -24.2600 
  145.2500    75.7180     6.8700     6.0780     7.4930    30.4970     2.1610   -24.2060 
  145.3750    74.3050     6.9000     6.1090     7.4140    30.2750     2.1350   -24.0510 
  145.5000    72.2290     6.9070     6.1290     7.2340    29.7940     2.1290   -23.8590 
  145.6250    71.4600     6.9130     6.1320     7.0940    28.8160     2.1460   -23.6020 
  145.7500    72.8680     6.9420     6.1250     7.0540    27.5250     2.1660   -23.2070 
  145.8750    76.9380     7.0100     6.1190     7.1110    26.6690     2.1810   -22.7850 
  146.0000    82.0110     7.1040     6.1230     7.1360    26.3370     2.2020   -22.3420 
  146.1250    85.1250     7.1600     6.1160     7.2810    25.9940     2.2420   -21.8290 
  146.2500    86.4710     7.0970     6.0480     7.4340    25.4560     2.2890   -21.3200 
  146.3750    87.9070     6.8580     5.8650     7.6890    25.0950     2.3300   -20.8020 
  146.5000    91.6010     6.4380     5.5410     7.3420    25.0290     2.3560   -20.2630 
  146.6250    95.9700     5.9040     5.1120     6.1630    25.1290     2.3650   -19.7930 
  146.7500    97.3930     5.4100     4.6960     5.0500    25.3000     2.3600   -19.3760 
  146.8750    95.8160     5.0680     4.3750     4.7150    25.6060     2.3430   -19.0040 
  147.0000    93.4260     4.9380     4.1960     4.7150    25.9940     2.3280   -18.7570 
  147.1250    90.9770     5.0410     4.1880     4.8620    26.2910     2.3270   -18.5760 
  147.2500    88.0080     5.2590     4.2880     5.1280    26.3470     2.3410   -18.4380 
  147.3750    86.8150     5.4910     4.4370     5.4320    26.2270     2.3600   -18.3870 
  147.5000    87.7660     5.6600     4.5770     5.3700    26.0570     2.3740   -18.3750 
  147.6250    89.1900     5.7340     4.6700     5.3150    25.7850     2.3740   -18.3860 
  147.7500    89.1730     5.7580     4.7210     5.2570    25.4000     2.3690   -18.4620 
  147.8750    89.1660     5.7680     4.7470     5.3520    25.1120     2.3680   -18.5230 
  148.0000    89.8150     5.7810     4.7630     5.5680    25.0520     2.3730   -18.5420 
  148.1250    91.3140     5.8030     4.7820     5.8150    24.9750     2.3780   -18.5890 
  148.2500    94.1260     5.8290     4.8030     5.8600    24.7120     2.3760   -18.5920 
  148.3750    97.8990     5.8540     4.8170     5.8460    24.4490     2.3710   -18.5820 
  148.5000   102.1130     5.8720     4.8210     5.7340    24.3220     2.3640   -18.5990 
  148.6250   104.0180     5.8710     4.8180     5.6720    24.3280     2.3560   -18.5590 
  148.7500   102.5250     5.8540     4.8090     5.6560    24.3870     2.3450   -18.4910 
  148.8750    99.5270     5.8280     4.7970     5.6460    24.5220     2.3350   -18.4410 
  149.0000    97.8790     5.8060     4.7880     5.5100    24.6860     2.3250   -18.3580 
  149.1250    99.2510     5.8000     4.7860     5.3740    24.7510     2.3190   -18.2510 
  149.2500   101.4690     5.8050     4.7890     5.4270    24.6990     2.3200   -18.1910 
  149.3750    99.8920     5.8070     4.7850     5.5130    24.6010     2.3310   -18.1030 
  149.5000    93.7390     5.7910     4.7680     5.5400    24.5710     2.3460   -17.9630 
  149.6250    88.9310     5.7380     4.7250     5.5510    24.7090     2.3550   -17.8780 
  149.7500    86.1780     5.6500     4.6570     5.5360    24.9590     2.3570   -17.7690 
  149.8750    83.1970     5.5280     4.5680     5.4760    25.2150     2.3560   -17.6410 
  150.0000    80.6460     5.3850     4.4660     5.3700    25.4380     2.3590   -17.5630 
  150.1250    83.6730     5.2390     4.3640     5.1030    25.6910     2.3610   -17.4760 
  150.2500    88.5780     5.1080     4.2760     4.9570    25.9400     2.3570   -17.3960 
  150.3750    91.0320     5.0070     4.2150     4.8720    26.1650     2.3480   -17.3610 
  150.5000    92.0740     4.9440     4.1870     4.8740    26.2800     2.3390   -17.3570 
  150.6250    93.1100     4.9220     4.1840     4.8720    26.2460     2.3320   -17.3780 
  150.7500    93.3490     4.9200     4.1860     4.8960    26.1320     2.3310   -17.4260 
  150.8750    91.8980     4.9250     4.1920     5.0350    26.0380     2.3360   -17.4690 
  151.0000    90.2230     4.9250     4.1970     5.2590    25.9880     2.3460   -17.5310 
  151.1250    89.5470     4.9090     4.1990     5.2670    26.0260     2.3550   -17.6300 
