~V
VERS. 2.00: Ver 2.00
~W
STRT.M 56.0000:
STOP.M 275.0000:
STEP.M 0.1250:
NULL. -999.2500:
UWI. F10253:
~C
DEPT.M :
GR.API :
RML.OHMM :
RI. :
RXO.OHMM :
CALI.CM :
DEN.GM/CC :
SP.MV :
~A
# ...
  213.5000    55.6670    34.4210    28.9080    42.0200    23.4370     2.3000    -9.6410 
  213.6250    54.9410    37.3530    31.9570    40.7360    23.3780     2.2840    -9.8020 
  213.7500    54.3170    40.1260    34.5930    41.3110    23.3720     2.2680    -9.9330 
  213.8750    54.1410    43.7400    37.6140    46.6100    23.4170     2.2490   -10.0540 
  214.0000    53.3730    48.2990    41.3330    55.2760    23.5210     2.2240   -10.1480 
  214.1250    52.6650    53.1260    45.3670    66.4930    23.6940     2.1970   -10.2320 
  214.2500    53.3230    56.9860    48.8080    76.7350    23.8980     2.1750   -10.3320 
  214.3750    54.6720    58.1190    50.1940    81.8900    24.0810     2.1670   -10.4430 
  214.5000    55.0030    56.4700    49.2760    77.4570    24.1560     2.1740   -10.5470 
  214.6250    54.3450    52.9590    46.6510    64.2030    24.1350     2.1920   -10.6430 
  214.7500    53.7250    49.3030    43.6620    49.4770    24.1610     2.2130   -10.7320 
  214.8750    55.4300    47.4700    41.9570    43.0310    24.2050     2.2260   -10.8080 
  215.0000    56.6950    47.9300    42.0990    43.3890    24.2690     2.2310   -10.8950 
  215.1250    54.9940    50.4950    44.1020    49.1020    24.3380     2.2300   -10.9740 
  215.2500    50.8280    54.4650    47.5440    57.6990    24.4150     2.2250   -11.0280 
  215.3750    48.0930    58.7230    51.6310    62.5530    24.4500     2.2220   -11.0530 
  215.5000    47.9080    62.0770    55.2400    63.2690    24.4470     2.2220   -11.0630 
  215.6250    48.5210    63.8760    57.6440    62.9920    24.4330     2.2230   -11.0680 
  215.7500    49.1650    64.0040    58.5410    63.6050    24.4230     2.2230   -11.0920 
  215.8750    50.8770    62.7350    57.9850    64.0840    24.4140     2.2220   -11.1080 
  216.0000    53.9600    60.9640    56.7640    63.1030    24.4030     2.2200   -11.1090 
  216.1250    54.7760    59.1840    55.3600    60.6680    24.4060     2.2190   -11.1000 
  216.2500    51.5050    57.7200    54.1180    57.3460    24.4280     2.2200   -11.0890 
  216.3750    48.8280    56.8150    53.3030    54.4790    24.4420     2.2220   -11.0850 
  216.5000    49.5260    56.3060    52.8380    52.9230    24.4360     2.2250   -11.0840 
  216.6250    50.6910    55.9320    52.5270    53.1640    24.4240     2.2270   -11.0880 
  216.7500    48.7890    55.4200    52.1360    54.0990    24.4050     2.2270   -11.0800 
  216.8750    45.6510    54.6880    51.5630    53.5140    24.3670     2.2290   -11.0640 
  217.0000    44.3530    54.1230    51.1010    51.1980    24.2960     2.2350   -11.0630 
  217.1250    44.7940    54.2920    51.2260    46.9610    24.2010     2.2460   -11.0760 
  217.2500    46.5040    55.7270    52.4250    43.9170    24.0930     2.2590   -11.0890 
  217.3750    48.0070    58.8880    55.1930    47.0110    24.0070     2.2670   -11.1090 
  217.5000    48.5660    63.1240    59.0620    55.0970    23.9840     2.2660   -11.1510 
  217.6250    48.0390    67.5700    63.3270    64.6220    24.0410     2.2540   -11.2340 
  217.7500    46.9500    71.1610    67.0220    70.3190    24.1690     2.2360   -11.3360 
  217.8750    47.2580    72.7590    68.9240    70.2270    24.3490     2.2200   -11.4660 
  218.0000    49.5600    72.5190    68.9400    68.3910    24.4800     2.2100   -11.6210 
  218.1250    52.6230    71.0440    67.4530    67.3660    24.5160     2.2070   -11.7710 
  218.2500    54.1870    69.2270    65.2010    66.1190    24.5010     2.2080   -11.9190 
  218.3750    52.7490    67.5620    63.0170    65.1580    24.4790     2.2090   -12.0780 
  218.5000    50.9580    66.3960    61.4970    64.2100    24.4770     2.2090   -12.2440 
  218.6250    50.7220    65.9340    61.0740    62.1630    24.4720     2.2070   -12.3950 
  218.7500    51.2740    67.0600    62.2320    59.9750    24.4680     2.2010   -12.5680 
  218.8750    50.7070    70.9890    65.9810    61.6250    24.4820     2.1930   -12.7280 
  219.0000    50.5130    77.7250    72.4520    69.1280    24.5120     2.1830   -12.8750 
  219.1250    51.4660    86.8710    81.4690    82.0850    24.5450     2.1730   -13.0410 
  219.2500    52.3010    96.7590    91.6990   100.0270    24.5870     2.1650   -13.2180 
  219.3750    51.8870   103.3920    99.5390   123.0780    24.6280     2.1610   -13.3760 
  219.5000    51.4350   103.2550   101.2920   142.8640    24.6350     2.1610   -13.5100 
  219.6250    52.2350    94.4600    94.6270   149.9240    24.6030     2.1690   -13.6480 
  219.7500    53.5880    78.7000    80.4560   131.5730    24.5410     2.1860   -13.7710 
  219.8750    53.0870    61.7040    63.7170    92.3080    24.4420     2.2120   -13.8580 
  220.0000    52.6280    48.8070    50.2650    53.7510    24.3100     2.2400   -13.9370 
  220.1250    55.7890    41.5190    42.1060    30.0130    24.1560     2.2650   -14.0020 
  220.2500    60.8640    39.6710    39.2410    23.1790    24.0410     2.2790   -14.0670 
  220.3750    61.9730    43.4160    41.8660    28.5070    23.9970     2.2790   -14.1500 
  220.5000    59.3740    51.3800    48.8620    39.8000    24.0500     2.2690   -14.2420 
  220.6250    55.7780    62.8690    59.9040    56.2840    24.1580     2.2560   -14.3020 
  220.7500    52.3250    76.5850    74.0020    77.9580    24.2730     2.2430   -14.3320 
  220.8750    50.0890    90.0400    88.7910    96.3280    24.3140     2.2340   -14.4040 
  221.0000    49.9900   100.3610   100.8120   107.4710    24.3110     2.2280   -14.4830 
  221.1250    50.7090   105.6180   107.5950   112.6910    24.2960     2.2260   -14.5660 
  221.2500    51.0110   105.3670   108.3050   113.8000    24.2750     2.2240   -14.6280 
  221.3750    51.6930   100.4210   103.4440   109.8610    24.2590     2.2230   -14.6680 
  221.5000    53.8910    93.8070    96.2430   102.3770    24.2730     2.2210   -14.6940 
  221.6250    56.5680    87.2770    88.6890    91.5460    24.3100     2.2220   -14.7140 
  221.7500    57.9740    81.9610    82.1550    81.5580    24.3270     2.2260   -14.7650 
  221.8750    57.3710    78.8340    77.8210    76.0940    24.2980     2.2320   -14.8070 
  222.0000    56.4900    77.7640    75.6780    72.4980    24.2510     2.2350   -14.8030 
  222.1250    54.2810    78.5560    75.5980    69.7640    24.2130     2.2330   -14.7810 
  222.2500    51.9010    80.8030    77.2150    68.3610    24.1850     2.2250   -14.7620 
  222.3750    53.3400    84.0870    80.1720    69.1800    24.1380     2.2150   -14.7410 
  222.5000    56.9930    87.7560    83.7490    73.3000    24.0840     2.2060   -14.7180 
  222.6250    58.5780    91.5000    87.5910    79.7810    24.0690     2.2000   -14.6900 
  222.7500    57.0410    95.1400    91.4590    85.2480    24.0970     2.1980   -14.6190 
  222.8750    54.8310    98.4470    95.0920    91.8350    24.1620     2.1960   -14.4930 
  223.0000    53.2840   101.0990    98.1560   100.8150    24.2490     2.1920   -14.3670 
  223.1250    52.9610   102.4970   100.0900   109.0450    24.3440     2.1890   -14.2220 
  223.2500    54.1480   101.8990   100.1770   112.5500    24.4030     2.1910   -14.0780 
  223.3750    54.9660    98.2780    97.3530   110.6850    24.3800     2.2040   -13.9510 
  223.5000    54.1630    92.2470    92.0590   105.1530    24.3200     2.2290   -13.8140 
  223.6250    53.0830    84.7930    85.1280    97.5790    24.2270     2.2570   -13.6780 
  223.7500    52.6060    77.3110    77.8830    87.3360    24.1130     2.2780   -13.5560 
  223.8750    53.1660    71.4280    71.9440    72.9810    24.0000     2.2780   -13.4700 
  224.0000    55.3640    67.6710    67.9770    62.7970    23.9480     2.2590   -13.3840 
  224.1250    57.7340    66.0800    66.1040    61.4100    23.9930     2.2300   -13.3020 
  224.2500    57.9000    66.2500    66.0000    65.6560    24.0860     2.2050   -13.2360 
  224.3750    56.7320    67.5500    67.1340    71.6840    24.1570     2.1920   -13.1820 
  224.5000    57.8900    68.9780    68.5340    75.7970    24.2050     2.1890   -13.1460 
  224.6250    61.0080    70.0330    69.6640    74.9000    24.2080     2.1930   -13.1240 
