~V
VERS. 2.00: Ver 2.00
~W
STRT.M 52.0000:
STOP.M 254.0000:
STEP.M 0.1250:
NULL. -999.2500:
UWI. F10213:
~C
DEPT.M :
DEN.GM/CC :
GR.API :
RML.OHMM :
RI. :
RXO.OHMM :
CALI.CM :
SP.MV :
~A
# ...
  175.7500     2.2850    68.2540    67.8000    71.6930    80.5990    25.5470   -28.4640 
  175.8750     2.2840    69.0350    71.1250    74.2660    84.8550    25.7450   -28.4680 
  176.0000     2.2770    68.5360    76.6460    79.4380    86.7250    25.7970   -28.4910 
  176.1250     2.2670    67.1830    83.6110    86.4360    89.0350    25.7860   -28.5110 
  176.2500     2.2560    64.7120    91.0240    93.9620    92.4790    25.7630   -28.6130 
  176.3750     2.2480    61.8790    98.9320   101.7730    98.3340    25.7360   -28.7610 
  176.5000     2.2420    60.3280   108.3740   110.7150   112.7160    25.6670   -28.8880 
  176.6250     2.2370    60.6810   122.2020   123.6150   131.6300    25.3990   -29.0280 
  176.7500     2.2340    61.2660   142.6950   143.0790   141.2270    24.8520   -29.1990 
  176.8750     2.2300    61.6760   173.0080   172.5060   153.7030    24.1400   -29.3880 
  177.0000     2.2230    62.8300   216.8230   215.4460   184.0280    23.5580   -29.5530 
  177.1250     2.2050    63.5140   278.8510   275.3580   306.2000    23.3990   -29.7290 
  177.2500     2.1800    61.1300   346.1920   339.8300   454.2640    23.8110   -29.8520 
  177.3750     2.1580    56.7280   386.3190   382.8260   520.4370    24.6180   -29.9440 
  177.5000     2.1420    54.1950   362.8280   373.4200   489.5630    25.4660   -30.0600 
  177.6250     2.1350    54.2740   283.8780   305.1960   422.1690    25.7210   -30.1910 
  177.7500     2.1360    54.3900   207.2710   226.2280   335.6520    25.5240   -30.2860 
  177.8750     2.1460    55.2560   152.7770   163.4530   230.3720    25.0620   -30.3340 
  178.0000     2.1640    58.5980   120.3830   123.5780   138.4860    24.4950   -30.3340 
  178.1250     2.1890    61.2770   107.4040   105.8870    85.0220    23.9310   -30.3570 
  178.2500     2.2120    62.2550   107.0430   102.4800    62.7010    23.5830   -30.4170 
  178.3750     2.2250    64.0680   117.0700   110.6690    60.8810    23.4510   -30.4670 
  178.5000     2.2250    67.0380   134.4750   127.3600    75.0580    23.5820   -30.4750 
  178.6250     2.2160    65.5880   150.4250   144.4620   109.7810    23.9370   -30.4370 
  178.7500     2.2080    59.9630   151.5360   149.0650   139.8120    24.3390   -30.4020 
  178.8750     2.2070    57.1610   133.3590   135.1250   124.3720    24.6190   -30.3760 
  179.0000     2.2150    60.8570   105.6270   109.1580    79.3160    24.7260   -30.3400 
  179.1250     2.2270    64.9790    82.0050    84.2600    47.5600    24.6700   -30.1940 
  179.2500     2.2390    64.3270    65.8510    66.4200    33.8670    24.5760   -29.9590 
  179.3750     2.2500    60.3560    55.7020    55.1240    33.8370    24.3890   -29.7100 
  179.5000     2.2640    57.5920    49.4590    48.2290    49.3000    24.0910   -29.5170 
  179.6250     2.2800    57.9130    45.9260    44.2600    53.9760    23.9900   -29.3260 
  179.7500     2.2920    60.6640    44.1080    41.9940    47.2960    24.1140   -29.0860 
  179.8750     2.2980    64.6740    44.0000    41.2930    40.7400    24.3320   -28.8420 
  180.0000     2.2960    66.6790    45.7380    42.2000    40.0670    24.4520   -28.6800 
  180.1250     2.2830    64.9100    49.5490    45.0050    42.8880    24.3780   -28.5840 
  180.2500     2.2640    61.6560    54.5000    49.0660    48.9870    24.2180   -28.5030 
  180.3750     2.2490    59.3230    59.5030    53.4770    53.5510    24.0610   -28.4130 
  180.5000     2.2450    59.8740    63.4160    57.0380    51.9290    23.9630   -28.3140 
  180.6250     2.2510    62.1460    65.5730    58.7900    46.3590    24.0080   -28.2610 
  180.7500     2.2600    63.0020    67.0130    59.5280    42.6730    24.1590   -28.2500 
  180.8750     2.2690    60.3020    68.8580    60.2990    42.5170    24.3320   -28.2440 
  181.0000     2.2770    58.1690    71.8420    61.9270    46.9650    24.5090   -28.1980 
  181.1250     2.2810    60.2150    76.0580    64.7760    58.2940    24.8090   -28.1600 
  181.2500     2.2800    62.2710    80.5120    68.1580    70.1660    25.1860   -28.1220 
  181.3750     2.2790    61.8900    84.3040    71.3390    77.8370    25.5360   -28.0880 
  181.5000     2.2760    60.8800    86.8350    73.7240    80.4040    25.8020   -28.0270 
  181.6250     2.2650    62.1180    87.7740    74.9360    79.4730    26.0270   -27.9190 
  181.7500     2.2520    62.2560    87.4500    75.1940    76.6470    26.1540   -27.8140 
  181.8750     2.2480    60.5390    85.6660    74.3750    73.3390    26.1470   -27.7310 
  182.0000     2.2540    57.8240    81.8730    72.0100    68.7810    25.9840   -27.6430 
  182.1250     2.2640    57.5060    75.0600    67.0330    62.7170    25.6420   -27.5210 
  182.2500     2.2700    60.9500    65.9550    59.7710    55.1120    25.2400   -27.4110 
  182.3750     2.2740    66.4520    55.8650    51.2780    46.1880    24.9910   -27.3510 
  182.5000     2.2800    70.1550    46.4820    43.1310    36.9430    25.0350   -27.3440 
  182.6250     2.2910    70.9110    39.5510    36.9280    29.0140    25.3910   -27.3590 
  182.7500     2.3050    71.0560    35.1670    32.8130    22.4050    25.5590   -27.3620 
  182.8750     2.3230    69.5320    33.0190    30.5780    18.9650    25.2590   -27.3470 
  183.0000     2.3400    68.7070    32.4170    29.7550    17.1240    24.5180   -27.3560 
  183.1250     2.3480    73.4550    32.5070    29.7390    17.9660    23.7770   -27.4520 
  183.2500     2.3470    78.0290    32.3850    29.6840    19.9450    23.4130   -27.5910 
  183.3750     2.3430    76.0750    31.7270    29.1980    21.6560    23.3540   -27.6790 
  183.5000     2.3420    71.3140    30.6620    28.2920    23.2060    23.3960   -27.7100 
  183.6250     2.3450    72.9100    29.8310    27.4220    23.5870    23.6350   -27.7070 
  183.7500     2.3460    76.7930    29.9360    27.1500    20.3220    24.0000   -27.6950 
  183.8750     2.3410    77.6690    31.4690    27.8750    17.8950    24.1610   -27.6920 
  184.0000     2.3280    75.6690    34.6910    29.8810    17.3170    23.8210   -27.7220 
  184.1250     2.3120    72.0110    39.8400    33.5610    18.6350    23.2680   -27.7400 
  184.2500     2.2960    67.0020    46.2410    38.5470    20.7260    22.9410   -27.7470 
  184.3750     2.2820    61.4290    53.2580    44.3670    22.8390    22.7950   -27.7760 
  184.5000     2.2680    57.7300    60.1440    50.2860    23.9800    22.7570   -27.8320 
  184.6250     2.2550    58.2430    66.0920    55.4500    25.4200    22.8230   -27.9650 
  184.7500     2.2430    61.3090    70.9470    59.6450    26.4270    22.7460   -28.1370 
  184.8750     2.2360    64.8380    74.7810    62.9440    25.4260    22.5060   -28.2910 
  185.0000     2.2400    67.1300    77.8530    65.5660    22.9650    22.1730   -28.4000 
  185.1250     2.2510    67.1490    80.6510    67.8350    21.1450    21.8250   -28.4840 
  185.2500     2.2610    65.1160    83.9950    70.3670    20.7830    21.5480   -28.5740 
  185.3750     2.2610    61.9320    88.5830    73.7400    22.0200    21.6470   -28.6860 
  185.5000     2.2520    59.5150    94.7600    78.3430    24.2010    22.0510   -28.7900 
  185.6250     2.2360    60.6770   102.2060    84.1760    27.4150    22.4990   -28.8670 
  185.7500     2.2200    65.1550   108.9520    89.9210    31.4010    22.7900   -28.9430 
  185.8750     2.2090    69.4620   112.1310    93.4370    34.2490    22.8950   -29.0050 
  186.0000     2.2070    71.0920   108.6860    92.0860    34.5450    22.8840   -29.0280 
  186.1250     2.2140    71.9250    96.7740    83.6000    32.7400    22.8190   -29.0050 
  186.2500     2.2250    72.1060    81.2010    71.3010    30.4500    22.7320   -28.9890 
  186.3750     2.2340    70.2550    66.4900    58.9860    27.5180    22.6420   -28.9810 
  186.5000     2.2360    68.4350    55.7200    49.5230    23.5000    22.5490   -28.9790 
  186.6250     2.2350    70.6300    50.8090    44.6470    20.0600    22.4160   -28.9280 
  186.7500     2.2380    71.8310    50.7130    43.5950    18.2590    22.2050   -28.8120 
  186.8750     2.2470    69.3390    54.9770    46.1990    18.1450    21.9750   -28.7000 
