~V
VERS. 2.00: Ver 2.00
~W
STRT.M 57.0000:
STOP.M 259.0000:
STEP.M 0.1250:
NULL. -999.2500:
UWI. F10209:
~C
DEPT.M :
SP.MV :
DEN.GM/CC :
GR.API :
RML.OHMM :
RI. :
RXO.OHMM :
CALI.CM :
~A
# ...
   90.7500    -3.3580     2.3600   111.4350     7.7930     6.2700     6.0060    24.3460 
   90.8750    -3.4280     2.3410   110.2900     7.5300     5.9140     5.6670    24.3300 
   91.0000    -3.6480     2.3220   104.9180     7.5460     5.7590     5.7370    24.2830 
   91.1250    -4.0230     2.3000   102.0310     7.6320     5.7110     6.0520    24.1980 
   91.2500    -4.5360     2.2780   103.4100     7.6330     5.6790     6.5080    24.1140 
   91.3750    -5.1780     2.2720   105.6410     7.6290     5.6890     6.7960    24.0690 
   91.5000    -5.9880     2.2920   106.8790     7.8730     5.8580     6.6090    24.1380 
   91.6250    -7.0370     2.3380   105.5150     8.5540     6.2840     6.4830    24.2800 
   91.7500    -8.3810     2.3880    99.1320     9.7050     7.0060     7.8800    24.4150 
   91.8750   -10.0590     2.4070    87.3910    11.0970     7.9560    13.5610    24.4370 
   92.0000   -11.9300     2.3780    77.7280    12.1530     8.7890    21.3770    24.5390 
   92.1250   -13.8790     2.3090    73.6450    12.4430     9.1730    19.8840    24.7880 
   92.2500   -15.8580     2.2280    75.2050    11.9380     9.0030    14.8750    24.9160 
   92.3750   -17.8020     2.1730    78.8940    11.0430     8.4780    12.8830    24.8050 
   92.5000   -19.5630     2.1500    81.6530    10.3410     7.9900    12.5830    24.6710 
   92.6250   -21.0490     2.1470    80.6650    10.0640     7.7160    12.4840    24.6660 
   92.7500   -22.2050     2.1420    76.4070    10.1840     7.6850    12.2490    24.7870 
   92.8750   -22.8870     2.1260    74.6380    10.4960     7.8120    12.4130    24.9020 
   93.0000   -23.2090     2.1040    75.0540    10.7390     7.9310    12.9700    24.9220 
   93.1250   -23.2890     2.0890    74.4730    10.8130     7.9700    13.4110    24.8650 
   93.2500   -23.2120     2.0900    72.7320    10.7200     7.9160    13.1880    24.8070 
   93.3750   -23.0520     2.1070    72.0290    10.5430     7.8100    12.6690    24.7550 
   93.5000   -22.8950     2.1310    72.5570    10.4320     7.7310    12.7520    24.6060 
   93.6250   -22.7330     2.1530    73.0160    10.4720     7.7270    13.2180    24.3810 
   93.7500   -22.5720     2.1700    73.2200    10.6830     7.8180    13.3890    24.1570 
   93.8750   -22.4720     2.1790    73.9650    11.0160     7.9870    13.3990    24.1000 
   94.0000   -22.4740     2.1810    76.5870    11.3320     8.1610    13.4700    24.1060 
   94.1250   -22.5810     2.1740    80.0460    11.5330     8.2800    13.5110    24.3160 
   94.2500   -22.7240     2.1580    80.7050    11.5630     8.3000    13.4090    24.7040 
   94.3750   -22.7580     2.1320    76.9210    11.3980     8.1890    13.3720    25.0550 
   94.5000   -22.6390     2.0990    73.5650    11.1190     7.9870    13.5070    25.0860 
   94.6250   -22.4050     2.0640    72.9160    10.7960     7.7410    13.7620    25.1100 
   94.7500   -22.0470     2.0390    73.5530    10.5030     7.5020    13.5510    25.3100 
   94.8750   -21.6000     2.0360    75.4170    10.3330     7.3320    12.6620    25.3700 
   95.0000   -21.1250     2.0550    78.5630    10.3020     7.2570    12.1560    24.9670 
   95.1250   -20.6410     2.0880    81.3420    10.3970     7.2760    12.4330    24.4000 
   95.2500   -20.2090     2.1240    83.0730    10.5650     7.3650    13.3970    24.0200 
   95.3750   -19.9470     2.1530    83.5500    10.7240     7.4810    14.3490    24.0390 
   95.5000   -19.8830     2.1710    83.9190    10.7990     7.5650    14.9360    24.2020 
   95.6250   -19.9560     2.1780    83.6080    10.7620     7.5860    14.4100    24.3650 
   95.7500   -20.1120     2.1730    81.4590    10.6440     7.5460    13.6180    24.3810 
   95.8750   -20.2810     2.1540    78.5900    10.5050     7.4660    13.3370    24.3710 
   96.0000   -20.3930     2.1300    76.0430    10.3780     7.3730    13.2220    24.6770 
   96.1250   -20.3710     2.1080    74.5990    10.2520     7.2710    12.6240    25.0900 
   96.2500   -20.1730     2.0920    75.2100    10.1040     7.1600    12.1700    25.4210 
   96.3750   -19.8110     2.0860    77.0590     9.9280     7.0410    11.8540    25.6750 
   96.5000   -19.3580     2.0900    77.9410     9.7780     6.9360    11.3100    25.7430 
   96.6250   -18.8910     2.1040    77.6240     9.7270     6.8760    10.8290    25.6080 
   96.7500   -18.4760     2.1250    79.7370     9.8110     6.8890    10.8120    25.3900 
   96.8750   -18.1220     2.1470    84.6120    10.0160     6.9820    11.2540    25.2340 
   97.0000   -17.7990     2.1600    85.6120    10.2320     7.1060    11.5550    25.1930 
   97.1250   -17.5030     2.1600    82.0250    10.3670     7.2050    11.8960    25.1740 
   97.2500   -17.2370     2.1510    78.6810    10.3580     7.2330    12.3870    25.0690 
   97.3750   -17.0040     2.1430    81.3250    10.1940     7.1640    11.9290    24.7860 
   97.5000   -16.7950     2.1440    85.6050     9.9890     7.0530    11.0940    24.3990 
   97.6250   -16.6270     2.1550    86.2450     9.8430     6.9550    10.3060    23.9990 
   97.7500   -16.5410     2.1690    83.8420     9.8370     6.9240    10.0520    23.7050 
   97.8750   -16.5930     2.1790    83.4790    10.0370     7.0160    10.2010    23.6370 
   98.0000   -16.7760     2.1850    84.4580    10.3670     7.2050    10.8560    23.7310 
   98.1250   -17.1240     2.1850    86.2830    10.7260     7.4430    11.2600    23.9110 
   98.2500   -17.6890     2.1800    90.3870    10.9930     7.6560    11.4750    24.0210 
   98.3750   -18.4960     2.1680    93.4310    11.0360     7.7530    12.6960    24.0530 
   98.5000   -19.3890     2.1530    89.4670    10.8800     7.7230    13.9250    24.0960 
   98.6250   -20.2490     2.1410    79.8510    10.6110     7.6020    13.8460    24.0870 
   98.7500   -21.0090     2.1390    72.0290    10.3510     7.4550    13.1180    24.0210 
   98.8750   -21.6880     2.1470    68.5050    10.2340     7.3600    12.6810    23.8420 
   99.0000   -22.3880     2.1580    67.3210    10.2880     7.3540    12.6010    23.7850 
   99.1250   -23.1530     2.1660    68.5470    10.4810     7.4420    12.9450    23.8720 
   99.2500   -23.9390     2.1670    70.3020    10.7250     7.5870    13.7780    24.0430 
   99.3750   -24.6680     2.1640    72.1420    10.8810     7.7160    14.5230    24.2530 
   99.5000   -25.4130     2.1560    72.7950    10.8880     7.7680    14.7590    24.3210 
   99.6250   -26.2490     2.1460    72.3650    10.7530     7.7290    14.7050    24.2530 
   99.7500   -27.1550     2.1340    72.3850    10.5330     7.6220    14.5400    24.1460 
   99.8750   -28.0010     2.1220    72.5130    10.3020     7.4870    14.0510    24.2030 
  100.0000   -28.6780     2.1110    71.0080    10.1100     7.3680    14.0860    24.2830 
  100.1250   -29.1220     2.1020    65.0310     9.9690     7.2810    14.3180    24.3860 
  100.2500   -29.3160     2.0960    59.3140     9.8770     7.2360    14.5600    24.4850 
  100.3750   -29.2840     2.0950    59.8820     9.8400     7.2490    14.6760    24.5400 
  100.5000   -29.0470     2.0980    62.2580     9.8510     7.3110    14.6420    24.5180 
  100.6250   -28.5680     2.1070    61.1650     9.9210     7.4280    14.8600    24.4870 
  100.7500   -27.8020     2.1190    57.2770    10.0640     7.6050    15.0900    24.4860 
  100.8750   -26.7280     2.1310    58.7700    10.2860     7.8410    14.7990    24.4570 
  101.0000   -25.4400     2.1440    65.5560    10.5400     8.0940    14.0680    24.4800 
  101.1250   -23.9870     2.1600    71.6960    10.7730     8.3170    13.6000    24.6040 
  101.2500   -22.4370     2.1790    74.5500    10.9040     8.4420    13.5930    24.7700 
  101.3750   -20.7660     2.1930    73.2100    10.7700     8.3420    13.6340    24.7300 
  101.5000   -18.9950     2.1960    70.4640    10.3180     7.9800    12.2000    24.5090 
  101.6250   -17.0810     2.1910    70.6620     9.5560     7.3680    11.0580    24.3970 
  101.7500   -15.0580     2.1890    75.9900     8.5940     6.5990    10.1040    24.4200 
  101.8750   -13.0790     2.2060    83.7910     7.6220     5.8240     8.0480    24.5100 
