~V
VERS. 2.00: Ver 2.00
~W
STRT.M 56.0000:
STOP.M 284.0000:
STEP.M 0.1250:
NULL. -999.2500:
UWI. F10233:
~C
DEPT.M :
GR.API :
RML.OHMM :
RI. :
RXO.OHMM :
CALI.CM :
DEN.GM/CC :
SP.MV :
~A
# ...
  179.7500    66.3080    67.4970    63.3540    45.5780    25.4280     2.2220   -25.6460 
  179.8750    64.2420    74.2070    67.9400    66.8020    25.4000     2.2110   -25.5840 
  180.0000    62.4010    87.9150    79.3270   105.7460    25.3580     2.2070   -25.5030 
  180.1250    61.4710   111.4430   100.3980   131.6170    25.2960     2.2160   -25.5240 
  180.2500    59.6830   145.9500   132.2060   144.2190    25.1780     2.2390   -25.4540 
  180.3750    57.3870   194.6560   177.2730   190.5250    25.0180     2.2830   -25.3610 
  180.5000    55.0960   261.0100   237.6290   300.2030    24.8450     2.3550   -25.3810 
  180.6250    53.2660   343.3530   309.8380   294.9040    24.5610     2.4390   -25.4010 
  180.7500    52.5240   401.2700   362.1380   203.6070    24.0300     2.4920   -25.3260 
  180.8750    52.0680   374.1460   350.5890   136.5980    23.2660     2.4970   -25.3340 
  181.0000    50.7910   268.9580   270.7680    96.3420    22.5900     2.4740   -25.4180 
  181.1250    49.3230   170.1300   178.3810    60.6880    22.2150     2.4390   -25.3870 
  181.2500    51.4280   109.1920   113.7780    38.1230    22.1210     2.3950   -25.4240 
  181.3750    56.8380    76.9620    77.1530    26.4850    22.2540     2.3500   -25.5520 
  181.5000    61.3980    62.3340    59.9930    22.5080    22.4810     2.3170   -25.5890 
  181.6250    62.1830    59.1510    55.6260    24.3110    22.6780     2.3010   -25.5970 
  181.7500    63.5680    61.6320    57.1570    26.8950    22.7640     2.2910   -25.7240 
  181.8750    67.4470    67.6140    62.4760    27.4220    22.7490     2.2850   -25.7910 
  182.0000    70.5120    74.8030    69.5950    28.1710    22.6740     2.2810   -25.7850 
  182.1250    68.4700    79.5100    75.1000    32.8290    22.6580     2.2790   -25.8920 
  182.2500    63.6430    79.5010    76.3940    38.4600    22.7160     2.2820   -25.9220 
  182.3750    59.8640    74.8760    73.0910    36.8690    22.7670     2.2900   -25.8380 
  182.5000    60.5470    67.6740    66.7810    28.3060    22.7560     2.3020   -25.7910 
  182.6250    65.8330    60.6220    59.9020    21.2620    22.7360     2.3120   -25.7700 
  182.7500    70.6570    55.4570    54.4120    19.6870    22.7480     2.3160   -25.6420 
  182.8750    72.2250    52.6570    50.9890    20.8000    22.7900     2.3150   -25.5040 
  183.0000    70.6760    51.9790    49.5530    22.5450    22.7740     2.3110   -25.4430 
  183.1250    67.6170    52.9300    49.6960    23.2480    22.6510     2.3060   -25.2940 
  183.2500    65.1190    54.5280    50.4270    25.3590    22.6470     2.2920   -25.1480 
  183.3750    67.0650    56.4490    51.3590    30.8600    23.0180     2.2620   -25.1340 
  183.5000    71.7950    58.9200    52.6390    37.9670    23.6390     2.2180   -25.1690 
  183.6250    73.2280    63.0700    55.2610    43.8630    24.0970     2.1800   -25.1250 
  183.7500    72.9710    69.7170    60.0080    54.5470    24.3300     2.1590   -25.1910 
  183.8750    74.2740    79.5080    67.4570    70.3310    24.3650     2.1510   -25.3250 
  184.0000    75.3790    92.5180    77.6660    88.8700    24.4130     2.1520   -25.3710 
  184.1250    72.5230   107.8280    97.7330   109.3810    24.6250     2.1630   -25.5280 
  184.2500    67.4800   121.9270   110.2480   126.5850    24.7720     2.1820   -25.7550 
  184.3750    65.2700   130.8040   118.6280   145.0950    24.8570     2.2040   -25.8680 
  184.5000    66.0710   131.5090   120.3160   146.5340    24.9090     2.2220   -25.9140 
  184.6250    67.0820   123.7560   114.5100   126.0530    24.9640     2.2300   -26.0530 
  184.7500    65.8190   113.0830   105.4330   110.0380    24.9470     2.2290   -26.0910 
  184.8750    64.5350   103.0370    96.1690    94.3090    24.7970     2.2200   -26.0790 
  185.0000    66.0930    95.2040    88.5120    73.3660    24.4820     2.2050   -26.1590 
  185.1250    69.1180    89.6600    83.0330    66.0840    24.0330     2.1910   -26.0950 
  185.2500    71.1640    85.1060    78.7280    70.6760    23.5890     2.1910   -25.9600 
  185.3750    71.7390    81.0050    75.0450    68.8940    23.1790     2.2090   -25.9360 
  185.5000    70.4680    77.4470    71.9100    56.4790    22.8480     2.2360   -25.9820 
  185.6250    68.0180    75.2880    69.9210    49.0140    22.6850     2.2540   -25.9010 
  185.7500    66.6040    75.0350    69.5030    51.4120    22.6930     2.2500   -25.8720 
  185.8750    68.7350    77.0530    71.0480    59.9130    22.9080     2.2290   -25.9300 
  186.0000    73.0450    81.3310    74.6360    68.6120    23.3190     2.2070   -25.9030 
  186.1250    75.5260    87.5840    80.0870    76.1830    23.8500     2.1990   -25.9410 
  186.2500    74.7640    94.5600    86.2780    84.8870    24.1610     2.2030   -26.0950 
  186.3750    72.7430   101.3490    92.4110    90.7440    24.3060     2.2110   -26.2080 
  186.5000    70.9340   107.2540    97.8510    93.2440    24.4710     2.2170   -26.2200 
  186.6250    68.4880   111.5420   101.8970    97.5290    24.7820     2.2220   -26.3610 
  186.7500    66.8050   114.1940   104.4540   108.8280    24.9470     2.2300   -26.5440 
  186.8750    66.6330   115.1770   105.4860   115.7260    24.9160     2.2420   -26.6220 
  187.0000    67.7510   114.6050   105.1370   113.4200    24.7060     2.2540   -26.7760 
  187.1250    68.8460   112.7380   103.6740   106.3510    24.4520     2.2610   -26.9530 
  187.2500    68.3760   110.7400   102.1040   101.6660    24.3150     2.2630   -26.9990 
  187.3750    66.6050   109.8700   101.5230    99.8260    24.2760     2.2620   -27.0630 
  187.5000    64.7460   111.4590   103.1120    93.9010    24.3660     2.2560   -27.2520 
  187.6250    63.8600   117.3650   108.6000    85.0030    24.6230     2.2450   -27.3300 
  187.7500    62.6140   127.1380   117.8740    97.7860    24.8370     2.2340   -27.3380 
  187.8750    60.7410   138.4310   129.3280   136.9890    24.8710     2.2290   -27.4370 
  188.0000    59.6170   145.4140   138.2290   184.6240    24.7600     2.2350   -27.4480 
  188.1250    60.1070   137.5940   135.0120   201.8930    24.5860     2.2500   -27.4070 
  188.2500    59.5370   115.5760   117.8790   183.4960    24.5240     2.2720   -27.4820 
  188.3750    58.1370    87.6690    92.4880   123.7260    24.3970     2.2940   -27.5610 
  188.5000    59.6230    63.4290    64.6940    62.8870    24.1680     2.3080   -27.5520 
  188.6250    66.2220    48.6100    49.3790    37.0980    24.1300     2.2980   -27.5410 
  188.7500    72.3250    41.4370    41.3560    28.3650    24.4150     2.2720   -27.6040 
  188.8750    74.3230    40.7340    39.5290    27.1480    24.9010     2.2410   -27.6530 
  189.0000    72.6240    45.8840    43.2540    40.9860    25.3210     2.2130   -27.6990 
  189.1250    67.7390    57.7160    53.6290    61.8560    25.5000     2.1930   -27.8480 
  189.2500    62.6440    74.8650    69.7070   102.5160    25.4460     2.1770   -27.9550 
  189.3750    61.5510    95.5410    89.8590   134.6540    25.2770     2.1640   -27.9750 
  189.5000    63.7670   115.7500   110.0460   135.7170    25.0570     2.1590   -28.0530 
  189.6250    63.8290   128.1240   123.0410   104.9100    24.5870     2.1720   -28.2070 
  189.7500    63.6600   129.8840   125.9770    70.8290    23.8370     2.1930   -28.2490 
  189.8750    67.2940   122.3880   119.7490    52.0100    23.1610     2.2090   -28.2850 
  190.0000    73.2280   110.0820   108.1600    46.5760    22.8500     2.2140   -28.3890 
  190.1250    75.2300    98.2850    96.1030    42.5900    22.8050     2.2120   -28.3460 
  190.2500    74.2830    90.2350    87.0770    37.8670    22.8050     2.2090   -28.3160 
  190.3750    72.4130    87.3070    82.6240    35.2090    22.7900     2.2080   -28.4050 
  190.5000    71.1100    90.1520    83.5820    34.6640    22.7360     2.2090   -28.4630 
  190.6250    70.9100    99.7680    91.2080    34.1250    22.6010     2.2140   -28.4380 
  190.7500    70.6030   114.2990   103.9770    31.0080    22.4660     2.2180   -28.5210 
  190.8750    69.7750   131.3270   119.8340    28.1280    22.3800     2.2190   -28.6210 
