~V
VERS. 2.00: Ver 2.00
~W
STRT.M 50.0000:
STOP.M 281.0000:
STEP.M 0.1250:
NULL. -999.2500:
UWI. F10234:
~C
DEPT.M :
DEN.GM/CC :
GR.API :
RML.OHMM :
RI. :
RXO.OHMM :
CALI.CM :
SP.MV :
~A
# ...
  151.2500     2.3240    82.7460     5.0870     4.7790     4.6290    24.2460     0.3810 
  151.3750     2.3150    83.9140     5.1480     4.8100     4.9840    24.2760     0.2960 
  151.5000     2.3120    87.7680     5.1880     4.8330     5.2830    24.3100     0.2260 
  151.6250     2.3090    89.1820     5.1890     4.8350     5.7390    24.3450     0.1830 
  151.7500     2.2990    88.1020     5.1540     4.8170     6.2060    24.3780     0.1980 
  151.8750     2.2860    87.6750     5.1020     4.7810     6.4470    24.4050     0.2460 
  152.0000     2.2750    90.2590     5.0620     4.7400     6.4430    24.4240     0.3230 
  152.1250     2.2750    94.7620     5.0740     4.7210     6.3370    24.4320     0.4180 
  152.2500     2.2840    96.9130     5.1550     4.7470     6.2430    24.4360     0.4970 
  152.3750     2.2970    94.1400     5.3070     4.8310     5.9650    24.4420     0.5910 
  152.5000     2.3050    87.2630     5.5190     4.9650     5.3070    24.4580     0.6710 
  152.6250     2.3080    82.9390     5.7510     5.1220     4.4960    24.4880     0.7460 
  152.7500     2.3070    82.3060     5.9380     5.2490     3.9190    24.5270     0.8120 
  152.8750     2.3020    80.7100     6.0170     5.3040     3.6720    24.5720     0.8820 
  153.0000     2.2900    76.9980     5.9340     5.2560     3.5190    24.6160     0.9220 
  153.1250     2.2730    75.7670     5.6900     5.0970     3.3470    24.6540     0.8870 
  153.2500     2.2600    76.6350     5.4580     4.9200     3.1930    24.6820     0.8640 
  153.3750     2.2530    76.1100     5.4460     4.8540     3.1730    24.7010     0.8040 
  153.5000     2.2550    74.0050     5.8630     5.0490     3.2290    24.7220     0.7320 
  153.6250     2.2660    72.6450     6.9930     5.7300     3.5240    24.7600     0.6300 
  153.7500     2.2740    71.1060     8.8520     6.9590     4.5200    24.8200     0.4360 
  153.8750     2.2710    66.8180    11.4440     8.8170     7.1540    24.8950     0.2200 
  154.0000     2.2530    61.0660    14.5860    11.2870    11.0880    24.9790     0.0120 
  154.1250     2.2200    56.0680    17.7850    14.1320    11.3200    25.0620    -0.1920 
  154.2500     2.1860    52.7330    20.3550    16.7110     8.7980    25.1360    -0.3940 
  154.3750     2.1610    51.4120    21.8190    18.4660     9.3930    25.1940    -0.5860 
  154.5000     2.1550    52.3700    22.0820    19.1390    13.0510    25.2310    -0.7690 
  154.6250     2.1700    53.9090    21.4290    18.8230    15.5620    25.2500    -0.9460 
  154.7500     2.1920    55.1730    20.6430    18.1900    12.9570    25.2700    -1.0560 
  154.8750     2.2090    55.8440    20.2620    17.6960     9.1870    25.2920    -1.1660 
  155.0000     2.2170    55.2430    20.7830    17.7560     8.6310    25.3190    -1.2700 
  155.1250     2.2160    52.9370    22.9270    18.9740    11.8320    25.3470    -1.3060 
  155.2500     2.2120    50.1120    26.7330    21.5210    15.1640    25.3730    -1.3340 
  155.3750     2.2060    47.3300    32.0830    25.4680    18.8700    25.3940    -1.3520 
  155.5000     2.1950    44.9100    38.3520    30.4700    22.4980    25.4090    -1.3790 
  155.6250     2.1770    44.3520    44.0650    35.4500    27.4720    25.4160    -1.4300 
  155.7500     2.1580    45.1080    47.8990    39.1360    31.1680    25.4200    -1.4980 
  155.8750     2.1460    46.1450    49.5630    41.0790    33.4840    25.4240    -1.5530 
  156.0000     2.1480    49.4400    49.7270    41.6480    33.9090    25.4230    -1.6170 
  156.1250     2.1620    53.5320    49.3670    41.5370    33.8610    25.4140    -1.7290 
  156.2500     2.1800    53.7860    49.3880    41.5570    34.5820    25.3950    -1.8250 
  156.3750     2.1950    50.3430    50.2850    42.1730    37.0130    25.3740    -1.9300 
  156.5000     2.2060    47.8190    52.2520    43.6000    43.5270    25.3390    -2.0320 
  156.6250     2.2120    48.5640    55.0650    45.7170    49.4550    25.2820    -2.1120 
  156.7500     2.2130    48.4990    57.6330    47.7060    49.2130    25.2110    -2.1970 
  156.8750     2.2070    46.7070    58.7550    48.6740    48.6940    25.1330    -2.2510 
  157.0000     2.1930    44.9960    57.4050    47.8200    52.4520    25.0540    -2.2890 
  157.1250     2.1740    47.4930    53.1310    44.6710    53.2960    24.9820    -2.3530 
  157.2500     2.1570    51.7060    47.7120    40.4560    48.8660    24.9200    -2.4320 
  157.3750     2.1500    53.2620    42.7670    36.4000    41.7610    24.8680    -2.5250 
  157.5000     2.1560    52.3790    39.4520    33.4740    32.0100    24.8330    -2.6310 
  157.6250     2.1750    52.5340    38.6180    32.4500    30.1730    24.8200    -2.7370 
  157.7500     2.1980    51.8500    39.7770    33.0710    28.8650    24.8120    -2.8500 
  157.8750     2.2140    47.2260    42.3810    35.0080    33.0630    24.8020    -2.9910 
  158.0000     2.2180    43.0110    45.5280    37.6350    40.0380    24.7900    -3.1370 
  158.1250     2.2120    44.8220    47.7610    39.8690    43.2640    24.7740    -3.2270 
  158.2500     2.2050    48.1360    48.0590    40.7380    41.0010    24.7520    -3.3050 
  158.3750     2.2040    48.8330    46.1820    39.8440    38.9830    24.7260    -3.3280 
  158.5000     2.2080    47.9480    42.7530    37.4990    39.5920    24.6960    -3.2960 
  158.6250     2.2160    49.0690    38.7270    34.3670    37.2120    24.6510    -3.2060 
  158.7500     2.2230    54.1220    37.2540    31.1090    29.1510    24.5980    -3.0490 
  158.8750     2.2280    60.9340    35.5390    27.8530    24.7380    24.5370    -2.8730 
  159.0000     2.2310    64.1600    31.1780    24.6190    25.2940    24.4750    -2.6980 
  159.1250     2.2330    62.4560    27.1090    21.5650    23.1830    24.4150    -2.5180 
  159.2500     2.2330    61.8830    23.6620    18.9320    17.3840    24.3610    -2.3190 
  159.3750     2.2330    63.8750    21.1340    16.9460    12.7330    24.3140    -2.1530 
  159.5000     2.2350    65.4100    19.6760    15.7380    11.4130    24.2780    -1.9960 
  159.6250     2.2400    62.4570    19.4790    15.4820    12.6060    24.2600    -1.8430 
  159.7500     2.2450    59.6960    20.2550    16.0030    13.8710    24.2490    -1.7820 
  159.8750     2.2480    60.1620    21.7440    17.1480    14.6520    24.2410    -1.7720 
  160.0000     2.2490    63.2530    23.4650    18.5860    15.3760    24.2320    -1.7210 
  160.1250     2.2430    63.7470    24.5760    19.6740    17.0110    24.2230    -1.6820 
  160.2500     2.2330    62.4860    24.5530    19.9070    18.2580    24.2150    -1.6880 
  160.3750     2.2210    62.8900    23.3200    19.1500    17.9670    24.2100    -1.6750 
  160.5000     2.2140    66.1730    21.2650    17.6690    15.8620    24.2070    -1.6970 
  160.6250     2.2170    70.8220    19.0550    15.9700    13.8960    24.2050    -1.6910 
  160.7500     2.2310    73.6990    17.2450    14.5210    12.6780    24.2030    -1.6600 
  160.8750     2.2480    73.7840    16.0270    13.4910    11.8880    24.2050    -1.6110 
  161.0000     2.2640    72.0050    15.4060    12.8910    11.5020    24.2120    -1.5140 
  161.1250     2.2730    69.4160    15.2930    12.6660    11.5420    24.2300    -1.3790 
  161.2500     2.2770    65.7580    15.3800    12.6130    11.9370    24.2630    -1.2180 
  161.3750     2.2740    62.3210    15.4600    12.6140    11.9380    24.3130    -1.0330 
  161.5000     2.2660    62.2520    15.4110    12.6030    11.3050    24.3740    -0.8420 
  161.6250     2.2550    65.2550    15.2200    12.5750    11.3020    24.4400    -0.6610 
  161.7500     2.2440    67.1150    15.0250    12.5790    11.9250    24.5040    -0.4390 
  161.8750     2.2340    67.9540    14.9510    12.6670    12.4150    24.5600    -0.2090 
  162.0000     2.2220    67.9050    15.0650    12.8700    12.6480    24.6000    -0.0060 
  162.1250     2.2080    67.7210    15.1230    12.9300    12.6740    24.6040     0.2030 
  162.2500     2.1980    66.4120    15.4440    13.2500    12.8970    24.6150     0.3750 
  162.3750     2.1960    65.0880    15.8260    13.5850    13.3100    24.6080     0.5200 
