~V
VERS. 2.00: Ver 2.00
~W
STRT.M 55.0000:
STOP.M 270.0000:
STEP.M 0.1250:
NULL. -999.2500:
UWI. F10235:
~C
DEPT.M :
GR.API :
RML.OHMM :
RI. :
RXO.OHMM :
CALI.CM :
DEN.GM/CC :
SP.MV :
~A
# ...
  145.0000    81.8970    18.9540    16.9930    22.1210    24.6770     2.4880    -5.0390 
  145.1250    86.6000    14.8560    13.3990    17.4600    24.6390     2.4550    -4.7980 
  145.2500    90.0950    10.9730    10.1480    12.0350    24.6440     2.4150    -4.4760 
  145.3750    91.8300     8.0980     7.7220     7.9520    24.6480     2.3800    -4.0640 
  145.5000    95.4660     6.4090     6.1540     5.6240    24.6880     2.3560    -3.6980 
  145.6250   101.6300     5.7370     5.3810     5.2310    24.7060     2.3430    -3.4250 
  145.7500   103.1280     5.6040     5.0890     5.5030    24.6970     2.3370    -3.1770 
  145.8750    98.3350     5.7770     5.1180     5.8140    24.6600     2.3350    -2.9600 
  146.0000    92.0340     6.0390     5.3060     5.8340    24.6480     2.3370    -2.7880 
  146.1250    90.6270     6.2160     5.4890     5.7590    24.6730     2.3410    -2.6510 
  146.2500    94.5570     6.2680     5.5790     5.8250    24.7000     2.3440    -2.5630 
  146.3750    99.3150     6.2350     5.5840     5.7360    24.6980     2.3410    -2.5470 
  146.5000    99.9890     6.1890     5.5580     5.5700    24.6840     2.3320    -2.5720 
  146.6250    97.6490     6.2010     5.5600     5.4120    24.6650     2.3190    -2.5740 
  146.7500    98.1350     6.2840     5.6070     5.4820    24.6410     2.3080    -2.5570 
  146.8750    99.9720     6.4210     5.6880     5.7940    24.6300     2.3030    -2.5810 
  147.0000    97.1540     6.5840     5.7830     6.1510    24.6150     2.3070    -2.6440 
  147.1250    89.9370     6.7450     5.8690     6.2680    24.5950     2.3180    -2.7110 
  147.2500    85.5330     6.8850     5.9330     6.2790    24.5980     2.3310    -2.8320 
  147.3750    84.7630     6.9970     5.9700     6.3830    24.6140     2.3380    -2.9990 
  147.5000    83.8880     7.0750     5.9730     6.6540    24.6220     2.3380    -3.1350 
  147.6250    83.7590     7.0960     5.9260     6.7480    24.6220     2.3290    -3.1830 
  147.7500    86.3330     7.0540     5.8270     6.5190    24.6220     2.3180    -3.2160 
  147.8750    89.6110     6.9470     5.6800     6.2270    24.6220     2.3090    -3.2260 
  148.0000    90.9500     6.7880     5.4980     6.0200    24.6220     2.3040    -3.1830 
  148.1250    91.8010     6.6030     5.3040     5.9060    24.6220     2.3070    -3.1180 
  148.2500    94.7970     6.4290     5.1280     5.7670    24.6220     2.3140    -3.0120 
  148.3750    97.4210     6.2950     4.9880     5.5170    24.6220     2.3240    -2.8070 
  148.5000    96.6840     6.2250     4.8960     5.3000    24.6220     2.3320    -2.4880 
  148.6250    93.8130     6.2410     4.8680     5.4100    24.6220     2.3390    -2.1350 
  148.7500    93.1930     6.3170     4.8890     5.4890    24.6220     2.3450    -1.7700 
  148.8750    95.4850     6.4230     4.9450     5.5590    24.6230     2.3490    -1.4040 
  149.0000    95.7960     6.5220     5.0140     5.6590    24.6310     2.3520    -1.0750 
  149.1250    92.2980     6.5860     5.0710     5.7650    24.6540     2.3530    -0.7640 
  149.2500    90.6910     6.6200     5.1070     5.7920    24.6900     2.3520    -0.4310 
  149.3750    92.4430     6.6430     5.1240     5.8060    24.7260     2.3520    -0.1350 
  149.5000    93.7440     6.6680     5.1320     5.8730    24.7410     2.3530     0.0330 
  149.6250    93.2300     6.7000     5.1390     5.9480    24.7350     2.3550     0.0830 
  149.7500    96.3910     6.7270     5.1470     6.0220    24.7220     2.3590     0.1340 
  149.8750   101.7340     6.7390     5.1520     6.0190    24.7100     2.3630     0.1810 
  150.0000   102.8950     6.7270     5.1440     5.9610    24.6970     2.3660     0.1760 
  150.1250    96.8110     6.6830     5.1100     5.8680    24.6820     2.3640     0.1150 
  150.2500    90.7420     6.6200     5.0540     5.7730    24.6720     2.3580     0.0450 
  150.3750    90.5320     6.5480     4.9850     5.7520    24.6760     2.3480    -0.0350 
  150.5000    96.5280     6.4760     4.9150     5.7260    24.6850     2.3380    -0.0690 
  150.6250   103.3470     6.4120     4.8490     5.5620    24.6900     2.3290    -0.0450 
  150.7500   107.6150     6.3520     4.7850     5.3650    24.6900     2.3250    -0.0570 
  150.8750   110.3420     6.2920     4.7200     5.3000    24.6900     2.3250    -0.0780 
  151.0000   109.9970     6.2240     4.6510     5.3940    24.6900     2.3320    -0.0510 
  151.1250   105.6450     6.1420     4.5740     5.2600    24.6900     2.3430     0.0130 
  151.2500   101.0160     6.0500     4.4940     5.1220    24.6900     2.3550     0.0210 
  151.3750    98.4670     5.9640     4.4200     5.0200    24.6900     2.3650     0.0190 
  151.5000    97.1380     5.9030     4.3640     4.9760    24.6900     2.3680     0.0210 
  151.6250    95.9090     5.8930     4.3370     4.9330    24.7020     2.3610     0.0060 
  151.7500    96.8170     5.9240     4.3380     4.9370    24.7380     2.3490    -0.0090 
  151.8750   100.0080     5.9770     4.3560     4.9660    24.7910     2.3380    -0.0330 
  152.0000   104.6120     6.0280     4.3750     4.9960    24.8230     2.3340    -0.0990 
  152.1250   108.1280     6.0470     4.3830     5.0010    24.7990     2.3360    -0.1960 
  152.2500   110.7250     6.0290     4.3740     5.0050    24.7560     2.3410    -0.2460 
  152.3750   112.8300     5.9790     4.3450     4.9940    24.7170     2.3450    -0.2730 
  152.5000   109.7930     5.9140     4.3020     4.9350    24.6960     2.3490    -0.3510 
  152.6250   100.1870     5.8660     4.2600     4.8740    24.6920     2.3550    -0.4880 
  152.7500    94.2790     5.8540     4.2360     4.8450    24.7020     2.3610    -0.5930 
  152.8750    95.9590     5.8840     4.2360     4.8460    24.7260     2.3650    -0.6710 
  153.0000    99.5640     5.9460     4.2600     4.8530    24.7440     2.3660    -0.7400 
  153.1250    99.5070     6.0150     4.2990     4.8990    24.7500     2.3650    -0.7640 
  153.2500    98.1070     6.0640     4.3370     4.9630    24.7460     2.3650    -0.7760 
  153.3750    97.9970     6.0780     4.3630     5.0020    24.7270     2.3660    -0.8330 
  153.5000   100.3960     6.0530     4.3710     4.9850    24.6810     2.3660    -0.8960 
  153.6250   103.8190     5.9880     4.3540     4.9980    24.6410     2.3600    -0.9040 
  153.7500   104.5720     5.9080     4.3160     4.9950    24.6250     2.3520    -0.9400 
  153.8750   101.5600     5.8390     4.2710     4.9860    24.6250     2.3440    -1.0210 
  154.0000    98.0810     5.8170     4.2450     4.9810    24.6360     2.3380    -1.0870 
  154.1250    99.1220     5.8900     4.2780     4.9590    24.6610     2.3360    -1.1660 
  154.2500   103.2240     6.0400     4.3740     4.9310    24.6750     2.3340    -1.2970 
  154.3750   106.8650     6.2280     4.5150     5.1800    24.6590     2.3310    -1.4130 
  154.5000   105.9920     6.3900     4.6640     5.7920    24.6140     2.3260    -1.5000 
  154.6250   103.9720     6.4650     4.7650     6.3510    24.5970     2.3190    -1.5890 
  154.7500   105.1600     6.4790     4.8110     6.0760    24.5930     2.3110    -1.6470 
  154.8750   106.2180     6.4850     4.8350     5.6470    24.6050     2.3030    -1.6420 
  155.0000   103.1530     6.5420     4.8810     5.4590    24.6160     2.3000    -1.6560 
  155.1250    98.3870     6.6670     4.9820     5.5350    24.6220     2.3050    -1.7170 
  155.2500    96.4240     6.7940     5.1050     5.9220    24.6220     2.3160    -1.7370 
  155.3750    96.3830     6.8400     5.1960     6.4300    24.6220     2.3260    -1.7110 
  155.5000    97.9420     6.7470     5.2000     6.6810    24.6290     2.3310    -1.6860 
  155.6250   101.8900     6.5190     5.0930     6.2040    24.6510     2.3290    -1.7250 
  155.7500   106.6370     6.2740     4.9520     5.5010    24.6890     2.3260    -1.8210 
  155.8750   110.7480     6.1180     4.8520     5.3340    24.7240     2.3250    -1.9840 
  156.0000   111.2150     6.1080     4.8460     5.4510    24.7440     2.3250    -2.1830 
  156.1250   105.9910     6.2370     4.9560     5.6260    24.7500     2.3210    -2.3430 
