~V
VERS. 2.00: Ver 2.00
~W
STRT.M 50.0000:
STOP.M 258.0000:
STEP.M 0.1250:
NULL. -999.2500:
UWI. F10200:
~C
DEPT.M :
SP.MV :
GR.API :
RML.OHMM :
RI. :
RXO.OHMM :
CALI.CM :
DEN.GM/CC :
~A
# ...
  117.5000    -8.1810    67.7410     7.6080     6.5450     7.8290    23.3370     2.2160 
  117.6250    -7.7690    69.7780     7.8200     6.7160     7.6410    23.3280     2.2310 
  117.7500    -7.3120    68.7570     8.1260     6.9760     7.9550    23.4250     2.2350 
  117.8750    -6.7780    65.9890     8.4260     7.2520     8.4690    23.4830     2.2320 
  118.0000    -6.6660    65.5800     8.6010     7.4510     9.0190    23.5630     2.2300 
  118.1250    -6.0120    68.8370     8.5170     7.4530     9.0520    23.6640     2.2370 
  118.2500    -5.3000    72.0340     8.2070     7.2590     8.6570    23.7560     2.2500 
  118.3750    -4.5420    75.4010     7.7490     6.9150     7.9750    23.8160     2.2620 
  118.5000    -3.7530    78.6920     7.2590     6.5080     7.2770    23.8060     2.2680 
  118.6250    -2.9590    79.2970     6.8520     6.1380     6.5250    23.7470     2.2690 
  118.7500    -2.2030    77.9570     6.5610     5.8530     6.1270    23.6760     2.2680 
  118.8750    -1.5270    78.9080     6.3730     5.6590     5.9910    23.6590     2.2680 
  119.0000    -0.9760    83.0080     6.2570     5.5390     5.8170    23.7080     2.2700 
  119.1250    -0.5910    85.1360     6.1700     5.4610     5.6920    23.7810     2.2720 
  119.2500    -0.3250    83.2820     6.0700     5.3820     5.7060    23.7800     2.2760 
  119.3750    -0.1630    79.7280     5.9340     5.2770     5.7640    23.6790     2.2780 
  119.5000    -0.0730    77.2280     5.7580     5.1360     5.8360    23.6660     2.2740 
  119.6250    -0.0430    76.9170     5.5510     4.9620     5.7410    23.8340     2.2580 
  119.7500    -0.0670    77.7930     5.3470     4.7830     5.5450    24.0620     2.2390 
  119.8750    -0.1520    79.1810     5.1790     4.6260     5.3450    24.2470     2.2270 
  120.0000    -0.2930    79.6720     5.0770     4.5160     5.2630    24.3360     2.2290 
  120.1250    -0.4760    78.4230     5.0800     4.4910     5.3550    24.1970     2.2350 
  120.2500    -0.7080    77.6300     5.1850     4.5560     5.4870    24.3380     2.2280 
  120.3750    -0.9870    77.8140     5.3900     4.7170     5.4460    24.6280     2.2040 
  120.5000    -1.3210    76.6320     5.6850     4.9730     5.4240    24.7050     2.1740 
  120.6250    -1.6750    71.5270     6.0510     5.3150     5.8600    24.1210     2.1620 
  120.7500    -1.9860    65.7730     6.4210     5.6890     6.5940    23.6150     2.1800 
  120.8750    -2.2070    64.0240     6.7250     6.0310     7.2480    23.4750     2.2260 
  121.0000    -2.3190    67.4540     6.8990     6.2770     7.5650    23.5500     2.2820 
  121.1250    -2.3280    71.2830     6.8890     6.3510     8.2170    23.6150     2.3200 
  121.2500    -2.2370    71.1990     6.7530     6.2770     9.3140    23.7130     2.3280 
  121.3750    -2.0560    69.6510     6.5560     6.1000     9.3310    23.8560     2.3130 
  121.5000    -1.8080    70.2790     6.3680     5.8820     7.6020    23.9760     2.2900 
  121.6250    -1.5210    71.4360     6.2380     5.6790     6.3620    24.0040     2.2770 
  121.7500    -1.2600    69.9290     6.1480     5.5020     6.2510    23.9420     2.2770 
  121.8750    -1.0390    67.0290     6.0570     5.3350     6.4470    23.9110     2.2870 
  122.0000    -0.8590    66.3620     5.9200     5.1470     6.3540    23.9430     2.2980 
  122.1250    -0.7260    70.2300     5.6870     4.9020     5.9830    24.0150     2.3020 
  122.2500    -0.6740    74.5400     5.3830     4.6170     5.6080    24.1170     2.2980 
  122.3750    -0.7220    76.8490     5.0720     4.3380     5.3580    24.2010     2.2890 
  122.5000    -0.8630    77.2600     4.8530     4.1370     5.0420    24.2400     2.2810 
  122.6250    -1.1370    76.6470     4.9000     4.1390     4.7980    24.2450     2.2740 
  122.7500    -1.5250    74.2440     5.2880     4.4010     4.7730    24.2010     2.2710 
  122.8750    -2.0400    71.1420     6.0470     4.9630     5.2080    24.0950     2.2780 
  123.0000    -2.6870    69.3330     7.0990     5.7980     6.2000    23.9060     2.3010 
  123.1250    -3.4590    66.0040     8.2170     6.7810     7.9740    23.7540     2.3360 
  123.2500    -4.2880    59.2890     9.0780     7.6490     9.9270    23.5800     2.3580 
  123.3750    -5.1130    53.6000     9.4550     8.1850    12.4360    23.4110     2.3440 
  123.5000    -5.8760    53.3500     9.2920     8.2690    13.9430    23.2790     2.2960 
  123.6250    -6.5130    56.3620     8.7430     7.9440    11.2220    23.2580     2.2380 
  123.7500    -7.0160    57.1730     8.2130     7.5340     9.3550    23.2700     2.1970 
  123.8750    -7.3910    57.6540     7.9300     7.2520     8.8510    23.2890     2.1830 
  124.0000    -7.6350    60.3440     7.9640     7.1960     8.8470    23.3130     2.1870 
  124.1250    -7.7400    64.2920     8.2600     7.3670     8.9620    23.2270     2.1910 
  124.2500    -7.7460    66.7020     8.6080     7.6170     9.2340    23.0450     2.1850 
  124.3750    -7.6900    66.9210     8.8660     7.8310     9.8160    22.9850     2.1690 
  124.5000    -7.6070    64.5610     8.9510     7.9270    10.3930    23.0320     2.1510 
  124.6250    -7.5290    62.0660     8.8350     7.8600    10.3030    22.9280     2.1440 
  124.7500    -7.4610    62.7060     8.6180     7.6940     9.0710    22.6610     2.1510 
  124.8750    -7.3920    63.4860     8.3850     7.4940     8.2300    22.4900     2.1690 
  125.0000    -7.3140    59.7160     8.2000     7.3140     7.8750    22.4830     2.1900 
  125.1250    -7.2270    54.4300     8.0960     7.1930     7.8740    22.5480     2.2050 
  125.2500    -7.1450    53.5770     8.0380     7.1170     7.9170    22.5950     2.2130 
  125.3750    -7.0670    55.7300     8.0010     7.0710     7.9360    22.6250     2.2160 
  125.5000    -7.0100    56.6690     7.9710     7.0440     7.9610    22.6570     2.2150 
  125.6250    -6.9860    56.1440     7.9580     7.0430     8.0570    22.6690     2.2070 
  125.7500    -6.9940    56.6350     7.9740     7.0760     8.1020    22.6490     2.1980 
  125.8750    -7.0480    59.6850     8.0240     7.1450     8.2240    22.5640     2.1910 
  126.0000    -7.1440    64.1300     8.0970     7.2430     8.4330    22.3610     2.1910 
  126.1250    -7.2930    65.8410     8.1730     7.3520     8.7530    22.0580     2.1990 
  126.2500    -7.4570    63.9100     8.2330     7.4510     9.1970    21.8090     2.2070 
  126.3750    -7.6220    61.5720     8.2700     7.5290     9.5490    21.8390     2.2110 
  126.5000    -7.7680    61.7540     8.2900     7.5830     9.3840    22.1540     2.2100 
  126.6250    -7.8640    62.5410     8.3080     7.6200     9.0070    22.4700     2.2110 
  126.7500    -7.9130    61.8060     8.3360     7.6530     8.9760    22.6010     2.2160 
  126.8750    -7.9180    59.7090     8.3740     7.6850     8.9690    22.6290     2.2180 
  127.0000    -7.8790    56.4020     8.4160     7.7120     8.9290    22.6630     2.2110 
  127.1250    -7.7740    53.9420     8.4500     7.7270     9.0330    22.7520     2.1890 
  127.2500    -7.6220    53.7830     8.4680     7.7240     9.2160    22.9080     2.1630 
  127.3750    -7.4310    55.7640     8.4630     7.6990     9.2410    23.0410     2.1440 
  127.5000    -7.2080    58.9130     8.4340     7.6540     8.9360    23.0470     2.1350 
  127.6250    -6.9630    59.8560     8.3780     7.5900     8.6750    22.9030     2.1360 
  127.7500    -6.6850    57.8810     8.3110     7.5240     8.5780    22.8360     2.1370 
  127.8750    -6.3470    54.4220     8.2650     7.4810     8.6220    22.8830     2.1310 
  128.0000    -5.9260    52.4860     8.3020     7.5080     8.7050    22.9740     2.1190 
  128.1250    -5.4130    52.6880     8.5870     7.7150     8.9270    23.0130     2.1150 
  128.2500    -4.8140    53.1150     9.2670     8.1700     9.2870    23.0500     2.1310 
  128.3750    -4.1220    55.1730    10.3720     8.9390     9.9360    22.9630     2.1740 
  128.5000    -3.3580    58.2040    11.8660    10.0460    11.2180    22.8210     2.2440 
  128.6250    -2.5210    57.7530    13.8040    11.4910    13.4800    22.8120     2.3300 
