~V
VERS. 2.00: Ver 2.00
~W
STRT.M 56.0000:
STOP.M 270.0000:
STEP.M 0.1250:
NULL. -999.2500:
UWI. F10225:
~C
DEPT.M :
SP.MV :
DEN.GM/CC :
GR.API :
RML.OHMM :
RI. :
RXO.OHMM :
CALI.CM :
~A
# ...
  168.5000   -34.7020     2.1490    51.8600   138.2670   125.1990    27.6120    21.9520 
  168.6250   -34.5060     2.1690    51.0810   132.0420   120.0540    20.4090    21.5100 
  168.7500   -34.2790     2.1750    52.2610   122.3310   111.7830    18.2700    21.3520 
  168.8750   -34.0250     2.1780    54.4780   111.5160   102.1560    17.6060    21.4300 
  169.0000   -33.7710     2.1850    55.2120   101.7030    92.9990    16.6220    21.5430 
  169.1250   -33.5320     2.1920    53.6340    94.6540    85.9850    14.8270    21.5960 
  169.2500   -33.3130     2.1930    52.3090    90.6480    81.5070    12.7330    21.6540 
  169.3750   -33.1180     2.1910    52.7200    89.3990    79.4160    11.8920    21.8210 
  169.5000   -32.9260     2.1920    53.1100    90.3010    79.2980    13.6290    22.0830 
  169.6250   -32.7000     2.2020    52.9120    92.3580    80.5070    19.6720    22.3920 
  169.7500   -32.4800     2.2180    53.6270    94.1530    81.9370    31.1240    22.6890 
  169.8750   -32.3200     2.2320    54.9150    94.6960    82.7060    45.6450    23.0170 
  170.0000   -32.2080     2.2390    56.0780    93.7920    82.4720    58.0610    23.3500 
  170.1250   -32.1030     2.2410    58.0920    92.0180    81.4860    64.6270    23.5570 
  170.2500   -32.0050     2.2420    60.4810    90.3480    80.4400    66.7670    23.6450 
  170.3750   -31.8980     2.2430    61.6390    89.3670    79.8240    66.6420    23.6600 
  170.5000   -31.7660     2.2420    61.8190    89.1750    79.7830    68.6830    23.6310 
  170.6250   -31.6450     2.2420    61.5010    89.4290    80.1120    76.3750    23.5680 
  170.7500   -31.5660     2.2440    60.3170    89.4830    80.2980    85.4860    23.5020 
  170.8750   -31.5210     2.2480    59.1500    88.8330    79.8870    88.9920    23.4380 
  171.0000   -31.5120     2.2510    59.0710    87.2250    78.6160    85.5460    23.3710 
  171.1250   -31.5640     2.2470    58.6860    84.5740    76.3590    82.9340    23.3220 
  171.2500   -31.6680     2.2400    57.5160    81.2310    73.4100    83.5860    23.2640 
  171.3750   -31.8110     2.2330    56.3800    77.6380    70.1550    83.7450    23.2280 
  171.5000   -31.9820     2.2320    55.2300    74.2900    67.0090    78.9780    23.3340 
  171.6250   -32.1910     2.2380    53.9830    71.8950    64.5450    72.4890    23.5190 
  171.7500   -32.4250     2.2470    54.4720    70.9080    63.1650    68.2500    23.6080 
  171.8750   -32.6650     2.2540    56.9300    71.6210    63.1810    68.4330    23.5920 
  172.0000   -32.8830     2.2530    59.4430    74.1320    64.7660    75.0340    23.5250 
  172.1250   -33.0410     2.2480    61.7600    78.3960    68.0040    77.0340    23.4810 
  172.2500   -33.1280     2.2400    63.7310    83.7200    72.3590    75.3060    23.4860 
  172.3750   -33.1710     2.2330    64.0710    89.2940    77.1520    75.0160    23.5230 
  172.5000   -33.2150     2.2290    61.9930    94.2530    81.6100    78.9450    23.5790 
  172.6250   -33.2570     2.2280    58.2960    97.5720    84.7580    84.2210    23.6750 
  172.7500   -33.2550     2.2300    56.1750    99.0610    86.2770    88.5300    23.7620 
  172.8750   -33.1970     2.2330    57.6090    99.0670    86.3470    91.4160    23.7650 
  173.0000   -33.0950     2.2330    60.7460    98.2780    85.5180    91.9640    23.6510 
  173.1250   -32.9920     2.2330    60.8830    97.6760    84.6580    91.6490    23.4760 
  173.2500   -32.9170     2.2310    58.2360    98.0680    84.5500    91.7390    23.3230 
  173.3750   -32.8500     2.2290    55.9770    99.9020    85.6390    92.9390    23.1960 
  173.5000   -32.7440     2.2260    55.7640   103.3100    88.0740    96.3810    23.0640 
  173.6250   -32.5770     2.2220    56.2310   108.3070    91.9180   103.6500    23.0120 
  173.7500   -32.3740     2.2190    56.7380   114.4700    96.8450   111.7290    23.0540 
  173.8750   -32.1650     2.2210    57.9850   121.4830   102.5880   120.2630    23.1250 
  174.0000   -31.9720     2.2260    59.9490   129.0820   108.8950   129.8250    23.1190 
  174.1250   -31.8160     2.2350    60.6710   136.6190   115.1950   138.3010    23.0720 
  174.2500   -31.6950     2.2450    59.1500   142.9320   120.5120   145.2900    23.1180 
  174.3750   -31.6030     2.2510    57.4420   146.6990   123.8000   149.2040    23.2300 
  174.5000   -31.5390     2.2540    58.3210   146.8850   124.2450   149.8700    23.3030 
  174.6250   -31.5130     2.2580    61.5460   142.9840   121.3230   139.0260    23.3030 
  174.7500   -31.5280     2.2620    63.7900   136.7110   116.2080   122.5840    23.2720 
  174.8750   -31.5740     2.2590    62.5340   130.2780   110.5540   107.4550    23.2370 
  175.0000   -31.6510     2.2440    58.7410   125.4540   105.8240    93.8500    23.1810 
  175.1250   -31.7440     2.2230    55.5460   123.3800   103.0840    78.9520    23.1110 
  175.2500   -31.8240     2.2050    54.6060   123.4690   102.0620    71.7030    23.0870 
  175.3750   -31.8710     2.1930    55.3910   124.6330   102.0490    77.4950    23.1310 
  175.5000   -31.8740     2.1850    56.2310   125.9850   102.4660    82.7370    23.1160 
  175.6250   -31.8490     2.1820    55.9460   127.4310   103.4220    72.2660    22.8940 
  175.7500   -31.8180     2.1810    54.7820   129.6970   105.5760    61.7950    22.8160 
  175.8750   -31.7780     2.1790    53.2120   133.6450   109.6920    66.7970    23.1290 
  176.0000   -31.6850     2.1730    51.4040   139.6680   116.1750    95.5480    23.7090 
  176.1250   -31.4910     2.1700    51.3180   147.1020   124.6270   133.6660    24.1060 
  176.2500   -31.2120     2.1750    52.9180   153.6790   133.0030   163.9870    24.2850 
  176.3750   -30.9100     2.1870    54.6760   157.0350   138.9140   178.0070    24.3380 
  176.5000   -30.6500     2.2030    54.8000   156.2190   140.9050   173.7440    24.2400 
  176.6250   -30.4060     2.2210    54.2600   151.8900   138.8910   163.8770    24.0720 
  176.7500   -30.1270     2.2400    55.0670   144.8690   133.7330   159.4230    23.9290 
  176.8750   -29.8020     2.2550    57.0660   133.4010   124.0870   152.3710    23.8630 
  177.0000   -29.4450     2.2640    59.0030   114.9720   107.4080   130.1590    23.8430 
  177.1250   -29.1020     2.2710    59.9640    90.3580    84.1860   118.5110    23.8250 
  177.2500   -28.7900     2.2800    61.4870    65.9060    61.1260   104.8530    23.8180 
  177.3750   -28.5100     2.2960    64.7590    46.8110    43.5460    71.9860    23.8510 
  177.5000   -28.2570     2.3120    67.5230    34.9160    32.7500    36.3460    23.9800 
  177.6250   -28.0320     2.3180    66.9270    30.7690    28.3540    19.7760    24.1580 
  177.7500   -27.8230     2.3070    63.1390    33.0990    28.8670    16.5300    24.1950 
  177.8750   -27.6280     2.2880    59.1710    41.2450    34.0810    21.5780    24.0190 
  178.0000   -27.4610     2.2740    56.7250    54.4910    44.4420    39.3170    23.7410 
  178.1250   -27.3300     2.2760    55.4210    70.1930    59.2450    63.6430    23.6050 
  178.2500   -27.2460     2.2860    54.4650    82.7230    73.2020    79.1910    23.6960 
  178.3750   -27.1890     2.2950    53.4200    87.8090    80.6440    79.2320    23.9290 
  178.5000   -27.1130     2.2960    52.5300    86.1950    80.7310    70.4390    24.2250 
  178.6250   -27.0060     2.2880    52.3590    82.9000    77.5930    62.5230    24.4640 
  178.7500   -26.8970     2.2760    52.8150    82.1080    75.6480    63.7130    24.5570 
  178.8750   -26.8060     2.2620    54.0610    84.8730    76.4080    75.1310    24.4160 
  179.0000   -26.7550     2.2480    55.4390    90.5150    79.6220    80.3570    24.1660 
  179.1250   -26.7510     2.2370    56.5600    97.8660    84.4880    83.7520    23.9980 
  179.2500   -26.7400     2.2280    56.7880   105.5740    89.9130    79.2490    23.9320 
  179.3750   -26.6750     2.2230    56.0280   112.9340    95.3590    76.1650    23.9110 
  179.5000   -26.5990     2.2210    54.6520   119.8430   100.8700    87.8570    23.8890 
  179.6250   -26.5700     2.2220    53.4840   126.5060   106.8610   105.1230    23.8960 
