~V
VERS. 2.00: Ver 2.00
~W
STRT.M 52.0000:
STOP.M 254.0000:
STEP.M 0.1250:
NULL. -999.2500:
UWI. F10213:
~C
DEPT.M :
DEN.GM/CC :
GR.API :
RML.OHMM :
RI. :
RXO.OHMM :
CALI.CM :
SP.MV :
~A
# ...
   85.7500     2.1870    88.6340     8.3700     6.6010    10.7960    24.0360   -29.7450 
   85.8750     2.2290    85.8470     7.9920     6.2140     8.9230    23.8910   -29.2170 
   86.0000     2.2650    83.2730     7.7680     5.9120     7.6360    23.8950   -28.7780 
   86.1250     2.2790    84.9200     7.7160     5.7380     7.2370    23.9150   -28.5740 
   86.2500     2.2770    86.1410     7.7370     5.6490     7.2230    23.9210   -28.6860 
   86.3750     2.2680    82.6340     7.7480     5.5960     7.2130    23.8950   -29.1560 
   86.5000     2.2590    78.6750     7.7100     5.5470     7.4360    23.8520   -29.9560 
   86.6250     2.2590    81.3300     7.6630     5.5100     7.7020    23.7360   -31.1310 
   86.7500     2.2700    87.2990     7.6980     5.5270     7.5940    23.5310   -32.6630 
   86.8750     2.2890    88.7830     7.8860     5.6410     7.4070    23.1700   -34.5110 
   87.0000     2.3050    83.4250     8.2400     5.8710     8.4210    22.7840   -36.5780 
   87.1250     2.3040    76.1130     8.6830     6.1900    11.5810    22.5630   -38.7570 
   87.2500     2.2800    71.4520     9.0610     6.5010    14.8350    22.5770   -40.8870 
   87.3750     2.2430    68.3490     9.2830     6.7300    15.2600    22.8130   -42.8890 
   87.5000     2.2090    67.0950     9.3240     6.8380    14.4580    23.2340   -44.7140 
   87.6250     2.1890    70.2540     9.2240     6.8280    14.0930    23.7940   -46.2810 
   87.7500     2.1790    73.3630     9.1210     6.7860    13.8480    24.3250   -47.5340 
   87.8750     2.1760    72.4300     9.1020     6.7750    14.0380    24.6960   -48.4390 
   88.0000     2.1740    69.3760     9.1970     6.8230    14.5840    24.9240   -49.0290 
   88.1250     2.1670    69.2260     9.3730     6.9240    14.9000    25.0150   -49.3390 
   88.2500     2.1570    68.4350     9.5300     7.0310    15.0230    25.0030   -49.4570 
   88.3750     2.1530    64.6820     9.5850     7.1030    14.9340    24.8910   -49.3860 
   88.5000     2.1560    62.3080     9.4870     7.1090    14.6720    24.7250   -49.0900 
   88.6250     2.1570    63.6530     9.2510     7.0380    13.9370    24.5880   -48.5050 
   88.7500     2.1520    64.5970     8.9890     6.9330    13.2060    24.5600   -47.6500 
   88.8750     2.1480    65.0350     8.7930     6.8360    12.7360    24.5750   -46.5440 
   89.0000     2.1450    67.1840     8.7280     6.7870    12.5120    24.5740   -45.2150 
   89.1250     2.1450    70.9180     8.8430     6.8350    12.3410    24.4720   -43.6230 
   89.2500     2.1480    71.7970     9.0790     6.9730    12.3580    24.1650   -41.8270 
   89.3750     2.1540    70.9510     9.3560     7.1660    12.3450    23.6390   -39.8300 
   89.5000     2.1640    70.9570     9.5540     7.3320    12.0670    23.1180   -37.6400 
   89.6250     2.1730    72.2860     9.4890     7.3300    11.8030    22.8970   -35.2600 
   89.7500     2.1780    74.6250     9.1140     7.1010    11.4110    22.9520   -32.7540 
   89.8750     2.1870    79.8250     8.4570     6.6520    10.4100    23.1620   -30.2030 
   90.0000     2.2130    88.4010     7.6370     6.0590     8.7990    23.4380   -27.7470 
   90.1250     2.2660    96.0400     6.9370     5.5050     7.5170    24.0590   -25.5450 
   90.2500     2.3260    98.5400     6.6430     5.1900     7.0620    24.6790   -23.6390 
   90.3750     2.3740    99.2890     6.9370     5.2490     7.0050    25.0460   -22.0760 
   90.5000     2.4030    99.9650     7.8770     5.7610     7.5430    25.1390   -20.9530 
   90.6250     2.4240    95.6260     9.4260     6.8220    11.4260    25.0450   -20.3520 
   90.7500     2.4480    85.6450    11.0740     8.1940    19.6630    24.8920   -20.2120 
   90.8750     2.4640    75.1330    12.1990     9.4560    23.3740    24.7260   -20.4280 
   91.0000     2.4510    71.5350    12.2640    10.0580    16.1970    24.5980   -20.8370 
   91.1250     2.4020    78.3190    11.2020     9.6750    11.5480    24.4600   -21.3290 
   91.2500     2.3570    88.0810     9.8860     8.8630    10.1060    24.3180   -21.8380 
   91.3750     2.3420    93.6960     8.8800     8.0790     9.0370    24.2370   -22.3570 
   91.5000     2.3550    94.3010     8.3900     7.5670     8.2060    24.2200   -22.8640 
   91.6250     2.3760    94.1780     8.3390     7.3770     8.0280    24.1970   -23.3760 
   91.7500     2.3880    94.1100     8.4090     7.3260     8.5000    24.0930   -23.9230 
   91.8750     2.3910    94.8720     8.4720     7.3120     8.7080    23.8700   -24.5650 
   92.0000     2.3850    94.8440     8.5250     7.3170     8.2040    23.5730   -25.3600 
   92.1250     2.3690    90.2770     8.6660     7.4050     8.0230    23.2930   -26.3920 
   92.2500     2.3450    83.1720     8.9560     7.6270     8.6880    23.1560   -27.6030 
   92.3750     2.3150    76.5430     9.4280     8.0150    10.2790    23.3740   -28.9660 
   92.5000     2.2840    72.3370    10.1150     8.5930    12.2500    23.9850   -30.4440 
   92.6250     2.2580    72.8390    11.1630     9.4510    14.2600    24.6090   -31.9670 
   92.7500     2.2450    76.7720    12.6210    10.6250    16.1450    24.9170   -33.4720 
   92.8750     2.2490    77.4530    14.4840    12.1480    17.9020    24.9490   -34.9030 
   93.0000     2.2710    71.2310    16.5650    13.9460    20.0680    24.8760   -36.2610 
   93.1250     2.3140    65.0030    18.2700    15.6510    25.5300    24.8410   -37.5090 
   93.2500     2.3670    63.0240    18.9190    16.6350    33.6300    24.8030   -38.6900 
   93.3750     2.3990    62.3670    18.1630    16.4490    33.9660    24.7660   -39.7890 
   93.5000     2.3720    61.3510    16.3240    15.2000    23.1210    24.7530   -40.7770 
   93.6250     2.2850    61.7950    14.2470    13.4940    18.1000    24.7170   -41.6260 
   93.7500     2.2080    64.8330    12.6360    11.9790    16.5360    24.5660   -42.3550 
   93.8750     2.1680    68.5750    11.6810    10.8870    16.2120    24.3140   -42.9430 
   94.0000     2.1580    68.8400    11.3430    10.2800    15.9300    24.0370   -43.3470 
   94.1250     2.1630    63.9560    11.5070    10.1660    15.9570    23.9190   -43.5010 
   94.2500     2.1710    59.1260    11.8610    10.3240    16.4410    24.0790   -43.4290 
   94.3750     2.1790    58.4710    12.2040    10.5860    17.2590    24.3130   -43.1520 
   94.5000     2.1940    61.3740    12.4190    10.8170    18.4480    24.2390   -42.7550 
   94.6250     2.2350    64.7780    12.6030    11.0230    19.6210    23.7890   -42.3310 
   94.7500     2.2930    67.3420    13.1600    11.4370    18.9330    23.4860   -41.9490 
   94.8750     2.3410    68.9860    14.5360    12.3800    17.7010    23.2440   -41.6870 
   95.0000     2.3630    69.3500    17.0050    14.1500    19.6720    22.8960   -41.5710 
   95.1250     2.3840    66.6380    20.5220    17.0100    31.0290    22.6080   -41.6730 
   95.2500     2.4230    61.2340    23.9140    20.2520    54.5050    22.4180   -41.9830 
   95.3750     2.4680    56.4270    25.5280    22.4450    66.2480    22.4490   -42.4480 
   95.5000     2.4810    54.5260    24.0880    22.0810    49.9890    22.8400   -42.9690 
   95.6250     2.4090    56.1940    20.1250    19.1480    30.4690    23.9080   -43.4160 
   95.7500     2.2810    58.9370    16.2610    15.8810    20.9680    25.3170   -43.7380 
   95.8750     2.1660    59.7320    13.6560    13.3510    17.9290    26.2920   -43.8860 
   96.0000     2.1070    57.3390    12.4450    11.8230    16.9750    26.2460   -43.8350 
   96.1250     2.1120    55.9870    12.3760    11.2810    16.6740    25.4630   -43.5450 
   96.2500     2.1420    59.2280    12.7400    11.2690    17.6910    24.8650   -43.0880 
   96.3750     2.1740    65.5680    13.1160    11.4670    18.5710    24.6190   -42.5430 
   96.5000     2.1960    70.8190    13.2350    11.5960    18.4600    24.5360   -41.9920 
   96.6250     2.2040    72.5190    12.9980    11.4810    17.5510    24.4900   -41.5500 
   96.7500     2.2050    71.5970    12.5910    11.1960    16.6230    24.5290   -41.2110 
   96.8750     2.2060    69.4540    12.1710    10.8500    16.0410    24.6560   -40.9960 
