~V
VERS. 2.00: Ver 2.00
~W
STRT.M 53.0000:
STOP.M 269.0000:
STEP.M 0.1250:
NULL. -999.2500:
UWI. F10224:
~C
DEPT.M :
DEN.GM/CC :
GR.API :
RML.OHMM :
RI. :
RXO.OHMM :
CALI.CM :
SP.MV :
~A
# ...
  244.1250     2.2980    68.5640    20.9340    19.9370    25.2460    24.0680   -14.6940 
  244.2500     2.2980    70.2350    20.2390    19.2750    24.5640    24.0520   -14.7050 
  244.3750     2.2990    70.3870    19.2640    18.3470    21.9230    23.9560   -14.6750 
  244.5000     2.3010    71.8620    18.2980    17.4270    18.7830    23.9120   -14.6310 
  244.6250     2.3000    70.9910    17.4920    16.6590    18.6330    23.9070   -14.6130 
  244.7500     2.2970    68.5920    16.8210    16.0200    20.8040    23.8900   -14.6720 
  244.8750     2.3000    68.9900    16.3040    15.5270    21.9250    23.8750   -14.7170 
  245.0000     2.3120    69.8790    16.0450    15.2810    19.8590    23.8670   -14.7030 
  245.1250     2.3280    65.4370    16.3100    15.5330    17.1800    23.8680   -14.6670 
  245.2500     2.3390    60.9930    17.2150    16.3950    16.6720    23.8790   -14.6200 
  245.3750     2.3390    61.5520    18.8040    17.9090    19.2120    23.9100   -14.5880 
  245.5000     2.3300    65.5360    20.7970    19.8060    24.4210    23.9350   -14.6200 
  245.6250     2.3240    69.0940    22.2980    21.2360    29.3620    23.9380   -14.6810 
  245.7500     2.3340    70.5280    22.6150    21.5380    30.9520    23.9060   -14.6510 
  245.8750     2.3620    71.6760    21.8560    20.8150    28.7960    23.8770   -14.6010 
  246.0000     2.4010    72.8700    20.7710    19.7820    22.6410    23.8710   -14.5450 
  246.1250     2.4320    69.2910    20.3280    19.3600    18.0650    23.8810   -14.4970 
  246.2500     2.4420    61.3610    20.8260    19.8340    20.9580    23.8630   -14.5130 
  246.3750     2.4470    54.8500    22.0990    21.0470    34.2540    23.7940   -14.5560 
  246.5000     2.4610    53.0460    23.6240    22.4990    50.7620    23.7800   -14.5080 
  246.6250     2.4650    52.5150    24.5820    23.4120    42.4610    23.9200   -14.3750 
  246.7500     2.4280    50.9450    24.6470    23.4730    29.0240    24.1260   -14.2740 
  246.8750     2.3700    51.2770    24.0230    22.8790    23.2080    24.2650   -14.2270 
  247.0000     2.3340    55.2070    23.2750    22.1670    22.9900    24.2680   -14.2500 
  247.1250     2.3360    60.4650    23.0190    21.9230    28.0060    24.1640   -14.2470 
  247.2500     2.3520    61.0130    23.2680    22.1600    33.3970    24.0880   -14.1620 
  247.3750     2.3630    56.3500    23.7890    22.6560    32.3350    24.2110   -14.0430 
  247.5000     2.3650    53.4900    24.3410    23.1820    28.6200    24.3790   -13.9830 
  247.6250     2.3660    58.4990    24.8630    23.6800    29.8090    24.4410   -13.9830 
  247.7500     2.3690    66.5190    25.5480    24.3320    31.7830    24.4840   -13.9740 
  247.8750     2.3680    70.8860    26.6530    25.3840    29.0730    24.5300   -13.9020 
  248.0000     2.3650    70.3090    28.3040    26.9560    26.2440    24.3910   -13.7620 
  248.1250     2.3810    65.8250    30.1570    28.7210    31.4140    24.0930   -13.6820 
  248.2500     2.4260    59.2550    31.1260    29.6440    38.5960    23.8880   -13.6470 
  248.3750     2.4880    52.9440    30.1010    28.6680    35.7230    23.8400   -13.5850 
  248.5000     2.5370    50.2280    26.8390    25.5610    25.0450    23.7960   -13.4410 
  248.6250     2.5330    52.1480    22.4660    21.3970    18.5470    23.7230   -13.2320 
  248.7500     2.4820    54.7110    18.7220    17.8300    15.7950    23.6280   -13.0740 
  248.8750     2.4160    55.8980    16.2290    15.4570    14.6270    23.5930   -12.9360 
  249.0000     2.3700    56.5350    14.9710    14.2580    15.7680    23.5970   -12.7900 
  249.1250     2.3640    54.0080    14.6410    13.9430    21.6120    23.6190   -12.5830 
  249.2500     2.3790    46.2800    14.4540    13.7650    28.2380    23.6960   -12.3220 
  249.3750     2.4000    37.4550    13.8410    13.1820    27.1820    23.7760   -12.0880 
  249.5000     2.4180    33.7630    12.5590    11.9610    19.3350    23.8320   -11.9460 
  249.6250     2.4290    37.1340    10.8370    10.3210    12.7790    23.8770   -11.8180 
  249.7500     2.4310    42.7860     9.4270     8.7830     8.5660    23.8430   -11.6300 
  249.8750     2.4270    47.9550     8.3450     7.5860     6.3000    23.8360   -11.4760 
  250.0000     2.4140    50.9720     7.4630     6.7840     5.4790    23.8450   -11.3680 
  250.1250     2.3940    51.1210     6.9910     6.3560     5.4500    23.8690   -11.3270 
  250.2500     2.3820    50.2800     6.7550     6.1410     5.6650    23.9160   -11.3540 
  250.3750     2.3850    50.3650     6.6790     6.0710     5.7450    23.9820   -11.3540 
  250.5000     2.3940    52.2470     6.7120     6.1020     5.7070    24.0390   -11.3390 
  250.6250     2.3980    55.2970     6.8210     6.2010     5.8060    23.9800   -11.3940 
  250.7500     2.4000    57.6780     6.9560     6.3240     5.9710    23.9530   -11.4900 
  250.8750     2.4030    58.0210     7.0900     6.4460     6.0310    23.9500   -11.5930 
  251.0000     2.4090    57.3150     7.2050     6.5500     6.0840    23.9370   -11.7050 
  251.1250     2.4130    57.8020     7.2930     6.6300     6.4380    23.9190   -11.7500 
  251.2500     2.4120    58.9330     7.3860     6.7140     6.8950    23.8530   -11.7540 
  251.3750     2.4020    60.0170     7.5180     6.8350     7.0660    23.7290   -11.7860 
  251.5000     2.3820    60.5660     7.6940     6.9950     6.9020    23.6740   -11.8130 
  251.6250     2.3560    59.8540     7.8680     7.1530     7.0650    23.6720   -11.8010 
  251.7500     2.3370    58.7120     7.9740     7.2490     8.0730    23.6760   -11.7990 
  251.8750     2.3350    57.7990     7.9670     7.2430     9.9170    23.6700   -11.8100 
  252.0000     2.3520    58.0050     7.8430     7.1300    11.5220    23.6780   -11.8120 
  252.1250     2.3800    57.6690     7.6470     6.9520    10.7610    23.7160   -11.8250 
  252.2500     2.4140    55.6580     7.4830     6.8030     8.8100    23.7340   -11.8480 
  252.3750     2.4530    53.4720     7.4080     6.7340     7.5050    23.7590   -11.8570 
  252.5000     2.4820    51.0170     7.4350     6.7600     7.1550    23.8330   -11.9020 
  252.6250     2.4740    49.3260     7.5350     6.8500     7.1290    23.9200   -12.0050 
  252.7500     2.4450    50.4210     7.6220     6.9290     6.9420    23.9460   -12.0530 
  252.8750     2.4260    54.9410     7.6420     6.9470     6.7580    23.9860   -12.1010 
  253.0000     2.4220    59.2190     7.5830     6.8930     6.6530    24.0310   -12.1300 
  253.1250     2.4210    58.9920     7.4750     6.7950     6.4980    24.1170   -12.1710 
  253.2500     2.4180    58.1410     7.3790     6.7080     6.3880    24.1450   -12.2530 
  253.3750     2.4140    57.8840     7.3360     6.6690     6.5400    24.5090   -12.3630 
  253.5000     2.4110    56.6590     7.3780     6.7070     6.9540    24.9590   -12.4400 
  253.6250     2.4110    55.0670     7.5420     6.8560     7.3010    25.3050   -12.4990 
  253.7500     2.4170    55.9460     7.8060     7.0960     7.3130    24.8640   -12.5720 
  253.8750     2.4250    56.7140     8.1390     7.3990     7.2130    24.1660   -12.6310 
  254.0000     2.4350    53.3760     8.4800     7.7090     7.6250    23.7090   -12.7140 
  254.1250     2.4470    45.3240     8.7260     7.9330     8.8730    23.7060   -12.8280 
  254.2500     2.4590    37.5900     8.8190     8.0170    10.2620    23.8550   -12.9420 
  254.3750     2.4700    33.8280     8.7370     7.9430    11.0620    23.8000   -13.0350 
  254.5000     2.4790    34.4910     8.5050     7.7320    11.0150    23.7050   -13.1240 
  254.6250     2.4880    36.6850     8.1760     7.4330    10.4610    23.7050   -13.1840 
  254.7500     2.4920    37.1520     7.8540     7.1400     9.7260    23.7040   -13.2470 
  254.8750     2.4930    36.5470     7.6190     6.9270     8.9870    23.7010   -13.3110 
  255.0000     2.4950    37.0590     7.5520     6.8650     8.6280    23.7010   -13.3610 
  255.1250     2.5000    38.2680     7.7740     7.0670     9.2260    23.7230   -13.3860 
  255.2500     2.5060    38.2470     8.2990     7.5450    11.2000    23.7290   -13.4160 
