~V
VERS. 2.00: Ver 2.00
~W
STRT.M 20.0000:
STOP.M 256.0000:
STEP.M 0.1250:
NULL. -999.2500:
UWI. F10201:
~C
DEPT.M :
DEN.GM/CC :
GR.API :
RML.OHMM :
RI. :
RXO.OHMM :
CALI.CM :
SP.MV :
~A
# ...
  121.2500     2.2000    67.9950     5.5070     4.6250     7.4930    25.1420   -16.5530 
  121.3750     2.1980    69.0350     5.5420     4.6260     7.4070    25.1610   -16.5270 
  121.5000     2.2010    69.5240     5.6050     4.6560     7.3040    25.1810   -16.5010 
  121.6250     2.2100    70.2650     5.6650     4.7000     7.1120    25.1760   -16.5170 
  121.7500     2.2220    72.5500     5.6850     4.7290     6.9650    25.0470   -16.5520 
  121.8750     2.2350    76.4970     5.6330     4.7160     7.0070    24.8140   -16.5920 
  122.0000     2.2470    78.2010     5.4970     4.6440     6.9930    24.7610   -16.6280 
  122.1250     2.2520    72.8470     5.2920     4.5020     6.9950    24.9380   -16.7210 
  122.2500     2.2450    65.6720     5.0720     4.3250     7.0100    25.1260   -16.8140 
  122.3750     2.2200    62.1540     4.8690     4.1370     6.9990    25.2220   -16.8970 
  122.5000     2.1750    62.4660     4.6940     3.9580     6.8700    25.2990   -16.9690 
  122.6250     2.1170    62.0340     4.5390     3.7940     6.6410    25.3720   -17.0110 
  122.7500     2.0670    60.0610     4.3780     3.6320     6.3590    25.4220   -17.0200 
  122.8750     2.0450    59.8260     4.1970     3.4590     6.0440    25.4520   -16.9560 
  123.0000     2.0680    61.3950     3.9950     3.2740     5.7060    25.4730   -16.8580 
  123.1250     2.1360    63.7690     3.7870     3.0830     5.3170    25.5390   -16.6910 
  123.2500     2.2160    65.3880     3.5910     2.9010     4.9580    25.5480   -16.4640 
  123.3750     2.2740    67.2140     3.4240     2.7350     4.7050    25.5230   -16.2080 
  123.5000     2.2890    69.5370     3.2940     2.5910     4.6200    25.5290   -15.9410 
  123.6250     2.2600    69.2320     3.2140     2.4850     4.5630    25.6060   -15.6230 
  123.7500     2.2200    68.4010     3.1820     2.4250     4.5730    25.6710   -15.3090 
  123.8750     2.1880    69.4730     3.2080     2.4200     4.6970    25.6240   -15.0030 
  124.0000     2.1770    70.1170     3.3050     2.4740     4.9260    25.4490   -14.6640 
  124.1250     2.1850    67.7830     3.4890     2.5970     5.3370    25.2900   -14.3640 
  124.2500     2.1990    66.5950     3.7260     2.7670     5.4780    25.2010   -14.0900 
  124.3750     2.2090    67.5890     3.9630     2.9560     5.4770    25.0770   -13.8400 
  124.5000     2.2110    67.2130     4.1260     3.1230     5.4040    24.8980   -13.6260 
  124.6250     2.2080    65.2230     4.1400     3.2070     5.9180    24.9010   -13.4880 
  124.7500     2.2080    64.9260     4.0390     3.2020     6.0020    25.0170   -13.4600 
  124.8750     2.2170    66.4040     3.8950     3.1350     5.7170    25.0950   -13.5650 
  125.0000     2.2320    69.2650     3.7850     3.0560     5.3460    25.0250   -13.7710 
  125.1250     2.2500    71.2350     3.7610     3.0100     5.2890    24.8080   -14.0260 
  125.2500     2.2630    70.2320     3.7740     2.9900     5.5970    24.6860   -14.3080 
  125.3750     2.2710    67.0700     3.7390     2.9590     5.6580    24.6610   -14.5850 
  125.5000     2.2790    64.0230     3.5750     2.8650     5.3550    24.6350   -14.8380 
  125.6250     2.2940    63.2160     3.2560     2.6800     5.0300    24.4750   -15.0620 
  125.7500     2.3150    63.9380     2.9280     2.4680     4.3830    24.3210   -15.1520 
  125.8750     2.3390    66.0200     2.7370     2.3100     3.7360    24.2090   -15.0910 
  126.0000     2.3580    69.3210     2.7740     2.2730     3.2260    24.1240   -14.9470 
  126.1250     2.3640    71.4730     3.0560     2.3990     3.4140    24.0340   -14.7190 
  126.2500     2.3620    69.8250     3.3910     2.5980     4.2600    23.9450   -14.5380 
  126.3750     2.3560    67.4670     3.5510     2.7410     5.0900    23.8790   -14.4610 
  126.5000     2.3530    70.0700     3.3410     2.6950     4.9480    23.8520   -14.4880 
  126.6250     2.3520    77.3360     2.7690     2.3920     3.9680    23.8540   -14.6180 
  126.7500     2.3470    81.5760     2.1810     1.9930     3.0370    23.8610   -14.7870 
  126.8750     2.3330    80.0070     1.7830     1.6390     2.5760    23.8440   -14.9600 
  127.0000     2.3100    75.2700     1.6250     1.4130     2.4630    23.8090   -15.1650 
  127.1250     2.2870    70.9390     1.6670     1.3410     2.5170    23.7830   -15.4570 
  127.2500     2.2710    68.3500     1.7750     1.3480     2.5020    23.7840   -15.7200 
  127.3750     2.2660    66.2480     1.8560     1.3750     2.4800    23.7920   -15.9590 
  127.5000     2.2710    65.0820     1.8660     1.3840     2.4910    23.7890   -16.1650 
  127.6250     2.2900    68.2380     1.8440     1.3760     2.4890    23.8000   -16.3280 
  127.7500     2.3240    72.2710     1.8970     1.3980     2.4850    23.8160   -16.5850 
  127.8750     2.3770    72.6110     2.0970     1.4920     2.6950    23.8070   -16.9480 
  128.0000     2.4460    68.4850     2.4670     1.6860     3.4250    23.7970   -17.3600 
  128.1250     2.5170    62.2530     2.9730     1.9890     4.9000    23.8340   -17.7810 
  128.2500     2.5720    56.1550     3.4730     2.3300     5.9570    23.8960   -18.2200 
  128.3750     2.6030    52.1930     3.8400     2.6360     6.2770    23.9400   -18.6270 
  128.5000     2.6110    51.7580     4.0160     2.8490     6.1520    23.9720   -18.9640 
  128.6250     2.6080    52.5330     4.0410     2.9500     6.0660    24.0040   -19.2750 
  128.7500     2.6050    50.7290     4.0580     3.0070     6.2220    24.0280   -19.5250 
  128.8750     2.6060    47.8230     4.1360     3.0690     6.7050    24.0540   -19.6970 
  129.0000     2.6090    46.8240     4.2790     3.1580     7.4690    24.0700   -19.8170 
  129.1250     2.6130    47.6950     4.4450     3.2630     7.8830    24.0700   -19.9210 
  129.2500     2.6170    47.7290     4.5810     3.3580     7.9810    24.0830   -19.9970 
  129.3750     2.6170    47.4850     4.6700     3.4270     7.7890    24.0950   -20.0230 
  129.5000     2.6080    48.0540     4.7110     3.4640     7.9890    24.0480   -20.0540 
  129.6250     2.5770    49.8670     4.7090     3.4700     8.0340    23.9640   -20.0720 
  129.7500     2.5310    52.6240     4.6810     3.4630     8.1020    23.9610   -20.0480 
  129.8750     2.4840    54.5200     4.6440     3.4540     8.0500    24.0290   -20.0600 
  130.0000     2.4500    54.1230     4.6290     3.4620     7.8650    23.9100   -20.0960 
  130.1250     2.4380    53.2790     4.6940     3.5180     8.2290    23.3490   -20.0700 
  130.2500     2.4390    55.3740     4.8420     3.6210     7.9870    22.7590   -20.0500 
  130.3750     2.4420    58.0600     5.0450     3.7550     8.1110    22.7210   -20.0520 
  130.5000     2.4400    57.1330     5.2410     3.8870     8.4380    23.1940   -20.0340 
  130.6250     2.4320    55.0970     5.3400     3.9710     8.8970    23.6700   -20.0080 
  130.7500     2.4300    56.5430     5.3270     3.9980     8.8220    23.8170   -20.0000 
  130.8750     2.4390    58.3000     5.2370     3.9850     7.8100    23.7890   -19.9510 
  131.0000     2.4610    56.1270     5.1310     3.9650     7.2950    23.7310   -19.8920 
  131.1250     2.4910    52.0050     5.0680     3.9680     7.5740    23.6870   -19.8570 
  131.2500     2.5210    52.3410     5.0650     4.0090     7.8360    23.6520   -19.7640 
  131.3750     2.5460    55.2890     5.1190     4.0880     7.7110    23.6320   -19.6520 
  131.5000     2.5640    55.0980     5.2140     4.1960     7.3970    23.6180   -19.5310 
  131.6250     2.5780    51.1930     5.3430     4.3170     7.3410    23.6040   -19.4030 
  131.7500     2.5870    48.7900     5.5020     4.4440     7.6980    23.6030   -19.2870 
  131.8750     2.5900    47.6900     5.6750     4.5730     8.2790    23.6030   -19.1480 
  132.0000     2.5850    46.8860     5.8040     4.6750     8.4240    23.6050   -18.9570 
  132.1250     2.5640    48.0470     5.7490     4.6640     7.8850    23.6340   -18.7320 
  132.2500     2.5240    51.6200     5.4610     4.4930     7.6510    23.7290   -18.5010 
  132.3750     2.4640    54.5810     4.9940     4.1720     8.0740    23.9770   -18.2750 
