~V
VERS. 2.00: Ver 2.00
~W
STRT.M 60.0000:
STOP.M 276.0000:
STEP.M 0.1250:
NULL. -999.2500:
UWI. F10216:
~C
DEPT.M :
DEN.GM/CC :
GR.API :
RML.OHMM :
RI. :
RXO.OHMM :
CALI.CM :
SP.MV :
~A
# ...
  240.0000     2.2550    59.7980    42.1230    39.3020    54.9370    24.3030   -16.8490 
  240.1250     2.2810    61.2700    41.0900    38.6020    52.2980    24.2930   -16.6450 
  240.2500     2.3060    62.6910    39.1760    37.0990    48.6030    24.2680   -16.4780 
  240.3750     2.3100    61.6270    36.5580    34.8660    46.7090    24.2490   -16.2930 
  240.5000     2.2920    60.6140    33.7250    32.3050    46.1210    24.2460   -16.0650 
  240.6250     2.2740    62.1920    31.4050    30.0760    43.8330    24.2210   -15.8760 
  240.7500     2.2840    63.4000    29.9300    28.5360    38.3650    24.0950   -15.7240 
  240.8750     2.3300    62.4670    29.3030    27.7270    33.8120    23.8910   -15.5910 
  241.0000     2.3920    62.0940    29.2160    27.4250    34.5480    23.7130   -15.4750 
  241.1250     2.4220    64.6470    29.0380    27.1440    44.2600    23.7920   -15.3920 
  241.2500     2.4090    66.2880    28.2310    26.3980    43.8350    23.8660   -15.3400 
  241.3750     2.3700    66.7670    26.7170    25.0830    35.3200    23.8700   -15.3010 
  241.5000     2.3290    67.6480    24.8610    23.4730    27.9590    23.9120   -15.2770 
  241.6250     2.3020    68.7640    23.3270    22.0920    24.1510    23.9690   -15.2710 
  241.7500     2.2840    69.1900    22.4970    21.2620    23.7380    23.9640   -15.2510 
  241.8750     2.2730    68.8980    22.4010    21.0430    25.5880    23.8640   -15.1890 
  242.0000     2.2670    67.6680    22.7820    21.2720    28.9300    23.7750   -15.1390 
  242.1250     2.2660    65.0680    23.2330    21.6360    31.2510    23.6390   -15.0960 
  242.2500     2.2660    62.4020    23.5050    21.8710    30.9350    23.5320   -15.0250 
  242.3750     2.2690    61.1950    23.5990    21.9310    29.1440    23.4640   -14.9860 
  242.5000     2.2740    61.8440    23.6060    21.8590    27.3930    23.4480   -14.9650 
  242.6250     2.2800    64.9700    23.5560    21.6780    27.1160    23.4430   -14.8910 
  242.7500     2.2870    67.4720    23.3140    21.3200    28.9820    23.4860   -14.7960 
  242.8750     2.2910    67.4720    22.6450    20.6170    30.2330    23.6070   -14.7410 
  243.0000     2.2940    67.2090    21.4400    19.4960    28.5380    23.8560   -14.6810 
  243.1250     2.2950    70.1490    19.8840    18.1010    25.4320    24.0870   -14.5890 
  243.2500     2.2920    74.7760    18.4860    16.8220    24.6670    24.1170   -14.5180 
  243.3750     2.2870    77.7240    17.6550    15.9590    21.6330    23.9560   -14.4470 
  243.5000     2.2780    77.2220    17.6750    15.7300    19.7980    23.8140   -14.3850 
  243.6250     2.2670    73.0370    18.7410    16.3420    22.4580    23.8070   -14.3350 
  243.7500     2.2560    66.5340    20.4700    17.5770    24.6290    23.8330   -14.2980 
  243.8750     2.2470    61.1480    22.4900    19.2120    26.9780    23.9770   -14.2740 
  244.0000     2.2400    58.6010    24.3710    20.9190    30.4400    24.0910   -14.2660 
  244.1250     2.2380    58.6190    25.6130    22.2320    30.2420    23.9760   -14.2750 
  244.2500     2.2440    60.0110    26.1450    22.9500    28.4320    23.7150   -14.2820 
  244.3750     2.2590    62.5370    26.0520    23.0740    26.4360    23.5290   -14.2800 
  244.5000     2.2760    65.1620    25.4900    22.7220    25.7690    23.5760   -14.2680 
  244.6250     2.2850    65.4420    24.5730    22.0000    26.8330    23.8300   -14.3010 
  244.7500     2.2810    64.3420    23.5030    21.1050    28.2030    24.0460   -14.3490 
  244.8750     2.2710    63.8570    22.4300    20.1630    27.6180    24.1780   -14.3610 
  245.0000     2.2680    63.9520    21.4880    19.2960    25.0380    24.2250   -14.3930 
  245.1250     2.2830    66.9530    20.7460    18.5930    23.8990    24.2140   -14.4410 
  245.2500     2.3080    71.8930    20.0860    17.9950    22.3370    24.2260   -14.4410 
  245.3750     2.3270    76.3560    19.3940    17.4130    22.0660    24.2600   -14.4170 
  245.5000     2.3270    79.1110    18.6120    16.7800    23.3420    24.2720   -14.4270 
  245.6250     2.3110    79.3720    17.8350    16.1150    24.8760    24.2270   -14.4200 
  245.7500     2.3040    77.5930    17.2750    15.5600    20.4400    24.1930   -14.3760 
  245.8750     2.3180    73.4430    17.0450    15.2190    18.2830    24.2080   -14.3370 
  246.0000     2.3510    69.0340    17.0760    15.0810    17.9060    24.2420   -14.2830 
  246.1250     2.3790    68.0740    17.1030    14.9920    19.5110    24.2370   -14.2000 
  246.2500     2.3820    68.0940    16.8280    14.7390    22.2820    24.1830   -14.1100 
  246.3750     2.3620    66.7460    16.1710    14.2490    21.7890    24.1700   -14.0170 
  246.5000     2.3320    66.3470    15.3430    13.6330    17.9900    24.2010   -13.9070 
  246.6250     2.3140    67.7210    14.8960    13.2220    15.5730    24.2130   -13.7620 
  246.7500     2.3200    68.3160    15.2620    13.3200    15.3880    24.2080   -13.6130 
  246.8750     2.3580    67.2410    16.6370    14.1330    16.5150    24.2230   -13.4870 
  247.0000     2.4290    65.0340    18.8490    15.6750    19.4870    24.2370   -13.3670 
  247.1250     2.5080    61.6550    21.1130    17.5460    23.1690    24.2320   -13.2550 
  247.2500     2.5560    57.4090    22.2620    18.7810    25.9120    24.2120   -13.1950 
  247.3750     2.5560    55.2620    21.6210    18.6510    26.4370    24.2110   -13.1570 
  247.5000     2.5220    55.2960    19.3800    17.1310    20.0240    24.1870   -13.0890 
  247.6250     2.4760    55.5180    16.5420    14.9350    13.1620    24.0880   -13.0810 
  247.7500     2.4380    57.0740    14.2050    12.9790    11.2720    23.9900   -13.1150 
  247.8750     2.4090    61.0290    12.6870    11.5680    11.3360    23.8390   -13.1170 
  248.0000     2.3830    65.8120    11.9300    10.7320    11.5740    23.8170   -13.1160 
  248.1250     2.3570    67.3710    11.7910    10.4420    10.7690    23.8000   -13.1610 
  248.2500     2.3340    66.8180    11.9560    10.4740     9.8620    23.8910   -13.1760 
  248.3750     2.3220    66.7020    12.2980    10.7030     9.6940    24.0780   -13.1720 
  248.5000     2.3260    67.1300    12.7700    11.0500    10.6060    24.2370   -13.2050 
  248.6250     2.3450    66.4710    13.3620    11.4850    11.9130    24.2070   -13.2130 
  248.7500     2.3710    65.3110    13.9690    11.9500    12.6990    24.0910   -13.1820 
  248.8750     2.3910    65.7780    14.4750    12.3760    14.2710    23.9600   -13.1550 
  249.0000     2.3980    68.1110    14.8020    12.6830    15.6060    23.9050   -13.1340 
  249.1250     2.3880    70.6460    14.9290    12.8040    15.4370    23.9360   -13.1070 
  249.2500     2.3720    72.5350    14.9840    12.8110    13.2010    23.9890   -13.0900 
  249.3750     2.3570    72.9700    15.0690    12.7830    11.9020    24.0260   -13.0810 
  249.5000     2.3540    71.7720    15.2490    12.7960    12.2380    24.0920   -13.0820 
  249.6250     2.3680    70.6520    15.5640    12.9160    16.1950    24.1180   -13.0920 
  249.7500     2.3910    70.6230    15.9700    13.1280    25.5880    24.1220   -13.1020 
  249.8750     2.4130    70.3410    16.4210    13.3990    31.3310    24.0980   -13.1250 
  250.0000     2.4330    67.0030    16.8620    13.6930    28.8850    24.0840   -13.1460 
  250.1250     2.4490    63.7760    17.2180    13.9620    18.9990    24.0780   -13.1310 
  250.2500     2.4620    63.3860    17.4440    14.1580    16.4660    24.0710   -13.1600 
  250.3750     2.4710    64.5470    17.5090    14.2470    17.3690    24.0450   -13.2010 
  250.5000     2.4740    66.2770    17.4140    14.2240    19.1050    23.9930   -13.2100 
  250.6250     2.4640    68.1810    17.1910    14.1040    21.3770    23.9350   -13.2360 
  250.7500     2.4510    68.7440    16.9460    13.9540    19.6170    23.9520   -13.3060 
  250.8750     2.4360    67.1970    16.7530    13.8310    17.0650    24.0410   -13.3570 
  251.0000     2.4200    65.5540    16.6410    13.7640    15.7290    24.1000   -13.3840 
  251.1250     2.4040    65.2420    16.5660    13.7260    15.5930    24.0230   -13.4360 
