~V
VERS. 2.00: Ver 2.00
~W
STRT.M 50.0000:
STOP.M 278.0000:
STEP.M 0.1250:
NULL. -999.2500:
UWI. F10217:
~C
DEPT.M :
SP.MV :
DEN.GM/CC :
GR.API :
RML.OHMM :
RI. :
RXO.OHMM :
CALI.CM :
~A
# ...
  162.5000   -18.9820     2.1990    73.9640    15.9810    15.4540    18.3220    24.6870 
  162.6250   -18.9850     2.1870    73.2590    15.0650    14.5970    17.0860    24.6550 
  162.7500   -19.0000     2.1830    73.9030    14.0180    13.5870    15.2200    24.5920 
  162.8750   -19.0290     2.1880    76.3430    13.0190    12.5910    13.4020    24.5330 
  163.0000   -19.0670     2.2020    78.8830    12.2080    11.7420    12.3480    24.5070 
  163.1250   -19.1090     2.2200    78.5130    11.6930    11.1560    11.9470    24.5050 
  163.2500   -19.1650     2.2340    77.7850    11.4280    10.8060    11.6660    24.5050 
  163.3750   -19.2350     2.2420    76.7580    11.3770    10.6690    11.4530    24.5060 
  163.5000   -19.3050     2.2460    76.0620    11.5060    10.7150    11.4310    24.5070 
  163.6250   -19.4050     2.2450    75.9500    11.8010    10.9320    11.6920    24.5060 
  163.7500   -19.5130     2.2440    76.4590    12.1950    11.2600    12.1430    24.5010 
  163.8750   -19.6300     2.2410    77.5700    12.6300    11.6520    12.6250    24.4820 
  164.0000   -19.7450     2.2390    77.8500    13.0430    12.0530    13.0220    24.4390 
  164.1250   -19.8550     2.2370    78.3750    13.3680    12.3940    13.3290    24.3850 
  164.2500   -19.9520     2.2340    78.6980    13.6090    12.6560    13.3250    24.3350 
  164.3750   -20.0360     2.2310    78.6030    13.7910    12.8500    13.0990    24.2750 
  164.5000   -20.1050     2.2260    80.7220    13.9470    13.0070    13.0190    24.1900 
  164.6250   -20.1460     2.2210    82.9940    14.0990    13.1520    13.1890    24.0780 
  164.7500   -20.1510     2.2180    82.8610    14.2390    13.2910    13.0700    23.9460 
  164.8750   -20.1190     2.2170    79.8150    14.3460    13.4100    12.9770    23.8120 
  165.0000   -20.0680     2.2160    76.7820    14.4030    13.4890    13.2810    23.7430 
  165.1250   -20.0010     2.2080    76.8070    14.4070    13.5160    13.7720    23.7480 
  165.2500   -19.9310     2.1920    77.2460    14.3850    13.5130    13.8140    23.7580 
  165.3750   -19.8650     2.1680    76.9180    14.3450    13.4860    13.2430    23.7280 
  165.5000   -19.8120     2.1470    76.4990    14.2760    13.4260    12.4500    23.6450 
  165.6250   -19.7600     2.1400    76.9370    14.1640    13.3130    12.0280    23.5440 
  165.7500   -19.7300     2.1530    79.7600    14.0310    13.1620    11.9760    23.4860 
  165.8750   -19.7360     2.1820    84.5430    13.9220    13.0050    12.4140    23.5280 
  166.0000   -19.7630     2.2200    87.7710    13.8910    12.8880    12.6190    23.6850 
  166.1250   -19.7980     2.2520    84.5510    13.9940    12.8720    12.6670    23.8830 
  166.2500   -19.8520     2.2700    78.9690    14.1950    12.9490    13.1420    24.0520 
  166.3750   -19.9050     2.2710    77.0890    14.4520    13.0890    13.7720    24.1740 
  166.5000   -19.9890     2.2570    79.4560    14.7630    13.2770    14.4200    24.2220 
  166.6250   -20.0840     2.2360    79.8480    15.3150    13.6010    15.1200    24.2350 
  166.7500   -20.1810     2.2220    77.1120    16.4070    14.2500    15.8500    24.2290 
  166.8750   -20.2700     2.2220    74.9760    18.4280    15.5130    16.8810    24.2360 
  167.0000   -20.3670     2.2340    73.3550    26.0530    17.7170    18.6660    24.2750 
  167.1250   -20.4700     2.2430    68.3460    31.8010    21.3100    22.6880    24.4120 
  167.2500   -20.5540     2.2320    61.8940    38.3080    25.8770    30.6140    24.5680 
  167.3750   -20.6330     2.1990    59.3500    43.9020    30.4420    43.5900    24.6610 
  167.5000   -20.6480     2.1570    60.8110    46.4700    33.3750    51.9680    24.6770 
  167.6250   -20.6510     2.1380    61.7940    44.4900    33.0160    45.6940    24.5680 
  167.7500   -20.6420     2.1550    63.5300    40.5780    30.7280    35.4310    24.3800 
  167.8750   -20.6370     2.2030    68.3030    37.4580    28.3620    27.4620    24.2520 
  168.0000   -20.6050     2.2590    75.1250    36.9140    27.3430    24.3790    24.2240 
  168.1250   -20.5540     2.2870    78.8820    40.0070    28.7330    25.9720    24.2700 
  168.2500   -20.4710     2.2770    77.2530    45.7300    32.2530    30.7120    24.3440 
  168.3750   -20.3700     2.2420    72.5330    52.7790    37.3240    39.0920    24.4550 
  168.5000   -20.2940     2.2020    67.7470    58.9280    42.5160    52.4350    24.5740 
  168.6250   -20.2120     2.1770    63.9190    60.7490    45.1890    62.9570    24.6200 
  168.7500   -20.1290     2.1680    61.1870    57.8950    44.4000    56.7020    24.6560 
  168.8750   -20.0330     2.1730    61.0040    51.9640    40.8610    42.7430    24.7030 
  169.0000   -19.9520     2.1860    64.2400    45.3380    36.2220    31.8940    24.7480 
  169.1250   -19.8900     2.1970    67.6070    39.9280    32.0610    28.6550    24.7760 
  169.2500   -19.8580     2.2010    68.7040    36.0510    28.9200    27.8340    24.7910 
  169.3750   -19.8530     2.1990    69.0220    33.6370    26.8430    27.4160    24.7890 
  169.5000   -19.8550     2.1980    69.7290    32.6340    25.8030    26.0660    24.7730 
  169.6250   -19.8940     2.2020    69.9680    33.3400    26.0340    24.8770    24.7610 
  169.7500   -19.9430     2.2120    70.7280    35.4460    27.4000    25.0720    24.7650 
  169.8750   -20.0100     2.2230    72.1700    38.4880    29.7220    27.2810    24.7790 
  170.0000   -20.0810     2.2330    71.2400    41.4410    32.3860    32.0770    24.7940 
  170.1250   -20.1640     2.2340    67.7800    42.3560    33.9340    40.4180    24.8000 
  170.2500   -20.2480     2.2290    65.7190    40.3690    33.3260    41.9020    24.7350 
  170.3750   -20.3230     2.2170    65.4280    35.9150    30.5740    31.7260    24.5250 
  170.5000   -20.3860     2.2010    64.2370    30.5510    26.7470    20.5780    24.2400 
  170.6250   -20.4380     2.1890    64.1230    26.0610    23.2600    17.1720    23.9980 
  170.7500   -20.4740     2.1840    65.9620    22.9890    20.7450    16.4490    23.8510 
  170.8750   -20.4830     2.1910    66.9710    21.2460    19.2570    16.1070    23.7670 
  171.0000   -20.5080     2.2100    68.0090    20.5170    18.6350    15.5840    23.7100 
  171.1250   -20.5230     2.2350    72.5980    20.5160    18.6970    14.8000    23.6720 
  171.2500   -20.5380     2.2550    77.7770    20.8100    19.0570    14.0740    23.6790 
  171.3750   -20.5540     2.2620    77.6000    21.1720    19.4860    14.0790    23.7210 
  171.5000   -20.5810     2.2560    72.4650    21.3760    19.7600    15.0040    23.7730 
  171.6250   -20.5890     2.2440    69.7480    21.1070    19.5610    15.4110    23.7830 
  171.7500   -20.6050     2.2360    70.6480    20.3360    18.8350    15.1660    23.7850 
  171.8750   -20.6540     2.2360    72.1160    19.2130    17.7000    14.5660    23.7990 
  172.0000   -20.7150     2.2400    74.9800    18.0770    16.4450    13.6620    23.8310 
  172.1250   -20.7820     2.2410    80.9270    17.4980    15.5070    12.7440    23.8630 
  172.2500   -20.8560     2.2370    84.5030    17.9030    15.2050    12.3370    23.8770 
  172.3750   -20.9520     2.2310    82.9240    19.7540    15.8420    12.8000    23.8670 
  172.5000   -21.0630     2.2300    79.0990    23.6430    17.7970    13.8230    23.8460 
  172.6250   -21.1870     2.2390    78.4200    31.0880    22.1870    16.1500    23.8150 
  172.7500   -21.3230     2.2550    78.0870    42.9070    29.9680    22.0070    23.7810 
  172.8750   -21.4490     2.2690    73.0800    60.2280    42.5720    34.7390    23.7710 
  173.0000   -21.5640     2.2720    63.9540    83.4620    60.8560    52.4340    23.8050 
  173.1250   -21.6720     2.2570    58.1810   110.7310    83.6340    84.9310    23.8380 
  173.2500   -21.7740     2.2330    58.0350   134.3900   104.3870   149.4260    23.8490 
  173.3750   -21.8580     2.2090    59.4600   147.3830   117.0440   234.6890    23.8690 
  173.5000   -21.9420     2.1910    60.7380   149.1510   120.0710   236.8770    23.9130 
  173.6250   -22.0120     2.1840    62.3620   147.2370   118.0740   158.8700    23.9580 
