~V
VERS. 2.00: Ver 2.00
~W
STRT.M 53.0000:
STOP.M 267.0000:
STEP.M 0.1250:
NULL. -999.2500:
UWI. F10211:
~C
DEPT.M :
GR.API :
RML.OHMM :
RI. :
RXO.OHMM :
CALI.CM :
SP.MV :
DEN.GM/CC :
~A
# ...
  143.0000    93.0840     5.3490     4.4660     5.0780    23.7430   -11.6890     2.2710 
  143.1250    94.0200     5.4490     4.5340     5.1560    23.4890   -11.7780     2.2930 
  143.2500    95.0980     5.5220     4.5900     5.2830    23.3650   -11.8400     2.3160 
  143.3750    95.9220     5.5550     4.6270     5.3720    23.3130   -11.8820     2.3320 
  143.5000    95.3590     5.5370     4.6340     5.3690    23.2440   -11.9020     2.3380 
  143.6250    92.2210     5.4780     4.6090     5.2860    23.1750   -11.8910     2.3370 
  143.7500    88.3840     5.3960     4.5580     5.1990    23.1360   -11.8470     2.3320 
  143.8750    87.5560     5.3090     4.4900     5.1390    23.1240   -11.7870     2.3280 
  144.0000    89.0090     5.2370     4.4180     5.0820    23.1230   -11.7170     2.3280 
  144.1250    90.0320     5.1820     4.3580     5.0370    23.1260   -11.6530     2.3300 
  144.2500    90.9820     5.1440     4.3150     5.0020    23.1370   -11.6020     2.3310 
  144.3750    92.9180     5.1220     4.2920     4.9440    23.1580   -11.5380     2.3330 
  144.5000    95.3640     5.1130     4.2850     4.9400    23.1510   -11.4540     2.3400 
  144.6250    95.9660     5.1150     4.2890     4.9790    23.1090   -11.3580     2.3460 
  144.7500    93.1950     5.1250     4.3000     5.0150    23.0690   -11.2530     2.3430 
  144.8750    89.6450     5.1390     4.3180     5.0240    23.0650   -11.1500     2.3280 
  145.0000    89.9030     5.1550     4.3370     5.0300    23.1260   -11.0400     2.3110 
  145.1250    91.4680     5.1660     4.3510     5.0330    23.2240   -10.9140     2.3010 
  145.2500    91.8470     5.1630     4.3560     5.0360    23.3080   -10.7580     2.3010 
  145.3750    93.0140     5.1400     4.3460     5.0240    23.3580   -10.5950     2.3070 
  145.5000    96.8910     5.0900     4.3210     4.9570    23.3940   -10.4400     2.3140 
  145.6250    97.7980     5.0230     4.2810     4.8710    23.4190   -10.3040     2.3140 
  145.7500    93.5130     4.9470     4.2280     4.8060    23.4620   -10.1840     2.3100 
  145.8750    90.6040     4.8680     4.1670     4.7620    23.5620   -10.0670     2.3050 
  146.0000    91.6870     4.7840     4.1020     4.7080    23.6580    -9.9780     2.3040 
  146.1250    91.6450     4.6930     4.0370     4.6370    23.6540    -9.9230     2.3060 
  146.2500    90.7430     4.5960     3.9730     4.5850    23.5530    -9.9140     2.3100 
  146.3750    93.8620     4.4980     3.9100     4.5320    23.4600    -9.9500     2.3170 
  146.5000    98.5040     4.4110     3.8480     4.4610    23.4260   -10.0330     2.3250 
  146.6250    97.3510     4.3430     3.7910     4.3960    23.4280   -10.1440     2.3320 
  146.7500    91.8330     4.3000     3.7420     4.3530    23.4470   -10.2730     2.3310 
  146.8750    90.1360     4.2850     3.7060     4.3360    23.4750   -10.4280     2.3170 
  147.0000    94.1670     4.3040     3.6930     4.3080    23.4810   -10.5970     2.2950 
  147.1250    97.8150     4.3550     3.7060     4.2760    23.4410   -10.7580     2.2760 
  147.2500    97.9920     4.4350     3.7420     4.2650    23.3410   -10.9100     2.2690 
  147.3750    96.7220     4.5380     3.7960     4.3310    23.2010   -11.0640     2.2740 
  147.5000    94.4980     4.6470     3.8560     4.4250    23.1180   -11.2140     2.2850 
  147.6250    91.1830     4.7340     3.9010     4.4990    23.1060   -11.3530     2.2980 
  147.7500    89.8020     4.7690     3.9110     4.5510    23.1130   -11.4700     2.3120 
  147.8750    91.3760     4.7400     3.8730     4.5820    23.1120   -11.5560     2.3240 
  148.0000    92.2560     4.6690     3.8000     4.5620    23.1050   -11.6060     2.3310 
  148.1250    91.0530     4.6270     3.7390     4.4960    23.1040   -11.6420     2.3340 
  148.2500    90.7410     4.6960     3.7500     4.4470    23.0950   -11.6660     2.3370 
  148.3750    92.5200     4.9420     3.8790     4.5080    23.0700   -11.6600     2.3390 
  148.5000    93.1060     5.4140     4.1760     5.0620    23.0640   -11.6220     2.3460 
  148.6250    91.8110     6.0610     4.6200     6.2740    23.0980   -11.5570     2.3490 
  148.7500    89.8720     6.7870     5.1630     7.7710    23.1930   -11.4760     2.3420 
  148.8750    87.6830     7.4620     5.7230     8.1510    23.3080   -11.4040     2.3270 
  149.0000    87.3280     7.9180     6.1690     8.0470    23.4020   -11.3650     2.3140 
  149.1250    91.3840     8.1220     6.4390     7.7620    23.4630   -11.3380     2.3010 
  149.2500    97.2830     8.1350     6.5450     7.8390    23.4900   -11.3190     2.2860 
  149.3750    98.4910     8.0610     6.5500     8.3100    23.4980   -11.3270     2.2690 
  149.5000    92.4990     7.9980     6.5260     7.9930    23.5490   -11.3730     2.2510 
  149.6250    86.5520     7.9920     6.5170     7.4850    23.6700   -11.4440     2.2370 
  149.7500    84.7990     8.0330     6.5300     7.3620    23.7560   -11.5520     2.2320 
  149.8750    86.6550     8.0770     6.5520     7.4160    23.6050   -11.6920     2.2380 
  150.0000    91.1940     8.0280     6.5340     7.1340    23.3690   -11.8430     2.2510 
  150.1250    96.8860     7.8270     6.4330     6.8060    23.2150   -12.0010     2.2640 
  150.2500   101.2350     7.4700     6.2290     6.9140    23.1590   -12.1650     2.2760 
  150.3750   102.8810     7.0250     5.9490     7.2340    23.1360   -12.3160     2.2870 
  150.5000   100.9220     6.6260     5.6720     6.8420    23.1210   -12.4170     2.2960 
  150.6250    96.8020     6.3980     5.4960     5.9930    23.0920   -12.4750     2.3030 
  150.7500    93.5480     6.4110     5.4880     5.4980    23.0190   -12.4750     2.3090 
  150.8750    92.4450     6.6620     5.6680     5.6910    22.9000   -12.4000     2.3160 
  151.0000    90.8090     7.0390     5.9870     6.1480    22.7530   -12.2680     2.3170 
  151.1250    87.6540     7.3080     6.2780     6.4760    22.6850   -12.1050     2.3080 
  151.2500    86.3640     7.2660     6.3640     6.9270    22.7670   -11.9150     2.2930 
  151.3750    88.6700     6.8420     6.1470     7.5950    22.9400   -11.7200     2.2800 
  151.5000    91.4910     6.1480     5.6570     7.6140    23.1150   -11.5400     2.2760 
  151.6250    92.0350     5.4450     5.0920     6.2930    23.2110   -11.3820     2.2770 
  151.7500    89.9540     4.9000     4.6040     4.8600    23.2280   -11.2570     2.2850 
  151.8750    87.3330     4.5670     4.2650     4.1280    23.2140   -11.1760     2.2950 
  152.0000    87.6440     4.4440     4.1080     3.9890    23.2230   -11.1240     2.3040 
  152.1250    90.4400     4.4440     4.0800     4.0640    23.2600   -11.0920     2.3160 
  152.2500    90.8920     4.4860     4.1220     4.1900    23.3000   -11.0850     2.3290 
  152.3750    86.6540     4.5170     4.1790     4.1990    23.3180   -11.0840     2.3340 
  152.5000    84.1700     4.5230     4.2230     4.1430    23.3250   -11.1060     2.3170 
  152.6250    87.7570     4.5330     4.2610     4.1240    23.3360   -11.1650     2.2900 
  152.7500    93.3060     4.5740     4.3070     4.1990    23.3560   -11.2540     2.2700 
  152.8750    94.3980     4.6590     4.3730     4.3080    23.3700   -11.3610     2.2700 
  153.0000    91.3880     4.7850     4.4550     4.4630    23.3580   -11.4800     2.2830 
  153.1250    89.0850     4.9180     4.5340     4.7660    23.3500   -11.6100     2.2940 
  153.2500    87.7580     5.0200     4.5830     5.1820    23.3640   -11.7580     2.2990 
  153.3750    85.7090     5.0590     4.5780     5.1740    23.3940   -11.9100     2.3030 
  153.5000    85.7330     5.0180     4.5010     5.1380    23.4090   -12.0180     2.3090 
  153.6250    89.2740     4.9330     4.3810     5.0370    23.3880   -12.0910     2.3160 
  153.7500    94.2470     4.8760     4.2710     4.8670    23.3170   -12.1330     2.3230 
  153.8750    95.2720     4.9700     4.2600     4.8650    23.2150   -12.1420     2.3230 
  154.0000    88.9880     5.4490     4.5110     5.1940    23.1900   -12.1100     2.3070 
  154.1250    80.5550     6.4940     5.1540     5.9980    23.2870   -12.0440     2.2700 
