~V
VERS. 2.00: Ver 2.00
~W
STRT.M 50.0000:
STOP.M 281.0000:
STEP.M 0.1250:
NULL. -999.2500:
UWI. F10222:
~C
DEPT.M :
GR.API :
RML.OHMM :
RI. :
RXO.OHMM :
CALI.CM :
DEN.GM/CC :
SP.MV :
~A
# ...
   83.7500    63.1550    12.2020     9.8770    11.8060    26.6000     2.3250   -26.9110 
   83.8750    62.7590    10.0010     8.3140    10.4010    26.7940     2.2410   -26.9900 
   84.0000    61.3050     9.0290     7.4170    10.3160    27.1240     2.1980   -26.9310 
   84.1250    58.0450     8.8880     7.0810    10.4030    27.5760     2.1830   -26.7210 
   84.2500    57.3040     8.9410     6.9750    10.7740    27.8470     2.1720   -26.3920 
   84.3750    61.5360     8.8800     6.8910    10.6640    27.7200     2.1700   -25.9250 
   84.5000    69.6590     8.6090     6.7170     9.1880    27.2970     2.1890   -25.3700 
   84.6250    78.1710     8.2320     6.4650     7.3010    26.9760     2.2290   -24.8660 
   84.7500    83.1050     7.9360     6.2440     6.8690    26.7990     2.2610   -24.3890 
   84.8750    83.3100     7.7840     6.1040     7.5710    26.7230     2.2690   -23.9490 
   85.0000    80.9740     7.7520     6.0460     7.9830    26.6300     2.2570   -23.5840 
   85.1250    80.7530     7.7570     6.0330     8.0900    26.6820     2.2480   -23.2450 
   85.2500    82.1640     7.6990     5.9980     7.3340    26.7030     2.2550   -23.0060 
   85.3750    84.6280     7.5310     5.8960     6.6270    26.6090     2.2720   -22.9090 
   85.5000    88.2300     7.2640     5.7240     6.4480    26.4610     2.2910   -22.8600 
   85.6250    92.3000     6.9850     5.5270     6.6180    26.3730     2.3080   -22.7860 
   85.7500    96.7690     6.8230     5.3880     6.3810    26.4180     2.3230   -22.7820 
   85.8750   101.2170     6.8690     5.3740     6.1960    26.5430     2.3380   -22.8150 
   86.0000   101.7500     7.1610     5.5170     6.2150    26.6310     2.3510   -22.8810 
   86.1250    93.5620     7.6650     5.8240     6.9130    26.6650     2.3600   -23.0590 
   86.2500    84.7750     8.1830     6.1860     8.0800    26.6780     2.3590   -23.2270 
   86.3750    82.4590     8.5210     6.4800     8.7390    26.6890     2.3420   -23.3410 
   86.5000    85.7030     8.5440     6.5940     8.5020    26.6670     2.3120   -23.4690 
   86.6250    86.2440     8.2320     6.4740     7.1050    26.6320     2.2860   -23.6500 
   86.7500    86.8700     7.8240     6.2490     6.6520    26.6030     2.2730   -23.7820 
   86.8750    93.0690     7.5070     6.0390     6.5580    26.5910     2.2680   -23.9230 
   87.0000   100.8130     7.3820     5.9330     6.4740    26.5470     2.2650   -24.0640 
   87.1250   100.3310     7.4470     5.9800     6.2620    26.4220     2.2630   -24.1440 
   87.2500    94.5470     7.5670     6.0990     6.2250    26.1850     2.2620   -24.2750 
   87.3750    89.1560     7.6490     6.2140     6.3790    25.8680     2.2630   -24.4940 
   87.5000    85.1110     7.6540     6.2710     6.6240    25.5730     2.2700   -24.7130 
   87.6250    83.8020     7.5760     6.2410     6.6410    25.3870     2.2820   -24.9120 
   87.7500    87.5110     7.4650     6.1610     6.3000    25.2660     2.2950   -25.1930 
   87.8750    92.2080     7.3680     6.0680     6.0200    25.1980     2.3030   -25.4840 
   88.0000    92.5140     7.3330     5.9980     6.0620    25.1640     2.3030   -25.8080 
   88.1250    89.9000     7.3870     5.9700     6.1860    25.1210     2.2950   -26.2190 
   88.2500    87.9870     7.4650     5.9520     6.2010    25.0300     2.2870   -26.6120 
   88.3750    86.6740     7.4900     5.9070     6.2200    24.9080     2.2830   -26.9720 
   88.5000    88.5400     7.4380     5.8260     6.3890    24.7670     2.2880   -27.3850 
   88.6250    93.8270     7.3970     5.7590     6.6290    24.5790     2.2980   -27.8810 
   88.7500    97.3810     7.4920     5.7750     6.7840    24.4670     2.3070   -28.3620 
   88.8750    97.8250     7.7850     5.9130     7.0420    24.5370     2.3130   -28.9120 
   89.0000    95.3490     8.2500     6.1700     8.4580    24.7090     2.3170   -29.4990 
   89.1250    87.3490     8.7550     6.4910    11.5330    24.9430     2.3200   -30.0350 
   89.2500    77.3520     9.1230     6.7730    13.6250    25.3020     2.3050   -30.5470 
   89.3750    72.3360     9.2670     6.9570    12.3820    25.8040     2.2620   -31.0040 
   89.5000    72.6180     9.2010     7.0350    11.5360    26.3590     2.2040   -31.2960 
   89.6250    70.7630     8.9880     7.0260    11.8100    26.7560     2.1650   -31.3510 
   89.7500    68.6430     8.7560     6.9920    11.7370    26.9780     2.1540   -31.2600 
   89.8750    70.3220     8.5770     6.9650    11.5790    27.0740     2.1650   -30.9270 
   90.0000    74.5290     8.4630     6.9480    11.4150    27.1100     2.1890   -30.4010 
   90.1250    76.8170     8.3740     6.8980    10.3630    27.0580     2.2200   -29.7640 
   90.2500    77.3960     8.2890     6.8080     8.6910    26.8830     2.2580   -29.0840 
   90.3750    77.5820     8.2210     6.7130     7.7290    26.5940     2.2990   -28.4490 
   90.5000    78.9270     8.1870     6.6510     7.5790    26.2680     2.3250   -27.9620 
   90.6250    83.4320     8.1930     6.6410     7.3600    26.0440     2.3130   -27.6140 
   90.7500    88.7400     8.2000     6.6590     7.3900    25.9710     2.2810   -27.3740 
   90.8750    88.8520     8.1510     6.6560     7.5500    26.0890     2.2520   -27.3030 
   91.0000    84.2110     7.9920     6.5810     7.9450    26.3490     2.2350   -27.3050 
   91.1250    83.4360     7.6830     6.3820     7.6130    26.5160     2.2290   -27.3790 
   91.2500    89.5530     7.2710     6.0840     6.8080    26.3990     2.2320   -27.5650 
   91.3750    98.1690     6.8130     5.7300     6.2080    26.0880     2.2440   -27.7890 
   91.5000   102.1670     6.3990     5.3810     5.9190    25.9510     2.2650   -28.0030 
   91.6250   100.2230     6.1830     5.1360     5.7650    25.8110     2.2900   -28.3250 
   91.7500    95.9930     6.2200     5.0490     5.6350    25.6750     2.3150   -28.7180 
   91.8750    90.6680     6.5110     5.1360     5.6330    25.6530     2.3350   -29.1380 
   92.0000    85.4600     6.9640     5.3620     5.9370    25.7310     2.3400   -29.6840 
   92.1250    82.1300     7.4040     5.6430     6.6720    25.7440     2.3240   -30.2840 
   92.2500    80.7450     7.7080     5.8820     7.4700    25.5530     2.2960   -30.8410 
   92.3750    78.7390     7.9020     6.0690     8.0720    25.1510     2.2680   -31.4130 
   92.5000    75.8450     8.1350     6.2650     7.7310    24.5600     2.2500   -32.0050 
   92.6250    75.3380     8.6890     6.6170     6.9370    23.7710     2.2510   -32.5230 
   92.7500    76.2130     9.6690     7.2100     7.3980    23.1510     2.2580   -33.0350 
   92.8750    77.2630    11.0150     8.0570     9.0960    23.0060     2.2520   -33.5830 
   93.0000    77.0180    12.4420     9.0370    11.4140    23.2580     2.2320   -34.0770 
   93.1250    72.3680    13.3870     9.8190    13.5070    23.5470     2.2220   -34.5850 
   93.2500    66.2400    13.5360    10.1190    15.0890    23.9080     2.2460   -35.1460 
   93.3750    64.5540    12.9120     9.8690    14.6900    24.4100     2.2990   -35.6560 
   93.5000    68.1730    11.8670     9.2500    12.2900    25.0440     2.3420   -36.1180 
   93.6250    71.5580    10.9140     8.5870    11.0430    25.7530     2.3190   -36.5970 
   93.7500    71.4790    10.3270     8.1080    10.4680    26.1600     2.2590   -37.0010 
   93.8750    70.2920    10.1380     7.8640    10.4450    26.2460     2.2130   -37.3030 
   94.0000    67.6260    10.2700     7.8360    10.2510    26.1400     2.1990   -37.5970 
   94.1250    64.6050    10.5990     7.9720    10.0840    26.0560     2.2100   -37.8370 
   94.2500    65.1450    10.9180     8.1520    10.0210    26.0810     2.2270   -38.0010 
   94.3750    68.9810    11.1020     8.2950     9.9350    26.2100     2.2390   -38.1920 
   94.5000    71.5070    11.0960     8.3540     9.7020    26.4090     2.2420   -38.3930 
   94.6250    68.0480    10.9160     8.3160     9.5900    26.5590     2.2340   -38.5250 
   94.7500    62.8310    10.6840     8.2340     9.7920    26.6730     2.2200   -38.6560 
   94.8750    60.6150    10.5050     8.1560    10.1630    26.7770     2.2030   -38.8110 
