~V
VERS. 2.00: Ver 2.00
~W
STRT.M 55.0000:
STOP.M 270.0000:
STEP.M 0.1250:
NULL. -999.2500:
UWI. F10235:
~C
DEPT.M :
GR.API :
RML.OHMM :
RI. :
RXO.OHMM :
CALI.CM :
DEN.GM/CC :
SP.MV :
~A
# ...
  257.5000    57.3750    11.4100     9.4700     8.3060    24.4390     2.3480     0.7870 
  257.6250    57.1140    11.2110     9.2960     7.7730    24.7610     2.3290     0.9380 
  257.7500    58.1370    10.9420     9.0660     7.3670    24.8680     2.3140     1.1280 
  257.8750    57.9620    10.6410     8.8090     7.0130    24.4690     2.3000     1.3140 
  258.0000    56.6820    10.3600     8.5690     6.8100    24.0390     2.2880     1.4280 
  258.1250    57.7430    10.1950     8.4210     6.5790    23.7990     2.2810     1.4730 
  258.2500    61.8180    10.2180     8.4260     6.3000    23.8080     2.2850     1.4940 
  258.3750    65.7030    10.4900     8.6350     6.3790    23.9700     2.3020     1.4700 
  258.5000    66.7200    11.0310     9.0740     7.4270    24.2560     2.3320     1.4580 
  258.6250    65.1840    11.8190     9.7440     9.8190    24.4140     2.3680     1.4020 
  258.7500    63.4030    12.6850    10.5130    12.0330    24.5050     2.4010     1.3470 
  258.8750    61.9530    13.4840    11.2550    13.4970    24.5450     2.4230     1.2960 
  259.0000    61.0670    14.1000    11.8480    14.3590    24.5530     2.4310     1.2180 
  259.1250    61.4810    14.4550    12.1900    14.0550    24.5290     2.4260     1.1310 
  259.2500    62.5670    14.6490    12.3570    13.4720    24.5190     2.4180     1.0180 
  259.3750    63.0330    14.7740    12.4360    13.4600    24.5300     2.4150     0.8770 
  259.5000    63.0330    14.8970    12.4980    13.6430    24.5270     2.4190     0.7450 
  259.6250    63.0330    15.0150    12.5530    15.1320    24.5670     2.4280     0.6420 
  259.7500    63.0330    15.0710    12.5620    16.4370    24.5860     2.4330     0.5620 
  259.8750    63.0330    15.0210    12.4870    16.4820    24.5540     2.4320     0.5330 
  260.0000    63.0330    14.8700    12.3330    15.4280    24.5170     2.4280     0.5360 
  260.1250    63.0330    14.6830    12.1550    14.4180    24.5030     2.4290     0.5580 
  260.2500    63.0330    14.5550    12.0340    14.9700    24.5150     2.4370     0.6250 
  260.3750    63.0330    14.5380    12.0160    15.7130    24.5200     2.4510     0.7200 
  260.5000    63.0330    14.6330    12.1110    15.2230    24.5170     2.4670     0.7990 
  260.6250    63.0330    14.8040    12.2990    15.3970    24.5020     2.4790     0.8980 
  260.7500    63.0330    14.9720    12.5020    16.3960    24.4890     2.4850     0.9700 
  260.8750    63.0330    15.0880    12.6690    17.1520    24.4950     2.4850     0.9970 
  261.0000    63.0330    15.1310    12.7700    16.9410    24.4890     2.4790     1.0500 
  261.1250    63.0330    15.0960    12.7950    16.0730    24.4930     2.4670     1.0800 
  261.2500    63.0330    15.0170    12.7700    14.6190    24.4920     2.4540     1.0740 
  261.3750    63.0330    14.9010    12.7070    13.7000    24.5140     2.4460     1.0590 
  261.5000    63.0330    14.7500    12.6110    13.4570    24.5420     2.4460     1.0500 
  261.6250    63.0330    14.5530    12.4900    13.5130    24.5690     2.4540     0.9910 
  261.7500    63.0330    14.3360    12.3670    12.9450    24.5680     2.4620     0.9040 
  261.8750    63.0330    14.1350    12.2700    12.5280    24.5430     2.4660     0.7990 
  262.0000    63.0330    13.9980    12.2290    11.6790    24.5140     2.4650     0.6850 
  262.1250    63.0330    13.9850    12.2900    11.1410    24.4910     2.4590     0.5890 
  262.2500    63.0330    14.0940    12.4620    11.9180    24.4990     2.4550     0.4940 
  262.3750    63.0330    14.3070    12.7460    13.7720    24.5140     2.4540     0.3570 
  262.5000    63.0330    14.5740    13.1070    15.1000    24.5290     2.4580     0.1580 
  262.6250    63.0330    14.8010    13.4540    15.4520    24.5380     2.4660    -0.0290 
  262.7500    63.0330    14.8940    13.6750    15.4310    24.5170     2.4750    -0.1740 
  262.8750    63.0330    14.7960    13.6910    14.7670    24.4470     2.4780    -0.2790 
  263.0000    63.0330    14.5140    13.4900    14.4940    24.3680     2.4730    -0.3870 
  263.1250    63.0330    14.1210    13.1330    13.5790    24.3610     2.4630    -0.4880 
  263.2500    63.0330    13.7490    12.7660    12.0750    24.3390     2.4530    -0.5720 
  263.3750    63.0330    13.4570    12.4640    10.6870    24.3330     2.4450    -0.6110 
  263.5000    63.0330    13.2320    12.2370     9.9880    24.3640     2.4360    -0.5600 
  263.6250    63.0330    12.9870    12.0310     9.7400    24.3980     2.4260    -0.4670 
  263.7500    63.0330    12.6380    11.7600     9.5070    24.4280     2.4180    -0.4310 
  263.8750    63.0330    12.1770    11.4000     9.2650    24.4480     2.4170    -0.4050 
  264.0000    63.0330    11.6710    11.0060     8.9860    24.4590     2.4240    -0.3690 
  264.1250    63.0330    11.2600    10.6900     9.2610    24.4640     2.4410    -0.3840 
  264.2500    63.0330    11.0250    10.4970    10.2770    24.4820     2.4610    -0.4340 
  264.3750    63.0330    10.9770    10.4100    12.1270    24.5120     2.4790    -0.5440 
  264.5000    63.0330    11.0620    10.3740    14.6160    24.5360     2.4940    -0.7460 
  264.6250    63.0330    11.1880    10.3350    15.6430    24.5360     2.5000    -0.9760 
  264.7500    63.0330    11.2650    10.2840    16.4280    24.5830     2.4960    -1.1740 
  264.8750    63.0330    11.2650    10.2440    17.4540    24.6370     2.4810    -1.4120 
  265.0000    63.0330    11.2050    10.2340    18.1980    24.6740     2.4580    -1.6740 
  265.1250    63.0330    11.1460    10.2480    18.0750    24.6610     2.4350    -1.8940 
  265.2500    63.0330    11.1050    10.2690    18.0890    24.6840     2.4230    -2.0720 
  265.3750    63.0330    11.0860    10.2690    18.4090    24.6730     2.4240    -2.1560 
  265.5000    63.0330    11.0850    10.2690    19.4230    24.6420     2.4400    -2.1470 
  265.6250    63.0330    11.0860    10.2690    20.6230    24.6130     2.4640    -2.0600 
  265.7500    63.0330    11.0860    10.2690    22.0900    24.6310     2.4870    -1.8860 
  265.8750    63.0330    11.0860    10.2690    22.4780    24.7580     2.4990    -1.5690 
  266.0000    63.0330    11.0860    10.2690    21.6880    24.5330     2.4950    -1.1230 
  266.1250    63.0330    11.0860    10.2690    19.7490    24.5330     2.4700    -0.6400 
  266.2500    63.0330    11.0860    10.2690    17.0000    24.5330     2.4370    -0.1980 
  266.3750    63.0330    11.0860    10.2690    14.9870    24.6670     2.4050     0.1630 
  266.5000    63.0330    11.0860    10.2690    14.8950    24.6670     2.3820     0.4820 
  266.6250    63.0330    11.0860    10.2690    17.0900    24.6670     2.3720     0.7510 
  266.7500    63.0330    11.0860    10.2690    22.7140    24.6670     2.3750     0.9550 
  266.8750    63.0330    11.0860    10.2690    27.6850    24.6670     2.3920     1.0320 
  267.0000    63.0330    11.0860    10.2690    33.9210    24.6670     2.4190     0.9970 
  267.1250    63.0330    11.0860    10.2690    40.4110    24.6670     2.4450     0.9110 
  267.2500    63.0330    11.0860    10.2690    36.5160    24.6670     2.4680     0.8650 
  267.3750    63.0330    11.0860    10.2690    30.0910    24.6670     2.4890     0.8810 
  267.5000    63.0330    11.0860    10.2690    26.6820    24.6670     2.5010     0.9250 
  267.6250    63.0330    11.0860    10.2690    25.8520    24.5710     2.5080     0.9200 
  267.7500    63.0330    11.0860    10.2690    24.5310    24.3930     2.5090     0.9070 
  267.8750    63.0330    11.0860    10.2690    23.4500    24.2790     2.5000     0.9070 
  268.0000    63.0330    11.0860    10.2690    22.8660    24.2660     2.4870     0.8650 
  268.1250    63.0330    11.0860    10.2690    22.2860    24.2600     2.4790     0.7810 
  268.2500    63.0330    11.0860    10.2690    20.2970    24.2470     2.4820     0.6910 
  268.3750    63.0330    11.0860    10.2690    19.7960    24.1980     2.4860     0.5970 
  268.5000    63.0330    11.0860    10.2690    20.7890    24.1540     2.4680     0.4880 
  268.6250    63.0330    11.0860    10.2690    21.2840    24.0950     2.4150     0.4050 
