~V
VERS. 2.00: Ver 2.00
~W
STRT.M 56.0000:
STOP.M 281.0000:
STEP.M 0.1250:
NULL. -999.2500:
UWI. F10232:
~C
DEPT.M :
SP.MV :
GR.API :
RML.OHMM :
RI. :
RXO.OHMM :
CALI.CM :
DEN.GM/CC :
~A
# ...
  146.0000    -8.0310    40.7700    22.5770    20.8410    24.8500    23.1560     2.5550 
  146.1250    -8.0030    39.3850    22.1600    20.4030    21.8780    23.2030     2.5330 
  146.2500    -7.9930    38.0060    21.9620    20.1080    19.4900    23.2570     2.5180 
  146.3750    -7.9970    37.2350    21.9680    19.9920    17.2220    23.2940     2.5170 
  146.5000    -8.0300    37.5460    22.0960    20.0090    16.3080    23.3100     2.5270 
  146.6250    -8.1110    37.8980    22.3140    20.1310    17.1030    23.3280     2.5410 
  146.7500    -8.2010    38.6510    22.5740    20.3100    19.6990    23.3700     2.5500 
  146.8750    -8.3060    41.6220    22.7620    20.4450    23.8170    23.4620     2.5480 
  147.0000    -8.3990    44.1030    22.7440    20.4200    27.9440    23.5970     2.5380 
  147.1250    -8.4790    43.6910    22.3990    20.1320    28.7920    23.7500     2.5310 
  147.2500    -8.5410    42.3870    21.6590    19.5210    28.0230    23.8750     2.5310 
  147.3750    -8.5750    43.0950    20.5280    18.5810    24.1920    23.9240     2.5370 
  147.5000    -8.5710    43.0510    19.2560    17.5140    19.3500    23.9340     2.5400 
  147.6250    -8.5330    40.8930    18.0800    16.5160    17.6040    23.9280     2.5350 
  147.7500    -8.4710    40.7390    17.2230    15.7740    16.3690    23.9150     2.5240 
  147.8750    -8.3850    46.1160    16.9210    15.4940    15.7370    23.8980     2.5130 
  148.0000    -8.2850    50.7200    17.1160    15.6410    15.8670    23.8870     2.5100 
  148.1250    -8.1630    50.8070    17.6990    16.1420    16.9420    23.8950     2.5150 
  148.2500    -8.0290    48.8510    18.4580    16.8320    18.7500    23.9250     2.5230 
  148.3750    -7.8950    50.2060    19.0470    17.4210    20.4670    23.9660     2.5290 
  148.5000    -7.7660    52.3260    19.2070    17.6480    21.0010    23.9900     2.5330 
  148.6250    -7.6460    50.7320    18.8290    17.3840    20.0510    23.9990     2.5350 
  148.7500    -7.5330    47.4620    17.9830    16.6660    18.3150    24.0020     2.5370 
  148.8750    -7.4080    48.0890    16.8780    15.6670    16.5100    24.0030     2.5370 
  149.0000    -7.2810    49.4090    15.8280    14.6860    15.0410    24.0020     2.5330 
  149.1250    -7.1570    47.7200    14.9990    13.8790    14.0950    24.0000     2.5240 
  149.2500    -7.0340    46.1180    14.4700    13.3230    13.5930    23.9990     2.5110 
  149.3750    -6.8890    48.4860    14.3040    13.0810    13.3350    23.9970     2.4960 
  149.5000    -6.7050    49.2410    14.4220    13.1000    13.2100    23.9940     2.4830 
  149.6250    -6.4890    45.3420    14.7850    13.3560    13.2870    23.9870     2.4750 
  149.7500    -6.2830    41.4170    15.3390    13.8130    13.3940    23.9730     2.4750 
  149.8750    -6.1310    43.1420    16.0250    14.4310    14.0370    23.9500     2.4830 
  150.0000    -6.0750    46.9410    16.7260    15.0950    14.8880    23.9260     2.4950 
  150.1250    -6.1420    48.4270    17.3420    15.7050    15.7550    23.9110     2.5040 
  150.2500    -6.2920    46.6220    17.7640    16.1510    16.3060    23.9140     2.5080 
  150.3750    -6.5000    44.0440    17.8330    16.2760    16.5750    23.9270     2.5040 
  150.5000    -6.7700    44.3270    17.5450    16.0660    16.6190    23.9310     2.5000 
  150.6250    -7.0790    47.6840    16.9370    15.5480    16.1290    23.9290     2.5000 
  150.7500    -7.3860    52.1080    16.1360    14.8260    14.9110    23.9280     2.5080 
  150.8750    -7.6580    54.5790    15.3580    14.0800    13.4800    23.9270     2.5190 
  151.0000    -7.8550    54.9450    14.8120    13.4990    12.4320    23.9270     2.5260 
  151.1250    -7.9390    54.8410    14.6200    13.2020    12.0500    23.9270     2.5260 
  151.2500    -7.9480    55.8730    14.8090    13.2320    12.3880    23.9270     2.5200 
  151.3750    -7.9340    55.2450    15.3310    13.5860    12.9880    23.9270     2.5130 
  151.5000    -7.9030    50.7350    15.9660    14.0950    13.7710    23.9270     2.5080 
  151.6250    -7.8530    45.7440    16.5460    14.6200    14.6570    23.9250     2.5050 
  151.7500    -7.7880    43.3610    16.9520    15.0400    15.4120    23.9170     2.5040 
  151.8750    -7.7310    42.5660    17.1210    15.2680    15.5990    23.8990     2.5060 
  152.0000    -7.6680    41.9830    17.1740    15.3710    15.1800    23.8710     2.5130 
  152.1250    -7.6080    43.7820    17.2340    15.4370    14.5480    23.8370     2.5270 
  152.2500    -7.5720    48.1820    17.4000    15.5510    14.1190    23.8090     2.5430 
  152.3750    -7.5540    50.7590    17.7060    15.7610    14.4770    23.7970     2.5580 
  152.5000    -7.5520    49.3960    18.0300    15.9970    15.3570    23.7880     2.5680 
  152.6250    -7.5740    46.7620    18.2280    16.1560    16.4670    23.7770     2.5730 
  152.7500    -7.6160    46.4090    18.1860    16.1430    17.2490    23.7610     2.5740 
  152.8750    -7.6650    48.5770    17.8560    15.8990    16.9300    23.7360     2.5730 
  153.0000    -7.7380    50.8220    17.4190    15.5460    15.9510    23.6970     2.5680 
  153.1250    -7.8390    53.6720    17.0710    15.2340    14.6130    23.6320     2.5580 
  153.2500    -7.9360    57.2690    16.9910    15.1110    13.8860    23.5390     2.5410 
  153.3750    -8.0230    57.2510    17.3240    15.3180    14.1940    23.4310     2.5190 
  153.5000    -8.0920    54.6400    17.9530    15.7920    15.0430    23.3640     2.4950 
  153.6250    -8.1380    54.2350    18.7240    16.4330    16.0330    23.3920     2.4720 
  153.7500    -8.1650    56.0950    19.4430    17.0880    16.9640    23.5120     2.4510 
  153.8750    -8.1690    56.0210    19.8610    17.5440    17.2910    23.6600     2.4380 
  154.0000    -8.1460    53.3330    19.8980    17.6910    16.9100    23.7610     2.4350 
  154.1250    -8.0950    51.9700    19.5470    17.4970    16.2460    23.8300     2.4440 
  154.2500    -8.0240    53.7990    18.8990    17.0150    15.6050    23.9090     2.4600 
  154.3750    -7.9270    56.6400    18.1240    16.3720    15.2170    24.0070     2.4790 
  154.5000    -7.8250    57.6390    17.4540    15.7750    14.6920    24.0780     2.4960 
  154.6250    -7.7320    55.6170    17.0360    15.3610    14.1960    24.1120     2.5100 
  154.7500    -7.6450    52.3810    16.9330    15.2050    14.0000    24.1210     2.5220 
  154.8750    -7.5670    51.4540    17.1490    15.3400    14.2690    24.1340     2.5270 
  155.0000    -7.4990    53.2050    17.5030    15.6350    14.8210    24.1630     2.5240 
  155.1250    -7.4340    55.2400    17.8530    15.9720    15.4050    24.1900     2.5130 
  155.2500    -7.3760    55.3290    18.0870    16.2430    15.6250    24.2010     2.4970 
  155.3750    -7.3450    54.8000    18.1290    16.3560    15.6240    24.2030     2.4820 
  155.5000    -7.3130    54.9520    18.0220    16.3250    15.6280    24.2030     2.4730 
  155.6250    -7.2810    56.0740    17.7930    16.1690    15.5830    24.2030     2.4710 
  155.7500    -7.2600    57.2440    17.4540    15.8990    15.4470    24.2030     2.4750 
  155.8750    -7.2510    57.9130    16.9790    15.4900    15.2940    24.2020     2.4830 
  156.0000    -7.2530    57.8600    16.4090    14.9760    15.0600    24.1990     2.4900 
  156.1250    -7.2680    57.3120    15.8190    14.4150    14.5150    24.1890     2.4940 
  156.2500    -7.3010    57.3590    15.3240    13.9060    13.7880    24.1680     2.4950 
  156.3750    -7.3440    57.8420    15.0870    13.5960    13.1990    24.1240     2.4960 
  156.5000    -7.4110    56.7200    15.1270    13.5240    12.8630    24.0570     2.4990 
  156.6250    -7.5000    53.6800    15.4070    13.6790    12.9580    23.9710     2.5020 
  156.7500    -7.5880    50.4820    15.8190    13.9850    13.5930    23.8670     2.5060 
  156.8750    -7.6650    48.2260    16.2170    14.3280    14.1560    23.7450     2.5060 
  157.0000    -7.7410    47.7450    16.5230    14.6170    14.3670    23.6380     2.5000 
  157.1250    -7.8140    50.8650    16.7640    14.8530    14.2270    23.5610     2.4910 
