~V
VERS. 2.00: Ver 2.00
~W
STRT.M 53.0000:
STOP.M 296.0000:
STEP.M 0.1250:
NULL. -999.2500:
UWI. F10258:
~C
DEPT.M :
GR.API :
RML.OHMM :
RI. :
RXO.OHMM :
CALI.CM :
DEN.GM/CC :
SP.MV :
~A
   53.0000  -999.2500  -999.2500  -999.2500  -999.2500  -999.2500     1.8970  -999.2500 
   53.1250  -999.2500  -999.2500  -999.2500  -999.2500  -999.2500     1.8870  -999.2500 
   53.2500  -999.2500  -999.2500  -999.2500  -999.2500  -999.2500     1.8790  -999.2500 
   53.3750  -999.2500  -999.2500  -999.2500  -999.2500  -999.2500     1.8750  -999.2500 
   53.5000  -999.2500  -999.2500  -999.2500  -999.2500  -999.2500     1.8800  -999.2500 
   53.6250  -999.2500  -999.2500  -999.2500  -999.2500  -999.2500     1.8950  -999.2500 
   53.7500  -999.2500  -999.2500  -999.2500  -999.2500  -999.2500     1.9110  -999.2500 
   53.8750  -999.2500  -999.2500  -999.2500  -999.2500  -999.2500     1.9200  -999.2500 
   54.0000  -999.2500  -999.2500  -999.2500  -999.2500  -999.2500     1.9160  -999.2500 
   54.1250    42.1810     4.8290     0.8050     1.0210    25.7390     1.9010  -999.2500 
   54.2500    42.1810     4.8290     0.8050     1.0210    25.7390     1.8840  -999.2500 
   54.3750    42.1810     4.8650     0.8050     1.0210    25.7390     1.8710   104.9050 
   54.5000    41.9590     4.9170     0.8020     1.0050    25.7420     1.8660   104.9050 
   54.6250    45.7230     4.9050     0.8060     0.8070    25.7390     1.8720   150.4440 
   54.7500    45.1370     4.8340     0.8040     0.7930    25.7440     1.8830   150.5460 
   54.8750    42.7990     4.7670     0.8040     0.9750    25.7400     1.8980   150.7380 
   55.0000    43.3430     4.7920     0.8070     1.0320    25.7400     1.9140   151.0150 
   55.1250    44.7360     4.9580     0.8090     1.0040    25.7410     1.9270   151.3270 
   55.2500    45.3070     5.1440     0.8070     0.9760    25.7410     1.9360   151.6100 
   55.3750    44.4910     5.1960     0.7990     0.9900    25.7420     1.9410   151.8100 
   55.5000    42.2390     5.0220     0.7860     1.0300    25.7430     1.9440   151.9140 
   55.6250    40.8200     4.6730     0.7680     1.0350    25.7440     1.9470   151.8720 
   55.7500    40.4720     4.3900     0.7490     1.0410    25.7430     1.9510   151.6670 
   55.8750    40.3320     4.3470     0.7310     1.0670    25.7420     1.9570   151.2920 
   56.0000    40.7390     4.6110     0.7180     1.0820    25.7420     1.9650   150.7280 
   56.1250    42.3590     5.1720     0.7120     1.1460    25.7420     1.9740   149.9360 
   56.2500    44.5900     5.8230     0.7060     1.2410    25.7300     1.9820   148.9580 
   56.3750    46.4050     6.2380     0.6910     1.3800    25.6970     1.9990   147.7840 
   56.5000    47.8580     5.9420     0.6510     1.5540    25.6610     2.0490   146.3910 
   56.6250    49.7540     4.5380     0.5720     1.4310    25.5930     2.1690   144.7090 
   56.7500    51.2170     2.6650     0.4680     1.0360    25.4780     2.3420   142.7340 
   56.8750    51.6570     1.0590     0.3610     0.8390    25.3440     2.5140   140.4170 
   57.0000    50.1730     0.1260     0.2710     0.8430    25.3290     2.6090   137.7060 
   57.1250    49.3390    -0.1510     0.2120     0.8990    25.3970     2.5490   133.9880 
   57.2500    51.4550    -0.0990     0.1940     0.9750    25.5470     2.3700   130.8300 
   57.3750    54.0250     0.2580     0.2520     1.3010    26.1640     2.1340   128.8020 
   57.5000    55.1670     1.1010     0.4530     2.2440    27.8760     1.9120   125.3800 
   57.6250    55.3470     2.8980     0.9510     4.3400    31.3070     1.7690   118.6660 
   57.7500    56.7820     5.5250     1.8300     6.7670    34.2260     1.7140   100.6150 
   57.8750    58.5480     8.3420     3.1010     8.5610    35.6250     1.7420    70.8410 
   58.0000    59.9180    10.4010     4.5300     8.8010    35.5050     1.8370    33.3560 
   58.1250    60.5150    10.9870     5.6570     7.9900    33.4690     1.9670    -4.9710 
   58.2500    61.8030    10.7320     6.3510     7.6440    29.8160     2.0870    -8.5060 
   58.3750    66.3340    10.2620     6.6840     8.1690    26.7210     2.1740   -11.3170 
   58.5000    73.8870     9.9070     6.7360     8.4020    25.3480     2.2240   -13.3930 
   58.6250    79.8240     9.7300     6.5720     7.7280    25.1500     2.2450   -14.7690 
   58.7500    81.2640     9.7120     6.3830     7.1550    25.1200     2.2530   -15.7310 
   58.8750    78.9260     9.9220     6.3130     7.3520    25.0700     2.2520   -16.4510 
   59.0000    75.0290    10.4200     6.4460     8.2310    25.0420     2.2410   -17.0490 
   59.1250    73.1430    11.2250     6.8150    10.3560    25.0550     2.2190   -17.6020 
   59.2500    73.6930    12.1430     7.3040    13.1840    25.1190     2.1950   -18.1510 
   59.3750    73.7000    13.0010     7.7980    12.6960    25.2390     2.1770   -18.6790 
   59.5000    72.3260    13.6820     8.1880    10.9600    25.3770     2.1710   -19.1750 
   59.6250    71.7760    14.1110     8.3840    10.3430    25.4530     2.1750   -19.6200 
   59.7500    72.3270    14.2800     8.4240    10.7700    25.4750     2.1770   -20.0150 
   59.8750    71.1820    14.1090     8.3540    11.0420    25.4790     2.1700   -20.3480 
   60.0000    67.6840    13.5890     8.2230    11.0890    25.4960     2.1510   -20.5980 
   60.1250    65.3220    12.9330     8.0990    10.8820    25.5510     2.1350   -20.7250 
   60.2500    64.7650    12.5470     8.0940    10.3310    25.6270     2.1480   -20.7480 
   60.3750    64.6860    12.6730     8.3210    10.0500    25.6790     2.2080   -20.6900 
   60.5000    64.5460    13.2950     8.8040    10.0830    25.7030     2.3080   -20.5630 
   60.6250    66.1940    14.0210     9.3760    10.8490    25.7210     2.4070   -20.3760 
   60.7500    69.7190    14.2580     9.6930    13.8060    25.7600     2.4560   -20.1480 
   60.8750    74.1720    13.7000     9.5100    19.3240    25.8190     2.4420   -19.8750 
   61.0000    79.7980    12.4430     8.8090    19.0010    25.8510     2.3840   -19.5720 
   61.1250    85.3300    10.9240     7.8250    11.5600    25.8310     2.3270   -19.2750 
   61.2500    86.9320     9.6360     6.9200     7.5150    25.7540     2.2950   -19.0020 
   61.3750    84.5030     8.7460     6.2260     7.8870    25.6200     2.2880   -18.7680 
   61.5000    83.7520     8.2440     5.7700     8.6040    25.5670     2.2910   -18.5820 
   61.6250    88.2800     8.1030     5.5850     7.7290    25.6180     2.2980   -18.4470 
   61.7500    92.6700     8.2190     5.6260     6.6700    25.6140     2.3110   -18.3670 
   61.8750    93.2040     8.5860     5.8810     6.4430    25.5290     2.3170   -18.3810 
   62.0000    91.2020     9.1970     6.3300     7.1710    25.4310     2.3310   -18.5000 
   62.1250    89.1440     9.9840     6.9560     9.5580    25.3590     2.3360   -18.7180 
   62.2500    86.9870    10.7040     7.6100    13.0000    25.3830     2.3190   -19.0030 
   62.3750    85.3860    11.1500     8.1340    13.4600    25.4040     2.2790   -19.3230 
   62.5000    85.0360    11.2600     8.4280    10.7760    25.2620     2.2280   -19.6720 
   62.6250    82.7670    11.1970     8.5370     9.2070    25.1400     2.1850   -20.0470 
   62.7500    78.3750    11.2860     8.6790     9.3070    25.0750     2.1680   -20.4170 
   62.8750    73.7470    11.6780     8.9970    10.0220    25.1310     2.1880   -20.7500 
   63.0000    70.5940    12.3020     9.5110    10.6530    25.2770     2.2400   -21.0280 
   63.1250    70.4560    12.8050    10.0380    11.5370    25.4510     2.3040   -21.2230 
   63.2500    73.4790    12.8210    10.2580    14.2420    25.4740     2.3450   -21.3400 
   63.3750    78.1630    12.2240     9.9850    18.6570    25.3310     2.3460   -21.3990 
   63.5000    83.4580    11.1710     9.2770    17.0310    25.2310     2.3110   -21.4190 
   63.6250    88.9170    10.0140     8.3940    10.8440    25.2720     2.2640   -21.4160 
   63.7500    93.1680     9.0530     7.6040     8.4630    25.3560     2.2300   -21.4310 
   63.8750    93.9870     8.3690     7.0030     7.6710    25.3960     2.2150   -21.4830 
   64.0000    91.3780     7.9470     6.6140     7.7110    25.4100     2.2110   -21.5870 
   64.1250    88.4030     7.7750     6.4620     8.2310    25.4790     2.2110   -21.7610 
