~V
VERS. 2.00: Ver 2.00
~W
STRT.M 50.0000:
STOP.M 270.0000:
STEP.M 0.1250:
NULL. -999.2500:
UWI. F10223:
~C
DEPT.M :
GR.API :
RML.OHMM :
RI. :
RXO.OHMM :
CALI.CM :
DEN.GM/CC :
SP.MV :
~A
# ...
   83.7500    84.4330     7.9330     6.2580     7.4530    21.5980     2.2540   -22.8170 
   83.8750    83.4990     8.5880     6.6450     8.2160    21.3940     2.2450   -22.7860 
   84.0000    79.8290     9.3680     7.1700     8.6230    21.3150     2.2270   -22.7180 
   84.1250    75.9160    10.0000     7.6660     8.6320    21.3460     2.2150   -22.6340 
   84.2500    73.2090    10.2540     7.9480     8.6260    21.4720     2.2100   -22.5250 
   84.3750    71.8540    10.0190     7.8990     8.6160    21.6650     2.2100   -22.3840 
   84.5000    72.8520     9.3410     7.5090     8.5930    21.8480     2.2170   -22.1970 
   84.6250    78.6390     8.4420     6.8900     7.8750    22.1210     2.2360   -21.9870 
   84.7500    86.4610     7.6760     6.2950     6.7400    22.5960     2.2700   -21.7930 
   84.8750    92.2070     7.2380     5.8800     6.0110    23.2310     2.3140   -21.6580 
   85.0000    92.2850     7.1810     5.7150     5.9730    23.8960     2.3560   -21.5840 
   85.1250    86.8820     7.4400     5.8060     7.4000    24.2170     2.3890   -21.5480 
   85.2500    83.5710     7.7430     5.9890     9.7650    24.3510     2.4150   -21.5490 
   85.3750    86.1800     7.8820     6.1160    10.0990    24.4000     2.4360   -21.5870 
   85.5000    93.8670     7.7530     6.0860     7.7310    24.3580     2.4360   -21.6490 
   85.6250    97.2350     7.3840     5.8820     6.4180    24.1210     2.3960   -21.7170 
   85.7500    94.7990     6.9630     5.6190     6.1350    23.9530     2.3480   -21.8000 
   85.8750    92.1620     6.6070     5.3770     6.0190    23.9900     2.3220   -21.8830 
   86.0000    90.8720     6.3690     5.2010     5.9650    24.1760     2.3240   -21.9630 
   86.1250    89.8270     6.2660     5.1150     5.8400    24.3060     2.3350   -22.0760 
   86.2500    92.2990     6.2610     5.0970     5.7730    24.3590     2.3430   -22.2400 
   86.3750    99.3980     6.3630     5.1500     5.7320    24.3840     2.3500   -22.4310 
   86.5000   103.9120     6.5780     5.2770     5.8310    24.4250     2.3520   -22.6500 
   86.6250    97.9330     6.8900     5.4680     6.0140    24.4750     2.3400   -22.9170 
   86.7500    89.4480     7.2210     5.6740     6.1320    24.4320     2.3160   -23.1920 
   86.8750    85.5630     7.5000     5.8550     6.1890    24.2540     2.2910   -23.4500 
   87.0000    87.6840     7.6590     5.9670     6.3190    24.0070     2.2760   -23.6790 
   87.1250    91.6530     7.6200     5.9500     6.4190    23.7970     2.2780   -23.8740 
   87.2500    93.6650     7.4000     5.8070     6.3830    23.6750     2.2920   -24.0260 
   87.3750    94.7760     7.0750     5.5790     6.2960    23.5560     2.3100   -24.1640 
   87.5000    98.2390     6.8110     5.3680     6.2630    23.4790     2.3310   -24.3180 
   87.6250   105.3350     6.8740     5.3380     6.2350    23.5530     2.3520   -24.4920 
   87.7500   107.9490     7.3500     5.5570     6.2210    23.6580     2.3740   -24.6980 
   87.8750   101.5400     8.2160     6.0360     6.8190    23.6370     2.3930   -24.9720 
   88.0000    87.3470     9.2840     6.7110     8.7730    23.3710     2.4080   -25.2980 
   88.1250    76.4420    10.1380     7.3870    12.1500    22.8050     2.4100   -25.6170 
   88.2500    73.5640    10.4620     7.8100    11.8230    22.2560     2.3860   -25.9070 
   88.3750    73.7430    10.2010     7.8630     9.9550    21.9220     2.3280   -26.1500 
   88.5000    73.6270     9.5510     7.5930     9.0340    21.8270     2.2550   -26.3080 
   88.6250    72.8300     8.8160     7.1570     8.8960    21.8380     2.2050   -26.3400 
   88.7500    73.7450     8.2160     6.7480     8.6910    21.8640     2.1870   -26.2580 
   88.8750    77.5380     7.7820     6.4240     8.3560    21.9400     2.1930   -26.0670 
   89.0000    81.9290     7.4510     6.1650     7.5790    22.1370     2.2120   -25.8110 
   89.1250    83.1530     7.1820     5.9460     6.6590    22.4190     2.2410   -25.5700 
   89.2500    80.0750     6.9970     5.7820     6.1840    22.5330     2.2700   -25.3640 
   89.3750    77.6130     6.9350     5.7060     6.3670    22.4730     2.2910   -25.1960 
   89.5000    80.9730     7.0070     5.7330     6.6230    22.4990     2.2980   -25.0760 
   89.6250    88.3000     7.1790     5.8510     6.4120    22.5360     2.2950   -25.0470 
   89.7500    90.5650     7.3340     5.9820     6.3300    22.3780     2.2930   -25.0810 
   89.8750    85.9600     7.3730     6.0570     6.5250    22.1320     2.2920   -25.1570 
   90.0000    79.0760     7.2450     6.0240     6.4940    22.0050     2.2880   -25.2570 
   90.1250    79.0390     6.9540     5.8530     6.3530    22.0450     2.2860   -25.3350 
   90.2500    85.7960     6.6090     5.5970     5.8980    22.0890     2.2920   -25.4110 
   90.3750    93.6390     6.2950     5.3150     5.3970    22.1780     2.3050   -25.4910 
   90.5000    95.9580     6.0840     5.0710     5.1600    22.3270     2.3210   -25.5900 
   90.6250    91.9080     6.0340     4.9350     5.2250    22.4520     2.3330   -25.7160 
   90.7500    88.9080     6.1210     4.9140     5.6140    22.5020     2.3380   -25.8940 
   90.8750    88.0190     6.3490     5.0170     6.1980    22.4530     2.3360   -26.1220 
   91.0000    86.7890     6.7260     5.2470     6.4850    22.3900     2.3300   -26.3870 
   91.1250    82.8690     7.2650     5.6200     6.6400    22.4290     2.3250   -26.7100 
   91.2500    78.9220     7.9000     6.0890     7.3520    22.6000     2.3250   -27.0570 
   91.3750    74.8550     8.5560     6.6070     9.7000    22.7370     2.3310   -27.4090 
   91.5000    70.2110     9.1270     7.1030    13.9450    22.6140     2.3450   -27.7570 
   91.6250    66.4270     9.4830     7.4700    13.4150    22.1130     2.3660   -28.0640 
   91.7500    67.0480     9.6240     7.6750    10.2980    21.6050     2.3690   -28.3060 
   91.8750    73.4440     9.5870     7.7240     8.8480    21.3660     2.3420   -28.4930 
   92.0000    79.0330     9.4360     7.6560     8.4770    21.3370     2.3030   -28.6280 
   92.1250    77.2900     9.2280     7.5060     8.2920    21.4200     2.2820   -28.7080 
   92.2500    72.7660     9.0070     7.3130     8.0680    21.5440     2.2790   -28.7520 
   92.3750    71.8110     8.7750     7.0860     7.8050    21.6550     2.2800   -28.7810 
   92.5000    75.6850     8.5310     6.8370     7.7160    21.7170     2.2750   -28.7960 
   92.6250    78.2640     8.2980     6.5930     7.6750    21.8440     2.2710   -28.8090 
   92.7500    77.4680     8.1030     6.3850     7.5130    21.9860     2.2730   -28.8310 
   92.8750    76.7760     7.9670     6.2260     7.2290    22.0990     2.2820   -28.8670 
   93.0000    78.1550     7.8970     6.1220     7.0450    22.1470     2.2940   -28.9280 
   93.1250    78.7450     7.8960     6.0920     6.8250    22.1580     2.3010   -29.0030 
   93.2500    76.9180     7.9630     6.1390     6.6490    22.1010     2.3050   -29.0970 
   93.3750    74.6260     8.1790     6.3000     6.2860    21.9730     2.3100   -29.2000 
   93.5000    73.1720     8.7030     6.6510     7.2310    21.8380     2.3200   -29.3100 
   93.6250    73.5980     9.8100     7.3480     8.2130    21.7480     2.3280   -29.4570 
   93.7500    74.8430    11.4500     8.4070     9.3280    21.7420     2.3340   -29.6380 
   93.8750    76.0020    13.3890     9.7690    10.9870    21.9150     2.3490   -29.8330 
   94.0000    74.9050    15.1230    11.1780    14.4880    22.2610     2.3840   -30.0210 
   94.1250    69.6010    15.7660    12.0180    19.7060    22.5110     2.4290   -30.1970 
   94.2500    63.1110    15.1120    11.9550    18.7770    22.4240     2.4540   -30.3590 
   94.3750    59.1530    13.5440    11.1190    13.9890    22.1750     2.4340   -30.5110 
   94.5000    59.6320    11.8170     9.9870    10.9280    21.9090     2.3730   -30.6410 
   94.6250    64.3140    10.6710     9.0760     9.9510    21.7560     2.3130   -30.7140 
   94.7500    70.5760    10.1920     8.5470     9.7600    21.6640     2.2790   -30.7440 
   94.8750    75.6000    10.2050     8.3680     9.7650    21.6220     2.2640   -30.7460 
