~V
VERS. 2.00: Ver 2.00
~W
STRT.M 56.0000:
STOP.M 284.0000:
STEP.M 0.1250:
NULL. -999.2500:
UWI. F10233:
~C
DEPT.M :
GR.API :
RML.OHMM :
RI. :
RXO.OHMM :
CALI.CM :
DEN.GM/CC :
SP.MV :
~A
# ...
  168.5000    70.0220    47.2440    44.7590    58.1670    25.1120     2.3050   -19.1730 
  168.6250    76.8410    35.1120    34.1150    31.9570    24.9180     2.3290   -19.3230 
  168.7500    85.8650    26.2160    25.7970    20.8660    24.7900     2.3470   -19.4790 
  168.8750    95.5310    21.5050    20.9430    15.3640    24.6910     2.3520   -19.6250 
  169.0000   102.6330    21.0050    19.5000    14.0730    24.5840     2.3330   -19.8760 
  169.1250    98.8460    26.1220    22.7120    18.7370    24.5710     2.2670   -20.0790 
  169.2500    85.5290    37.6940    32.0780    36.0510    24.7200     2.1690   -20.2360 
  169.3750    70.7920    58.1120    50.8220    87.5540    24.8990     2.1320   -20.4890 
  169.5000    61.6650    89.8820    81.8980   183.3190    24.9090     2.1190   -20.8520 
  169.6250    59.2160   132.0130   123.3790   245.1290    24.7290     2.1360   -21.1530 
  169.7500    59.5240   167.0640   157.6160   218.7630    24.6040     2.1720   -21.4480 
  169.8750    61.3950   178.1230   169.8310   198.5590    24.6920     2.2120   -21.7700 
  170.0000    63.5880   167.4370   161.5390   168.1080    24.8060     2.2390   -21.9820 
  170.1250    64.2820   151.0630   145.8060   142.6770    24.7230     2.2450   -22.2440 
  170.2500    64.4770   138.6580   132.8630   138.1780    24.4780     2.2430   -22.5860 
  170.3750    63.5690   130.9270   124.3640   140.5510    24.2110     2.2410   -22.8500 
  170.5000    60.4490   126.6150   119.4620   138.3920    23.9940     2.2430   -22.9950 
  170.6250    61.5640   121.5950   114.4310   123.9680    23.7190     2.2520   -23.2040 
  170.7500    65.6610   117.6180   111.0320   124.5010    23.6570     2.2620   -23.3920 
  170.8750    66.7580   112.7420   106.9850   120.1360    23.6350     2.2710   -23.5160 
  171.0000    63.9910   107.9630   103.0790   108.8750    23.6060     2.2750   -23.7220 
  171.1250    61.4860   104.7720   100.5370    94.5080    23.5970     2.2730   -23.8900 
  171.2500    62.0450   103.6720    99.7810    91.5130    23.6110     2.2660   -23.9510 
  171.3750    64.1340   104.4980   100.7290   101.8630    23.6210     2.2600   -23.9850 
  171.5000    66.1710   106.3650   102.6600   114.1320    23.6050     2.2600   -24.1130 
  171.6250    66.5750   107.6600   104.1630   119.5930    23.5700     2.2630   -24.1850 
  171.7500    64.9800   107.1220   104.0070   116.9080    23.5220     2.2650   -24.1830 
  171.8750    63.1800   104.5650   101.8550   111.4350    23.4900     2.2650   -24.2690 
  172.0000    63.2560   101.0580    98.4940   103.0220    23.4730     2.2660   -24.3330 
  172.1250    65.1640    98.8490    95.8900    93.1980    23.4500     2.2670   -24.2860 
  172.2500    66.3630    99.6300    95.7860    87.6020    23.4460     2.2650   -24.2900 
  172.3750    67.1400   104.4000    99.2520    83.0350    23.4590     2.2540   -24.4090 
  172.5000    67.9040   113.3200   106.6510    83.0180    23.4370     2.2380   -24.4860 
  172.6250    66.3200   125.5730   117.5400    99.2430    23.3620     2.2260   -24.5410 
  172.7500    63.6930   137.7300   128.8990   123.3110    23.3000     2.2230   -24.7150 
  172.8750    63.7370   146.5190   137.7810   141.8510    23.2850     2.2240   -24.8290 
  173.0000    67.5000   149.8290   141.9840   143.4800    23.3000     2.2260   -24.8950 
  173.1250    70.2450   147.9250   140.9170   126.5080    23.3000     2.2290   -25.1310 
  173.2500    69.1710   145.2860   138.2050   116.9660    23.3350     2.2300   -25.3590 
  173.3750    66.5090   145.1980   137.0650   118.7310    23.5210     2.2280   -25.4540 
  173.5000    65.1070   149.3130   139.5390   125.9420    23.9250     2.2200   -25.5910 
  173.6250    64.7940   157.7880   146.1860   129.9810    24.3610     2.2120   -25.7410 
  173.7500    64.5030   167.6890   154.5280   137.3150    24.6270     2.2070   -25.7500 
  173.8750    64.5530   176.1590   162.1060   157.0090    24.7050     2.2070   -25.8050 
  174.0000    64.6790   180.7890   166.6960   192.5880    24.7120     2.2130   -25.9450 
  174.1250    62.5460   180.4240   166.8410   195.9050    24.7110     2.2200   -25.9240 
  174.2500    59.4080   177.9250   164.6500   159.9630    24.6590     2.2230   -25.8690 
  174.3750    57.9520   176.1120   162.6050   137.5250    24.5480     2.2220   -25.9420 
  174.5000    59.3450   177.3040   163.0470   132.9560    24.4100     2.2220   -26.0250 
  174.6250    61.9500   183.7540   168.3890   134.3210    24.3240     2.2240   -26.0710 
  174.7500    62.1990   194.6750   178.1020   138.3100    24.2720     2.2280   -26.2290 
  174.8750    59.0420   207.9720   190.3080   147.5050    24.2510     2.2320   -26.4200 
  175.0000    54.9060   219.7650   201.5600   167.3720    24.2710     2.2340   -26.5070 
  175.1250    53.7160   224.4810   207.0340   194.9760    24.3330     2.2340   -26.7060 
  175.2500    56.0570   221.3090   205.7320   198.7670    24.3360     2.2360   -26.9650 
  175.3750    59.5420   212.1730   198.7960   176.4550    24.2700     2.2410   -27.0550 
  175.5000    62.0010   200.8380   189.0950   144.4170    24.1750     2.2450   -27.0750 
  175.6250    62.4960   191.0000   179.9150   133.5260    24.0570     2.2450   -27.1700 
  175.7500    62.3170   183.2950   172.4890   138.3960    24.0020     2.2440   -27.1240 
  175.8750    62.3480   176.6950   166.3240   152.6170    24.0030     2.2450   -26.9820 
  176.0000    61.7100   170.0800   160.6150   164.3850    23.9990     2.2480   -26.9410 
  176.1250    60.7040   163.4320   155.2310   148.9410    23.9380     2.2480   -26.7550 
  176.2500    60.7510   158.2870   151.0980   118.8140    23.9040     2.2480   -26.4900 
  176.3750    62.5190   156.6520   149.8250    95.3220    23.8880     2.2500   -26.3800 
  176.5000    63.6570   160.0690   152.9430    91.7730    23.8880     2.2530   -26.3310 
  176.6250    61.5800   169.2470   161.5990   109.5640    23.9680     2.2580   -26.1680 
  176.7500    59.5460   180.2970   172.7730   138.6970    24.1610     2.2650   -26.0570 
  176.8750    59.6450   187.5080   181.7610   170.8910    24.4080     2.2760   -26.0280 
  177.0000    61.3700   184.2260   182.5610   195.6550    24.5690     2.2910   -25.9160 
  177.1250    62.4710   165.9430   169.5310   199.1070    24.5600     2.3030   -25.8640 
  177.2500    62.8860   140.6340   147.8390   167.0050    24.5010     2.3060   -25.9230 
  177.3750    64.4050   115.6660   123.9160   122.2580    24.3420     2.3050   -25.8980 
  177.5000    65.6550    95.3950    94.6460    86.7620    24.0960     2.3060   -25.7330 
  177.6250    65.0920    81.8160    80.8620    64.0770    23.8600     2.3130   -25.6980 
  177.7500    64.0380    73.3090    71.8870    56.0490    23.8060     2.3190   -25.7430 
  177.8750    64.8660    68.9020    66.9800    55.3450    23.8870     2.3200   -25.6770 
  178.0000    68.3670    67.6390    65.2600    54.7140    24.0120     2.3100   -25.6790 
  178.1250    71.0830    69.1750    66.3720    52.6520    24.0070     2.2860   -25.7190 
  178.2500    71.3360    72.8020    69.5620    59.2190    23.9080     2.2600   -25.6330 
  178.3750    68.2920    78.5770    74.7830    77.7780    23.7880     2.2430   -25.5800 
  178.5000    64.8840    86.7860    82.1610    77.1960    23.7060     2.2350   -25.6910 
  178.6250    65.5710    98.1210    92.3950    63.6030    23.5930     2.2280   -25.7550 
  178.7500    67.7250   111.3400   104.7110    63.4380    23.5370     2.2220   -25.7100 
  178.8750    67.6890   123.5880   116.8530    81.5010    23.6300     2.2180   -25.7510 
  179.0000    65.9130   129.7810   124.2980   109.6870    23.9360     2.2130   -25.7400 
  179.1250    66.1070   123.1360   120.2460   126.0580    24.5110     2.2060   -25.6870 
  179.2500    66.5710   107.1360   106.5060   128.9280    25.0300     2.2010   -25.7560 
  179.3750    65.6870    88.7210    88.8060   113.3140    25.3530     2.2080   -25.7830 
  179.5000    65.5110    74.1700    73.4890    75.1380    25.4610     2.2220   -25.6670 
  179.6250    66.4080    67.4190    65.1550    45.7930    25.4490     2.2290   -25.6080 
