~V
VERS. 2.00: Ver 2.00
~W
STRT.M 50.0000:
STOP.M 278.0000:
STEP.M 0.1250:
NULL. -999.2500:
UWI. F10217:
~C
DEPT.M :
SP.MV :
DEN.GM/CC :
GR.API :
RML.OHMM :
RI. :
RXO.OHMM :
CALI.CM :
~A
# ...
  117.5000   -18.3350     2.1800    69.3310     7.0320     5.5370     7.8690    23.8080 
  117.6250   -18.6390     2.1740    68.7560     6.9470     5.4670     7.9820    23.8110 
  117.7500   -18.9480     2.1600    67.3520     6.9090     5.4300     8.1040    23.7950 
  117.8750   -19.2440     2.1420    68.1400     6.9860     5.4640     8.2740    23.8150 
  118.0000   -19.4880     2.1250    70.7970     7.2800     5.6330     8.1460    23.8930 
  118.1250   -19.6500     2.1240    71.8220     7.9140     6.0350     7.9060    23.9720 
  118.2500   -19.7300     2.1470    71.6920     8.7810     6.6370     7.8960    23.9800 
  118.3750   -19.7130     2.1980    72.4880     9.6670     7.3280     8.1680    23.8900 
  118.5000   -19.6410     2.2680    74.9000    10.2280     7.8830     8.6410    23.7520 
  118.6250   -19.5210     2.3270    78.7780    10.0370     7.9550     8.7270    23.6350 
  118.7500   -19.3570     2.3520    82.1340     9.2490     7.5480     8.3000    23.4810 
  118.8750   -19.1570     2.3340    82.2640     8.2390     6.8660     7.8250    23.3190 
  119.0000   -18.9390     2.2860    80.2550     7.4000     6.1860     7.5630    23.2290 
  119.1250   -18.7510     2.2330    80.6180     7.0110     5.7480     7.4770    23.1660 
  119.2500   -18.6190     2.1920    81.0930     6.9960     5.5770     7.5520    23.0880 
  119.3750   -18.5500     2.1670    78.4000     7.2470     5.6390     7.7650    23.0060 
  119.5000   -18.5300     2.1550    75.7030     7.6380     5.8630     7.9640    22.9420 
  119.6250   -18.5410     2.1530    75.3910     8.0460     6.1640     7.9950    22.8460 
  119.7500   -18.6000     2.1540    72.5200     8.3870     6.4500     7.8310    22.6980 
  119.8750   -18.6870     2.1560    69.4830     8.6370     6.6840     7.6980    22.6010 
  120.0000   -18.8170     2.1570    71.3950     8.7980     6.8550     7.6800    22.6340 
  120.1250   -18.9700     2.1570    75.8190     8.8690     6.9570     7.7000    22.7690 
  120.2500   -19.1160     2.1580    75.6560     8.8710     7.0090     7.7530    22.8830 
  120.3750   -19.2670     2.1620    73.5290     8.8120     7.0150     7.7980    22.9670 
  120.5000   -19.4340     2.1710    72.5230     8.7160     6.9810     7.8480    23.0450 
  120.6250   -19.5860     2.1840    70.6330     8.6460     6.9390     7.9050    23.1370 
  120.7500   -19.6990     2.1940    68.3000     8.6750     6.9460     7.9740    23.2570 
  120.8750   -19.7840     2.1980    67.4200     8.8570     7.0530     8.0400    23.3760 
  121.0000   -19.8240     2.1980    68.3720     9.1880     7.2810     8.2210    23.4630 
  121.1250   -19.8000     2.1960    70.6360     9.5890     7.6030     8.8740    23.5720 
  121.2500   -19.7420     2.1960    72.7620     9.8820     7.8880     9.7070    23.7290 
  121.3750   -19.6560     2.1950    73.8960     9.9140     8.0090     9.8800    23.8650 
  121.5000   -19.5250     2.1880    72.9570     9.6110     7.8800     9.3770    23.9610 
  121.6250   -19.4140     2.1710    69.3100     9.0190     7.4900     8.6790    24.0140 
  121.7500   -19.3240     2.1480    65.0730     8.3770     7.0040     8.1160    24.0330 
  121.8750   -19.2470     2.1280    61.6650     7.8330     6.5400     7.8640    24.0400 
  122.0000   -19.1960     2.1180    60.7840     7.4530     6.1710     7.7410    24.0470 
  122.1250   -19.1860     2.1210    63.6880     7.2480     5.9320     7.6330    24.0500 
  122.2500   -19.2020     2.1300    66.6790     7.1370     5.7770     7.6470    24.0390 
  122.3750   -19.2170     2.1400    68.3230     7.0720     5.6740     7.6550    24.0260 
  122.5000   -19.2380     2.1490    69.2760     7.0220     5.5960     7.6580    24.0070 
  122.6250   -19.2230     2.1540    68.6900     6.9710     5.5360     7.5810    23.9950 
  122.7500   -19.1680     2.1550    65.4340     6.9150     5.4880     7.6030    23.9840 
  122.8750   -19.0860     2.1500    62.3430     6.8690     5.4580     7.6460    23.9730 
  123.0000   -18.9640     2.1410    63.6420     6.8660     5.4590     7.7180    23.9720 
  123.1250   -18.8110     2.1300    66.7980     6.9970     5.5430     7.8480    23.9750 
  123.2500   -18.6310     2.1220    67.4820     7.3280     5.7530     8.0470    23.9600 
  123.3750   -18.4550     2.1230    68.4920     7.8900     6.1350     8.3680    23.9500 
  123.5000   -18.2560     2.1360    71.0060     8.6130     6.6710     8.9080    23.9790 
  123.6250   -18.0420     2.1650    70.9460     9.2280     7.2140     9.6020    24.0550 
  123.7500   -17.8280     2.2050    68.1680     9.3990     7.4990    10.4000    24.1460 
  123.8750   -17.6150     2.2470    66.3570     8.9290     7.3230    11.1330    24.2080 
  124.0000   -17.4250     2.2800    67.1060     7.9100     6.6820    10.8320    24.1980 
  124.1250   -17.2470     2.2890    68.8460     6.7430     5.7950     7.8560    24.0790 
  124.2500   -17.0930     2.2780    73.2180     5.8370     4.9970     5.7780    23.8900 
  124.3750   -16.9520     2.2550    79.9140     5.2960     4.4230     5.0170    23.7030 
  124.5000   -16.8580     2.2300    83.1680     5.0630     4.0880     5.1390    23.6020 
  124.6250   -16.7950     2.2140    80.1010     5.0210     3.9580     5.3640    23.5820 
  124.7500   -16.7630     2.2070    78.5640     5.0090     3.9120     5.3520    23.5740 
  124.8750   -16.7540     2.2080    81.5900     4.9810     3.8940     5.2950    23.6150 
  125.0000   -16.7720     2.2140    86.0510     4.9670     3.8910     5.3580    23.7010 
  125.1250   -16.8380     2.2180    87.5870     5.0540     3.9450     5.2780    23.7610 
  125.2500   -16.9190     2.2170    85.1290     5.2630     4.0770     5.3930    23.7530 
  125.3750   -17.0180     2.2110    78.8780     5.5650     4.2860     6.0010    23.7160 
  125.5000   -17.1450     2.2040    71.0760     5.8960     4.5380     6.6830    23.7410 
  125.6250   -17.3080     2.2000    65.3630     6.1640     4.7750     6.9770    23.8440 
  125.7500   -17.4960     2.2010    62.0300     6.3280     4.9480     7.0120    23.9030 
  125.8750   -17.7250     2.2050    61.6670     6.3880     5.0380     6.9830    23.9030 
  126.0000   -17.9690     2.2080    63.3080     6.3800     5.0570     7.0520    23.8890 
  126.1250   -18.2100     2.2080    63.5350     6.3390     5.0250     7.2620    23.8890 
  126.2500   -18.4600     2.2050    62.8060     6.2890     4.9720     7.3960    23.9680 
  126.3750   -18.6740     2.2000    64.2410     6.2280     4.9070     7.4250    24.0570 
  126.5000   -18.8290     2.1960    66.5820     6.1570     4.8350     7.3400    24.0930 
  126.6250   -18.8660     2.1920    66.9910     6.0850     4.7660     7.1880    24.1240 
  126.7500   -18.8380     2.1850    65.6960     6.0340     4.7150     7.1170    24.1640 
  126.8750   -18.7330     2.1760    65.5540     6.0290     4.6990     7.1180    24.1500 
  127.0000   -18.5730     2.1650    68.2720     6.0870     4.7310     7.0690    24.0370 
  127.1250   -18.3810     2.1550    72.0430     6.2230     4.8250     6.9070    23.8240 
  127.2500   -18.1850     2.1500    73.1110     6.4070     4.9630     6.8520    23.6510 
  127.3750   -18.0130     2.1530    68.8410     6.6060     5.1190     7.1300    23.5400 
  127.5000   -17.8650     2.1640    62.2970     6.7720     5.2620     7.8740    23.4530 
  127.6250   -17.8050     2.1830    59.5160     6.8460     5.3440     8.3990    23.3730 
  127.7500   -17.8040     2.2060    61.5740     6.8080     5.3450     8.2580    23.3250 
  127.8750   -17.8890     2.2320    68.1930     6.6490     5.2540     7.9840    23.2800 
  128.0000   -18.0480     2.2540    75.4510     6.3960     5.0800     7.7970    23.2320 
  128.1250   -18.2430     2.2680    75.6510     6.1250     4.8680     7.5610    23.2470 
  128.2500   -18.4200     2.2720    71.1780     5.9420     4.7020     7.2870    23.3430 
  128.3750   -18.5650     2.2660    66.9250     5.9180     4.6400     6.9200    23.4810 
  128.5000   -18.6460     2.2550    66.3300     6.0940     4.7230     6.8360    23.6120 
  128.6250   -18.6460     2.2370    66.4980     6.5100     4.9950     8.2000    23.7560 
