~V
VERS. 2.00: Ver 2.00
~W
STRT.M 50.0000:
STOP.M 258.0000:
STEP.M 0.1250:
NULL. -999.2500:
UWI. F10200:
~C
DEPT.M :
SP.MV :
GR.API :
RML.OHMM :
RI. :
RXO.OHMM :
CALI.CM :
DEN.GM/CC :
~A
   50.0000   148.9730  -999.2500  -999.2500  -999.2500  -999.2500  -999.2500  -999.2500 
   50.1250   148.9730  -999.2500  -999.2500  -999.2500  -999.2500  -999.2500  -999.2500 
   50.2500   148.9730  -999.2500  -999.2500  -999.2500  -999.2500  -999.2500  -999.2500 
   50.3750   148.9730  -999.2500  -999.2500  -999.2500  -999.2500  -999.2500     0.0000 
   50.5000   148.9730  -999.2500  -999.2500  -999.2500  -999.2500  -999.2500     0.0000 
   50.6250   148.2350  -999.2500  -999.2500  -999.2500  -999.2500  -999.2500     0.0000 
   50.7500   147.4960  -999.2500  -999.2500  -999.2500  -999.2500  -999.2500     0.0000 
   50.8750   146.8000  -999.2500  -999.2500  -999.2500  -999.2500  -999.2500     0.0000 
   51.0000   146.1810  -999.2500  -999.2500  -999.2500  -999.2500  -999.2500     0.0000 
   51.1250   145.6610  -999.2500  -999.2500  -999.2500  -999.2500  -999.2500     0.5150 
   51.2500   145.1980  -999.2500  -999.2500  -999.2500  -999.2500  -999.2500     2.0580 
   51.3750   144.8080  -999.2500  -999.2500  -999.2500  -999.2500  -999.2500     2.0560 
   51.5000   144.4920     0.0000     0.0000     0.0000     0.0000     0.0000     2.0530 
   51.6250   144.1690     0.0000     0.0000     0.0000     0.0000     0.0000     2.0520 
   51.7500   143.7900     0.0000     0.0000     0.0000     0.0000     0.0000     2.0540 
   51.8750   143.3280     0.0000     0.0000     0.0000     0.0000     0.0000     2.0580 
   52.0000   142.7300     0.0000     0.0000     0.0000     0.0000     0.0000     2.0610 
   52.1250   142.0130    34.3210     3.2620     0.6110     6.5500    25.2460     2.0600 
   52.2500   141.2840    35.0120     3.1080     0.6050     7.1460    25.2460     2.0560 
   52.3750   140.5370    35.1250     2.9530     0.5980     8.2170    25.2460     2.0480 
   52.5000   139.7630    35.6640     2.7930     0.5960    12.0140    25.2460     2.0410 
   52.6250   139.0730    37.6960     2.6210     0.5980    15.4350    25.2460     2.0350 
   52.7500   138.4960    39.8510     2.4380     0.6040     9.7990    25.2460     2.0330 
   52.8750   138.0360    40.2840     2.2600     0.6100     6.2620    25.2460     2.0350 
   53.0000   137.7810    39.1290     2.1130     0.6130     5.2300    25.2460     2.0420 
   53.1250   137.7550    39.1540     2.0370     0.6100     4.4780    25.2460     2.0500 
   53.2500   137.8360    40.3810     2.0260     0.6020     4.1500    25.2460     2.0550 
   53.3750   138.0340    40.6660     2.0430     0.5900     4.3340    25.2460     2.0550 
   53.5000   138.3550    39.0570     2.0450     0.5730     4.8090    25.2460     2.0540 
   53.6250   138.7820    36.3020     1.9920     0.5540     5.4500    25.2460     2.0540 
   53.7500   139.3200    35.2390     1.9020     0.5380     5.1370    25.2460     2.0530 
   53.8750   139.9830    35.3580     1.8090     0.5310     4.0040    25.2460     2.0520 
   54.0000   140.7290    35.3790     1.7400     0.5320     2.9000    25.2460     2.0520 
   54.1250   141.5070    34.7460     1.6970     0.5380     1.9610    25.2460     2.0540 
   54.2500   142.2650    33.9230     1.6590     0.5410     1.2340    25.2460     2.0640 
   54.3750   142.9810    32.7380     1.6160     0.5380     0.8360    25.2460     2.0810 
   54.5000   143.6520    32.4230     1.5780     0.5310     0.6480    25.2460     2.1010 
   54.6250   144.1740    34.2860     1.5750     0.5240     0.5650    25.2460     2.1100 
   54.7500   144.5070    36.9400     1.6220     0.5210     0.5150    25.2460     2.1000 
   54.8750   144.6090    38.1090     1.7140     0.5220     0.4860    25.2460     2.0780 
   55.0000   144.3870    36.9240     1.8220     0.5210     0.4710    25.2460     2.0560 
   55.1250   143.7660    35.5890     1.8830     0.5100     0.4590    25.2460     2.0530 
   55.2500   142.8260    35.5920     1.8440     0.4850     0.4530    25.2460     2.0700 
   55.3750   141.4880    36.4500     1.6690     0.4460     0.4590    25.2460     2.1070 
   55.5000   139.6150    37.8110     1.3490     0.3950     0.4640    25.2460     2.1660 
   55.6250   136.8940    38.2840     0.9340     0.3410     0.4460    25.2460     2.2590 
   55.7500   133.0680    37.2220     0.5680     0.2950     0.4450    25.2460     2.3790 
   55.8750   127.6480    36.1880     0.3370     0.2670     0.5180    25.2400     2.5050 
   56.0000   120.1580    37.3790     0.2550     0.2650     0.7580    25.1710     2.5970 
   56.1250   109.7030    41.3700     0.3340     0.3230     1.4250    24.7640     2.5940 
   56.2500    96.6230    44.5350     0.5700     0.4780     2.3580    24.0040     2.5240 
   56.3750    81.4530    46.3890     1.0010     0.7930     3.7180    23.2880     2.4230 
   56.5000    65.1180    48.6820     1.6440     1.3190     6.1450    22.9010     2.3220 
   56.6250    48.5880    51.1350     2.4600     2.0920     8.2500    22.7730     2.2480 
   56.7500    32.7170    53.3960     3.2610     2.9800     9.7200    22.7220     2.2060 
   56.8750    18.1660    55.2300     3.8560     3.8210    10.6160    22.7120     2.1920 
   57.0000     5.5840    56.8170     4.1410     4.4610    11.4410    22.7360     2.1920 
   57.1250    -3.9850    57.0360     4.1970     4.8260     9.8260    22.8290     2.1950 
   57.2500   -10.7590    55.8960     4.2270     5.0290     8.9570    22.9730     2.1940 
   57.3750   -15.1650    55.2990     4.2710     5.1300     8.7070    23.0910     2.1890 
   57.5000   -17.9390    56.1140     4.3000     5.1470     8.7390    23.1450     2.1810 
   57.6250   -19.6100    57.8790     4.2600     5.0650     8.6540    23.1300     2.1730 
   57.7500   -20.7370    59.8800     4.1570     4.9220     8.5140    23.0380     2.1660 
   57.8750   -21.4230    61.4410     4.0450     4.7810     8.3430    22.8550     2.1610 
   58.0000   -21.7340    61.8550     4.0330     4.7570     8.1370    22.6130     2.1600 
   58.1250   -21.7410    61.7760     4.3620     5.1080     7.7490    22.5860     2.1670 
   58.2500   -21.6160    62.3170     5.2050     6.0360     7.8360    22.6600     2.1920 
   58.3750   -21.4050    63.3480     6.7410     7.7470     9.0290    22.6850     2.2440 
   58.5000   -21.2020    63.4730     8.9900    10.2840    12.1170    22.6300     2.3270 
   58.6250   -21.1210    61.8250    11.5610    13.2820    18.3190    22.7580     2.4290 
   58.7500   -21.1490    58.7950    13.5660    15.7570    28.3030    23.0910     2.5100 
   58.8750   -21.3650    55.6390    14.1130    16.7170    39.2340    23.4620     2.5320 
   59.0000   -21.7930    54.8760    12.6670    15.5290    40.0490    23.6350     2.4860 
   59.1250   -22.3640    57.1330     9.8580    12.5720    28.9240    23.4530     2.3950 
   59.2500   -22.9550    59.7450     7.3690     9.5830    17.2960    23.2240     2.3050 
   59.3750   -23.4590    61.3520     5.7220     7.3350    10.7840    23.0570     2.2370 
   59.5000   -23.7370    63.8220     4.8480     5.9510     8.7410    22.9890     2.2030 
   59.6250   -23.6490    70.0190     4.6040     5.3580     8.3660    23.0740     2.2050 
   59.7500   -23.2240    78.1840     4.6900     5.2180     8.2430    23.2550     2.2240 
   59.8750   -22.4670    84.8370     4.9520     5.3550     7.9920    23.3760     2.2510 
   60.0000   -21.4880    88.1910     5.2440     5.6060     7.3150    23.3710     2.2800 
   60.1250   -20.3550    89.5680     5.4230     5.8190     7.3340    23.2670     2.3090 
   60.2500   -19.1910    90.3480     5.4430     5.9100     8.0150    23.2080     2.3350 
   60.3750   -18.1140    90.4630     5.3160     5.8580     8.8070    23.1560     2.3520 
   60.5000   -17.2300    92.5550     5.0990     5.6920     7.5700    23.0760     2.3550 
   60.6250   -16.6110    97.1950     4.8820     5.4750     6.2080    22.9890     2.3430 
   60.7500   -16.2400    99.5190     4.7340     5.2880     5.5620    23.0180     2.3210 
   60.8750   -16.1030    96.4060     4.6790     5.1690     5.5010    23.2760     2.2960 
   61.0000   -16.1160    90.5670     4.7090     5.1240     5.5800    23.6870     2.2700 
   61.1250   -16.2640    90.5520     4.7880     5.1370     5.5760    23.8850     2.2480 
