~V
VERS. 2.00: Ver 2.00
~W
STRT.M 60.0000:
STOP.M 271.0000:
STEP.M 0.1250:
NULL. -999.2500:
UWI. F10237:
~C
DEPT.M :
GR.API :
RML.OHMM :
RI. :
RXO.OHMM :
CALI.CM :
DEN.GM/CC :
SP.MV :
~A
   60.0000    54.1880     0.2390     0.1830     1.2650    22.4940     2.4980    85.2930 
   60.1250    56.1970     0.2190     0.1960     1.3840    22.3220     2.4800    83.9960 
   60.2500    54.9540     0.2310     0.2050     1.4540    22.2240     2.4530    82.1130 
   60.3750    52.6200     0.2800     0.2140     1.5030    22.1520     2.4230    79.6940 
   60.5000    52.5720     0.3510     0.2260     1.5430    22.1120     2.3880    76.7720 
   60.6250    54.7210     0.4130     0.2360     1.5900    22.0850     2.3370    73.2550 
   60.7500    55.1220     0.4360     0.2370     1.5620    22.1260     2.2700    69.2210 
   60.8750    54.8050     0.4120     0.2310     1.3580    22.3830     2.1900    64.7260 
   61.0000    56.9180     0.3470     0.2200     1.0350    23.0040     2.1080    59.7290 
   61.1250    62.6920     0.2710     0.2060     0.7550    23.8780     2.0500    54.2660 
   61.2500    66.0720     0.2130     0.1880     0.6220    24.7580     2.0330    48.5970 
   61.3750    64.7000     0.1780     0.1650     0.5840    25.3160     2.0560    42.9290 
   61.5000    61.4840     0.1580     0.1360     0.5740    25.4980     2.1100    37.4300 
   61.6250    58.9330     0.1430     0.1100     0.5660    25.4760     2.1880    32.2940 
   61.7500    55.4340     0.1280     0.0900     0.5590    25.4270     2.2790    27.5020 
   61.8750    51.9740     0.1130     0.0720     0.5560    25.3630     2.3750    23.1160 
   62.0000    52.3660     0.1050     0.0550     0.5730    25.2660     2.4460    19.1960 
   62.1250    55.2570     0.1190     0.0470     0.7530    25.3510     2.3900    15.7680 
   62.2500    56.9930     0.1780     0.0640     1.3190    25.9830     2.1980    12.6420 
   62.3750    59.2290     0.3170     0.1360     2.4380    27.4340     1.9660     9.6880 
   62.5000    63.5910     0.5910     0.3070     3.4990    29.3630     1.7990     6.8760 
   62.6250    66.3260     1.1160     0.6720     3.9890    31.0520     1.7560     4.2610 
   62.7500    67.0190     1.8910     1.2650     3.9600    31.2630     1.8000     1.8700 
   62.8750    71.7020     2.7370     2.0590     3.7790    29.7350     1.9020    -0.2670 
   63.0000    83.2250     3.2800     2.8790     3.6260    27.0780     2.0360    -2.1480 
   63.1250    96.4430     3.3580     3.4860     3.6370    24.7780     2.1680    -3.7280 
   63.2500   102.6370     3.3450     3.9060     3.8190    23.3370     2.2520    -5.0160 
   63.3750   102.1150     3.4470     4.2470     4.0820    22.4710     2.2730    -6.0840 
   63.5000    98.2440     3.7310     4.6000     4.2900    21.8100     2.2560    -6.9880 
   63.6250    94.8870     4.1870     5.0200     4.5650    21.4950     2.2330    -7.7830 
   63.7500    94.2090     4.6980     5.5100     4.7810    21.4130     2.2190    -8.5290 
   63.8750    93.7070     5.1820     6.0570     4.8860    21.4630     2.2070    -9.3080 
   64.0000    89.8450     5.6110     6.6150     5.0470    21.6130     2.1930   -10.1430 
   64.1250    79.0120     5.9940     7.0920     5.4900    21.7490     2.1750   -10.9500 
   64.2500    68.5980     6.3160     7.4050     6.0910    21.9310     2.1550   -11.7750 
   64.3750    67.0070     6.4940     7.4940     6.5910    22.3130     2.1400   -12.5800 
   64.5000    70.0450     6.4580     7.3600     6.2280    22.8330     2.1390   -13.2800 
   64.6250    69.9010     6.2350     7.0620     5.8440    23.1610     2.1590   -13.8850 
   64.7500    69.1980     5.9920     6.7470     5.6750    23.2670     2.1850   -14.4500 
   64.8750    72.7990     5.8400     6.5090     5.6640    23.3950     2.2020   -14.9180 
   65.0000    77.2280     5.8360     6.4050     5.6600    23.7680     2.2030   -15.2360 
   65.1250    76.3220     6.0120     6.4530     5.7120    24.2640     2.1880   -15.4890 
   65.2500    73.8870     6.2970     6.5820     5.9540    24.5620     2.1690   -15.7470 
   65.3750    71.4850     6.5890     6.7230     6.3090    24.6380     2.1510   -15.9080 
   65.5000    68.8550     6.7410     6.7820     6.5250    24.6140     2.1330   -16.0290 
   65.6250    68.4570     6.5790     6.6350     6.5020    24.6450     2.1160   -16.1840 
   65.7500    70.2820     6.1940     6.3130     6.2630    24.7470     2.1200   -16.2510 
   65.8750    73.1950     5.8220     5.9580     5.8590    24.8440     2.1650   -16.2300 
   66.0000    76.0890     5.7620     5.8040     5.6050    24.9350     2.2520   -16.2450 
   66.1250    78.0850     6.3930     6.2610     6.4010    25.0580     2.3690   -16.2830 
   66.2500    76.6940     7.8710     7.6040     9.8170    25.0540     2.4910   -16.2070 
   66.3750    71.8210    10.4580    10.1630    19.3350    24.7040     2.5920   -16.1790 
   66.5000    66.3420    14.3520    14.1210    30.2650    24.0770     2.6360   -16.2240 
   66.6250    62.9390    18.9040    18.9130    34.3970    23.4590     2.6030   -16.2690 
   66.7500    60.7270    21.3370    22.1190    32.3710    23.1910     2.5250   -16.4190 
   66.8750    59.0810    19.8060    21.6760    25.8530    23.1830     2.4210   -16.6580 
   67.0000    59.8990    15.8610    18.1130    16.3690    23.2860     2.3090   -16.9250 
   67.1250    62.3910    12.2820    13.9950    10.1020    23.4390     2.2320   -17.2380 
   67.2500    62.4540     9.9040    10.9420     7.7810    23.6300     2.1980   -17.5970 
   67.3750    60.0070     8.5880     9.0810     7.1280    23.8000     2.1960   -17.9550 
   67.5000    57.4490     8.0720     8.1670     7.2070    23.8720     2.2050   -18.2590 
   67.6250    55.1780     8.1310     7.9510     7.8860    23.7800     2.2080   -18.4980 
   67.7500    53.7110     8.3490     8.0040     8.5960    23.5310     2.2000   -18.6960 
   67.8750    55.3680     8.4730     8.0800     8.0610    23.3220     2.1850   -18.8400 
   68.0000    58.3170     8.3960     8.0410     7.1350    23.3530     2.1680   -18.9050 
   68.1250    59.7990     8.1760     7.8720     6.8300    23.5550     2.1540   -18.9210 
   68.2500    61.7260     7.9660     7.6820     6.8450    23.6770     2.1410   -18.9130 
   68.3750    63.7090     7.8300     7.5380     6.7750    23.5430     2.1270   -18.8640 
   68.5000    64.2370     7.8000     7.4750     6.7190    23.4170     2.1170   -18.7920 
   68.6250    63.5450     7.9210     7.5020     6.8060    23.4810     2.1140   -18.7270 
   68.7500    63.4410     8.1630     7.5760     6.9470    23.5330     2.1130   -18.6440 
   68.8750    64.0760     8.4540     7.6620     7.0390    23.4950     2.1110   -18.5610 
   69.0000    64.6040     8.6650     7.7190     6.9910    23.3950     2.1070   -18.5230 
   69.1250    67.3060     8.6430     7.6970     6.9620    23.3080     2.1070   -18.4520 
   69.2500    69.8210     8.4180     7.5900     7.0410    23.2670     2.1110   -18.3480 
   69.3750    69.4820     8.0950     7.4150     7.1050    23.2170     2.1170   -18.2780 
   69.5000    68.6340     7.8020     7.2100     6.9560    23.0960     2.1240   -18.2820 
   69.6250    70.8170     7.6430     7.0230     6.7160    22.8770     2.1350   -18.2350 
   69.7500    74.8400     7.5930     6.8800     6.5690    22.5970     2.1450   -18.1250 
   69.8750    75.2970     7.6100     6.7970     6.4790    22.2680     2.1520   -18.0760 
   70.0000    70.6790     7.6650     6.7750     6.5040    22.0090     2.1530   -18.0590 
   70.1250    67.8530     7.7400     6.8020     6.5900    21.8400     2.1520   -18.0220 
   70.2500    70.9060     7.8190     6.8340     6.3040    21.7200     2.1520   -17.9890 
   70.3750    75.7350     7.8840     6.8410     5.6230    21.6760     2.1510   -17.9210 
   70.5000    75.7720     7.9170     6.8120     6.0710    21.7080     2.1450   -17.8540 
   70.6250    72.4620     7.8990     6.7490     6.4920    21.8670     2.1340   -17.9130 
   70.7500    71.6220     7.8510     6.6740     6.7440    22.1340     2.1240   -18.0400 
   70.8750    72.7980     7.7970     6.6010     6.6350    22.4120     2.1190   -18.1130 
   71.0000    72.5710     7.7570     6.5400     6.5200    22.5710     2.1210   -18.1350 
   71.1250    69.6150     7.7410     6.4970     6.4300    22.6060     2.1300   -18.2280 
