~V
VERS. 2.00: Ver 2.00
~W
STRT.M 47.0000:
STOP.M 270.0000:
STEP.M 0.1250:
NULL. -999.2500:
UWI. F10221:
~C
DEPT.M :
SP.MV :
GR.API :
RML.OHMM :
RI. :
RXO.OHMM :
CALI.CM :
DEN.GM/CC :
~A
# ...
  170.7500   -22.3660    74.5970    17.6250    15.9310    13.7110    23.0730     2.2410 
  170.8750   -22.4000    73.1700    16.9990    15.5010    13.3360    22.9650     2.2490 
  171.0000   -22.4550    72.5970    16.3870    15.0310    12.8360    22.8960     2.2610 
  171.1250   -22.5070    73.8940    15.8490    14.5910    12.1710    22.8590     2.2710 
  171.2500   -22.5540    74.3730    15.4060    14.2180    11.4310    22.8150     2.2760 
  171.3750   -22.5890    73.8700    15.0420    13.9220    10.8230    22.7580     2.2780 
  171.5000   -22.6380    73.8350    14.7220    13.6780    10.5360    22.6460     2.2810 
  171.6250   -22.6590    74.9070    14.3820    13.4200    10.5900    22.5200     2.2840 
  171.7500   -22.6940    77.1600    13.9730    13.0950    10.7870    22.3990     2.2790 
  171.8750   -22.7600    80.1050    13.4760    12.6870    10.5500    22.2980     2.2650 
  172.0000   -22.8260    81.2240    12.9220    12.2270    10.1610    22.3000     2.2510 
  172.1250   -22.8910    80.3230    12.4110    11.8060    10.0010    22.4360     2.2450 
  172.2500   -22.9750    79.7840    12.0370    11.4910     9.9440    22.6620     2.2470 
  172.3750   -23.0770    81.4290    11.8710    11.3330     9.7890    22.7770     2.2530 
  172.5000   -23.1930    81.6380    11.9680    11.3860     9.7290    22.6900     2.2580 
  172.6250   -23.3030    77.1990    12.2420    11.6030     9.8000    22.5220     2.2600 
  172.7500   -23.4310    71.7710    12.6090    11.9310     9.8360    22.3650     2.2580 
  172.8750   -23.5600    71.6090    12.9730    12.2880     9.9900    22.2240     2.2560 
  173.0000   -23.6740    75.1620    13.2070    12.5490    10.2840    22.1780     2.2560 
  173.1250   -23.7610    77.9900    13.2350    12.6260    10.4480    22.1720     2.2570 
  173.2500   -23.8390    79.5860    13.0040    12.4660    10.1930    22.1760     2.2600 
  173.3750   -23.8950    81.2460    12.5370    12.0860     9.7040    22.1650     2.2650 
  173.5000   -23.9240    81.8710    11.9660    11.5820     9.6480    22.2260     2.2710 
  173.6250   -23.9810    81.7800    11.5270    11.1500     9.7700    22.5000     2.2780 
  173.7500   -24.0230    81.8560    11.4140    10.9480     9.6970    23.0230     2.2860 
  173.8750   -24.0720    80.9410    11.8040    11.1250     9.5570    23.7230     2.2930 
  174.0000   -24.1590    78.3660    12.9500    11.9100    10.8570    24.3220     2.2930 
  174.1250   -24.2980    75.5730    14.7390    13.2950    13.2130    24.7110     2.2860 
  174.2500   -24.4640    71.9980    16.9670    15.2360    15.5720    24.8440     2.2780 
  174.3750   -24.6460    68.4450    19.2470    17.5080    17.5420    24.8540     2.2750 
  174.5000   -24.8850    66.4180    20.9460    19.5650    20.3150    24.8820     2.2720 
  174.6250   -25.1590    66.6390    21.7300    20.8520    23.3940    24.9610     2.2690 
  174.7500   -25.4410    71.3460    21.4980    21.1550    22.0650    25.0430     2.2660 
  174.8750   -25.7510    78.1460    20.2470    20.6930    18.8410    25.0720     2.2690 
  175.0000   -26.0970    80.7260    18.2890    19.9120    17.9470    25.0700     2.2760 
  175.1250   -26.4560    80.1010    16.5830    19.2810    18.4980    25.0700     2.2810 
  175.2500   -26.8420    79.3920    15.9780    19.0600    18.8650    25.0720     2.2800 
  175.3750   -27.2830    79.0600    17.0840    19.4750    18.9300    25.0730     2.2730 
  175.5000   -27.7800    78.0990    20.3540    20.9390    19.7120    25.0730     2.2630 
  175.6250   -28.3080    77.3310    25.3490    23.7020    22.0020    25.0770     2.2530 
  175.7500   -28.9090    74.8480    32.1760    28.4020    27.2520    25.0990     2.2440 
  175.8750   -29.5290    70.1620    41.3810    35.9620    37.7750    25.1460     2.2350 
  176.0000   -30.1470    64.8420    57.3640    48.1270    55.5260    25.1920     2.2290 
  176.1250   -30.7650    61.8510    84.0200    64.6390    71.6440    25.2110     2.2290 
  176.2500   -31.3600    62.0950   106.5820    84.2950    91.0150    25.2160     2.2330 
  176.3750   -31.9030    63.5700   128.5780   104.0300   107.0870    25.1920     2.2450 
  176.5000   -32.3620    63.5510   143.7860   118.6550   126.9370    25.0620     2.2820 
  176.6250   -32.7510    61.1170   149.8700   126.0910   130.1340    24.7210     2.3350 
  176.7500   -33.0540    58.9660   147.2000   126.2260   120.1170    24.1970     2.3700 
  176.8750   -33.2760    58.4160   138.1450   120.4370   108.1750    23.7760     2.3550 
  177.0000   -33.4520    59.8400   125.9380   110.8810    95.7710    23.5980     2.3020 
  177.1250   -33.5940    61.2280   114.1020   100.8610    96.0050    23.6210     2.2610 
  177.2500   -33.7040    61.8070   103.9330    91.9010    95.0870    23.6760     2.2440 
  177.3750   -33.7890    64.0190    95.8400    84.6970    81.2490    23.7380     2.2440 
  177.5000   -33.8760    68.4520    90.1470    79.7130    71.5240    23.8480     2.2490 
  177.6250   -33.9720    72.1110    86.4030    76.4840    67.3300    23.9440     2.2510 
  177.7500   -34.0590    74.4680    84.6740    74.9370    65.4700    23.9130     2.2510 
  177.8750   -34.1550    77.3380    85.2100    75.2310    63.1890    23.6500     2.2500 
  178.0000   -34.2350    76.2720    88.7410    78.0780    62.6450    23.3160     2.2500 
  178.1250   -34.2800    69.3260    94.7830    83.2050    66.1410    23.2230     2.2480 
  178.2500   -34.3080    63.1910   102.6710    90.1150    68.9280    23.3740     2.2430 
  178.3750   -34.3320    63.7520   110.9060    97.5580    69.9090    23.4950     2.2360 
  178.5000   -34.3230    67.2400   116.3550   102.9470    75.9250    23.3800     2.2300 
  178.6250   -34.2890    67.1290   116.8440   104.3840    81.3320    23.1900     2.2290 
  178.7500   -34.2420    67.4340   111.9640   101.3390    74.5770    23.0450     2.2360 
  178.8750   -34.2040    71.1370   103.4210    94.9570    60.3740    22.9620     2.2490 
  179.0000   -34.1580    75.6160    93.9390    87.2980    53.6560    22.9250     2.2650 
  179.1250   -34.1340    76.0080    85.7800    80.4090    52.4530    22.8920     2.2820 
  179.2500   -34.1000    72.1380    79.8040    75.1940    49.4450    22.8960     2.2950 
  179.3750   -34.0700    66.6640    75.9880    71.8100    44.0980    23.0880     2.2990 
  179.5000   -34.0270    64.4360    73.5560    69.6860    44.4470    23.6060     2.2960 
  179.6250   -33.9960    68.2230    70.9270    67.3930    49.9690    24.2310     2.2950 
  179.7500   -33.9710    74.9700    67.1830    64.0530    54.1760    24.5580     2.3010 
  179.8750   -33.9480    78.4660    62.0920    59.4240    54.3190    24.5620     2.3070 
  180.0000   -33.9170    76.3440    56.2230    54.0040    42.2720    24.8940     2.3050 
  180.1250   -33.9350    72.0620    50.8970    49.0030    32.7140    25.1620     2.3010 
  180.2500   -33.9950    67.9640    47.0600    45.2620    29.1460    25.2710     2.2970 
  180.3750   -34.1120    64.7670    45.2920    43.2670    30.4460    25.2780     2.2940 
  180.5000   -34.2680    64.0970    46.3540    43.6520    31.8050    25.1740     2.2910 
  180.6250   -34.4570    64.0100    50.0370    46.3230    32.1090    25.0060     2.2850 
  180.7500   -34.6830    62.6300    56.3540    51.4300    32.9040    25.2770     2.2770 
  180.8750   -34.9550    61.7150    65.1250    58.9220    36.2010    25.2590     2.2680 
  181.0000   -35.2580    64.7220    75.9990    68.5610    45.6550    25.1660     2.2630 
  181.1250   -35.5350    66.2370    87.1930    78.7080    59.0870    25.1640     2.2600 
  181.2500   -35.8060    63.4100    96.4900    87.3530    70.8720    25.1690     2.2570 
  181.3750   -36.0230    59.4070   101.5700    92.3130    77.5760    25.1620     2.2500 
  181.5000   -36.2500    58.6290   101.0320    92.0150    74.5170    25.0810     2.2380 
  181.6250   -36.4290    60.3850    98.0710    88.9840    76.0190    24.9900     2.2260 
  181.7500   -36.6120    63.0820    96.0160    86.0580    78.8620    24.9740     2.2130 
  181.8750   -36.7430    64.8080    97.6660    85.8490    77.3080    25.0350     2.1980 
