~V
VERS. 2.00: Ver 2.00
~W
STRT.M 50.0000:
STOP.M 281.0000:
STEP.M 0.1250:
NULL. -999.2500:
UWI. F10234:
~C
DEPT.M :
DEN.GM/CC :
GR.API :
RML.OHMM :
RI. :
RXO.OHMM :
CALI.CM :
SP.MV :
~A
# ...
  140.0000     2.2810    75.5720     6.8070     6.5110     5.5270    23.2820    -1.0500 
  140.1250     2.2430    76.2220     6.6140     6.1270     5.4890    23.3670    -1.2330 
  140.2500     2.2320    75.1020     7.1290     6.3520     5.7010    23.4430    -1.3980 
  140.3750     2.2590    72.7210     8.3330     7.1990     7.0340    23.5310    -1.6080 
  140.5000     2.3300    67.5270    10.0950     8.6220    10.3180    23.6490    -1.8680 
  140.6250     2.4140    60.2080    12.0740    10.4620    15.4640    23.8220    -2.1590 
  140.7500     2.4550    54.7170    13.7360    12.2530    17.5500    24.0350    -2.4260 
  140.8750     2.4290    52.5740    14.7970    13.6390    17.0550    24.2700    -2.6980 
  141.0000     2.3610    53.7160    15.3250    14.5070    15.2380    24.5080    -2.9170 
  141.1250     2.2940    56.7960    15.7170    15.0690    15.8690    24.7170    -3.0700 
  141.2500     2.2390    58.1310    16.4000    15.7340    17.8670    24.8720    -3.2010 
  141.3750     2.1850    56.1660    17.4850    16.6640    20.3390    24.9580    -3.2730 
  141.5000     2.1250    52.8270    18.8040    17.7810    21.4840    24.9780    -3.2840 
  141.6250     2.0720    51.6090    19.7780    18.6260    21.1510    24.9440    -3.2580 
  141.7500     2.0460    51.8650    19.7240    18.5970    20.1260    24.8740    -3.0910 
  141.8750     2.0570    53.3350    18.2770    17.3520    18.8980    24.7660    -2.8340 
  142.0000     2.1050    56.5170    15.7610    15.1620    17.1340    24.6270    -2.5020 
  142.1250     2.1620    61.8880    13.1840    12.8550    14.0440    24.4690    -2.1190 
  142.2500     2.2090    67.3780    11.4650    11.1700    10.6320    24.3200    -1.7300 
  142.3750     2.2590    69.6060    10.9710    10.4020     8.4850    24.1950    -1.3280 
  142.5000     2.3300    65.3190    11.7480    10.6380     9.6360    24.1040    -0.9030 
  142.6250     2.4120    56.0220    13.7330    11.9760    14.4680    24.0590    -0.5040 
  142.7500     2.4740    48.1390    16.2270    13.9880    19.2520    24.0510    -0.1800 
  142.8750     2.5000    44.1910    18.5170    16.1540    19.8470    24.0660     0.0610 
  143.0000     2.4940    42.5270    19.9170    17.8050    17.7440    24.0890     0.2200 
  143.1250     2.4760    42.3950    20.1070    18.4200    16.9730    24.0990     0.2940 
  143.2500     2.4660    44.2440    19.8500    18.4720    17.3260    24.0930     0.3230 
  143.3750     2.4680    45.7450    19.7730    18.4820    18.3360    24.0750     0.3070 
  143.5000     2.4800    44.7870    20.1740    18.7580    19.3380    24.0540     0.2500 
  143.6250     2.4980    42.0290    21.0280    19.3460    21.1490    24.0380     0.1830 
  143.7500     2.5180    40.2160    21.9730    20.0060    21.7780    24.0260     0.0850 
  143.8750     2.5310    39.3730    22.7420    20.5360    23.0450    24.0190    -0.0120 
  144.0000     2.5330    38.3270    23.1960    20.8190    22.9600    24.0140    -0.1040 
  144.1250     2.5220    37.0120    23.3310    20.8470    21.2720    24.0120    -0.2110 
  144.2500     2.5050    35.9870    23.3480    20.7790    18.6650    24.0110    -0.3170 
  144.3750     2.4910    35.1610    23.3570    20.7120    17.4790    24.0100    -0.3970 
  144.5000     2.4830    35.8020    23.3780    20.6780    19.4520    24.0090    -0.4640 
  144.6250     2.4820    37.4360    23.3560    20.6490    22.3460    24.0070    -0.5420 
  144.7500     2.4870    37.3300    23.2670    20.5900    23.2420    24.0050    -0.5650 
  144.8750     2.4990    35.0720    23.1610    20.5150    21.4530    24.0040    -0.6200 
  145.0000     2.5140    32.3480    23.1250    20.4770    19.4780    24.0030    -0.6590 
  145.1250     2.5280    32.6730    23.1940    20.5140    19.5560    24.0020    -0.6000 
  145.2500     2.5360    34.8380    23.2190    20.5400    20.3400    24.0020    -0.5400 
  145.3750     2.5380    36.3220    22.9800    20.3890    20.7200    24.0020    -0.4440 
  145.5000     2.5350    36.9280    22.2800    19.8910    20.9310    24.0040    -0.3300 
  145.6250     2.5320    39.9000    21.0400    18.9380    19.7330    24.0110    -0.2000 
  145.7500     2.5310    44.0120    19.5830    17.7570    17.5290    24.0240    -0.0670 
  145.8750     2.5280    46.7030    18.2080    16.5800    15.5040    24.0420     0.0840 
  146.0000     2.5180    48.2950    17.1500    15.6100    13.8200    24.0630     0.2260 
  146.1250     2.4950    49.6420    16.5960    15.0330    13.4820    24.0860     0.3310 
  146.2500     2.4620    50.0590    16.4370    14.8030    13.6230    24.1100     0.4610 
  146.3750     2.4290    49.4630    16.5710    14.8540    13.6610    24.1380     0.5680 
  146.5000     2.4090    50.3020    16.8830    15.0910    14.1270    24.1680     0.6650 
  146.6250     2.4110    53.2050    17.2390    15.3840    14.7100    24.1960     0.7260 
  146.7500     2.4310    54.7340    17.4660    15.5590    16.1010    24.2220     0.7630 
  146.8750     2.4570    54.5110    17.4400    15.4970    16.9720    24.2460     0.8180 
  147.0000     2.4730    53.8580    17.1100    15.1580    17.5300    24.2670     0.8610 
  147.1250     2.4700    52.7850    16.5060    14.5670    17.2980    24.2810     0.8740 
  147.2500     2.4570    50.6410    15.8330    13.8970    15.1530    24.2890     0.8760 
  147.3750     2.4480    47.5550    15.2490    13.2720    13.2750    24.2890     0.8590 
  147.5000     2.4480    45.7300    14.8500    12.7760    12.6460    24.2870     0.8420 
  147.6250     2.4600    45.5900    14.7050    12.4840    12.7970    24.2860     0.8330 
  147.7500     2.4750    45.8470    14.7720    12.3920    12.9620    24.2840     0.8210 
  147.8750     2.4850    45.1720    15.0380    12.5100    13.0780    24.2820     0.8090 
  148.0000     2.4880    44.1750    15.5050    12.8410    13.5850    24.2820     0.7810 
  148.1250     2.4850    45.9260    16.2160    13.4130    14.4910    24.2820     0.7490 
  148.2500     2.4790    49.2660    17.1510    14.1890    16.0440    24.2820     0.7170 
  148.3750     2.4740    50.3920    18.3080    15.1570    17.5520    24.2820     0.7130 
  148.5000     2.4750    48.4190    19.5900    16.2520    19.2170    24.2820     0.7140 
  148.6250     2.4850    46.3300    20.5290    17.1530    19.8000    24.2830     0.7830 
  148.7500     2.5040    45.5140    20.4480    17.3170    20.1030    24.2840     0.9060 
  148.8750     2.5230    44.7860    18.8480    16.2870    20.9350    24.2850     1.0070 
  149.0000     2.5260    46.1280    15.8540    14.0850    21.5020    24.2850     1.1290 
  149.1250     2.4920    52.8200    12.3060    11.3030    17.4080    24.2810     1.3050 
  149.2500     2.4330    63.4900     9.2530     8.7790    11.1840    24.2700     1.4710 
  149.3750     2.3660    73.8990     7.0910     6.8550     6.2750    24.2550     1.6140 
  149.5000     2.3070    79.1500     5.8040     5.5810     4.4250    24.2380     1.7520 
  149.6250     2.2700    79.4380     5.2560     4.9250     4.2460    24.2190     1.8200 
  149.7500     2.2520    81.1090     5.0870     4.6400     4.1670    24.2000     1.8220 
  149.8750     2.2480    86.3210     5.1050     4.5830     3.9490    24.1840     1.8280 
  150.0000     2.2550    91.8520     5.1570     4.6260     3.8820    24.1730     1.8190 
  150.1250     2.2710    92.2090     5.1540     4.6700     3.9020    24.1690     1.7060 
  150.2500     2.2880    87.8720     5.1090     4.6880     3.8150    24.1710     1.5720 
  150.3750     2.3030    82.4920     5.0520     4.6880     3.7810    24.1730     1.4280 
  150.5000     2.3150    81.8550     4.9940     4.6810     3.9050    24.1760     1.2630 
  150.6250     2.3290    86.4480     4.9450     4.6770     4.2750    24.1830     1.0970 
  150.7500     2.3420    88.4740     4.9210     4.6800     4.5800    24.1920     0.9340 
  150.8750     2.3500    86.5820     4.9280     4.6940     4.5400    24.2010     0.7480 
  151.0000     2.3480    84.0300     4.9630     4.7160     4.3260    24.2080     0.5680 
  151.1250     2.3370    83.2210     5.0210     4.7460     4.3360    24.2220     0.4710 
