~V
VERS. 2.00: Ver 2.00
~W
STRT.M 48.0000:
STOP.M 276.0000:
STEP.M 0.1250:
NULL. -999.2500:
UWI. F10244:
~C
DEPT.M :
GR.API :
RML.OHMM :
RI. :
RXO.OHMM :
CALI.CM :
DEN.GM/CC :
SP.MV :
~A
# ...
  194.2500    66.6980    83.6910    82.9400    55.8680    25.0760     2.2840   -14.9130 
  194.3750    63.8330    96.6170    95.6670    78.0180    25.1070     2.2660   -14.9210 
  194.5000    59.9010   118.2150   116.0880   145.3970    25.1910     2.2530   -14.8690 
  194.6250    58.0880   145.2370   140.3760   247.2730    25.2670     2.2460   -14.8050 
  194.7500    59.0880   169.8180   161.2600   258.6340    25.2950     2.2430   -14.6560 
  194.8750    60.7560   180.4770   168.7650   194.8320    25.3620     2.2410   -14.4980 
  195.0000    62.1530   176.7020   163.8270   164.6410    25.4390     2.2410   -14.3330 
  195.1250    62.9970   163.0940   151.5520   143.6460    25.4980     2.2410   -14.2100 
  195.2500    64.0400   145.3710   137.1000   126.3380    25.5100     2.2430   -14.0840 
  195.3750    64.7420   126.8570   122.8070   133.3520    25.4850     2.2520   -13.9890 
  195.5000    62.1450   108.7180   108.6280   131.9580    25.4460     2.2780   -13.8820 
  195.6250    58.1970    91.5110    94.5270   118.1400    25.3960     2.3220   -13.8000 
  195.7500    57.3330    75.8830    80.9300    93.3810    25.3420     2.3750   -13.7530 
  195.8750    62.3900    62.7660    68.6110    68.7820    25.3380     2.4130   -13.7070 
  196.0000    67.3150    52.0040    57.8310    60.3500    25.2380     2.4250   -13.6120 
  196.1250    70.0000    43.3600    48.6740    59.1050    25.0870     2.4150   -13.4690 
  196.2500    74.1250    36.3230    40.9260    47.1250    24.9690     2.3970   -13.3180 
  196.3750    79.9180    30.4780    34.3750    33.7810    24.9600     2.3860   -13.1530 
  196.5000    82.4630    25.3410    28.5120    30.0870    25.0520     2.3860   -13.0040 
  196.6250    79.7930    20.8810    23.2400    32.0590    25.1830     2.3940   -12.8370 
  196.7500    77.8280    17.1620    18.6760    26.8850    25.2810     2.4050   -12.6660 
  196.8750    84.2330    14.3790    15.1730    15.1750    25.3500     2.4160   -12.5040 
  197.0000    93.7070    12.4020    12.6550    11.3000    25.3560     2.4230   -12.4000 
  197.1250    99.5870    11.2120    11.0960    10.4680    25.3260     2.4200   -12.3010 
  197.2500    98.9190    10.8220    10.4950    10.4650    25.2900     2.4040   -12.2060 
  197.3750    93.0160    11.5300    11.1720    10.4770    25.3000     2.3780   -12.1380 
  197.5000    86.0610    13.5510    13.3680    12.6400    25.2880     2.3560   -12.0890 
  197.6250    79.4470    17.5460    17.7580    20.1720    25.2730     2.3430   -12.0290 
  197.7500    73.2260    24.4980    25.1380    37.3850    25.2420     2.3380   -11.9810 
  197.8750    68.0370    35.6630    36.2900    57.9740    25.1670     2.3290   -11.8700 
  198.0000    65.8280    48.9880    48.9600    65.8410    25.0610     2.3040   -11.7150 
  198.1250    66.1830    61.2840    59.9490    65.1300    24.8870     2.2670   -11.5420 
  198.2500    66.8950    69.8510    66.9890    64.0750    24.7160     2.2390   -11.3680 
  198.3750    65.5090    74.1100    70.4300    65.0020    24.6440     2.2590   -11.1250 
  198.5000    63.3760    76.1500    72.8960    66.0640    24.7160     2.3400   -10.8570 
  198.6250    61.4410    75.1180    74.3760    68.2410    24.8740     2.4640   -10.5590 
  198.7500    58.5500    68.3230    72.1620    75.4830    25.0220     2.5840   -10.2320 
  198.8750    55.9450    54.2830    61.6100    77.1460    25.0840     2.6300    -9.8640 
  199.0000    55.9160    38.3510    45.7710    67.3120    25.0420     2.5930    -9.4990 
  199.1250    57.3500    25.1570    30.3220    46.2960    24.9480     2.5030    -9.1170 
  199.2500    56.6610    16.4020    18.9980    25.1680    24.8770     2.4140    -8.7580 
  199.3750    55.1870    11.5320    12.6860    12.3660    25.2100     2.3780    -8.4100 
  199.5000    58.5850     8.6860     9.2520     7.8220    26.1270     2.3860    -8.1100 
  199.6250    64.7910     7.3150     7.5640     7.8070    27.1480     2.4100    -7.9120 
  199.7500    67.5560     6.9560     6.9050     8.8220    27.4410     2.4210    -7.8240 
  199.8750    65.6640     7.1570     6.9410     8.5730    26.8380     2.4070    -7.8600 
  200.0000    65.5300     7.5580     7.3050     8.1830    26.2000     2.3880    -7.9850 
  200.1250    69.4270     8.0610     7.8350     8.0870    25.7870     2.3830    -8.1700 
  200.2500    76.2340     8.6100     8.4450     7.3500    25.5640     2.4000    -8.4040 
  200.3750    83.4540     9.2030     9.1030     7.7640    25.4360     2.4310    -8.7460 
  200.5000    88.3110     9.7680     9.7150     9.0430    25.3480     2.4480    -9.1210 
  200.6250    90.4070    10.1580    10.1150    10.8980    25.2060     2.4360    -9.4770 
  200.7500    93.0140    10.2220    10.1340    11.8610    25.1360     2.3980    -9.7810 
  200.8750    96.8320     9.9010     9.7020    11.5310    25.1920     2.3540   -10.0410 
  201.0000    97.9410     9.4480     9.0940    10.4020    25.3430     2.3280   -10.2530 
  201.1250    96.5080     9.1080     8.5700     9.1760    25.5000     2.3320   -10.4880 
  201.2500    96.1740     9.0760     8.3320     8.5310    25.4860     2.3570   -10.7320 
  201.3750    95.8730     9.5240     8.5450     9.9090    25.3070     2.3850   -11.0040 
  201.5000    92.3540    10.3490     9.1130    11.7590    25.2010     2.4010   -11.2350 
  201.6250    86.3960    11.3930     9.9020    13.6480    25.1640     2.4060   -11.4550 
  201.7500    80.8150    12.4110    10.7100    15.0690    25.1340     2.4040   -11.6750 
  201.8750    79.0730    13.0840    11.2780    15.4430    25.1150     2.4060   -11.9200 
  202.0000    79.9220    13.3250    11.5150    14.7290    25.1400     2.4140   -12.1420 
  202.1250    81.8460    13.1500    11.4320    13.1540    25.1790     2.4230   -12.3210 
  202.2500    83.9810    12.6380    11.0830    11.3180    25.1860     2.4290   -12.3920 
  202.3750    86.2840    11.8700    10.5060    11.1480    25.1570     2.4230   -12.3490 
  202.5000    88.5810    11.0260     9.8240    10.1870    25.1420     2.4110   -12.2390 
  202.6250    89.3040    10.2510     9.1470     8.7450    25.1470     2.4030   -12.0670 
  202.7500    89.2050     9.6820     8.5940     8.2000    25.1340     2.4050   -11.8200 
  202.8750    87.3720     9.4790     8.2960     7.7720    25.0950     2.4200   -11.5660 
  203.0000    85.3400     9.6210     8.2580     8.4070    25.0710     2.4390   -11.3680 
  203.1250    83.7790    10.0480     8.4530     9.6420    25.2190     2.4560   -11.2740 
  203.2500    81.5670    10.6000     8.7880    10.6090    25.3650     2.4650   -11.2960 
  203.3750    80.6160    10.9820     9.0740    10.3860    25.3600     2.4580   -11.3680 
  203.5000    82.8170    11.0210     9.1460    10.6260    25.2840     2.4380   -11.4970 
  203.6250    86.5940    10.7560     8.9880    11.7040    25.2090     2.4120   -11.6260 
  203.7500    89.0320    10.4330     8.7660    11.4500    25.1840     2.3980   -11.7950 
  203.8750    89.9460    10.4880     8.8630     9.8690    25.2130     2.4200   -11.9060 
  204.0000    89.1730    11.2620     9.6280     9.2730    25.2220     2.4810   -11.9200 
  204.1250    84.8460    13.1640    11.4610    10.5090    25.1730     2.5730   -11.7530 
  204.2500    77.8440    16.5010    14.7030    15.8790    25.0360     2.6730   -11.4250 
  204.3750    72.9370    20.4680    19.1960    27.0760    24.9890     2.7400   -10.9270 
  204.5000    71.8570    22.5010    22.6770    38.6030    24.9510     2.7460   -10.3250 
  204.6250    73.1490    20.9460    22.4780    44.9290    24.9040     2.6780    -9.6320 
  204.7500    73.1960    16.4770    18.3850    40.1730    24.8240     2.5500    -8.8550 
  204.8750    70.6500    11.7140    13.2290    22.5590    24.7860     2.3990    -8.0050 
  205.0000    67.7940     8.4370     9.3050    10.9560    24.9960     2.2780    -7.1310 
  205.1250    64.7230     6.6060     6.8430     6.4450    25.5310     2.2150    -6.2630 
  205.2500    61.7150     5.7450     5.5110     5.1380    26.3850     2.2110    -5.4070 
  205.3750    61.5530     5.5800     5.0520     5.1620    27.7810     2.2440    -4.6130 
