~V
VERS. 2.00: Ver 2.00
~W
STRT.M 50.0000:
STOP.M 270.0000:
STEP.M 0.1250:
NULL. -999.2500:
UWI. F10223:
~C
DEPT.M :
GR.API :
RML.OHMM :
RI. :
RXO.OHMM :
CALI.CM :
DEN.GM/CC :
SP.MV :
~A
# ...
  196.2500    64.0200    72.1910    68.1580    74.2270    24.3760     2.2480   -33.0850 
  196.3750    65.2670    60.3490    56.9030    74.3930    24.6820     2.2530   -32.9710 
  196.5000    67.6810    51.3830    48.2410    65.5890    24.8270     2.2540   -32.8460 
  196.6250    68.3710    47.1470    43.7870    49.8500    24.8160     2.2470   -32.7120 
  196.7500    66.2400    47.0880    42.9860    42.6930    24.7800     2.2340   -32.5790 
  196.8750    62.2160    50.6950    45.5470    49.4770    24.7970     2.2200   -32.4410 
  197.0000    59.1770    56.7070    50.7560    65.0160    24.7030     2.2120   -32.3060 
  197.1250    58.8650    61.9950    56.3850    77.6220    24.5790     2.2190   -32.1990 
  197.2500    60.7080    62.4910    58.2940    91.0370    24.3350     2.2380   -32.1030 
  197.3750    63.6070    56.3670    53.9140    85.8910    24.0150     2.2650   -31.9990 
  197.5000    66.4410    45.6850    44.6410    67.3270    23.7970     2.2920   -31.8700 
  197.6250    67.3540    35.6550    34.7050    45.6280    23.6020     2.3150   -31.7410 
  197.7500    69.1510    29.4990    26.8170    30.6400    23.3860     2.3330   -31.6400 
  197.8750    72.9150    23.3670    21.2420    21.6250    23.2010     2.3440   -31.5610 
  198.0000    76.1390    19.3270    17.5700    17.8730    23.0800     2.3490   -31.4950 
  198.1250    76.3190    17.0560    15.5050    15.3020    23.0450     2.3570   -31.4010 
  198.2500    75.5410    15.8400    14.4000    13.4610    23.0730     2.3720   -31.2800 
  198.3750    74.5260    15.3310    13.9380    13.2490    23.1020     2.3870   -31.1680 
  198.5000    73.0440    15.2050    13.8230    14.0590    23.0680     2.3970   -31.0840 
  198.6250    74.2750    15.1570    13.7790    14.9660    22.9560     2.3990   -31.0050 
  198.7500    79.1630    14.9450    13.5860    14.6340    22.8290     2.4030   -30.9360 
  198.8750    83.8650    14.4780    13.1620    13.3710    22.6890     2.4110   -30.8620 
  199.0000    86.4460    13.7950    12.5400    12.0780    22.5790     2.4200   -30.7700 
  199.1250    86.5470    13.0290    11.8440    11.6880    22.5640     2.4270   -30.6620 
  199.2500    84.7850    12.3360    11.2140    11.6720    22.5960     2.4300   -30.5330 
  199.3750    80.2960    11.7840    10.7130    11.3880    22.6550     2.4300   -30.4000 
  199.5000    75.7010    11.3960    10.3600    10.9120    22.7920     2.4290   -30.2540 
  199.6250    77.4080    11.1780    10.1620    10.8770    23.0460     2.4260   -30.1030 
  199.7500    82.5190    11.0700    10.0630    10.8710    23.2950     2.4220   -29.9300 
  199.8750    86.5960    11.0420    10.0380    10.6100    23.4430     2.4220   -29.7570 
  200.0000    89.0460    11.0700    10.0640    10.2650    23.4800     2.4290   -29.6050 
  200.1250    90.3710    11.1320    10.1200    10.0940    23.4170     2.4390   -29.4700 
  200.2500    90.0710    11.1940    10.1770    10.1150    23.3350     2.4450   -29.3660 
  200.3750    87.7700    11.2370    10.2160    10.4620    23.3270     2.4450   -29.2750 
  200.5000    85.2410    11.2650    10.2410    10.9970    23.3470     2.4380   -29.1990 
  200.6250    83.3170    11.3770    10.3420    11.5890    23.1880     2.4290   -29.1190 
  200.7500    82.2280    11.7540    10.6850    11.9380    22.9690     2.4230   -29.0460 
  200.8750    82.5360    12.6640    11.5120    12.8630    22.7970     2.4200   -28.9810 
  201.0000    81.4510    14.4870    13.1700    15.0200    22.8020     2.4170   -28.9160 
  201.1250    77.4110    18.1530    16.5020    18.9030    23.1120     2.4090   -28.8500 
  201.2500    72.5780    24.4010    22.1830    26.4360    23.5360     2.4020   -28.7710 
  201.3750    67.1950    34.2890    31.1720    40.5260    23.8200     2.4020   -28.6650 
  201.5000    58.8830    48.3860    43.9870    62.3650    23.9000     2.4100   -28.5350 
  201.6250    50.3900    69.7580    59.3980    78.3770    23.8150     2.4230   -28.4180 
  201.7500    48.1430    82.9770    72.7690    76.1480    23.7110     2.4330   -28.3140 
  201.8750    50.2550    90.4300    80.9330    61.6320    23.6420     2.4340   -28.2050 
  202.0000    53.0260    92.9890    84.1700    46.9970    23.4670     2.4180   -28.0440 
  202.1250    57.0100    94.1060    85.2450    40.5810    23.2310     2.3760   -27.8380 
  202.2500    61.9970    96.5370    87.0140    43.8030    23.2360     2.3280   -27.6070 
  202.3750    64.7230   100.5560    90.1320    59.3350    23.4540     2.2920   -27.3710 
  202.5000    62.9820   105.2180    94.1210    87.0490    23.7330     2.2740   -27.1440 
  202.6250    60.7380   108.7170    97.7190   116.2490    23.9270     2.2660   -26.9010 
  202.7500    58.4620   110.3830   100.1460   132.8770    23.9740     2.2630   -26.6370 
  202.8750    55.6360   110.9420   101.6670   133.8730    23.9560     2.2670   -26.3580 
  203.0000    53.4400   111.9560   103.3010   130.3690    23.9770     2.2810   -26.0920 
  203.1250    52.7430   115.0200   106.4620   126.0810    24.0300     2.3100   -25.8150 
  203.2500    53.1210   118.1440   109.9520   127.6070    24.0920     2.3610   -25.5080 
  203.3750    54.5750   114.9160   108.5100   119.3750    24.1240     2.4370   -25.1780 
  203.5000    56.1180    98.0370    94.9720   107.3020    24.1120     2.5360   -24.8140 
  203.6250    54.3380    69.5900    69.0450    87.0660    24.0460     2.6300   -24.4520 
  203.7500    52.1230    43.8950    44.1780    85.9240    24.0100     2.6860   -24.0800 
  203.8750    56.6790    26.2830    26.6910    50.1550    24.0230     2.6970   -23.6860 
  204.0000    71.3210    16.0130    16.4630    18.6700    24.0670     2.6710   -23.2790 
  204.1250    87.1650    11.1620    11.5880     9.8380    24.1340     2.6130   -22.8790 
  204.2500    95.7770     8.8820     9.1240     7.5840    24.2230     2.5440   -22.5300 
  204.3750    97.3760     8.1300     8.0530     7.6740    24.3040     2.4910   -22.2460 
  204.5000    96.7120     8.2940     7.8720     8.3210    24.4110     2.4680   -22.0250 
  204.6250    93.8530     8.9670     8.2970     8.9860    24.5230     2.4700   -21.8520 
  204.7500    88.6680     9.6770     8.8890     9.2370    24.5610     2.4780   -21.7190 
  204.8750    85.1310    10.1650     9.3740     9.5120    24.5570     2.4870   -21.6180 
  205.0000    85.3320    10.3010     9.5730    10.0720    24.5860     2.4980   -21.5280 
  205.1250    86.9830    10.0110     9.3730    10.1240    24.4800     2.5080   -21.4530 
  205.2500    87.8190     9.4490     8.9020     9.4910    24.4040     2.5160   -21.3530 
  205.3750    87.7620     8.7750     8.3010     8.6800    24.3570     2.5180   -21.2210 
  205.5000    86.7080     8.1750     7.7270     8.1670    24.2980     2.5140   -21.0620 
  205.6250    84.9550     7.8960     7.3680     7.6690    24.2860     2.5070   -20.8710 
  205.7500    85.9320     8.0800     7.3330     7.4740    24.3870     2.4960   -20.6640 
  205.8750    87.3070     8.8470     7.7170     8.2740    24.6060     2.4760   -20.4760 
  206.0000    84.8680    10.2140     8.5670     9.9520    24.7700     2.4560   -20.3030 
  206.1250    78.8450    12.0460     9.8680    11.7850    24.6830     2.4580   -20.1370 
  206.2500    75.4450    13.7580    11.2280    14.6920    24.5690     2.4840   -19.9990 
  206.3750    77.0020    14.6540    12.0770    18.5130    24.4940     2.5240   -19.8570 
  206.5000    80.3720    14.1540    11.8570    19.6380    24.3690     2.5690   -19.7020 
  206.6250    83.0250    12.1650    10.4150    15.6650    24.2680     2.6080   -19.5270 
  206.7500    82.6730     9.7540     8.5880    11.0910    24.2190     2.6170   -19.3280 
  206.8750    77.5420     7.6780     6.9450     7.6590    24.0980     2.5800   -19.0930 
  207.0000    70.1570     6.3200     5.7690     5.5570    23.7940     2.5070   -18.8390 
  207.1250    64.8170     5.8130     5.1890     4.9900    23.7160     2.4330   -18.5970 
  207.2500    62.5750     5.8310     5.0220     5.2530    23.9150     2.3880   -18.3520 
  207.3750    61.6350     6.1400     5.1400     5.6710    24.1660     2.3780   -18.1350 
