~V
VERS. 2.00: Ver 2.00
~W
STRT.M 63.0000:
STOP.M 280.0000:
STEP.M 0.1250:
NULL. -999.2500:
UWI. F10220:
~C
DEPT.M :
SP.MV :
DEN.GM/CC :
GR.API :
RML.OHMM :
RI. :
RXO.OHMM :
CALI.CM :
~A
# ...
  141.7500    -5.6770     2.2130    91.2220     4.8230     4.4290     4.6190    25.6300 
  141.8750    -5.6230     2.2330    96.3950     4.7860     4.4050     4.5300    25.5210 
  142.0000    -5.5740     2.2380    97.6090     4.7870     4.3950     4.5280    25.4100 
  142.1250    -5.5280     2.2420    95.1310     4.8340     4.4110     4.6370    25.3480 
  142.2500    -5.4730     2.2490    91.3010     4.9100     4.4480     4.7820    25.3330 
  142.3750    -5.4480     2.2590    89.0040     4.9760     4.4790     4.8800    25.3350 
  142.5000    -5.4100     2.2710    89.1810     5.0100     4.4860     4.9240    25.3470 
  142.6250    -5.3440     2.2830    90.3280     5.0100     4.4660     4.8750    25.3680 
  142.7500    -5.2760     2.2930    90.9790     4.9870     4.4220     4.8260    25.3650 
  142.8750    -5.2180     2.2980    92.1810     4.9630     4.3730     4.8040    25.3470 
  143.0000    -5.1550     2.2950    93.5990     4.9460     4.3290     4.8060    25.3360 
  143.1250    -5.1050     2.2870    93.9210     4.9350     4.2900     4.7960    25.3340 
  143.2500    -5.1210     2.2860    94.5980     4.9280     4.2540     4.7910    25.3320 
  143.3750    -5.1440     2.2980    94.4300     4.9220     4.2170     4.7930    25.3170 
  143.5000    -5.1750     2.3150    91.6020     4.9280     4.1820     4.8050    25.2960 
  143.6250    -5.2250     2.3230    87.3330     4.9480     4.1550     4.7870    25.2680 
  143.7500    -5.2750     2.3170    87.1450     4.9810     4.1420     4.7550    25.2620 
  143.8750    -5.3160     2.3090    91.9590     5.0130     4.1380     4.7190    25.2690 
  144.0000    -5.3660     2.3050    96.5830     5.0360     4.1380     4.7420    25.2730 
  144.1250    -5.4010     2.3000    98.1370     5.0500     4.1350     4.7610    25.2750 
  144.2500    -5.4080     2.2930    97.8620     5.0660     4.1300     4.8300    25.2740 
  144.3750    -5.4190     2.2840    95.3530     5.0990     4.1340     4.9170    25.2640 
  144.5000    -5.4570     2.2780    92.3770     5.1580     4.1560     5.0980    25.2730 
  144.6250    -5.5280     2.2740    90.7050     5.2440     4.2020     5.3340    25.3130 
  144.7500    -5.6310     2.2700    91.8580     5.3500     4.2720     5.1960    25.3530 
  144.8750    -5.7530     2.2680    92.9360     5.4560     4.3500     4.9760    25.3890 
  145.0000    -5.8610     2.2720    93.1330     5.5450     4.4210     4.8480    25.4070 
  145.1250    -5.9420     2.2790    92.8280     5.6020     4.4710     4.8800    25.4130 
  145.2500    -5.9930     2.2830    91.1010     5.6110     4.4890     4.8960    25.3990 
  145.3750    -5.9990     2.2810    91.2250     5.5830     4.4790     4.8490    25.3700 
  145.5000    -5.9870     2.2730    94.5880     5.5320     4.4480     4.7350    25.3460 
  145.6250    -5.9710     2.2630    97.5350     5.4800     4.4070     4.6560    25.3390 
  145.7500    -5.9550     2.2560    98.5260     5.4460     4.3660     4.6200    25.3430 
  145.8750    -5.9370     2.2540   100.2010     5.4350     4.3330     4.5790    25.3380 
  146.0000    -5.9180     2.2590   103.0310     5.4440     4.3140     4.5530    25.3440 
  146.1250    -5.9090     2.2670   105.7510     5.4630     4.3060     4.6070    25.3730 
  146.2500    -5.8980     2.2730   108.1930     5.4820     4.3070     4.6740    25.4180 
  146.3750    -5.9080     2.2790   109.3500     5.4980     4.3090     4.6850    25.4500 
  146.5000    -5.9050     2.2810   105.2840     5.5110     4.3100     4.6680    25.4530 
  146.6250    -5.8520     2.2750    95.6350     5.5210     4.3120     4.7250    25.4320 
  146.7500    -5.7480     2.2580    86.8040     5.5270     4.3130     4.7290    25.4350 
  146.8750    -5.6230     2.2360    83.7530     5.5270     4.3130     4.6880    25.4680 
  147.0000    -5.5020     2.2170    85.7140     5.5170     4.3060     4.6300    25.4860 
  147.1250    -5.4060     2.2060    88.5690     5.4940     4.2890     4.6040    25.3860 
  147.2500    -5.3310     2.2070    90.1780     5.4590     4.2620     4.5280    25.3090 
  147.3750    -5.2680     2.2180    90.6120     5.4200     4.2310     4.4940    25.1770 
  147.5000    -5.2280     2.2310    91.0230     5.3750     4.1960     4.4960    24.8500 
  147.6250    -5.2090     2.2360    91.3540     5.3160     4.1520     4.4280    24.5290 
  147.7500    -5.2090     2.2210    91.4640     5.2270     4.0930     4.3770    24.4810 
  147.8750    -5.2120     2.1920    90.1200     5.1100     4.0180     4.3420    24.5900 
  148.0000    -5.2190     2.1670    86.0860     4.9800     3.9350     4.2130    24.6740 
  148.1250    -5.2140     2.1640    80.8030     4.8600     3.8510     4.0120    24.6680 
  148.2500    -5.1880     2.1900    80.5270     4.7820     3.7840     3.9060    24.6480 
  148.3750    -5.1370     2.2280    86.3830     4.7510     3.7400     3.9850    24.7260 
  148.5000    -5.0500     2.2580    90.4590     4.7620     3.7210     4.0530    24.8480 
  148.6250    -4.9380     2.2730    89.4570     4.7970     3.7230     4.0500    24.9000 
  148.7500    -4.8110     2.2780    88.6780     4.8360     3.7350     4.0970    24.8870 
  148.8750    -4.6990     2.2840    90.3310     4.8570     3.7440     4.1970    24.8750 
  149.0000    -4.5970     2.2920    89.5300     4.8510     3.7430     4.2660    24.8750 
  149.1250    -4.5090     2.3000    84.7420     4.8200     3.7280     4.2500    24.8810 
  149.2500    -4.4530     2.3000    83.5080     4.7770     3.7010     4.2050    24.8990 
  149.3750    -4.4230     2.2900    84.0140     4.7410     3.6700     4.1860    24.9360 
  149.5000    -4.4350     2.2790    82.2850     4.7190     3.6450     4.2130    24.9710 
  149.6250    -4.4960     2.2710    81.1510     4.7070     3.6300     4.2400    24.9650 
  149.7500    -4.5840     2.2610    84.9050     4.6980     3.6280     4.2320    24.9550 
  149.8750    -4.7000     2.2450    89.3870     4.6960     3.6370     4.2090    24.9490 
  150.0000    -4.8430     2.2330    89.5030     4.7140     3.6610     4.1640    24.9490 
  150.1250    -5.0140     2.2370    87.2210     4.7680     3.7050     4.0850    24.9420 
  150.2500    -5.2090     2.2590    86.3000     4.8580     3.7750     4.0330    24.9160 
  150.3750    -5.4160     2.2770    85.8020     4.9460     3.8510     4.0570    24.8540 
  150.5000    -5.5910     2.2810    86.9770     4.9790     3.9010     4.2460    24.7450 
  150.6250    -5.7390     2.2740    88.8230     4.9050     3.8840     4.5060    24.5830 
  150.7500    -5.8790     2.2660    90.8160     4.6930     3.7630     4.4570    24.4680 
  150.8750    -5.9940     2.2590    91.6210     4.4230     3.5770     4.1480    24.4130 
  151.0000    -6.0960     2.2510    91.1060     4.1820     3.3850     3.8490    24.3650 
  151.1250    -6.1950     2.2440    89.1750     4.0520     3.2480     3.7240    24.2780 
  151.2500    -6.2890     2.2510    85.8770     4.0980     3.2300     3.6740    24.2180 
  151.3750    -6.3710     2.2680    85.7260     4.2680     3.3140     3.8900    24.1620 
  151.5000    -6.4810     2.2870    89.8930     4.4960     3.4640     4.2750    24.0520 
  151.6250    -6.6210     2.3040    95.5770     4.6990     3.6260     4.5260    23.8490 
  151.7500    -6.8020     2.3120    97.6100     4.7990     3.7370     4.5090    23.7230 
  151.8750    -7.0110     2.3040    96.4090     4.8120     3.7840     4.3130    23.8310 
  152.0000    -7.2240     2.2850    96.3140     4.7900     3.7890     4.1960    24.0130 
  152.1250    -7.4320     2.2690    97.1570     4.7990     3.7900     4.2580    24.0680 
  152.2500    -7.6170     2.2670    97.8670     4.8830     3.8260     4.4550    24.1480 
  152.3750    -7.8250     2.2690    99.1210     5.0110     3.8930     4.5960    24.2820 
  152.5000    -8.0500     2.2650   100.0290     5.1400     3.9740     4.7270    24.3800 
  152.6250    -8.2790     2.2540    98.1420     5.2450     4.0550     4.8500    24.3420 
  152.7500    -8.4800     2.2480    94.5680     5.3490     4.1470     4.9230    24.2350 
  152.8750    -8.6600     2.2540    92.3610     5.5260     4.2830     4.9750    24.1800 
