~V
VERS. 2.00: Ver 2.00
~W
STRT.M 50.0000:
STOP.M 274.0000:
STEP.M 0.1250:
NULL. -999.2500:
UWI. F10208:
~C
DEPT.M :
SP.MV :
DEN.GM/CC :
GR.API :
RML.OHMM :
RI. :
RXO.OHMM :
CALI.CM :
~A
# ...
  252.5000   -31.5840     2.4440    56.4300    17.5560    15.9240    21.9300    23.7800 
  252.6250   -31.5370     2.4440    56.6000    17.3290    15.7180    21.5650    23.8990 
  252.7500   -31.4440     2.4410    56.6440    17.2640    15.6590    21.5380    23.8500 
  252.8750   -31.3190     2.4410    57.2680    17.3970    15.7790    22.3830    23.7930 
  253.0000   -31.1690     2.4510    58.3700    17.6710    16.0280    24.3620    23.7560 
  253.1250   -31.0320     2.4720    58.8580    17.9480    16.2790    24.1190    23.6000 
  253.2500   -30.9470     2.4940    59.7280    18.0850    16.4030    20.8610    23.6800 
  253.3750   -30.9210     2.5040    60.9880    18.0290    16.3530    18.6350    23.8720 
  253.5000   -30.9370     2.5000    60.9740    17.8210    16.1640    18.2060    23.9160 
  253.6250   -30.9770     2.4860    58.4870    17.5470    15.9160    18.8240    23.9620 
  253.7500   -31.0140     2.4740    55.2070    17.2800    15.6730    19.9920    23.9800 
  253.8750   -31.0180     2.4660    52.7710    17.0540    15.4690    20.8910    23.9260 
  254.0000   -30.9920     2.4610    51.4820    16.9060    15.3350    21.9260    23.9260 
  254.1250   -30.9240     2.4610    51.2240    16.9080    15.3360    21.7130    23.8910 
  254.2500   -30.7640     2.4660    51.3010    17.0960    15.5070    20.8590    23.9830 
  254.3750   -30.5210     2.4780    51.5250    17.4880    15.8620    19.5740    23.8640 
  254.5000   -30.2360     2.4910    52.2410    18.0240    16.3490    19.9480    23.8930 
  254.6250   -29.9260     2.4990    52.7970    18.5430    16.8190    24.3470    23.8660 
  254.7500   -29.6340     2.5000    50.6330    18.8630    17.1090    27.9680    23.7550 
  254.8750   -29.3930     2.4970    46.7960    18.8970    17.1400    27.1320    23.5730 
  255.0000   -29.2770     2.4920    46.3670    18.6580    16.9240    25.8840    23.2700 
  255.1250   -29.3110     2.4870    52.7230    18.2430    16.5470    26.7470    23.4400 
  255.2500   -29.3780     2.4770    58.5460    17.8090    16.1540    26.2870    23.5130 
  255.3750   -29.4360     2.4640    59.0540    17.4210    15.8020    23.8500    23.7170 
  255.5000   -29.5280     2.4510    56.0490    17.0910    15.5020    25.3020    23.8520 
  255.6250   -29.6600     2.4420    55.2150    16.8140    15.2510    27.5090    23.6320 
  255.7500   -29.8050     2.4410    56.2010    16.5820    15.0400    22.2980    23.5940 
  255.8750   -29.9360     2.4460    56.6340    16.3970    14.8720    16.6160    23.7030 
  256.0000   -30.0100     2.4510    56.8590    16.2290    14.7210    14.6590    23.8970 
  256.1250   -30.0100     2.4500    57.4670    15.9630    14.4790    15.4330    23.8870 
  256.2500   -30.0310     2.4460    57.1490    15.4790    14.0400    16.5640    23.8620 
  256.3750   -30.0980     2.4450    55.2730    14.7210    13.3530    16.0850    23.9750 
  256.5000   -30.1380     2.4510    53.6370    14.3930    12.4620    14.0560    24.0140 
  256.6250   -30.1460     2.4630    53.3630    13.2970    11.5120    11.5630    24.0290 
  256.7500   -30.1070     2.4710    53.9180    12.3170    10.6640    10.1890    24.0110 
  256.8750   -30.0280     2.4670    54.6750    11.5390     9.9910     9.6510    24.0680 
  257.0000   -29.9360     2.4520    53.5640    10.9960     9.5200     9.4760    24.1380 
  257.1250   -29.8560     2.4340    49.9110    10.7240     9.2850     9.0320    24.0880 
  257.2500   -29.7870     2.4240    46.2840    10.6540     9.2250     8.3040    24.0360 
  257.3750   -29.7140     2.4200    46.0840    10.7310     9.2910     7.8010    23.8630 
  257.5000   -29.6440     2.4090    50.3110    10.8770     9.4170     8.0440    23.7510 
  257.6250   -29.6070     2.3730    54.3700    11.0320     9.5510     8.6260    23.9670 
  257.7500   -29.6340     2.3180    54.6210    11.1850     9.6840     9.0600    24.0140 
  257.8750   -29.7350     2.2650    51.1870    11.3650     9.8400     9.3960    23.9830 
  258.0000   -29.8570     2.2400    47.3750    11.6030    10.0460    10.0390    24.1440 
  258.1250   -29.9610     2.2630    44.5590    11.9170    10.3180    10.8050    24.2470 
  258.2500   -30.0130     2.3140    42.9600    12.2720    10.6250    11.5250    24.2420 
  258.3750   -30.0460     2.3690    44.4300    12.6280    10.9330    11.9870    24.1570 
  258.5000   -30.1260     2.4070    48.0480    12.9390    11.2030    12.7990    24.1830 
  258.6250   -30.2520     2.4180    49.5570    13.1540    11.3880    15.0590    24.1920 
  258.7500   -30.3550     2.4170    48.3090    13.2860    11.5030    18.4710    24.2000 
  258.8750   -30.4200     2.4150    47.1810    13.3780    11.5820    21.4050    24.1440 
  259.0000   -30.4490     2.4160    49.2570    13.4840    11.6740    23.5980    24.0910 
  259.1250   -30.4840     2.4170    52.7980    13.6700    11.8360    23.8240    24.0300 
  259.2500   -30.5770     2.4160    52.8190    13.9580    12.0850    21.2730    23.9950 
  259.3750   -30.7390     2.4150    49.9020    14.3370    12.4130    18.6830    23.9690 
  259.5000   -30.9560     2.4140    46.6810    14.7680    12.7860    17.9540    24.1220 
  259.6250   -31.0900     2.4190    45.6670    15.1560    13.1220    18.2630    24.0120 
  259.7500   -31.1970     2.4280    46.4460    15.4210    13.3520    17.9970    23.9980 
  259.8750   -31.3590     2.4380    49.1800    15.5380    13.4530    16.7900    23.9300 
  260.0000   -31.5420     2.4440    52.1850    15.5440    13.4580    15.6750    23.9690 
  260.1250   -31.7250     2.4410    52.0320    15.5110    13.4290    15.2580    23.9200 
  260.2500   -31.8900     2.4330    49.6400    15.4900    13.4110    14.8750    23.8800 
  260.3750   -31.9720     2.4240    47.8100    15.4680    13.3920    13.6750    23.8770 
  260.5000   -32.0120     2.4190    47.3630    15.3950    13.3290    12.3240    23.9920 
  260.6250   -32.0940     2.4190    49.5110    15.2180    13.1760    12.2430    23.9700 
  260.7500   -32.1830     2.4200    53.2610    14.9730    12.9630    12.4540    23.9600 
  260.8750   -32.1890     2.4200    55.7040    14.7210    12.7460    11.6290    23.8260 
  261.0000   -32.1280     2.4180    55.0560    14.5290    12.5790    10.8690    23.9170 
  261.1250   -32.0590     2.4190    53.4750    14.4560    12.5160    10.9130    23.9400 
  261.2500   -31.9960     2.4230    52.9780    14.4920    12.5470    11.0360    23.9930 
  261.3750   -31.9290     2.4310    52.1400    14.6150    12.6540    10.9430    23.9310 
  261.5000   -31.8160     2.4380    49.9620    14.7990    12.8130    10.9450    23.8670 
  261.6250   -31.7310     2.4410    47.8700    15.0080    12.9940    11.6820    23.8390 
  261.7500   -31.6700     2.4400    47.5570    15.1940    13.1550    12.9980    23.9430 
  261.8750   -31.6450     2.4360    47.7980    15.3070    13.2530    14.4190    24.0140 
  262.0000   -31.7250     2.4320    47.2280    15.3080    13.2540    15.0240    24.0270 
  262.1250   -31.8510     2.4310    46.0450    15.1890    13.1510    14.6860    24.0270 
  262.2500   -31.9840     2.4320    47.4590    15.0560    13.0350    14.8130    24.0260 
  262.3750   -32.1810     2.4360    50.8730    15.0350    13.0170    16.0270    24.0210 
  262.5000   -32.3960     2.4420    53.6890    15.2500    13.2030    16.9720    24.0270 
  262.6250   -32.5690     2.4480    54.4950    15.8560    13.7280    17.7350    24.0360 
  262.7500   -32.6920     2.4510    54.1620    16.8100    14.5540    19.3960    24.0540 
  262.8750   -32.7790     2.4530    52.6060    18.0150    15.5970    23.0310    24.0140 
  263.0000   -32.7750     2.4560    49.5000    19.3130    16.7210    28.3540    23.9290 
  263.1250   -32.7320     2.4600    46.4140    20.4770    17.7290    34.2970    23.8060 
  263.2500   -32.6770     2.4640    45.7220    21.3660    18.4990    41.0590    23.7860 
  263.3750   -32.5580     2.4660    47.0730    21.9520    19.0060    47.3140    23.9010 
  263.5000   -32.4940     2.4640    49.3240    22.3010    19.3090    54.4860    24.1770 
  263.6250   -32.5260     2.4590    50.4850    22.4690    19.4540    50.2840    24.2800 
