~V
VERS. 2.00: Ver 2.00
~W
STRT.M 30.0000:
STOP.M 271.0000:
STEP.M 0.1250:
NULL. -999.2500:
UWI. F10210:
~C
DEPT.M :
DEN.GM/CC :
GR.API :
RML.OHMM :
RI. :
RXO.OHMM :
CALI.CM :
SP.MV :
~A
# ...
  210.0000     2.2330    77.2470    18.3150    15.6760    19.7510    23.3850    -9.3390 
  210.1250     2.2300    74.9390    18.5210    16.0080    19.1150    23.3960    -9.4980 
  210.2500     2.2240    76.3530    18.6580    16.2920    17.4400    23.6100    -9.6450 
  210.3750     2.2190    80.6910    18.8560    16.6000    16.6330    24.0950    -9.7650 
  210.5000     2.2140    82.3960    19.2160    16.9840    17.2810    24.4570    -9.8410 
  210.6250     2.2120    78.3630    19.7430    17.4250    18.4840    24.5210    -9.8450 
  210.7500     2.2110    73.7350    20.2550    17.8170    19.3860    24.5230    -9.7930 
  210.8750     2.2110    71.4160    20.5920    18.0650    20.0260    24.5300    -9.7100 
  211.0000     2.2080    70.8580    20.6790    18.1300    20.3330    24.5350    -9.5990 
  211.1250     2.2000    70.6530    20.6230    18.0770    19.5520    24.5370    -9.4910 
  211.2500     2.1900    69.8220    20.7570    18.1210    18.7150    24.5310    -9.4010 
  211.3750     2.1830    69.3180    21.3840    18.4710    18.8720    24.5310    -9.3480 
  211.5000     2.1800    69.9980    22.7120    19.3010    20.1280    24.5360    -9.3320 
  211.6250     2.1790    70.0260    24.9280    20.8190    21.9540    24.5420    -9.3930 
  211.7500     2.1770    68.5030    27.7520    22.8870    24.1200    24.5450    -9.5160 
  211.8750     2.1760    67.1900    30.8420    25.2990    26.5930    24.6420    -9.6840 
  212.0000     2.1760    66.6930    33.7420    27.7240    30.7670    24.6940    -9.8700 
  212.1250     2.1760    67.0980    35.9190    29.7150    33.8960    24.7080   -10.0680 
  212.2500     2.1720    68.2540    37.3830    31.1590    34.1110    24.7000   -10.2770 
  212.3750     2.1680    67.9810    38.3680    32.1540    33.0650    24.7050   -10.5000 
  212.5000     2.1650    64.3670    39.2150    32.9470    33.9720    24.7220   -10.7390 
  212.6250     2.1650    59.8520    40.2220    33.8220    36.0850    24.7420   -10.9390 
  212.7500     2.1630    59.7920    41.3970    34.8920    37.1950    24.7750   -11.1270 
  212.8750     2.1580    62.2220    42.5750    36.0940    37.8200    24.7870   -11.3060 
  213.0000     2.1520    62.3460    43.4550    37.2040    39.3990    24.7870   -11.5090 
  213.1250     2.1510    59.5080    43.4680    37.7620    40.5060    24.7870   -11.6880 
  213.2500     2.1550    58.3730    42.4250    37.5120    41.3980    24.7480   -11.8550 
  213.3750     2.1600    60.5560    40.3740    36.3990    40.4360    24.7060   -12.0030 
  213.5000     2.1660    64.0330    37.6960    34.6490    38.5800    24.6850   -12.1460 
  213.6250     2.1750    65.9030    34.9830    32.6800    34.9410    24.5830   -12.2820 
  213.7500     2.1900    65.3980    32.6780    30.9090    29.7000    24.4020   -12.4180 
  213.8750     2.2080    64.7510    30.8710    29.4670    26.8220    24.1540   -12.5360 
  214.0000     2.2270    66.5100    29.4420    28.3030    27.7060    23.9510   -12.6420 
  214.1250     2.2380    68.6670    28.2410    27.3150    28.2070    23.9130   -12.7690 
  214.2500     2.2390    68.8620    27.2090    26.4580    26.5950    24.1690   -12.9420 
  214.3750     2.2320    68.1460    26.4710    25.8410    24.5700    24.3140   -13.1420 
  214.5000     2.2250    66.4960    26.2080    25.6240    22.6950    24.3400   -13.3760 
  214.6250     2.2250    65.3830    26.6670    26.0400    22.6440    24.2610   -13.6890 
  214.7500     2.2310    65.5920    27.7270    27.0220    24.6770    24.2030   -14.0630 
  214.8750     2.2370    65.1830    29.2110    28.4490    28.0340    24.1400   -14.4830 
  215.0000     2.2370    63.5320    30.8830    30.1080    30.1020    24.1010   -14.9150 
  215.1250     2.2290    62.3280    32.5690    31.7900    30.7470    24.1110   -15.3600 
  215.2500     2.2170    64.2740    34.2760    33.4480    32.1510    24.1260   -15.7860 
  215.3750     2.2070    67.3690    36.1480    35.2020    34.8670    24.1900   -16.1980 
  215.5000     2.2030    69.0440    38.3600    37.2320    37.8350    24.1860   -16.5770 
  215.6250     2.2060    68.8260    41.1130    39.7310    39.7090    24.1860   -16.9320 
  215.7500     2.2100    67.4570    44.2980    42.5940    41.9690    24.1860   -17.2460 
  215.8750     2.2110    65.5440    47.7400    45.6500    45.1560    24.1820   -17.5520 
  216.0000     2.2100    63.0710    51.1410    48.6340    48.9530    24.0970   -17.8540 
  216.1250     2.2090    61.9720    53.8910    51.0230    51.0310    24.0340   -18.1660 
  216.2500     2.2120    63.1620    55.5150    52.4110    50.2290    23.9880   -18.4440 
  216.3750     2.2200    64.7720    55.8390    52.6110    49.9660    23.9640   -18.6900 
  216.5000     2.2270    65.6050    55.2890    51.9650    52.5370    23.9800   -18.9060 
  216.6250     2.2250    67.0490    55.0440    51.4990    51.4500    24.2360   -19.1020 
  216.7500     2.2110    70.2960    56.3210    52.3300    47.7170    24.4660   -19.2970 
  216.8750     2.1900    70.8000    59.9200    55.2230    48.9350    24.5980   -19.4840 
  217.0000     2.1660    65.9390    66.1950    60.5650    58.3130    24.6820   -19.6640 
  217.1250     2.1480    59.3360    75.0940    68.4510    80.8210    24.7570   -19.8190 
  217.2500     2.1380    57.2080    84.6700    77.2350    99.6090    24.8550   -19.9640 
  217.3750     2.1340    60.3180    92.4500    84.8450   100.1820    24.8720   -20.1230 
  217.5000     2.1350    64.2630    95.6650    88.8730    88.1280    24.8550   -20.3130 
  217.6250     2.1420    64.6270    92.0580    87.0100    86.4640    24.8660   -20.4930 
  217.7500     2.1500    62.5350    84.5610    81.1670    88.3330    24.8680   -20.6650 
  217.8750     2.1610    60.3660    76.3040    73.8220    86.5110    24.8730   -20.8220 
  218.0000     2.1740    60.1730    69.7510    67.3240    71.3160    24.8660   -20.9740 
  218.1250     2.1810    62.2000    66.7620    63.6590    55.3280    24.8570   -21.1010 
  218.2500     2.1760    64.5900    67.1440    63.0390    51.5240    24.8590   -21.1970 
  218.3750     2.1600    65.8820    70.5310    65.3510    63.1530    24.8680   -21.2250 
  218.5000     2.1420    65.5830    75.9780    69.9090    80.9680    24.8760   -21.1950 
  218.6250     2.1290    66.5600    81.6950    75.2800    88.8390    24.8750   -21.1280 
  218.7500     2.1220    68.6890    85.5930    79.3810    89.5640    24.8530   -21.0340 
  218.8750     2.1210    69.2960    86.6840    81.0090    87.6230    24.8830   -20.9080 
  219.0000     2.1230    67.4610    85.3090    80.1170    84.2740    24.8620   -20.7390 
  219.1250     2.1270    65.7980    82.4920    77.4430    79.5380    24.8620   -20.5290 
  219.2500     2.1350    66.7920    79.2870    74.2130    76.0550    24.8780   -20.3120 
  219.3750     2.1460    68.7850    75.9910    70.8920    73.9690    24.9230   -20.0960 
  219.5000     2.1600    70.1740    72.9460    67.8320    71.7670    24.9470   -19.8860 
  219.6250     2.1690    69.2580    70.9190    65.6340    69.4030    24.9550   -19.6190 
  219.7500     2.1750    66.2750    70.4580    64.7220    64.2420    24.9540   -19.3280 
  219.8750     2.1800    62.9170    72.0830    65.5930    61.5320    25.0200   -18.9870 
  220.0000     2.1810    62.0860    76.1050    68.6960    65.0150    25.0740   -18.6000 
  220.1250     2.1770    62.5200    82.3840    74.2850    70.5290    25.2390   -18.1330 
  220.2500     2.1920    61.5150    88.5220    80.4140    76.2280    25.3330   -17.6020 
  220.3750     2.2560    60.7720    91.1110    84.1310    85.5080    25.2520   -17.0310 
  220.5000     2.3750    63.0010    86.5610    81.9650    98.6640    24.9260   -16.3980 
  220.6250     2.5000    65.6700    72.9630    70.9960   100.7780    24.4760   -15.7540 
  220.7500     2.5540    66.1450    55.7600    55.3480    87.8510    24.4290   -15.0770 
  220.8750     2.5290    65.6300    40.4310    39.7240    61.9620    24.4330   -14.4230 
  221.0000     2.4700    64.6980    27.8690    27.3110    35.1210    24.4420   -13.8050 
  221.1250     2.4070    61.4640    19.5590    19.3310    22.8700    24.4430   -13.3250 
