~V
VERS. 2.00: Ver 2.00
~W
STRT.M 49.0000:
STOP.M 279.0000:
STEP.M 0.1250:
NULL. -999.2500:
UWI. F10243:
~C
DEPT.M :
GR.API :
RML.OHMM :
RI. :
RXO.OHMM :
CALI.CM :
DEN.GM/CC :
SP.MV :
~A
   49.0000  -999.2500  -999.2500  -999.2500  -999.2500  -999.2500  -999.2500   257.4990 
   49.1250  -999.2500  -999.2500  -999.2500  -999.2500  -999.2500  -999.2500   257.4990 
   49.2500  -999.2500  -999.2500  -999.2500  -999.2500  -999.2500  -999.2500   257.4990 
   49.3750  -999.2500  -999.2500  -999.2500  -999.2500  -999.2500  -999.2500   257.4990 
   49.5000  -999.2500  -999.2500  -999.2500  -999.2500  -999.2500  -999.2500   257.4990 
   49.6250  -999.2500  -999.2500  -999.2500  -999.2500  -999.2500  -999.2500   257.4990 
   49.7500  -999.2500  -999.2500  -999.2500  -999.2500  -999.2500  -999.2500   257.4990 
   49.8750  -999.2500  -999.2500  -999.2500  -999.2500  -999.2500  -999.2500   257.4990 
   50.0000  -999.2500  -999.2500  -999.2500  -999.2500  -999.2500  -999.2500   257.4990 
   50.1250  -999.2500  -999.2500  -999.2500  -999.2500  -999.2500  -999.2500   257.4990 
   50.2500  -999.2500  -999.2500  -999.2500  -999.2500  -999.2500  -999.2500   257.4990 
   50.3750  -999.2500  -999.2500  -999.2500  -999.2500  -999.2500  -999.2500   257.4990 
   50.5000  -999.2500  -999.2500  -999.2500  -999.2500  -999.2500  -999.2500   257.4990 
   50.6250  -999.2500  -999.2500  -999.2500  -999.2500  -999.2500  -999.2500   257.4990 
   50.7500  -999.2500  -999.2500  -999.2500  -999.2500  -999.2500  -999.2500   257.4990 
   50.8750  -999.2500  -999.2500  -999.2500  -999.2500  -999.2500  -999.2500   257.4990 
   51.0000    51.1610    10.7470     2.0290     0.7080    25.3990  -999.2500   257.4600 
   51.1250    51.1610    10.7470     2.0290     0.7080    25.3990  -999.2500   256.9300 
   51.2500    51.1610    10.7470     2.0290     0.7080    25.3990  -999.2500   255.2880 
   51.3750    48.8260    13.1600     2.0190     0.7650    25.3940  -999.2500   252.6340 
   51.5000    52.7300    15.0480     2.0430     0.8770    25.4140  -999.2500   249.0250 
   51.6250    56.1750    15.1280     2.0550     0.7770    25.4630  -999.2500   244.9580 
   51.7500    57.7690    13.5900     2.0400     0.7320    25.4970  -999.2500   241.2440 
   51.8750    57.6260    11.0690     2.0080     0.7060    25.5110  -999.2500   238.6960 
   52.0000    55.9420     8.2300     1.9760     0.7100    25.5120  -999.2500   236.6550 
   52.1250    54.4290     5.5740     1.9410     0.7510    25.5110  -999.2500   236.3170 
   52.2500    53.6380     3.3370     1.8930     0.8760    25.5050  -999.2500   237.9590 
   52.3750    52.9990     1.6790     1.8260     1.0670    25.5010  -999.2500   240.4380 
   52.5000    50.9430     0.7060     1.7500     1.0040    25.5170  -999.2500   242.7590 
   52.6250    48.8420     0.1530     1.6940     0.7600    25.5430  -999.2500   244.2630 
   52.7500    48.4040    -0.1450     1.6770     0.6810    25.5650  -999.2500   244.1730 
   52.8750    48.4410    -0.2790     1.6980     0.6830    25.5860  -999.2500   241.7260 
   53.0000    47.6350    -0.3010     1.7290     0.7130    25.6190  -999.2500   237.5030 
   53.1250    46.2930    -0.3180     1.7390     0.7300    25.6440  -999.2500   230.8790 
   53.2500    44.2060    -0.3750     1.7230     0.7310    25.6580  -999.2500   222.2500 
   53.3750    42.0780    -0.4580     1.6900     0.7480    25.6670  -999.2500   212.7390 
   53.5000    41.9900    -0.5090     1.6550     1.0470    25.6970     0.0000   202.9880 
   53.6250    43.1480    -0.4930     1.6320     1.0940    25.7140     0.0000   193.3290 
   53.7500    43.4880    -0.4070     1.6250     0.8670    25.7200     0.0000   183.7590 
   53.8750    43.5200    -0.2760     1.6340     0.7030    25.7250     0.0000   174.1700 
   54.0000    42.9400    -0.1530     1.6550     0.6880    25.7430     0.0000   164.5020 
   54.1250    41.4190    -0.0880     1.6780     0.6910    25.7550     0.0000   154.8610 
   54.2500    40.2480    -0.1040     1.6970     0.6990    25.7660     1.4950   145.0460 
   54.3750    41.7170    -0.1980     1.7070     0.6970    25.7730     1.9830   134.9920 
   54.5000    43.8130    -0.3310     1.7110     0.7170    25.7810     1.9660   124.8410 
   54.6250    43.2110    -0.4030     1.7100     0.6960    25.7690     1.9520   114.5860 
   54.7500    41.4610    -0.3250     1.7030     0.6730    25.7610     1.9430   104.2650 
   54.8750    41.0510    -0.0600     1.6880     0.6750    25.7700     1.9390    94.0480 
   55.0000    41.1860     0.3330     1.6690     0.6710    25.7690     1.9340    83.9430 
   55.1250    40.4370     0.6590     1.6500     0.6710    25.7640     1.9290    74.0530 
   55.2500    39.7990     0.7500     1.6310     0.6710    25.7770     1.9240    64.6440 
   55.3750    40.4540     0.5240     1.6090     0.6960    25.7980     1.9200    55.6430 
   55.5000    42.0070     0.0730     1.5680     0.7260    25.8050     1.9200    47.2220 
   55.6250    44.5670    -0.3150     1.4720     0.7090    25.8160     1.9260    39.5460 
   55.7500    46.7090    -0.5090     1.2600     0.6870    25.8230     1.9480    32.6340 
   55.8750    46.3200    -0.5420     0.9170     0.6890    25.8190     2.0080    26.4290 
   56.0000    43.5920    -0.5210     0.5500     0.7160    25.8150     2.1420    20.9230 
   56.1250    41.8410    -0.5090     0.2820     0.7830    25.8390     2.3280    15.7890 
   56.2500    42.0610    -0.5070     0.1310     0.9610    25.8820     2.5140    10.8810 
   56.3750    45.0250    -0.5120     0.0710     1.4400    25.9140     2.6260     6.2360 
   56.5000    49.2910    -0.5220     0.1070     2.5820    26.2360     2.5920     1.7540 
   56.6250    52.0190    -0.5260     0.2730     4.0120    27.1440     2.4520    -2.6910 
   56.7500    51.7250    -0.4370     0.6600     5.4710    28.3130     2.2740    -7.0690 
   56.8750    50.3180     0.0580     1.3880     6.3770    28.8140     2.1270   -11.2780 
   57.0000    51.1780     1.4810     2.5500     6.4170    28.4640     2.0530   -15.0580 
   57.1250    53.2870     3.4010     3.8040     6.4520    28.2510     2.0300   -18.3950 
   57.2500    55.4420     5.0570     4.7830     6.4210    28.2420     2.0310   -21.2220 
   57.3750    56.0840     5.9890     5.3780     6.5660    28.3100     2.0420   -23.4870 
   57.5000    56.1150     6.3460     5.7140     6.7930    28.3140     2.0550   -25.0910 
   57.6250    57.0860     6.5860     5.9560     6.9330    28.3450     2.0700   -26.2250 
   57.7500    57.5450     6.7580     6.1210     7.0010    28.6320     2.0840   -27.0510 
   57.8750    57.3190     6.8610     6.2140     6.9950    29.3850     2.0970   -27.7550 
   58.0000    58.2760     6.9180     6.2550     6.9870    30.5480     2.1080   -28.3810 
   58.1250    60.0670     6.9850     6.3030     6.9960    31.1980     2.1190   -28.9690 
   58.2500    59.9510     7.1140     6.4130     6.9450    30.8980     2.1290   -29.5750 
   58.3750    57.0520     7.3500     6.6310     6.7660    30.0780     2.1390   -30.1880 
   58.5000    55.4010     7.7440     7.0150     6.6650    29.7690     2.1530   -30.8190 
   58.6250    56.6610     8.2520     7.5270     7.0170    30.1520     2.1700   -31.4390 
   58.7500    58.5420     8.7950     8.0950     7.8700    30.5210     2.1880   -31.9750 
   58.8750    58.1580     9.2510     8.5850     8.8970    30.5980     2.1970   -32.4140 
   59.0000    55.8060     9.4440     8.7910     8.9810    30.4800     2.1780   -32.7340 
   59.1250    54.5010     9.3560     8.6840     8.7120    30.3650     2.1300   -32.8540 
   59.2500    54.4570     9.0470     8.3350     7.9320    30.0530     2.0630   -32.8370 
   59.3750    56.5720     8.6440     7.8980     7.2490    29.1420     2.0040   -32.7780 
   59.5000    60.5460     8.3070     7.5510     7.2720    27.6130     1.9880   -32.6750 
   59.6250    64.6030     8.1120     7.3650     7.6880    26.1620     2.0170   -32.5740 
   59.7500    68.4070     8.0640     7.3350     8.4780    25.2250     2.0790   -32.5110 
   59.8750    71.5740     8.1190     7.4100     9.1040    24.6850     2.1460   -32.4700 
   60.0000    73.2980     8.2160     7.5200     9.1820    24.3790     2.1930   -32.4110 
   60.1250    74.3060     8.2910     7.5990     8.9530    24.2290     2.2180   -32.3630 
