~V
VERS. 2.00: Ver 2.00
~W
STRT.M 58.0000:
STOP.M 273.0000:
STEP.M 0.1250:
NULL. -999.2500:
UWI. F10226:
~C
DEPT.M :
SP.MV :
DEN.GM/CC :
GR.API :
RML.OHMM :
RI. :
RXO.OHMM :
CALI.CM :
~A
# ...
  148.0000    -8.4670     2.3430   103.2870     6.4880     5.1350     5.6970    25.3240 
  148.1250    -8.6800     2.3430    94.9970     6.4900     5.1500     5.7260    25.1260 
  148.2500    -8.8820     2.3420    88.3100     6.4530     5.1420     5.6940    25.1490 
  148.3750    -9.0390     2.3450    84.9330     6.3730     5.1060     5.6400    25.2450 
  148.5000    -9.1490     2.3510    83.9480     6.2730     5.0540     5.6760    25.2290 
  148.6250    -9.2100     2.3570    85.6250     6.1800     5.0010     5.7840    25.2100 
  148.7500    -9.2320     2.3590    88.6930     6.1140     4.9620     5.8380    25.1420 
  148.8750    -9.1940     2.3530    90.5630     6.0840     4.9430     5.8400    25.0450 
  149.0000    -9.0910     2.3430    91.5940     6.0690     4.9370     5.7820    24.9560 
  149.1250    -8.9470     2.3320    92.8160     6.0450     4.9270     5.7050    24.9100 
  149.2500    -8.8060     2.3250    95.2100     5.9860     4.8970     5.7160    24.7370 
  149.3750    -8.6860     2.3280    96.6090     5.8740     4.8340     5.6950    24.6200 
  149.5000    -8.6020     2.3350    94.9260     5.7280     4.7480     5.6050    24.7370 
  149.6250    -8.5770     2.3430    92.9620     5.5760     4.6520     5.4590    24.9480 
  149.7500    -8.5920     2.3500    94.2890     5.4440     4.5610     5.3980    24.6680 
  149.8750    -8.6860     2.3510    97.7960     5.3550     4.4930     5.3880    24.1300 
  150.0000    -8.8680     2.3480    98.8110     5.2970     4.4480     5.3240    23.8110 
  150.1250    -9.0910     2.3460    97.0430     5.2560     4.4200     5.1190    23.7770 
  150.2500    -9.3090     2.3460    94.5450     5.2190     4.4020     4.9420    23.8240 
  150.3750    -9.5210     2.3530    92.0830     5.1730     4.3840     5.0110    23.6660 
  150.5000    -9.7190     2.3630    92.0550     5.1110     4.3560     5.2070    23.5710 
  150.6250    -9.8860     2.3710    94.6590     5.0300     4.3160     5.2860    23.5500 
  150.7500   -10.0230     2.3690    96.2080     4.9360     4.2710     5.2030    23.6040 
  150.8750   -10.1090     2.3510    94.9660     4.8540     4.2350     5.1200    23.6610 
  151.0000   -10.1530     2.3230    96.5710     4.8260     4.2330     5.0030    23.6410 
  151.1250   -10.1920     2.2970   100.5960     4.8870     4.2850     4.8570    23.6440 
  151.2500   -10.2430     2.2830   101.6410     5.0530     4.4030     4.7550    23.7520 
  151.3750   -10.2910     2.2860    97.3630     5.2980     4.5780     4.8330    23.8350 
  151.5000   -10.3410     2.2970    93.0430     5.5260     4.7500     5.1270    23.7900 
  151.6250   -10.3740     2.3080    91.7980     5.6420     4.8560     5.5490    23.7460 
  151.7500   -10.3980     2.3150    94.4190     5.5760     4.8400     5.8160    23.7580 
  151.8750   -10.4340     2.3190   100.0840     5.3220     4.6820     5.6940    23.8040 
  152.0000   -10.4560     2.3220   102.7260     5.0080     4.4610     5.3180    23.8600 
  152.1250   -10.4610     2.3240   100.2890     4.7530     4.2600     5.0560    23.8850 
  152.2500   -10.4780     2.3240    97.3290     4.6340     4.1400     5.1370    23.8750 
  152.3750   -10.5210     2.3200    96.3750     4.7000     4.1560     5.4280    23.8570 
  152.5000   -10.5650     2.3160    95.3070     4.9100     4.2950     5.9190    23.8780 
  152.6250   -10.6030     2.3160    92.8140     5.2440     4.5520     6.0990    23.9380 
  152.7500   -10.6350     2.3190    92.6710     5.7070     4.9240     6.2020    23.9820 
  152.8750   -10.6520     2.3200    97.2210     6.5220     5.4330     6.4900    23.9480 
  153.0000   -10.6610     2.3170   100.4580     7.8410     6.0470     7.2290    23.8890 
  153.1250   -10.6410     2.3120    97.8800     8.6420     6.6980     8.2110    23.8420 
  153.2500   -10.5650     2.3090    90.9460     9.1960     7.2460     9.3000    23.8110 
  153.3750   -10.4270     2.3120    86.4490     9.2550     7.4520     9.5810    23.7790 
  153.5000   -10.2600     2.3180    87.6700     8.8470     7.2810     8.8780    23.7620 
  153.6250   -10.1020     2.3230    91.1910     8.1940     6.8620     8.1060    23.7580 
  153.7500    -9.9480     2.3210    94.4140     7.6100     6.4170     6.9700    23.7740 
  153.8750    -9.7920     2.3090    96.3670     7.4200     6.1850     6.3980    23.8230 
  154.0000    -9.6590     2.2890    95.7910     7.6420     6.2280     6.7370    23.8900 
  154.1250    -9.5720     2.2660    91.6000     8.1370     6.4980     8.0970    23.9470 
  154.2500    -9.5300     2.2490    87.0180     8.6450     6.8580     9.5150    24.0900 
  154.3750    -9.5560     2.2480    86.3750     8.8500     7.0950     9.9480    24.3580 
  154.5000    -9.6170     2.2580    86.2070     8.7290     7.1350     9.2160    24.6580 
  154.6250    -9.7020     2.2710    83.9940     8.4650     7.0610     8.1930    24.8540 
  154.7500    -9.8280     2.2800    82.4460     8.3370     7.0420     7.5660    24.9260 
  154.8750    -9.9930     2.2810    82.9650     8.6880     7.3160     8.4410    24.9290 
  155.0000   -10.1520     2.2780    82.2170     9.5870     7.9810    10.7900    24.9390 
  155.1250   -10.2770     2.2770    80.3050    10.9790     9.0600    12.6150    24.9430 
  155.2500   -10.3510     2.2820    79.0270    12.6550    10.4550    13.3800    24.9380 
  155.3750   -10.3390     2.2910    77.2330    14.2160    11.8980    15.6120    24.9450 
  155.5000   -10.2660     2.3020    74.4870    15.2580    13.0030    19.3530    24.9730 
  155.6250   -10.1590     2.3070    73.4300    15.5530    13.5090    21.5040    24.9680 
  155.7500   -10.0200     2.3030    76.1530    15.1450    13.3930    17.6410    24.9420 
  155.8750    -9.8610     2.2910    78.9890    14.3080    12.8500    14.2340    24.9410 
  156.0000    -9.6990     2.2770    78.7990    13.4750    12.2570    13.1280    24.9480 
  156.1250    -9.5710     2.2670    77.8490    12.9200    11.8530    13.0030    24.9510 
  156.2500    -9.4900     2.2610    80.4970    12.8390    11.8150    12.6760    24.9480 
  156.3750    -9.4750     2.2600    84.7440    13.4080    12.3310    14.2520    24.9420 
  156.5000    -9.5200     2.2600    82.4130    14.5080    13.3520    16.6010    24.9500 
  156.6250    -9.5960     2.2590    74.9020    15.9980    14.7890    18.4330    24.9990 
  156.7500    -9.6850     2.2600    69.6600    17.6820    16.4770    19.3220    25.0750 
  156.8750    -9.7670     2.2640    70.4810    19.2130    18.0920    21.2730    25.1110 
  157.0000    -9.8380     2.2690    71.4250    20.1870    19.2150    21.5560    25.0880 
  157.1250    -9.8880     2.2730    70.3600    20.1890    19.4110    19.8670    25.0560 
  157.2500    -9.9210     2.2770    69.0430    18.9220    18.3400    18.0670    25.0440 
  157.3750    -9.9510     2.2820    70.5310    16.3280    15.9210    16.5440    25.0480 
  157.5000    -9.9770     2.2890    77.0800    13.2850    13.0440    13.8350    24.9970 
  157.6250   -10.0150     2.2980    85.5590    10.6530    10.5320    10.1890    24.9800 
  157.7500   -10.0780     2.3020    90.6150     9.0870     8.9030     7.0060    25.0070 
  157.8750   -10.1960     2.2920    88.3780     9.3000     8.6310     6.8010    25.0430 
  158.0000   -10.3730     2.2690    81.0840    11.5610     9.9580     9.8500    25.0870 
  158.1250   -10.6180     2.2380    72.0700    16.5020    13.6540    20.4620    25.1510 
  158.2500   -10.9350     2.2090    64.1490    26.1940    20.9310    44.5160    25.2540 
  158.3750   -11.3000     2.1900    60.2040    40.3690    33.5760    64.6810    25.3350 
  158.5000   -11.6700     2.1770    59.1930    57.5990    49.6130    66.3430    25.3790 
  158.6250   -12.0200     2.1700    59.6370    73.4810    64.7500    69.0720    25.4190 
  158.7500   -12.3180     2.1680    60.4090    83.3710    74.7880    81.8250    25.4830 
  158.8750   -12.5430     2.1760    60.1730    85.7550    78.0310    87.5150    25.6210 
  159.0000   -12.7060     2.1900    60.4050    84.1780    77.1130    83.9000    25.7970 
  159.1250   -12.7900     2.2020    61.1880    80.4910    73.6490    81.1140    25.9300 
