~V
VERS. 2.00: Ver 2.00
~W
STRT.M 57.0000:
STOP.M 259.0000:
STEP.M 0.1250:
NULL. -999.2500:
UWI. F10209:
~C
DEPT.M :
SP.MV :
DEN.GM/CC :
GR.API :
RML.OHMM :
RI. :
RXO.OHMM :
CALI.CM :
~A
# ...
  237.0000   -10.4160     2.2530    88.3390    14.1900    13.1070    11.9420    23.7480 
  237.1250   -10.0330     2.2710    87.0970    13.7560    12.6340    11.7070    23.4750 
  237.2500    -9.5830     2.2750    86.1670    13.3780    12.2710    11.4180    23.3350 
  237.3750    -9.1240     2.2640    83.2770    13.1340    12.0530    11.2960    23.6040 
  237.5000    -8.7200     2.2510    79.8390    13.1580    12.0600    11.3060    24.1170 
  237.6250    -8.2600     2.2430    78.0700    13.5170    12.3490    11.2100    24.3230 
  237.7500    -7.7770     2.2430    79.1190    14.1700    12.9010    12.0050    24.2220 
  237.8750    -7.4500     2.2480    78.9130    15.0210    13.6530    14.5270    24.1740 
  238.0000    -7.1600     2.2540    76.3260    15.8870    14.4460    17.0900    24.2540 
  238.1250    -6.9530     2.2590    76.5890    16.6380    15.1490    17.3430    24.2580 
  238.2500    -6.9100     2.2630    80.6390    17.2080    15.6680    15.9210    24.2430 
  238.3750    -6.9050     2.2680    81.9850    17.6480    15.9980    16.5160    24.2230 
  238.5000    -6.9400     2.2710    77.0970    18.0840    16.2680    18.6740    24.2630 
  238.6250    -7.0170     2.2700    70.7350    18.4900    16.5020    20.8380    24.3250 
  238.7500    -7.0750     2.2690    69.7200    18.7190    16.6200    19.7570    24.3040 
  238.8750    -7.1140     2.2770    74.5880    18.5590    16.4710    18.2620    24.2280 
  239.0000    -7.1300     2.2930    79.0200    18.0710    16.0880    18.7210    24.1110 
  239.1250    -7.1310     2.3130    81.4940    17.4530    15.6150    17.5570    23.9830 
  239.2500    -7.0560     2.3270    81.0730    17.0150    15.2790    14.8570    23.9800 
  239.3750    -6.9730     2.3290    76.8190    17.1070    15.3560    15.0500    24.1120 
  239.5000    -6.9070     2.3230    72.9850    17.7100    15.8540    17.6400    24.2450 
  239.6250    -6.8780     2.3160    72.8240    18.6940    16.7120    19.1880    24.2780 
  239.7500    -6.9340     2.3140    73.6730    19.7890    17.7590    20.1010    24.2540 
  239.8750    -6.9440     2.3150    71.4330    20.5250    18.6260    21.6270    24.1700 
  240.0000    -6.9830     2.3130    68.7240    20.6210    18.9750    22.4100    24.1430 
  240.1250    -6.9770     2.3080    66.8690    20.0550    18.6930    20.3950    24.2290 
  240.2500    -6.9530     2.3000    64.0070    19.0020    17.8810    17.4720    24.3950 
  240.3750    -6.9050     2.2910    62.7630    17.6470    16.6870    15.8950    24.5170 
  240.5000    -6.8060     2.2850    66.1720    16.2330    15.3680    15.7730    24.5420 
  240.6250    -6.6750     2.2820    72.1500    14.9500    14.1250    14.8760    24.5220 
  240.7500    -6.5190     2.2840    76.3360    14.0050    13.1560    13.2490    24.5120 
  240.8750    -6.3800     2.2930    77.5370    13.6960    12.7040    12.4800    24.4510 
  241.0000    -6.2810     2.3050    77.9770    14.0720    12.7980    13.2620    24.3430 
  241.1250    -6.2370     2.3170    78.2530    15.1350    13.4680    15.5500    24.2710 
  241.2500    -6.2570     2.3240    78.5090    16.7030    14.6410    18.2630    24.2750 
  241.3750    -6.3090     2.3230    76.5150    18.3530    16.0760    19.5480    24.2840 
  241.5000    -6.4000     2.3180    71.1200    19.5990    17.3220    20.9930    24.3060 
  241.6250    -6.5150     2.3130    64.7560    20.2370    18.1030    22.0680    24.3420 
  241.7500    -6.6290     2.3110    61.3830    20.3890    18.4110    20.9780    24.3750 
  241.8750    -6.7090     2.3100    62.1280    20.4660    18.5040    18.4080    24.3390 
  242.0000    -6.7790     2.3060    63.2760    20.8470    18.7380    19.9100    24.3220 
  242.1250    -6.8760     2.2970    63.1120    21.6080    19.2360    23.6380    24.3370 
  242.2500    -6.9710     2.2850    61.1720    22.6480    19.9780    25.8510    24.3630 
  242.3750    -7.0900     2.2710    58.1220    23.8470    20.9130    26.8610    24.4050 
  242.5000    -7.1940     2.2580    55.9490    25.0900    21.9330    27.0640    24.4560 
  242.6250    -7.2980     2.2490    56.6870    26.3470    22.9900    26.5250    24.4920 
  242.7500    -7.4100     2.2430    59.7780    27.6230    24.0690    26.9520    24.5130 
  242.8750    -7.6030     2.2380    61.4200    28.9000    25.1680    30.9310    24.5180 
  243.0000    -7.7610     2.2310    59.6310    30.0500    26.2080    34.7050    24.5130 
  243.1250    -7.8790     2.2260    55.8590    30.8680    27.0280    34.5720    24.5290 
  243.2500    -7.9720     2.2210    52.8290    31.1720    27.4460    32.0700    24.5390 
  243.3750    -8.0410     2.2170    51.8900    30.7900    27.2580    32.6070    24.5240 
  243.5000    -8.0700     2.2140    53.6490    29.9040    26.5830    34.1980    24.4960 
  243.6250    -8.0570     2.2140    60.3420    28.6810    25.5620    33.3870    24.4720 
  243.7500    -8.0090     2.2180    67.9620    27.3120    24.3750    28.7180    24.4040 
  243.8750    -7.8960     2.2260    67.8010    26.0080    23.2200    24.6480    24.2730 
  244.0000    -7.7890     2.2360    61.8020    24.8880    22.2230    24.0580    24.1850 
  244.1250    -7.6770     2.2460    57.4670    23.9790    21.4220    24.4490    24.1270 
  244.2500    -7.5320     2.2540    59.1600    23.2570    20.7990    23.2240    24.0970 
  244.3750    -7.3810     2.2620    63.6810    22.7470    20.3740    21.6550    24.1070 
  244.5000    -7.2430     2.2710    67.6010    22.5070    20.1670    22.0090    24.1680 
  244.6250    -7.1360     2.2770    70.3430    22.6510    20.2570    22.9560    24.1850 
  244.7500    -7.0690     2.2760    70.2950    23.1650    20.6490    22.7300    24.2430 
  244.8750    -7.0430     2.2690    67.0870    23.6690    21.0830    23.8340    24.3250 
  245.0000    -7.0470     2.2630    63.9400    23.5230    21.0310    28.0210    24.3640 
  245.1250    -7.0880     2.2670    63.7030    22.3500    20.1310    32.2850    24.3360 
  245.2500    -7.2150     2.2850    67.2260    20.2850    18.4500    29.1580    24.2750 
  245.3750    -7.3880     2.3150    72.9720    18.0050    16.5150    19.4260    24.2540 
  245.5000    -7.5780     2.3400    76.7500    16.2910    14.9500    15.0290    24.2640 
  245.6250    -7.7550     2.3480    75.6850    15.4680    14.0260    15.9550    24.3120 
  245.7500    -7.9230     2.3350    71.5910    15.4760    13.7640    18.7650    24.3510 
  245.8750    -8.0830     2.3070    69.5220    15.9650    14.0170    19.3910    24.3520 
  246.0000    -8.2100     2.2800    69.7400    16.3810    14.3690    18.6970    24.2840 
  246.1250    -8.2590     2.2660    70.6540    16.4820    14.5700    16.9620    24.2260 
  246.2500    -8.2220     2.2680    72.4250    16.2730    14.5320    14.5140    24.2930 
  246.3750    -8.0970     2.2870    72.2220    15.9170    14.2970    11.9670    24.4250 
  246.5000    -8.0060     2.3100    68.0400    15.5540    13.9800    14.1110    24.4520 
  246.6250    -7.9280     2.3300    61.3420    15.1170    13.5650    20.6930    24.3700 
  246.7500    -7.8380     2.3380    57.6640    14.4820    12.9870    22.8400    24.2620 
  246.8750    -7.7000     2.3270    59.6180    13.6320    12.2460    15.4730    24.2710 
  247.0000    -7.5390     2.3080    62.6650    12.7940    11.5180    11.5140    24.3110 
  247.1250    -7.4590     2.2940    65.0980    12.1690    10.9460    10.1340    24.3230 
  247.2500    -7.4100     2.2990    66.2640    11.8670    10.6190     9.9060    24.3390 
  247.3750    -7.4070     2.3240    67.7110    11.9050    10.5740    10.3850    24.3470 
  247.5000    -7.3100     2.3540    69.2500    12.0540    10.6630    11.0740    24.3740 
  247.6250    -7.1890     2.3760    71.2000    12.1460    10.7500    11.4870    24.3820 
  247.7500    -7.0140     2.3810    73.3010    12.1220    10.7560    11.7880    24.3770 
  247.8750    -6.8840     2.3700    73.1340    12.0380    10.6850    12.2900    24.3190 
  248.0000    -6.7850     2.3550    72.4330    11.9850    10.6060    13.4070    24.3270 
  248.1250    -6.6400     2.3430    72.1570    12.0010    10.5600    13.8860    24.3600 
