~V
VERS. 2.00: Ver 2.00
~W
STRT.M 60.0000:
STOP.M 276.0000:
STEP.M 0.1250:
NULL. -999.2500:
UWI. F10216:
~C
DEPT.M :
DEN.GM/CC :
GR.API :
RML.OHMM :
RI. :
RXO.OHMM :
CALI.CM :
SP.MV :
~A
# ...
  150.0000     2.4870    60.7600    19.3110    17.1410    21.1530    24.4290   -10.7930 
  150.1250     2.4750    63.7330    19.0910    17.0090    21.9410    24.4110   -10.8290 
  150.2500     2.4600    64.1410    18.2620    16.3900    21.0150    24.3980   -10.8640 
  150.3750     2.4350    62.4380    16.8930    15.2930    18.4980    24.3780   -10.8960 
  150.5000     2.3980    60.1580    15.3720    14.0020    15.0510    24.3650   -10.9480 
  150.6250     2.3520    61.3180    14.2810    12.9640    11.9720    24.4010   -10.9720 
  150.7500     2.3080    65.8770    13.8590    12.4050    11.0880    24.4360   -11.0230 
  150.8750     2.2740    71.7940    14.1400    12.3970    12.9950    24.4750   -11.0650 
  151.0000     2.2520    74.9580    15.0270    12.9140    15.8890    24.5250   -11.1280 
  151.1250     2.2390    74.4120    16.3980    13.9220    17.4360    24.6130   -11.1960 
  151.2500     2.2280    74.0290    17.9890    15.2060    17.2580    24.6800   -11.2580 
  151.3750     2.2160    73.6800    19.6880    16.6410    17.5780    24.7240   -11.3100 
  151.5000     2.2040    71.8600    21.4570    18.1540    19.6660    24.7440   -11.3320 
  151.6250     2.1910    68.4440    23.2960    19.7270    22.8860    24.7110   -11.3670 
  151.7500     2.1810    65.9830    25.1580    21.3180    23.7420    24.6470   -11.3730 
  151.8750     2.1730    64.1570    27.0180    22.8990    24.2680    24.6210   -11.3980 
  152.0000     2.1710    61.9050    28.9050    24.4750    26.2020    24.6570   -11.4210 
  152.1250     2.1740    61.2930    30.8430    26.0640    29.2030    24.6710   -11.4320 
  152.2500     2.1800    62.6190    32.6860    27.5870    31.8050    24.6120   -11.4400 
  152.3750     2.1860    63.5820    34.1220    28.8270    33.6970    24.4980   -11.4440 
  152.5000     2.1900    64.5200    34.7770    29.4830    36.1140    24.4570   -11.4660 
  152.6250     2.1890    67.3390    34.3240    29.2220    36.9450    24.4170   -11.4610 
  152.7500     2.1880    70.6560    33.2060    28.3290    35.4780    24.3810   -11.4670 
  152.8750     2.1890    71.3200    31.9540    27.1960    32.0040    24.3580   -11.4740 
  153.0000     2.1920    69.7920    31.0920    26.2480    29.3270    24.4080   -11.4690 
  153.1250     2.1970    67.0060    31.1320    25.9380    30.6350    24.5450   -11.4890 
  153.2500     2.2010    63.1930    32.0950    26.3720    33.1700    24.5540   -11.4980 
  153.3750     2.2020    59.0850    33.9810    27.6040    33.6830    24.5240   -11.5290 
  153.5000     2.2010    57.6610    36.7240    29.6120    35.4950    24.6240   -11.5570 
  153.6250     2.1970    60.9190    40.3780    32.4490    39.5290    24.6770   -11.6220 
  153.7500     2.1920    64.1340    44.8140    35.9660    44.2010    24.6850   -11.6780 
  153.8750     2.1850    63.5810    50.0930    40.1880    46.6520    24.6540   -11.7240 
  154.0000     2.1760    60.9720    56.2260    45.1180    48.4990    24.6190   -11.7740 
  154.1250     2.1640    60.0360    63.0930    50.6940    55.2330    24.6510   -11.8110 
  154.2500     2.1530    60.0500    70.0530    56.4200    63.3770    24.6890   -11.8570 
  154.3750     2.1450    58.3790    76.4300    61.7760    70.4730    24.7110   -11.8760 
  154.5000     2.1400    56.7590    81.5670    66.2190    75.7980    24.7190   -11.8920 
  154.6250     2.1380    56.9430    84.8230    69.1630    75.1370    24.7370   -11.8730 
  154.7500     2.1370    56.9480    86.4990    70.7920    75.7890    24.7330   -11.8720 
  154.8750     2.1410    56.6570    86.6780    71.1820    79.0560    24.7200   -11.8620 
  155.0000     2.1490    56.9980    85.3480    70.3590    83.3170    24.6540   -11.8400 
  155.1250     2.1620    56.9060    82.4030    68.2340    85.1730    24.5350   -11.8180 
  155.2500     2.1750    56.2030    78.6410    65.3880    78.6230    24.4090   -11.7620 
  155.3750     2.1840    57.1930    74.8410    62.3930    67.4370    24.3650   -11.7250 
  155.5000     2.1860    59.7830    71.6580    59.7700    60.8630    24.3500   -11.6780 
  155.6250     2.1830    61.2240    69.6000    57.9490    58.6600    24.3710   -11.6390 
  155.7500     2.1800    61.0630    68.5640    56.9190    61.3030    24.4200   -11.6070 
  155.8750     2.1800    60.5230    68.4990    56.6710    66.1110    24.5110   -11.5600 
  156.0000     2.1820    59.4000    69.3980    57.1860    66.7070    24.6000   -11.5410 
  156.1250     2.1830    57.7720    71.6290    58.7030    62.6970    24.6720   -11.5200 
  156.2500     2.1820    58.6270    75.1210    61.2160    61.9220    24.7110   -11.5390 
  156.3750     2.1770    61.1090    79.3870    64.4580    69.1680    24.7340   -11.5580 
  156.5000     2.1730    61.3110    83.0700    67.4850    77.5390    24.7280   -11.5920 
  156.6250     2.1700    59.1140    83.5380    68.2910    81.4540    24.7230   -11.6220 
  156.7500     2.1710    58.1150    79.8800    65.9480    86.4700    24.7200   -11.6520 
  156.8750     2.1750    58.9070    72.7800    60.7310    83.6090    24.7150   -11.6910 
  157.0000     2.1810    59.4890    64.3350    54.1240    64.0370    24.7120   -11.7050 
  157.1250     2.1890    59.9790    57.0050    48.0750    50.3830    24.7060   -11.7410 
  157.2500     2.1970    61.3020    51.6710    43.4910    45.1130    24.7020   -11.7520 
  157.3750     2.2070    61.4690    48.3410    40.5030    44.3910    24.6870   -11.7730 
  157.5000     2.2180    59.7540    46.7100    38.9520    44.8710    24.6630   -11.7870 
  157.6250     2.2250    60.1150    46.4870    38.7010    45.4730    24.5880   -11.7900 
  157.7500     2.2260    62.5660    46.8730    39.1350    45.1240    24.5370   -11.7800 
  157.8750     2.2190    64.2980    47.2120    39.7400    44.3200    24.5070   -11.7510 
  158.0000     2.2090    62.5930    46.7500    39.8570    45.7500    24.5090   -11.7290 
  158.1250     2.2070    59.0160    44.6350    38.6290    47.0950    24.4530   -11.6930 
  158.2500     2.2170    58.0530    41.1860    36.1440    47.0640    24.3980   -11.6660 
  158.3750     2.2350    59.6570    37.0680    32.8790    42.6030    24.3980   -11.6400 
  158.5000     2.2490    60.9140    33.0200    29.4640    33.8410    24.4720   -11.5980 
  158.6250     2.2490    60.3890    29.5040    26.3460    26.1210    24.5370   -11.5890 
  158.7500     2.2430    59.1050    26.3000    23.4560    26.1020    24.5230   -11.5750 
  158.8750     2.2410    59.4710    23.1750    20.6530    30.1720    24.4730   -11.5970 
  159.0000     2.2510    61.7710    20.1760    18.0010    28.0460    24.4510   -11.6190 
  159.1250     2.2680    66.7450    17.8020    15.8920    23.2530    24.4390   -11.6410 
  159.2500     2.2770    73.3880    16.4360    14.5530    17.4390    24.4010   -11.6690 
  159.3750     2.2680    78.0000    16.3620    14.1550    14.6700    24.3780   -11.6880 
  159.5000     2.2460    76.8310    17.6300    14.7830    17.2790    24.3990   -11.7250 
  159.6250     2.2180    71.5860    19.9650    16.4460    26.4340    24.4700   -11.7320 
  159.7500     2.1990    68.5710    22.2450    18.4180    29.7130    24.4900   -11.7630 
  159.8750     2.1940    68.2960    23.4120    19.8170    27.6030    24.4680   -11.7760 
  160.0000     2.2070    67.5320    22.8720    19.9140    25.8380    24.4260   -11.7830 
  160.1250     2.2300    66.6440    20.8950    18.6310    23.2730    24.3880   -11.8020 
  160.2500     2.2490    68.0280    18.7700    16.9800    19.6170    24.3660   -11.7970 
  160.3750     2.2570    70.6140    17.1550    15.5580    17.2210    24.3870   -11.7870 
  160.5000     2.2550    72.9140    16.2060    14.5870    16.6280    24.4320   -11.7550 
  160.6250     2.2490    73.2710    15.8630    14.1100    17.0810    24.4840   -11.7270 
  160.7500     2.2450    71.8980    15.8520    13.9510    17.1400    24.5200   -11.6900 
  160.8750     2.2430    71.0610    16.0300    14.0010    16.7790    24.5400   -11.6430 
  161.0000     2.2390    73.9770    16.2840    14.1530    16.0570    24.6480   -11.6120 
  161.1250     2.2370    77.2110    16.5360    14.3300    16.1040    24.7140   -11.5700 
