~V
VERS. 2.00: Ver 2.00
~W
STRT.M 56.0000:
STOP.M 281.0000:
STEP.M 0.1250:
NULL. -999.2500:
UWI. F10232:
~C
DEPT.M :
SP.MV :
GR.API :
RML.OHMM :
RI. :
RXO.OHMM :
CALI.CM :
DEN.GM/CC :
~A
# ...
  101.0000    -9.4270    66.6640     6.9580     5.5680     5.9000    24.2330     2.2860 
  101.1250    -9.0940    69.5360     6.9910     5.5750     5.8040    24.0980     2.2880 
  101.2500    -8.8690    73.0320     7.0810     5.6380     5.7100    23.8990     2.2810 
  101.3750    -8.7500    75.0460     7.1860     5.7260     5.6740    23.6350     2.2740 
  101.5000    -8.6970    74.8860     7.2610     5.7970     5.7080    23.3520     2.2710 
  101.6250    -8.6880    74.5100     7.2680     5.8180     5.8290    23.1270     2.2730 
  101.7500    -8.7060    74.5160     7.1830     5.7680     5.9090    23.0110     2.2760 
  101.8750    -8.7470    74.1380     7.0050     5.6370     5.8500    22.9950     2.2780 
  102.0000    -8.7940    74.7040     6.8040     5.4740     5.6760    22.9900     2.2820 
  102.1250    -8.8670    75.2360     6.6430     5.3250     5.5460    22.9450     2.2900 
  102.2500    -8.9960    74.4350     6.5650     5.2270     5.7180    22.8540     2.3000 
  102.3750    -9.1850    72.2090     6.5800     5.1990     6.4820    22.7120     2.3090 
  102.5000    -9.4060    69.4180     6.6410     5.2140     7.5120    22.5830     2.3180 
  102.6250    -9.6660    67.3460     6.7240     5.2550     8.4430    22.4920     2.3300 
  102.7500    -9.9700    68.2820     6.8360     5.3240     8.8610    22.4330     2.3460 
  102.8750   -10.3520    71.6360     7.0300     5.4520     8.1140    22.4310     2.3560 
  103.0000   -10.8140    72.6680     7.3410     5.6650     7.5670    22.5310     2.3480 
  103.1250   -11.3310    69.2770     7.7690     5.9690     7.6850    22.7460     2.3150 
  103.2500   -11.8680    62.9510     8.2650     6.3400     8.2020    23.0340     2.2630 
  103.3750   -12.4090    58.7570     8.7210     6.7160     8.5420    23.3270     2.2120 
  103.5000   -12.9570    58.3060     9.0510     7.0270     8.2530    23.5850     2.1790 
  103.6250   -13.5050    59.1960     9.2340     7.2430     7.8910    23.8060     2.1690 
  103.7500   -14.0240    56.9830     9.3140     7.3780     7.8740    24.0450     2.1770 
  103.8750   -14.4620    52.0960     9.3940     7.4920     8.1170    24.3000     2.1870 
  104.0000   -14.7980    49.0130     9.5540     7.6510     8.3300    24.4930     2.1900 
  104.1250   -15.0140    48.8810     9.8050     7.8720     8.4400    24.5820     2.1840 
  104.2500   -15.1140    51.3560    10.0980     8.1310     8.4980    24.6040     2.1750 
  104.3750   -15.0940    54.7760    10.3280     8.3560     8.5380    24.5790     2.1700 
  104.5000   -14.9650    56.3780    10.4020     8.4710     8.5930    24.5320     2.1690 
  104.6250   -14.7060    57.3630    10.2530     8.4150     8.6250    24.4860     2.1720 
  104.7500   -14.3390    58.4730     9.8530     8.1540     8.5740    24.4600     2.1770 
  104.8750   -13.8700    57.6670     9.1940     7.6680     8.4000    24.4450     2.1850 
  105.0000   -13.3190    55.4230     8.4130     7.0560     8.0050    24.4400     2.1980 
  105.1250   -12.7270    55.0380     7.6490     6.4260     7.2790    24.4470     2.2190 
  105.2500   -12.1590    57.9290     7.0540     5.8930     6.4050    24.4400     2.2510 
  105.3750   -11.6810    64.1160     6.8100     5.6010     5.8060    24.3860     2.2880 
  105.5000   -11.3420    69.3470     6.9100     5.5600     5.7960    24.2860     2.3200 
  105.6250   -11.1690    70.0740     7.3070     5.7560     6.4000    24.1570     2.3370 
  105.7500   -11.1370    66.2570     7.8900     6.1280     7.3810    24.0310     2.3330 
  105.8750   -11.2520    64.4530     8.4940     6.5750     8.1500    23.9350     2.3100 
  106.0000   -11.4770    64.3830     8.9730     6.9750     8.1400    23.8720     2.2810 
  106.1250   -11.7830    61.9230     9.2710     7.2680     7.6860    23.8270     2.2560 
  106.2500   -12.1240    58.6800     9.4170     7.4510     7.4800    23.8020     2.2400 
  106.3750   -12.4420    57.2190     9.5100     7.5770     7.5970    23.7990     2.2350 
  106.5000   -12.6940    55.3900     9.6700     7.7290     7.7400    23.8160     2.2390 
  106.6250   -12.8900    52.9400     9.9420     7.9430     7.8800    23.8540     2.2500 
  106.7500   -13.0530    54.3820    10.3060     8.2120     7.9840    23.8970     2.2660 
  106.8750   -13.1920    60.9140    10.6920     8.4930     8.0150    23.9070     2.2770 
  107.0000   -13.3260    63.3710    11.0100     8.7290     8.0550    23.8640     2.2790 
  107.1250   -13.4770    59.4960    11.2040     8.8830     8.1860    23.8020     2.2710 
  107.2500   -13.6250    54.3940    11.2510     8.9340     8.2760    23.7780     2.2600 
  107.3750   -13.7820    53.4250    11.1460     8.8750     8.2910    23.7940     2.2510 
  107.5000   -13.9650    53.9220    10.9510     8.7500     8.2920    23.8160     2.2460 
  107.6250   -14.1660    52.2730    10.7100     8.5890     8.3560    23.8280     2.2440 
  107.7500   -14.3910    49.4380    10.4690     8.4240     8.4360    23.8350     2.2420 
  107.8750   -14.6230    49.0750    10.2730     8.2850     8.4700    23.8650     2.2390 
  108.0000   -14.8470    51.7420    10.1320     8.1790     8.4570    23.9130     2.2360 
  108.1250   -15.0550    54.3950    10.0370     8.1050     8.4330    23.9670     2.2300 
  108.2500   -15.2560    55.3900     9.9650     8.0510     8.4020    23.9920     2.2200 
  108.3750   -15.4370    55.4940     9.8890     8.0010     8.3300    23.9560     2.2080 
  108.5000   -15.5810    56.3260     9.7960     7.9440     8.2210    23.8970     2.1950 
  108.6250   -15.6830    58.5730     9.6900     7.8780     8.1270    23.8590     2.1840 
  108.7500   -15.7450    59.6770     9.5850     7.8090     8.0810    23.8560     2.1760 
  108.8750   -15.7620    56.7910     9.4930     7.7440     8.0420    23.8920     2.1730 
  109.0000   -15.7530    52.9710     9.4220     7.6900     8.0270    23.9230     2.1730 
  109.1250   -15.7310    53.0880     9.3700     7.6470     8.0550    23.9190     2.1770 
  109.2500   -15.7170    56.6870     9.3340     7.6140     8.1140    23.8960     2.1830 
  109.3750   -15.7120    58.7160     9.3080     7.5850     8.1440    23.8880     2.1930 
  109.5000   -15.7000    58.8250     9.2880     7.5590     8.1260    23.8910     2.2040 
  109.6250   -15.6820    59.4340     9.2740     7.5390     8.0970    23.9060     2.2150 
  109.7500   -15.6470    59.9880     9.2740     7.5330     8.0880    23.9220     2.2240 
  109.8750   -15.5780    56.9820     9.2990     7.5510     8.1170    23.9330     2.2310 
  110.0000   -15.4780    51.1840     9.3410     7.5890     8.1480    23.9270     2.2340 
  110.1250   -15.3360    47.6540     9.3860     7.6340     8.1540    23.8890     2.2320 
  110.2500   -15.1410    48.8260     9.4100     7.6660     8.1270    23.7960     2.2250 
  110.3750   -14.8980    50.0540     9.3780     7.6550     8.0440    23.6120     2.2110 
  110.5000   -14.6280    49.3280     9.2800     7.5900     7.9520    23.3640     2.1940 
  110.6250   -14.3510    49.3260     9.1160     7.4670     7.8470    23.0860     2.1770 
  110.7500   -14.0740    51.0390     8.8990     7.2950     7.7150    22.8430     2.1660 
  110.8750   -13.7980    52.3100     8.6470     7.0870     7.5800    22.6820     2.1670 
  111.0000   -13.5610    55.1900     8.3960     6.8740     7.5220    22.5800     2.1780 
  111.1250   -13.3570    60.7090     8.1740     6.6770     7.5030    22.5060     2.1950 
  111.2500   -13.1880    65.9000     8.0110     6.5210     7.4430    22.4590     2.2120 
  111.3750   -13.0540    66.6520     7.9580     6.4390     7.3900    22.4560     2.2220 
  111.5000   -12.9660    64.6710     8.0240     6.4420     7.3730    22.4940     2.2240 
  111.6250   -12.9040    61.2490     8.2140     6.5390     7.4690    22.5360     2.2210 
  111.7500   -12.8650    58.1120     8.5040     6.7220     7.6010    22.5310     2.2180 
  111.8750   -12.8810    58.8490     8.8490     6.9700     7.7820    22.4490     2.2180 
  112.0000   -12.9080    61.7390     9.1650     7.2220     8.1620    22.3060     2.2220 
  112.1250   -12.9500    63.3180     9.3840     7.4250     8.5860    22.1580     2.2270 
