~V
VERS. 2.00: Ver 2.00
~W
STRT.M 53.0000:
STOP.M 286.0000:
STEP.M 0.1250:
NULL. -999.2500:
UWI. F10262:
~C
DEPT.M :
DEN.GM/CC :
GR.API :
RML.OHMM :
RI. :
RXO.OHMM :
CALI.CM :
SP.MV :
~A
# ...
  221.7500     2.2590    70.7960    63.4010    60.4570    62.5060    23.4450   -24.4680 
  221.8750     2.2440    67.5670    60.4520    57.8440    65.9050    23.3370   -24.4560 
  222.0000     2.2320    63.9280    57.1080    54.7190    63.7970    23.3700   -24.4010 
  222.1250     2.2280    62.9470    53.2260    51.0520    61.4510    23.4470   -24.3780 
  222.2500     2.2370    64.9110    48.7380    46.8300    59.3340    23.5700   -24.3280 
  222.3750     2.2550    67.3240    44.1090    42.4470    50.4790    23.7740   -24.3280 
  222.5000     2.2730    67.8210    40.1830    38.6530    38.8320    23.9010   -24.3280 
  222.6250     2.2890    67.9650    37.4490    35.9080    35.4890    23.6840   -24.3280 
  222.7500     2.3050    70.1520    36.0300    34.3460    36.6520    23.3460   -24.4500 
  222.8750     2.3240    72.1710    35.9300    34.0260    40.0390    23.1730   -24.5660 
  223.0000     2.3390    69.4160    36.5330    34.4390    44.2570    23.2240   -24.7520 
  223.1250     2.3450    64.3830    37.3010    35.1150    46.8580    23.3260   -24.9520 
  223.2500     2.3380    62.2610    37.7420    35.5680    45.8280    23.3340   -25.1400 
  223.3750     2.3220    64.4340    37.5540    35.4470    43.3440    23.3920   -25.3760 
  223.5000     2.3070    66.5900    37.0290    34.9630    40.7580    23.4550   -25.6040 
  223.6250     2.2960    67.4120    36.5560    34.4470    39.2970    23.4760   -25.8770 
  223.7500     2.2910    67.2620    36.5370    34.2590    39.9400    23.4380   -26.0860 
  223.8750     2.2900    65.9340    37.3170    34.7370    42.4550    23.3510   -26.3350 
  224.0000     2.2910    63.9260    38.6650    35.7490    46.4920    23.3080   -26.6140 
  224.1250     2.2900    62.1920    40.2120    37.0180    48.0990    23.3740   -26.9110 
  224.2500     2.2860    60.9740    41.4710    38.1350    47.5330    23.5550   -27.2700 
  224.3750     2.2780    60.7810    41.8060    38.5210    46.4820    23.7310   -27.5570 
  224.5000     2.2700    62.0920    41.0860    37.9910    45.7100    23.7060   -27.8440 
  224.6250     2.2680    65.3320    39.3860    36.5650    44.1140    23.5430   -28.0480 
  224.7500     2.2740    68.3120    37.0140    34.4940    41.1550    23.3510   -28.2400 
  224.8750     2.2870    70.0630    34.4090    32.1540    37.0580    23.2470   -28.3820 
  225.0000     2.3010    70.9260    32.0210    29.9600    33.4980    23.2970   -28.4510 
  225.1250     2.3100    68.7390    30.1030    28.1500    30.2050    23.4920   -28.4560 
  225.2500     2.3160    63.9700    28.8240    26.8810    27.4460    23.7480   -28.3320 
  225.3750     2.3180    61.8040    28.4130    26.3630    27.3650    23.8900   -28.2050 
  225.5000     2.3190    64.8130    28.7470    26.5060    28.6900    23.8830   -28.0270 
  225.6250     2.3130    69.0270    29.7340    27.2450    30.8270    23.6310   -27.9080 
  225.7500     2.2940    69.9890    31.1910    28.4430    33.9000    23.3120   -27.8440 
  225.8750     2.2580    67.3320    32.8290    29.8870    38.3510    23.2880   -27.7930 
  226.0000     2.2190    65.7890    34.2520    31.2230    40.8270    23.5940   -27.7740 
  226.1250     2.1920    67.5600    35.2040    32.1900    40.7260    24.1710   -27.7630 
  226.2500     2.1900    69.1820    35.5880    32.6420    39.1620    24.6990   -27.8560 
  226.3750     2.2150    67.4570    35.4700    32.5450    37.3060    24.5930   -27.9260 
  226.5000     2.2460    65.7990    35.2560    32.2110    34.9700    24.4310   -28.0150 
  226.6250     2.2650    66.7990    35.2520    31.8920    33.2860    24.4540   -28.0710 
  226.7500     2.2630    69.3980    35.6280    31.7600    32.7420    24.6230   -28.1120 
  226.8750     2.2510    70.5740    36.4610    31.9250    33.6630    24.7890   -28.1730 
  227.0000     2.2480    68.7480    37.5990    32.3540    36.1180    24.8700   -28.1310 
  227.1250     2.2570    65.9760    38.9670    33.0530    39.0820    24.7890   -28.0470 
  227.2500     2.2640    65.5620    40.6220    34.0930    39.8820    24.5190   -27.8380 
  227.3750     2.2460    65.8900    43.1240    35.9200    36.3150    24.2920   -27.5570 
  227.5000     2.2100    64.1450    47.1620    39.0590    40.4990    24.2810   -27.1140 
  227.6250     2.1880    62.0910    53.6350    44.2760    47.2660    24.2890   -26.4840 
  227.7500     2.2120    61.0610    63.4890    52.4660    53.7850    24.1350   -25.5980 
  227.8750     2.3030    57.2660    78.1120    65.0010    99.4220    23.9770   -24.4460 
  228.0000     2.4260    52.5850    95.8870    80.4410   146.7000    23.9070   -23.2050 
  228.1250     2.5480    51.6850   112.5470    95.2210   188.6810    23.8710   -21.8140 
  228.2500     2.6440    55.2070   119.7290   102.9110   198.1530    23.8020   -20.3610 
  228.3750     2.7080    60.4570   106.6200    94.3230   165.7960    23.6670   -18.7650 
  228.5000     2.7530    64.5620    81.0810    73.5110   107.1580    23.5740   -17.2020 
  228.6250     2.7770    68.3820    54.8550    49.9650    60.5520    23.5100   -15.7220 
  228.7500     2.7750    72.7000    34.9780    31.4530    29.8770    23.4770   -14.4220 
  228.8750     2.7360    77.4380    22.7280    20.6780    17.1660    23.5160   -13.3880 
  229.0000     2.6700    80.8600    14.6710    14.5960    10.8690    23.7240   -12.5180 
  229.1250     2.5870    83.6560    11.7330    11.4260     8.9960    24.0650   -11.9000 
  229.2500     2.5050    88.7910    10.6720    10.0090     9.6560    24.4450   -11.4860 
  229.3750     2.4400    95.9760    10.8370     9.8170    11.2680    24.5660   -11.4890 
  229.5000     2.4000    98.5170    11.5260    10.2980    12.8510    24.3920   -11.7580 
  229.6250     2.3830    92.6870    12.4280    11.2000    13.9550    24.0730   -12.2640 
  229.7500     2.3820    83.1000    13.3660    12.3080    15.0740    23.8950   -12.8660 
  229.8750     2.3870    78.5510    14.3670    13.5260    16.9600    23.9240   -13.3880 
  230.0000     2.3900    78.6540    15.6670    14.9360    19.3320    24.0960   -13.8270 
  230.1250     2.3940    78.8800    17.5990    16.7850    21.6830    24.4530   -14.1020 
  230.2500     2.4060    76.2570    20.4830    19.3720    25.3850    24.8870   -14.2450 
  230.3750     2.4370    70.7210    24.5190    23.0030    30.6120    24.9670   -14.0830 
  230.5000     2.4830    65.6840    28.7170    26.9360    35.7400    24.7260   -13.7260 
  230.6250     2.5380    65.3390    31.2960    29.4810    41.4510    24.5040   -13.1500 
  230.7500     2.5900    72.3570    30.2620    28.5320    45.1190    24.4020   -12.4570 
  230.8750     2.6230    83.0950    24.9210    23.4200    41.0810    24.3100   -11.7060 
  231.0000     2.6280    90.7640    18.3830    17.3430    24.3860    24.0710   -10.9610 
  231.1250     2.6010    92.2540    12.8220    12.2840    12.0010    23.7950   -10.2080 
  231.2500     2.5470    88.0260     9.0800     8.8360     7.2020    23.7780    -9.4420 
  231.3750     2.4750    83.5070     7.2280     6.9540     6.1040    24.0890    -8.7290 
  231.5000     2.4060    81.4000     6.4670     5.9870     5.9600    24.4600    -7.9950 
  231.6250     2.3570    80.7850     6.3860     5.6570     5.7980    24.6440    -7.3340 
  231.7500     2.3400    81.2510     6.6600     5.7500     5.8660    24.6370    -6.7010 
  231.8750     2.3580    86.3850     7.0090     6.0660     6.1980    24.5190    -6.2160 
  232.0000     2.3890    94.1040     7.2470     6.3790     6.4390    24.4280    -5.8250 
  232.1250     2.4140   100.3060     7.3540     6.6030     6.5680    24.3830    -5.5450 
  232.2500     2.4180   102.9940     7.3890     6.7420     6.7460    24.4090    -5.3400 
  232.3750     2.4030   104.5000     7.4460     6.8480     7.0410    24.4480    -5.2350 
  232.5000     2.3880   105.0530     7.5670     6.9720     7.4300    24.4990    -5.2790 
  232.6250     2.3890   103.2280     7.7590     7.1260     7.6880    24.5740    -5.4060 
  232.7500     2.4100    99.6560     8.0080     7.3020     8.0810    24.6710    -5.6450 
  232.8750     2.4400    97.2120     8.3020     7.4810     8.9440    24.6430    -5.9140 
