~V
VERS. 2.00: Ver 2.00
~W
STRT.M 54.0000:
STOP.M 277.0000:
STEP.M 0.1250:
NULL. -999.2500:
UWI. F10247:
~C
DEPT.M :
GR.API :
RML.OHMM :
RI. :
RXO.OHMM :
CALI.CM :
DEN.GM/CC :
SP.MV :
~A
# ...
   87.7500    95.1170     6.0420     4.0860     5.2490    24.8470     2.3410   -26.2200 
   87.8750    93.0140     6.3560     4.1750     5.1600    24.8390     2.2950   -26.4830 
   88.0000    90.3920     7.0890     4.5050     5.3810    24.8180     2.2730   -26.8610 
   88.1250    88.4640     8.2780     5.1140     6.1050    24.7740     2.3000   -27.3810 
   88.2500    86.3920     9.8250     6.0110     8.0360    24.7460     2.3670   -27.9910 
   88.3750    82.5050    11.2840     6.9890    11.9540    24.7400     2.4100   -28.7070 
   88.5000    76.9930    12.1670     7.7720    16.3890    24.7110     2.3910   -29.4870 
   88.6250    71.4460    12.1470     8.0860    15.3470    24.6310     2.3180   -30.2950 
   88.7500    68.7490    11.2840     7.8050    11.2680    24.5280     2.2310   -31.0800 
   88.8750    67.7890    10.2390     7.2590     9.5760    24.4730     2.1690   -31.7910 
   89.0000    66.7850     9.4070     6.7020     9.2440    24.4270     2.1430   -32.4110 
   89.1250    67.2800     8.9640     6.3030     9.0650    24.3780     2.1460   -32.8970 
   89.2500    68.1850     8.9540     6.1660     8.9760    24.3970     2.1620   -33.2530 
   89.3750    67.2600     9.1850     6.2260     8.9090    24.4390     2.1740   -33.4750 
   89.5000    64.6710     9.5030     6.4060     9.1130    24.4110     2.1720   -33.5730 
   89.6250    61.4410     9.7470     6.6010     9.7980    24.2830     2.1540   -33.5830 
   89.7500    59.5160     9.7450     6.6840    10.3340    24.1310     2.1310   -33.4840 
   89.8750    60.7060     9.5080     6.6150    10.4010    24.0290     2.1300   -33.3280 
   90.0000    64.2200     9.1340     6.4270     9.9200    23.9520     2.1620   -33.1210 
   90.1250    66.8650     8.7830     6.2040     8.9940    23.9230     2.2180   -32.9140 
   90.2500    66.0640     8.6490     6.0580     8.4540    23.9540     2.2620   -32.7430 
   90.3750    64.1580     8.7680     6.0330     9.2720    24.0020     2.2630   -32.6370 
   90.5000    61.6120     9.0770     6.1110    10.3550    23.9930     2.2260   -32.5670 
   90.6250    59.1280     9.4280     6.2270    10.6060    23.9160     2.1730   -32.4820 
   90.7500    59.1440     9.5680     6.2620    10.3730    23.8320     2.1330   -32.3590 
   90.8750    62.1850     9.3500     6.1440    10.4480    23.7860     2.1160   -32.1690 
   91.0000    65.2280     8.7950     5.8770    10.3670    23.8040     2.1160   -31.9060 
   91.1250    64.9990     8.1550     5.5600     9.7210    23.8670     2.1220   -31.5510 
   91.2500    62.2560     7.9620     5.4260     8.7840    23.9030     2.1240   -31.0800 
   91.3750    61.9040     8.5900     5.6650     8.6510    23.8930     2.1340   -30.4680 
   91.5000    64.1060    10.2860     6.4510    10.0150    23.8760     2.1710   -29.7430 
   91.6250    65.8030    13.1300     7.9330    13.4190    23.9480     2.2590   -28.9220 
   91.7500    64.1090    16.8480    10.2480    23.4030    24.0300     2.4030   -28.0530 
   91.8750    61.2490    20.0570    12.7680    40.0550    24.0800     2.5430   -27.2080 
   92.0000    60.0340    21.1510    14.3840    42.8720    24.0990     2.6260   -26.4050 
   92.1250    64.1720    19.3760    14.1370    25.1410    24.1040     2.6350   -25.6840 
   92.2500    71.9550    15.6880    12.1540    16.3360    24.1110     2.5870   -25.0460 
   92.3750    77.2900    12.1720     9.8570    12.0000    24.1240     2.5190   -24.5070 
   92.5000    80.5810     9.5930     7.9000     9.3070    24.1190     2.4470   -24.0860 
   92.6250    84.1790     7.9930     6.4820     7.6910    24.1750     2.3880   -23.8120 
   92.7500    85.7180     7.1810     5.6170     6.3610    24.2290     2.3530   -23.7130 
   92.8750    84.2530     6.7630     5.1010     5.8560    24.3000     2.3350   -23.7430 
   93.0000    82.3410     6.6200     4.8520     5.7990    24.3710     2.3260   -23.9000 
   93.1250    82.7100     6.7200     4.8290     5.7630    24.4400     2.3160   -24.1370 
   93.2500    83.9130     7.1210     5.0420     5.7470    24.4790     2.2970   -24.4870 
   93.3750    82.6240     7.7990     5.4550     5.8520    24.4860     2.2710   -24.9050 
   93.5000    77.9810     8.7280     6.0600     6.4680    24.4350     2.2430   -25.4040 
   93.6250    71.3800     9.8070     6.8170     7.5230    24.3280     2.2140   -25.9520 
   93.7500    66.7130    10.8100     7.6130     8.4070    24.3070     2.1900   -26.5510 
   93.8750    64.4070    11.5070     8.2550     9.1000    24.3260     2.1770   -27.1370 
   94.0000    62.4200    11.7680     8.5920     9.6750    24.2710     2.1800   -27.6960 
   94.1250    61.8070    11.6110     8.5670    10.2280    24.2700     2.1930   -28.2010 
   94.2500    63.7360    11.1700     8.2330    10.5380    24.1920     2.2070   -28.5750 
   94.3750    66.6310    10.7020     7.8060    10.4540    24.1300     2.2080   -28.8390 
   94.5000    69.2660    10.3380     7.4170     9.8350    24.0940     2.1840   -28.9900 
   94.6250    69.8610    10.1590     7.1470     8.9480    24.1020     2.1330   -29.0690 
   94.7500    69.0590    10.2820     7.0830     8.9460    24.1350     2.0780   -29.0870 
   94.8750    67.5510    10.7660     7.2520     9.6830    24.1150     2.0560   -29.0580 
   95.0000    67.4400    11.7170     7.7200    10.2810    24.0120     2.1060   -28.9930 
   95.1250    70.3490    13.1780     8.5330    10.1850    24.0180     2.2470   -28.8950 
   95.2500    73.7850    15.0390     9.6960     9.9620    24.2190     2.4320   -28.8200 
   95.3750    74.4590    16.7700    10.9280    11.2140    24.4660     2.5420   -28.7860 
   95.5000    69.9310    17.7660    11.8580    14.6820    24.5940     2.5290   -28.8200 
   95.6250    62.6770    17.5730    12.1200    17.2240    24.5540     2.4370   -28.8970 
   95.7500    58.6740    16.1260    11.5120    14.6940    24.3190     2.3300   -29.0160 
   95.8750    59.4080    14.2950    10.4970    11.7720    24.0490     2.2460   -29.1690 
   96.0000    61.6910    12.7060     9.4600    10.5990    23.9090     2.1910   -29.3360 
   96.1250    62.3820    11.6840     8.6480    10.6530    23.8810     2.1610   -29.5210 
   96.2500    62.5200    11.3080     8.1910    10.5990    23.8510     2.1460   -29.6910 
   96.3750    63.4560    11.2570     7.9810    10.2900    23.7940     2.1370   -29.8310 
   96.5000    62.3300    11.3080     7.9170     9.8780    23.7440     2.1350   -29.8920 
   96.6250    58.6720    11.3250     7.9100     9.6100    23.7190     2.1390   -29.8840 
   96.7500    56.0800    11.2740     7.9100     9.7950    23.7120     2.1520   -29.8020 
   96.8750    57.8880    11.2190     7.9090     9.8440    23.7170     2.1690   -29.6770 
   97.0000    63.1780    11.2020     7.9170     9.7290    23.7210     2.1840   -29.5340 
   97.1250    67.8080    11.2280     7.9420     9.6860    23.7200     2.1920   -29.3910 
   97.2500    67.8120    11.2660     7.9860     9.9910    23.7030     2.1890   -29.2700 
   97.3750    63.9830    11.2670     8.0260    10.3840    23.6720     2.1790   -29.1390 
   97.5000    59.8600    11.2080     8.0360    10.5960    23.6240     2.1680   -29.0180 
   97.6250    58.8160    11.0920     7.9970    10.6380    23.5940     2.1590   -28.8930 
   97.7500    58.9480    10.9400     7.9010    10.3910    23.6230     2.1490   -28.7680 
   97.8750    57.1200    10.7880     7.7740     9.7980    23.6740     2.1390   -28.6470 
   98.0000    54.4010    10.6540     7.6390     9.7210    23.6660     2.1300   -28.5250 
   98.1250    55.0290    10.5420     7.5190     9.8650    23.5830     2.1260   -28.3890 
   98.2500    60.5970    10.4540     7.4280     9.9110    23.6240     2.1320   -28.2010 
   98.3750    65.5390    10.3810     7.3630     9.6280    23.6870     2.1460   -28.0050 
   98.5000    65.3600    10.3310     7.3210     9.2950    23.7280     2.1600   -27.7950 
   98.6250    60.0870    10.3180     7.3040     9.1400    23.7540     2.1690   -27.6030 
   98.7500    55.1190    10.3480     7.3210     9.3080    23.8040     2.1650   -27.4150 
   98.8750    54.8920    10.4070     7.3740     9.5960    23.8420     2.1550   -27.2570 
