~V
VERS. 2.00: Ver 2.00
~W
STRT.M 30.0000:
STOP.M 271.0000:
STEP.M 0.1250:
NULL. -999.2500:
UWI. F10210:
~C
DEPT.M :
DEN.GM/CC :
GR.API :
RML.OHMM :
RI. :
RXO.OHMM :
CALI.CM :
SP.MV :
~A
# ...
  232.5000     2.2660    78.7650    11.5390    11.9760    11.4150    24.0960    -7.9580 
  232.6250     2.2870    81.9360    11.1180    11.2580    10.9960    24.0930    -8.1280 
  232.7500     2.3080    82.9460    11.0090    10.8450    10.9150    24.0990    -8.3250 
  232.8750     2.3200    82.1930    11.2610    10.7790    10.8470    24.0980    -8.5360 
  233.0000     2.3200    80.1070    11.9480    11.1080    10.6090    24.0910    -8.7530 
  233.1250     2.3110    77.5470    13.2100    11.9530    11.4410    24.0880    -8.9660 
  233.2500     2.3030    74.1390    14.8890    13.2210    13.9430    24.0970    -9.1780 
  233.3750     2.2980    71.1660    16.7630    14.7790    18.4530    24.0920    -9.4000 
  233.5000     2.2890    69.4620    18.5210    16.3870    21.5680    24.0830    -9.6340 
  233.6250     2.2690    69.7810    19.8440    17.7250    22.0870    24.0330    -9.8890 
  233.7500     2.2470    71.4610    20.8340    18.7420    21.4840    23.9300   -10.1260 
  233.8750     2.2400    72.3730    21.7740    19.6000    20.7200    23.8540   -10.3630 
  234.0000     2.2500    74.4220    22.9750    20.5580    20.7940    23.8320   -10.6180 
  234.1250     2.2690    79.8400    24.6030    21.8280    22.9910    23.7850   -10.8470 
  234.2500     2.2820    84.9580    26.3360    23.2470    26.6840    23.7050   -11.0580 
  234.3750     2.2910    87.1770    27.6890    24.4640    29.9940    23.7320   -11.2510 
  234.5000     2.2960    86.9800    28.1920    25.0850    30.5790    24.0570   -11.4250 
  234.6250     2.2910    86.6620    27.5970    24.8380    27.7950    24.2220   -11.5800 
  234.7500     2.2770    85.4740    26.4830    24.1050    24.8750    24.2340   -11.7220 
  234.8750     2.2580    85.1850    25.3570    23.2600    22.3400    24.1410   -11.8370 
  235.0000     2.2400    85.5200    24.5670    22.5920    23.2410    24.0390   -11.9090 
  235.1250     2.2290    85.4670    24.2730    22.2920    23.1570    23.9750   -11.9630 
  235.2500     2.2260    88.0970    24.2800    22.2900    24.0780    23.8820   -11.9860 
  235.3750     2.2300    93.2940    24.4540    22.5070    23.1910    23.8670   -11.9770 
  235.5000     2.2350    94.1000    24.7480    22.8810    20.3740    23.9470   -11.9170 
  235.6250     2.2300    84.8960    25.1570    23.3690    21.2350    24.0930   -11.7510 
  235.7500     2.2120    75.8370    25.5300    23.8310    23.4720    24.1800   -11.5270 
  235.8750     2.1930    72.6700    25.6510    24.0900    24.5280    24.3020   -11.2620 
  236.0000     2.1880    71.6930    25.3310    23.9790    24.7850    24.3300   -10.9720 
  236.1250     2.1970    68.7700    24.4570    23.3620    24.3650    24.3490   -10.6580 
  236.2500     2.2000    65.3980    23.3230    22.4510    22.9390    24.3370   -10.3110 
  236.3750     2.1920    61.5240    22.2770    21.5200    21.3360    24.3420    -9.9500 
  236.5000     2.1800    56.6670    21.6470    20.8520    21.0970    24.3410    -9.6010 
  236.6250     2.1760    52.9140    21.7510    20.7380    21.7390    24.3480    -9.3220 
  236.7500     2.1810    53.6990    22.5400    21.2010    23.3390    24.3460    -9.1220 
  236.8750     2.1910    57.8180    23.9330    22.2550    25.4010    24.3350    -8.9690 
  237.0000     2.2040    60.6160    25.6720    23.7760    27.4150    24.3300    -8.8090 
  237.1250     2.2200    61.0150    27.2050    25.3800    28.8090    24.3350    -8.6640 
  237.2500     2.2390    61.7970    27.9910    26.4780    30.7550    24.3470    -8.5350 
  237.3750     2.2570    63.4690    27.7700    26.6760    32.3580    24.3530    -8.4290 
  237.5000     2.2680    64.1570    26.6700    25.9480    30.6220    24.3410    -8.3470 
  237.6250     2.2720    63.0890    25.1480    24.6140    24.7210    24.3380    -8.2520 
  237.7500     2.2730    61.9090    23.7850    23.2610    20.8240    24.3380    -8.1520 
  237.8750     2.2720    62.7740    22.7500    22.1140    20.2030    24.3400    -8.0330 
  238.0000     2.2750    66.0620    21.9230    21.1480    21.1930    24.2640    -7.9330 
  238.1250     2.2820    68.5440    20.9790    20.1510    20.9690    24.2590    -7.8710 
  238.2500     2.2910    68.2480    19.7360    18.9710    19.1900    24.2590    -7.8210 
  238.3750     2.2980    68.9490    18.3310    17.6960    17.1040    24.2520    -7.7800 
  238.5000     2.2980    73.0020    17.1790    16.6170    15.1010    24.1900    -7.7270 
  238.6250     2.2850    74.5590    16.9750    16.2450    14.5600    24.1120    -7.7110 
  238.7500     2.2630    71.9780    17.9850    16.8100    15.4360    24.0980    -7.7070 
  238.8750     2.2380    68.8050    20.3330    18.4980    18.1680    24.0970    -7.7480 
  239.0000     2.2140    67.8700    23.8750    21.3350    23.6070    24.0840    -7.8260 
  239.1250     2.1980    67.2850    27.9530    25.0100    30.3320    24.0870    -7.9320 
  239.2500     2.1940    65.7110    31.0970    28.2540    34.2560    24.0860    -8.0870 
  239.3750     2.2050    66.1010    31.9620    29.6950    34.6120    24.0950    -8.2550 
  239.5000     2.2310    68.4510    30.0730    28.5840    32.6480    24.0960    -8.4570 
  239.6250     2.2690    71.7880    26.2980    25.4180    27.0330    24.0830    -8.6710 
  239.7500     2.3110    76.0090    22.6360    22.0570    21.3980    24.0860    -8.8690 
  239.8750     2.3570    80.5460    19.9710    19.3960    17.9550    24.0960    -9.0550 
  240.0000     2.4060    81.6730    18.4500    17.6690    17.4620    24.0980    -9.1850 
  240.1250     2.4550    77.2060    17.8600    16.8020    20.3650    24.0920    -9.2520 
  240.2500     2.4910    73.4680    17.5730    16.3300    23.7480    24.0830    -9.2830 
  240.3750     2.4990    73.0310    17.2120    15.9550    20.3860    24.0940    -9.3090 
  240.5000     2.4700    74.0500    16.5960    15.4970    14.8380    24.0900    -9.3270 
  240.6250     2.4090    76.0010    15.8480    14.9810    14.8390    24.0850    -9.2860 
  240.7500     2.3380    77.8130    15.3320    14.6300    17.6230    24.0900    -9.2300 
  240.8750     2.2770    77.0040    15.3170    14.6640    20.7730    24.0960    -9.1190 
  241.0000     2.2420    73.4160    15.9300    15.2460    18.9710    24.0960    -8.9860 
  241.1250     2.2450    70.6910    17.1040    16.4530    18.7270    24.0830    -8.8050 
  241.2500     2.2710    69.8510    18.2710    17.8380    19.0000    24.0850    -8.5780 
  241.3750     2.3020    70.0460    18.8440    18.8210    21.5630    24.0880    -8.3010 
  241.5000     2.3240    70.1160    18.3800    18.8620    21.6640    24.0730    -7.9440 
  241.6250     2.3300    69.4610    16.6690    17.5960    20.5410    24.0290    -7.5490 
  241.7500     2.3310    66.4230    14.3100    15.5330    16.0900    23.9330    -7.1120 
  241.8750     2.3350    60.5460    11.8440    13.1810    12.8960    23.9290    -6.6930 
  242.0000     2.3430    53.5930     9.6880    10.9750    15.2970    23.9150    -6.3100 
  242.1250     2.3400    50.3250     8.0860     9.2110    16.4050    23.9070    -5.9810 
  242.2500     2.3210    51.6640     6.9570     7.8950    11.1910    23.9040    -5.7010 
  242.3750     2.2960    54.1550     6.2690     7.0270     7.0420    23.9070    -5.4570 
  242.5000     2.2720    55.3560     5.9800     6.5810     5.8120    23.9030    -5.2860 
  242.6250     2.2520    55.8970     6.1080     6.5810     5.9620    23.8970    -5.2140 
  242.7500     2.2400    57.5210     6.5500     6.9240     6.2990    23.8770    -5.2200 
  242.8750     2.2430    58.9520     7.2330     7.5450     6.8160    23.8830    -5.2910 
  243.0000     2.2610    58.4800     8.0440     8.3300     7.6780    23.8880    -5.3790 
  243.1250     2.2800    58.7320     8.8610     9.1380     9.2780    23.9110    -5.4810 
  243.2500     2.2870    61.7520     9.6210     9.8760    10.6310    23.9050    -5.5480 
  243.3750     2.2900    65.2430    10.3290    10.5370    10.8440    23.9260    -5.5880 
  243.5000     2.3010    66.5000    11.0300    11.1620    10.5810    23.9940    -5.5890 
  243.6250     2.3240    65.5320    11.7830    11.8060    10.8750    23.9750    -5.5050 
