~V
VERS. 2.00: Ver 2.00
~W
STRT.M 50.0000:
STOP.M 284.0000:
STEP.M 0.1250:
NULL. -999.2500:
UWI. F10254:
~C
DEPT.M :
GR.API :
RML.OHMM :
RI. :
RXO.OHMM :
CALI.CM :
DEN.GM/CC :
SP.MV :
~A
   50.0000    44.8590    16.7900     1.4320     1.5860    26.0520     2.0830   209.7640 
   50.1250    44.8460    16.6640     1.4270     1.4990    26.0150     2.0990   209.3760 
   50.2500    47.7860    16.5040     1.4280     1.3350    25.9270     2.1260   209.1290 
   50.3750    51.0900    16.2460     1.4320     1.2070    25.8150     2.1620   208.9540 
   50.5000    50.9550    15.9200     1.4360     1.1630    25.6510     2.2050   208.8520 
   50.6250    48.8440    15.6240     1.4430     1.2280    25.3550     2.2530   208.6430 
   50.7500    49.7670    15.4160     1.4580     1.3280    25.0130     2.2940   208.1220 
   50.8750    52.6010    15.2780     1.4790     1.4090    24.7480     2.3200   207.0590 
   51.0000    52.5630    15.1300     1.4990     1.4810    24.6090     2.3300   204.8210 
   51.1250    49.4910    14.8360     1.5080     1.5060    24.5560     2.3280   200.3550 
   51.2500    47.3490    14.3670     1.5020     1.4580    24.5400     2.3230   193.7790 
   51.3750    47.2920    13.7900     1.4840     1.3550    24.5950     2.3180   185.2050 
   51.5000    47.7380    13.2210     1.4600     1.2490    24.7570     2.3150   174.8440 
   51.6250    48.2190    12.8010     1.4420     1.1800    24.9440     2.3120   162.7830 
   51.7500    49.7640    12.5600     1.4370     1.1470    25.0070     2.3130   149.7680 
   51.8750    51.2400    12.4820     1.4490     1.1300    24.9350     2.3230   136.3180 
   52.0000    50.7260    12.5050     1.4770     1.1180    24.8110     2.3410   122.7700 
   52.1250    47.6650    12.5460     1.5130     1.1200    24.6950     2.3630   109.7420 
   52.2500    45.3290    12.5350     1.5480     1.1200    24.6480     2.3780    97.5220 
   52.3750    45.7610    12.4410     1.5750     1.1160    24.6500     2.3790    86.2190 
   52.5000    46.9670    12.2590     1.5920     1.1180    24.6940     2.3670    75.8870 
   52.6250    46.7870    11.9940     1.5980     1.1380    24.7620     2.3490    67.0040 
   52.7500    46.5530    11.6790     1.5960     1.1730    24.7930     2.3340    59.4170 
   52.8750    47.0000    11.3420     1.5910     1.2410    24.8730     2.3300    52.8950 
   53.0000    46.9480    11.0220     1.5850     1.3540    25.0570     2.3450    47.4220 
   53.1250    45.0430    10.7800     1.5870     1.5110    25.1370     2.3820    43.0780 
   53.2500    43.0140    10.6280     1.5990     1.5610    24.9400     2.4300    39.7110 
   53.3750    41.9520    10.5450     1.6180     1.4520    24.6500     2.4740    37.2180 
   53.5000    41.6590    10.4830     1.6360     1.3060    24.4870     2.5010    35.4190 
   53.6250    41.9780    10.3670     1.6430     1.2390    24.4570     2.5020    33.9980 
   53.7500    43.4470    10.1930     1.6360     1.2280    24.4190     2.4880    32.6220 
   53.8750    45.3400    10.0340     1.6120     1.2380    24.3380     2.4690    31.2950 
   54.0000    45.7280     9.9780     1.5700     1.2550    24.2430     2.4560    30.2810 
   54.1250    43.7910     9.9350     1.4950     1.2650    24.1990     2.4570    29.9320 
   54.2500    42.1720     9.3420     1.3470     1.2540    24.1780     2.4740    30.0630 
   54.3750    42.1670     7.5640     1.0820     1.2350    24.1650     2.5090    30.6280 
   54.5000    42.2370     4.8660     0.7350     1.2240    24.1750     2.5640    31.4790 
   54.6250    40.1280     2.5640     0.4360     1.2690    24.2120     2.6360    32.2300 
   54.7500    37.9500     1.1700     0.2480     1.3370    24.3750     2.6960    32.6450 
   54.8750    37.3830     0.5170     0.1570     1.4200    24.7210     2.7130    32.4590 
   55.0000    40.0460     0.3930     0.1480     1.6150    25.0210     2.6620    31.2640 
   55.1250    45.9850     0.7880     0.2540     2.4440    24.8420     2.5410    28.5580 
   55.2500    52.7020     1.6870     0.5300     4.5330    24.4730     2.3970    24.7520 
   55.3750    57.8840     3.2000     1.0990     7.1050    24.2510     2.2730    20.1200 
   55.5000    59.5150     5.2730     2.0940     8.4510    24.1540     2.1940    14.9440 
   55.6250    57.8680     7.1370     3.5220     8.4440    24.0250     2.1620     9.6380 
   55.7500    55.5580     7.8750     4.9070     8.5480    23.8800     2.1540     4.5570 
   55.8750    54.4690     7.6790     5.9240     8.7920    23.7790     2.1520    -0.0310 
   56.0000    54.8740     7.3230     6.5710     8.8990    23.7380     2.1500    -3.7660 
   56.1250    58.0680     7.2900     6.9850     8.7480    23.7160     2.1420    -6.2180 
   56.2500    62.3320     7.5070     7.3070     8.4910    23.7030     2.1330    -7.8200 
   56.3750    64.1510     7.8390     7.5730     8.3050    23.7150     2.1260    -8.9240 
   56.5000    62.3140     8.1910     7.8100     8.2480    23.7190     2.1260    -9.6930 
   56.6250    59.5900     8.5150     8.0380     8.4030    23.6800     2.1370   -10.1860 
   56.7500    59.0510     8.8060     8.2570     8.8890    23.6320     2.1570   -10.5680 
   56.8750    60.5100     9.0600     8.4520     9.6130    23.6160     2.1780   -10.8340 
   57.0000    63.0400     9.2680     8.6010    10.3830    23.6210     2.1940   -10.9690 
   57.1250    65.6980     9.4040     8.6770    10.1960    23.6320     2.1960   -11.0340 
   57.2500    65.4150     9.4680     8.6900     9.5030    23.6280     2.1870   -11.0930 
   57.3750    62.8030     9.4610     8.6450     9.0560    23.6490     2.1740   -11.1170 
   57.5000    59.3730     9.4020     8.5630     8.9280    23.6860     2.1630   -11.1250 
   57.6250    58.1060     9.3350     8.4680     8.9830    23.7290     2.1600   -11.1110 
   57.7500    59.5110     9.3090     8.3890     9.1360    23.7730     2.1590   -11.0180 
   57.8750    61.9980     9.3440     8.3380     9.1310    23.8460     2.1570   -10.8910 
   58.0000    62.9700     9.4220     8.3060     8.9360    23.9120     2.1510   -10.7670 
   58.1250    63.3600     9.4600     8.2460     8.9840    23.9580     2.1420   -10.6550 
   58.2500    65.7250     9.3870     8.1140     9.0430    24.0210     2.1360   -10.4740 
   58.3750    68.8590     9.1890     7.8970     9.0300    24.1060     2.1340   -10.1610 
   58.5000    69.2740     8.9070     7.6250     8.6500    24.1780     2.1360    -9.7380 
   58.6250    67.9270     8.6350     7.3660     7.8670    24.2090     2.1380    -9.3690 
   58.7500    67.7490     8.4530     7.1820     7.4600    24.2150     2.1370    -9.1360 
   58.8750    67.6500     8.3980     7.1090     8.0740    24.2310     2.1360    -8.9270 
   59.0000    66.4030     8.5200     7.1800     8.8720    24.2420     2.1350    -8.7870 
   59.1250    66.5900     8.9810     7.4990     9.1700    24.2320     2.1460    -8.7780 
   59.2500    68.1210     9.8380     8.1090     9.4430    24.2150     2.1780    -8.8560 
   59.3750    69.0170    11.0730     9.0230    10.1970    24.2520     2.2360    -8.9830 
   59.5000    68.9050    12.4950    10.1430    12.7670    24.3930     2.3100    -9.1190 
   59.6250    67.7040    13.5810    11.1300    18.5220    24.5110     2.3660    -9.3150 
   59.7500    64.7560    13.8350    11.5560    20.8580    24.2830     2.3800    -9.5100 
   59.8750    61.7650    13.1180    11.2160    15.2240    23.8800     2.3500    -9.7590 
   60.0000    61.7330    11.7930    10.3010    10.8010    23.6450     2.2920   -10.0310 
   60.1250    66.2070    10.5220     9.2610     9.4550    23.6240     2.2390   -10.1530 
   60.2500    71.3340     9.7110     8.4570     9.0810    23.6660     2.2070   -10.2040 
   60.3750    73.5310     9.4180     7.9880     8.9380    23.7190     2.1960   -10.2690 
   60.5000    71.1660     9.5020     7.8230     8.9090    23.7190     2.2000   -10.3830 
   60.6250    66.2130     9.7150     7.8560     8.9620    23.7180     2.2080   -10.4280 
   60.7500    64.3440     9.8280     7.9120     9.0830    23.7230     2.2150   -10.4320 
   60.8750    66.3840     9.7910     7.9210     9.0180    23.7350     2.2200   -10.3960 
   61.0000    68.6400     9.6540     7.8840     8.8340    23.7420     2.2220   -10.3240 
   61.1250    68.0130     9.5050     7.8370     8.7330    23.7460     2.2250   -10.4480 
