~V
VERS. 2.00: Ver 2.00
~W
STRT.M 52.0000:
STOP.M 271.0000:
STEP.M 0.1250:
NULL. -999.2500:
UWI. F10212:
~C
DEPT.M :
GR.API :
RML.OHMM :
RI. :
RXO.OHMM :
CALI.CM :
SP.MV :
DEN.GM/CC :
~A
# ...
  232.0000    64.2800     8.6700     6.9870     6.9680    23.9960    -4.2240     2.3570 
  232.1250    65.9490     8.7990     7.1380     6.9190    24.0160    -4.1610     2.3590 
  232.2500    66.2050     8.9010     7.2500     6.8270    24.0000    -4.1320     2.3570 
  232.3750    65.3990     8.9730     7.3190     6.8460    23.9520    -4.1260     2.3570 
  232.5000    63.7100     9.0140     7.3450     6.6830    23.8970    -4.1260     2.3670 
  232.6250    62.4820     9.0170     7.3190     6.6090    23.8300    -4.1460     2.3850 
  232.7500    63.0990     8.9750     7.2440     6.6290    23.7980    -4.1930     2.3980 
  232.8750    64.0740     8.8780     7.1180     6.7510    23.8000    -4.2540     2.4000 
  233.0000    62.2240     8.7210     6.9460     6.8820    23.8460    -4.3150     2.3980 
  233.1250    57.7810     8.5220     6.7500     6.8730    23.7690    -4.3720     2.3970 
  233.2500    56.2590     8.3300     6.5640     6.5050    23.5860    -4.4010     2.3940 
  233.3750    58.6320     8.1770     6.4160     6.0080    23.3760    -4.4070     2.3850 
  233.5000    60.8490     8.0770     6.3150     5.8190    23.2570    -4.4070     2.3710 
  233.6250    61.0960     8.0280     6.2690     5.8950    23.2310    -4.4070     2.3570 
  233.7500    61.3420     8.0100     6.2580     6.0280    23.2400    -4.4100     2.3480 
  233.8750    61.1500     8.0210     6.2760     6.1380    23.3350    -4.4220     2.3430 
  234.0000    59.8800     8.0620     6.3200     5.9830    23.5320    -4.4370     2.3450 
  234.1250    58.0440     8.1310     6.3870     5.7710    23.7380    -4.4740     2.3540 
  234.2500    56.3390     8.2000     6.4600     5.7860    23.9410    -4.5380     2.3650 
  234.3750    54.8290     8.2380     6.5150     5.9770    24.1020    -4.6070     2.3740 
  234.5000    54.7450     8.2240     6.5310     6.0630    24.1670    -4.6870     2.3830 
  234.6250    57.2800     8.1490     6.4880     5.8850    24.1540    -4.7780     2.3890 
  234.7500    59.6260     8.0510     6.4130     5.5820    24.0980    -4.8550     2.3930 
  234.8750    61.7700     7.9660     6.3310     5.4640    24.0170    -4.9190     2.3910 
  235.0000    63.1630     7.9150     6.2620     5.5930    23.9360    -4.9800     2.3840 
  235.1250    63.1760     7.8910     6.2050     5.8820    23.8970    -5.0410     2.3780 
  235.2500    63.3900     7.8500     6.1340     5.9530    23.9190    -5.1060     2.3760 
  235.3750    65.6240     7.7700     6.0340     5.7710    23.9720    -5.1740     2.3800 
  235.5000    67.7650     7.6670     5.9130     5.6710    24.0070    -5.2430     2.3890 
  235.6250    65.5820     7.6190     5.8220     5.6100    24.0110    -5.3120     2.3970 
  235.7500    62.3810     7.6970     5.8180     5.3340    23.9660    -5.3830     2.3980 
  235.8750    62.2630     7.9370     5.9340     5.2240    23.9120    -5.4600     2.3960 
  236.0000    64.9540     8.3250     6.1720     5.3770    23.9370    -5.5360     2.4000 
  236.1250    65.9970     8.8070     6.5110     5.8050    24.0210    -5.6180     2.4110 
  236.2500    65.1820     9.2910     6.8790     6.3900    24.1230    -5.6880     2.4190 
  236.3750    64.9140     9.7300     7.2330     7.2520    24.2090    -5.7490     2.4200 
  236.5000    65.5590    10.1100     7.5500     8.0460    24.2760    -5.8170     2.4150 
  236.6250    65.4430    10.4440     7.8240     8.6890    24.3380    -5.9310     2.4140 
  236.7500    65.9080    10.7610     8.0760     9.0280    24.3570    -6.0850     2.4200 
  236.8750    66.9760    11.0700     8.3160     9.2890    24.3530    -6.2760     2.4340 
  237.0000    67.5850    11.3610     8.5440     9.4000    24.3450    -6.5250     2.4500 
  237.1250    67.3660    11.6040     8.7460     9.5650    24.3530    -6.8450     2.4560 
  237.2500    66.2870    11.7910     8.9170     9.6310    24.3820    -7.1990     2.4530 
  237.3750    65.2770    11.9300     9.0580     9.6320    24.4210    -7.5350     2.4460 
  237.5000    65.5410    12.0410     9.1770     9.5150    24.4380    -7.7210     2.4430 
  237.6250    67.2000    12.1650     9.2980     9.7410    24.4230    -7.6310     2.4450 
  237.7500    68.1290    12.3240     9.4390    10.1480    24.3980    -7.4280     2.4500 
  237.8750    67.4930    12.5010     9.5940    10.5920    24.3880    -7.1380     2.4540 
  238.0000    66.4160    12.6340     9.7250    11.0060    24.3910    -6.7750     2.4580 
  238.1250    67.7790    12.6150     9.7520    11.1780    24.3970    -6.3220     2.4580 
  238.2500    71.0850    12.4100     9.6380    11.1290    24.4010    -5.8260     2.4590 
  238.3750    71.8340    12.0360     9.3810    10.4830    24.4070    -5.3530     2.4590 
  238.5000    67.3920    11.5700     9.0290     9.1340    24.4260    -5.0110     2.4520 
  238.6250    61.9260    11.1260     8.6640     8.6450    24.4240    -4.8870     2.4390 
  238.7500    61.0190    10.7940     8.3610     8.7150    24.4210    -4.8280     2.4270 
  238.8750    64.3240    10.6200     8.1620     9.4520    24.4620    -4.7960     2.4240 
  239.0000    69.0380    10.6200     8.0880    10.9150    24.5360    -4.7730     2.4240 
  239.1250    70.1440    10.8150     8.1710    11.5630    24.6120    -4.7710     2.4190 
  239.2500    66.8020    11.1400     8.3770    10.0740    24.6610    -4.7970     2.4090 
  239.3750    61.9880    11.5300     8.6700     9.6070    24.6530    -4.8230     2.4040 
  239.5000    59.3820    11.8990     8.9870    11.3570    24.5730    -4.8400     2.4140 
  239.6250    60.5420    12.1380     9.2350    14.2750    24.4840    -4.8460     2.4370 
  239.7500    62.9870    12.2290     9.3720    14.1340    24.4420    -4.8430     2.4560 
  239.8750    65.4540    12.1950     9.4010    11.0460    24.4670    -4.8220     2.4670 
  240.0000    65.9370    12.0960     9.3570     9.3020    24.5360    -4.7730     2.4770 
  240.1250    64.8680    11.9940     9.2840     9.9400    24.5900    -4.7130     2.4900 
  240.2500    63.5350    11.9160     9.2140    11.8400    24.6030    -4.6660     2.4980 
  240.3750    61.9220    11.8500     9.1500    13.1620    24.5930    -4.6370     2.4940 
  240.5000    61.5410    11.7780     9.0840    12.3960    24.5650    -4.6200     2.4820 
  240.6250    60.7520    11.6820     9.0070    10.9850    24.5360    -4.6130     2.4640 
  240.7500    60.3910    11.5600     8.9150    10.6260    24.4880    -4.6050     2.4500 
  240.8750    62.7700    11.3940     8.7970    10.2020    24.4280    -4.6020     2.4420 
  241.0000    66.6980    11.1590     8.6400     8.8340    24.3940    -4.6020     2.4430 
  241.1250    67.6990    10.8230     8.4210     7.7090    24.4010    -4.5900     2.4460 
  241.2500    65.8280    10.4200     8.1550     7.5030    24.4080    -4.5500     2.4440 
  241.3750    65.0430    10.0050     7.8680     7.6540    24.3500    -4.4920     2.4360 
  241.5000    65.0520     9.6400     7.5970     7.3470    24.1920    -4.4370     2.4280 
  241.6250    63.4140     9.3840     7.3890     6.7670    24.0240    -4.3930     2.4270 
  241.7500    61.7070     9.2230     7.2510     6.0630    23.9570    -4.3580     2.4330 
  241.8750    59.9980     9.1330     7.1770     5.6700    23.9970    -4.3410     2.4380 
  242.0000    58.2000     9.0840     7.1520     5.6330    24.0450    -4.3640     2.4360 
  242.1250    58.9860     9.0360     7.1460     5.8250    23.9410    -4.4110     2.4260 
  242.2500    62.4780     8.9580     7.1240     6.0880    23.6670    -4.4680     2.4170 
  242.3750    64.8350     8.8370     7.0650     6.3020    23.4520    -4.5330     2.4080 
  242.5000    64.5660     8.6750     6.9650     6.3890    23.4920    -4.6020     2.3960 
  242.6250    64.6660     8.4900     6.8360     6.2530    23.7600    -4.6540     2.3830 
  242.7500    65.0610     8.3190     6.7130     6.0970    24.0190    -4.6870     2.3770 
  242.8750    62.6280     8.2020     6.6290     6.1250    24.1570    -4.6800     2.3830 
  243.0000    58.0630     8.1670     6.6090     6.2360    24.2300    -4.6330     2.3920 
  243.1250    56.5050     8.2390     6.6650     6.4630    24.3300    -4.5550     2.3940 
