~V
VERS. 2.00: Ver 2.00
~W
STRT.M 50.0000:
STOP.M 283.0000:
STEP.M 0.1250:
NULL. -999.2500:
UWI. F10256:
~C
DEPT.M :
DEN.GM/CC :
GR.API :
RML.OHMM :
RI. :
RXO.OHMM :
CALI.CM :
SP.MV :
~A
# ...
  106.2500     2.1820    56.7080     9.3960     8.3380    10.2600    24.7110   -16.0180 
  106.3750     2.1830    54.2730     9.4900     8.2620    10.2230    24.7060   -16.1300 
  106.5000     2.1850    54.5720     9.7020     8.3760    10.2170    24.6740   -16.1880 
  106.6250     2.1850    57.5670     9.8610     8.5410    10.1730    24.6600   -16.1660 
  106.7500     2.1840    59.3600     9.9090     8.6580    10.1380    24.6980   -16.0480 
  106.8750     2.1840    59.1920     9.8370     8.6870    10.1060    24.7390   -15.8670 
  107.0000     2.1900    58.8300     9.6490     8.6150    10.0870    24.7370   -15.6840 
  107.1250     2.2030    59.3590     9.3620     8.4330    10.1630    24.7490   -15.4790 
  107.2500     2.2200    60.7360     9.0510     8.1970    10.1440    24.7720   -15.2460 
  107.3750     2.2350    63.9190     8.7920     7.9670     9.9930    24.7650   -14.9870 
  107.5000     2.2410    67.5610     8.6640     7.8100     9.6600    24.7470   -14.7530 
  107.6250     2.2340    66.8780     8.7480     7.8050     9.3480    24.7740   -14.6220 
  107.7500     2.2180    61.1650     9.0040     7.9480     9.5200    24.7830   -14.5970 
  107.8750     2.2010    54.8730     9.3680     8.2050    10.4290    24.7590   -14.6350 
  108.0000     2.1880    53.3260     9.7400     8.5110    11.6180    24.7590   -14.7030 
  108.1250     2.1830    58.3010    10.0000     8.7700    12.7040    24.7850   -14.8080 
  108.2500     2.1840    63.0020    10.1090     8.9220    12.9390    24.7670   -14.9540 
  108.3750     2.1880    63.1190    10.0840     8.9610    11.9520    24.7200   -15.1320 
  108.5000     2.1930    59.5630     9.9860     8.9180    11.0480    24.6870   -15.2950 
  108.6250     2.1980    56.9510     9.8900     8.8510    10.8020    24.6520   -15.3820 
  108.7500     2.2010    55.7410     9.8360     8.8060    10.8480    24.6090   -15.4370 
  108.8750     2.2040    54.4110     9.8250     8.7950    10.9230    24.6100   -15.4740 
  109.0000     2.2070    54.4200     9.8390     8.8110    10.9790    24.6420   -15.5120 
  109.1250     2.2090    56.6320     9.8570     8.8370    11.0320    24.6390   -15.5260 
  109.2500     2.2100    58.2860     9.8650     8.8580    11.0840    24.6510   -15.5130 
  109.3750     2.2080    58.4430     9.8650     8.8710    11.0740    24.7070   -15.4940 
  109.5000     2.2030    57.1890     9.8620     8.8810    10.9750    24.7460   -15.4900 
  109.6250     2.1970    55.5490     9.8620     8.8920    10.9190    24.7780   -15.4510 
  109.7500     2.1910    55.2860     9.8580     8.9000    10.9390    24.8150   -15.3830 
  109.8750     2.1850    57.6650     9.8300     8.8890    10.9820    24.8590   -15.2710 
  110.0000     2.1830    61.2580     9.7410     8.8300    10.9340    24.8640   -15.0980 
  110.1250     2.1860    61.7920     9.5350     8.6710    10.6990    24.8740   -14.9250 
  110.2500     2.1950    60.6450     9.2200     8.4110    10.4190    24.8910   -14.7130 
  110.3750     2.2090    60.3780     8.8420     8.0800    10.1790    24.8600   -14.4630 
  110.5000     2.2240    62.1810     8.4840     7.7410     9.8370    24.7910   -14.2260 
  110.6250     2.2300    63.6270     8.2760     7.5000     9.1280    24.7800   -14.0890 
  110.7500     2.2260    62.6940     8.2700     7.4100     8.1440    24.7860   -14.0510 
  110.8750     2.2150    61.2960     8.4710     7.4900     7.9000    24.7720   -14.1140 
  111.0000     2.2030    60.1830     8.8290     7.7110     8.6310    24.7810   -14.2470 
  111.1250     2.1950    58.5230     9.2370     8.0040     9.6200    24.8060   -14.4350 
  111.2500     2.1890    56.2180     9.5590     8.2600    10.0870    24.7860   -14.6810 
  111.3750     2.1810    55.7250     9.7130     8.4060    10.3030    24.7460   -14.9750 
  111.5000     2.1700    56.5850     9.6730     8.4120    10.4850    24.7450   -15.2460 
  111.6250     2.1590    57.0070     9.5080     8.3170    10.6590    24.7570   -15.4080 
  111.7500     2.1550    57.7770     9.4490     8.2840    10.7550    24.7470   -15.4450 
  111.8750     2.1640    58.3820     9.7820     8.5130    10.8950    24.7600   -15.3880 
  112.0000     2.1930    57.0580    10.8290     9.2540    11.3850    24.7800   -15.2440 
  112.1250     2.2490    54.3510    13.0400    10.9250    13.7350    24.7870   -15.0080 
  112.2500     2.3230    51.4720    16.2010    13.5090    19.9940    24.8320   -14.7400 
  112.3750     2.3980    47.0350    19.7600    16.7150    31.9110    24.9660   -14.4460 
  112.5000     2.4440    42.3280    22.7400    19.8070    50.1010    25.1390   -14.1900 
  112.6250     2.4270    41.8840    23.6080    21.3870    78.8330    25.2630   -13.9860 
  112.7500     2.3590    43.9010    22.0280    20.7190    91.1950    25.3130   -13.8170 
  112.8750     2.2740    44.7020    18.5610    17.9940    62.2750    25.2320   -13.6650 
  113.0000     2.2010    44.2210    14.5660    14.4360    28.7230    25.0500   -13.5200 
  113.1250     2.1650    46.1880    11.4170    11.3940    14.8080    24.8650   -13.3370 
  113.2500     2.1630    50.9780     9.3130     9.1850    11.0210    24.7780   -13.0820 
  113.3750     2.1870    57.0480     8.0380     7.6970     9.6310    24.7760   -12.7580 
  113.5000     2.2200    63.4640     7.3240     6.7580     8.4430    24.8810   -12.4040 
  113.6250     2.2470    69.7160     7.0340     6.2950     6.9690    25.0900   -12.1170 
  113.7500     2.2550    73.5520     7.0310     6.1650     5.9210    25.2850   -11.9570 
  113.8750     2.2420    72.4970     7.3020     6.3350     5.7950    25.3280   -11.9400 
  114.0000     2.2150    66.5360     7.8210     6.7710     6.3350    25.2410   -12.0630 
  114.1250     2.1860    60.2850     8.5180     7.4270     7.4570    25.0410   -12.3400 
  114.2500     2.1640    57.4270     9.2140     8.1440     8.8680    24.7710   -12.7610 
  114.3750     2.1530    56.2600     9.7670     8.7860     9.8050    24.5370   -13.2730 
  114.5000     2.1500    54.6400    10.0920     9.2400    10.0680    24.4040   -13.7860 
  114.6250     2.1520    53.0410    10.1570     9.4260     9.9770    24.3210   -14.2030 
  114.7500     2.1530    51.9680    10.0810     9.4260     9.8560    24.2240   -14.4800 
  114.8750     2.1560    52.6760     9.9350     9.3070     9.6770    24.1390   -14.6140 
  115.0000     2.1600    55.5680     9.7550     9.1190     9.4390    24.0390   -14.6560 
  115.1250     2.1660    57.5430     9.5310     8.8710     9.2240    23.8960   -14.6140 
  115.2500     2.1730    55.0000     9.2730     8.5870     8.9690    23.7770   -14.4800 
  115.3750     2.1790    52.2440     9.0180     8.3020     8.6170    23.7280   -14.3150 
  115.5000     2.1810    55.6380     8.8360     8.0710     8.2330    23.6950   -14.1770 
  115.6250     2.1800    62.2270     8.8200     7.9760     7.6370    23.6650   -14.1200 
  115.7500     2.1790    64.5130     8.9710     8.0280     7.3530    23.6530   -14.1140 
  115.8750     2.1790    63.1590     9.2540     8.2140     7.6690    23.5970   -14.1690 
  116.0000     2.1800    60.5530     9.5980     8.4850     8.4860    23.5060   -14.2780 
  116.1250     2.1820    58.1560     9.9040     8.7660     9.2910    23.4900   -14.4220 
  116.2500     2.1820    56.4690    10.1110     8.9860     9.9910    23.5810   -14.6180 
  116.3750     2.1820    56.3220    10.2030     9.1140    10.6030    23.7390   -14.8370 
  116.5000     2.1800    56.8450    10.2000     9.1520    10.7410    24.0060   -15.0290 
  116.6250     2.1790    55.6000    10.1420     9.1190    10.6080    24.3600   -15.1810 
  116.7500     2.1780    52.8460    10.0780     9.0650    10.5480    24.6410   -15.3090 
  116.8750     2.1780    50.3820    10.0350     9.0170    10.5770    24.7780   -15.3770 
  117.0000     2.1800    51.3700    10.0220     8.9890    10.7030    24.8360   -15.4120 
  117.1250     2.1850    55.6870    10.0400     8.9890    10.9610    24.8280   -15.4500 
  117.2500     2.1910    58.6390    10.0730     9.0000    11.3290    24.7790   -15.5050 
  117.3750     2.1970    58.5580    10.1010     9.0080    11.7420    24.7570   -15.5690 
