~V
VERS. 2.00: Ver 2.00
~W
STRT.M 60.0000:
STOP.M 271.0000:
STEP.M 0.1250:
NULL. -999.2500:
UWI. F10237:
~C
DEPT.M :
GR.API :
RML.OHMM :
RI. :
RXO.OHMM :
CALI.CM :
DEN.GM/CC :
SP.MV :
~A
# ...
  195.0000    51.2970   202.3060   188.0650   235.1960    25.4160     2.3040   -27.7690 
  195.1250    48.1270   176.0610   170.9950   217.5480    25.2690     2.3380   -27.4410 
  195.2500    46.0080   141.1740   143.6140   175.5190    25.1530     2.3620   -27.0070 
  195.3750    50.5030   107.6310   113.5030   123.8990    25.1060     2.3640   -26.5390 
  195.5000    56.9770    88.9960    87.5870    79.0510    25.1200     2.3490   -26.1720 
  195.6250    58.7810    70.8390    69.9670    54.4440    25.1720     2.3260   -25.7300 
  195.7500    59.7730    59.3330    58.6230    43.5180    25.2060     2.3090   -25.2370 
  195.8750    62.2690    52.2310    51.6710    42.9200    25.2230     2.3000   -24.7510 
  196.0000    63.5160    47.7340    47.3560    41.4650    25.2250     2.2980   -24.2460 
  196.1250    61.1110    44.5460    44.3940    38.0460    25.2050     2.3020   -23.7420 
  196.2500    60.7560    41.4280    41.5100    34.8380    25.1740     2.3100   -23.2510 
  196.3750    64.4170    37.9180    38.1560    32.5840    25.1260     2.3210   -22.7400 
  196.5000    68.8690    34.1570    34.3970    30.9850    25.0310     2.3320   -22.2290 
  196.6250    72.0360    31.0780    31.0920    29.7680    24.9600     2.3380   -21.7610 
  196.7500    75.4990    29.7280    29.1840    25.4100    24.9980     2.3390   -21.2890 
  196.8750    78.3000    31.2270    29.6020    20.1750    25.1040     2.3300   -20.8920 
  197.0000    76.9740    36.7250    33.5740    19.0300    25.2220     2.3030   -20.4950 
  197.1250    69.1860    47.9200    43.4070    30.6210    25.3940     2.2640   -20.0390 
  197.2500    59.9740    62.2390    58.2210    82.6120    25.5260     2.2350   -19.6970 
  197.3750    52.4690    76.0830    74.0920   213.8250    25.6280     2.2270   -19.3830 
  197.5000    47.6140    82.2250    82.5700   224.1670    25.6670     2.2420   -19.0000 
  197.6250    47.8130    72.7010    75.0740   134.5610    25.6240     2.2740   -18.6850 
  197.7500    53.4390    57.3860    60.0310    67.7240    25.5030     2.3130   -18.3800 
  197.8750    61.6580    44.6730    46.2780    36.7820    25.3440     2.3410   -18.0130 
  198.0000    68.1760    37.4210    37.6910    27.2880    25.1980     2.3450   -17.7240 
  198.1250    67.4560    35.7680    34.7510    30.6340    25.0770     2.3300   -17.4550 
  198.2500    63.6150    37.7770    35.3710    33.0310    25.0100     2.3130   -17.1500 
  198.3750    61.6960    42.7500    38.8930    34.3880    25.0160     2.2950   -16.9070 
  198.5000    61.9430    49.9480    44.7770    41.0170    25.0530     2.2760   -16.6680 
  198.6250    62.9520    58.2670    52.1530    53.0760    25.0900     2.2580   -16.3600 
  198.7500    62.3600    66.0120    59.2840    59.9880    25.2140     2.2480   -16.1030 
  198.8750    60.3520    72.2640    65.0990    59.5390    25.4840     2.2480   -15.8530 
  199.0000    57.9950    77.1890    69.4670    58.1630    25.7210     2.2600   -15.5750 
  199.1250    57.1480    82.5200    73.6380    61.0230    25.8030     2.2910   -15.3290 
  199.2500    57.5310    90.4160    79.6220    66.8380    25.7200     2.3520   -15.0010 
  199.3750    55.9580   101.9370    88.5050    78.1150    25.5120     2.4470   -14.6250 
  199.5000    53.6310   115.9400    99.5080    94.9480    25.2400     2.5650   -14.2810 
  199.6250    53.1960   125.0560   107.1680   133.6730    24.9200     2.6620   -13.8930 
  199.7500    50.0720   118.5800   103.1630   146.0580    24.6790     2.7100   -13.4870 
  199.8750    43.9480    93.5200    83.7750   119.7090    24.5200     2.7190   -13.0540 
  200.0000    39.4300    61.2970    56.5780    69.1810    24.3910     2.7040   -12.5560 
  200.1250    41.3240    36.9150    34.5810    40.6470    24.3570     2.6730   -12.0770 
  200.2500    44.4930    24.1080    20.7580    23.4470    24.3970     2.6270   -11.6160 
  200.3750    44.9140    17.2220    13.1450    13.4070    24.4550     2.5740   -11.1280 
  200.5000    42.7050    11.4900     9.2960     8.0190    24.4770     2.5320   -10.6670 
  200.6250    39.8070     9.4830     7.6720     6.6120    24.4680     2.5140   -10.2590 
  200.7500    37.7860     8.6410     6.9910     6.1890    24.3930     2.5020    -9.7910 
  200.8750    38.5010     8.4670     6.8500     5.8540    24.2320     2.4820    -9.3920 
  201.0000    42.1920     8.6560     7.0030     5.3330    24.0620     2.4570    -9.0710 
  201.1250    49.3130     9.0180     7.2960     5.6980    23.9360     2.4440    -8.7260 
  201.2500    55.8370     9.3890     7.5960     6.0410    23.9200     2.4430    -8.4920 
  201.3750    57.9830     9.5620     7.7370     5.9750    23.9530     2.4460    -8.3200 
  201.5000    54.7100     9.3380     7.5550     6.0620    24.0400     2.4430    -8.1610 
  201.6250    50.0350     8.7190     7.0540     6.4070    24.1020     2.4220    -8.1330 
  201.7500    48.1010     8.1170     6.5670     6.2870    24.1570     2.3900    -8.1500 
  201.8750    48.6550     7.8550     6.3550     5.6600    24.2050     2.3640    -8.1880 
  202.0000    49.4500     8.0200     6.4890     5.0190    24.2920     2.3590    -8.2670 
  202.1250    51.0130     8.4370     6.8260     5.2550    24.4400     2.3690    -8.3560 
  202.2500    53.8860     8.7720     7.0970     6.8680    24.6120     2.3710    -8.4760 
  202.3750    55.6090     8.9020     7.2030     7.8010    24.7480     2.3560    -8.6590 
  202.5000    53.9950     8.9130     7.2110     7.5050    24.8470     2.3370    -8.8410 
  202.6250    52.9940     8.9290     7.2240     7.0100    24.8660     2.3320    -9.0320 
  202.7500    55.3650     9.0030     7.2840     6.7660    24.8030     2.3390    -9.2790 
  202.8750    57.6460     9.1800     7.4270     6.9420    24.7130     2.3550    -9.4770 
  203.0000    55.0050     9.4750     7.6650     7.6920    24.6730     2.3800    -9.6890 
  203.1250    49.2740     9.8690     7.9850     8.5540    24.6190     2.4100   -10.0200 
  203.2500    46.9480    10.2670     8.3070     8.6380    24.5460     2.4320   -10.2870 
  203.3750    48.1320    10.5810     8.5610     8.1670    24.5040     2.4410   -10.5200 
  203.5000    48.6770    10.7560     8.7020     7.7960    24.5270     2.4430   -10.7930 
  203.6250    46.1790    10.7820     8.7230     8.1740    24.5630     2.4470   -10.9780 
  203.7500    44.2290    10.7570     8.7030     9.3450    24.5310     2.4540   -11.1810 
  203.8750    45.3380    10.7600     8.7060    10.5030    24.4530     2.4640   -11.4590 
  204.0000    47.5820    10.8440     8.7730    10.8140    24.3900     2.4700   -11.6870 
  204.1250    47.6510    11.0130     8.9100     9.3780    24.3750     2.4680   -11.8740 
  204.2500    46.1590    11.1820     9.0470     8.4970    24.3550     2.4600   -12.0930 
  204.3750    46.0370    11.2560     9.1070     7.7980    24.3420     2.4500   -12.2640 
  204.5000    47.0840    11.1480     9.0190     7.5750    24.4100     2.4420   -12.4350 
  204.6250    46.8900    10.7850     8.7260     7.5880    24.4780     2.4390   -12.6810 
  204.7500    46.1490    10.2530     8.2950     7.3720    24.4610     2.4370   -12.8730 
  204.8750    46.3040     9.6590     7.8140     6.8850    24.3750     2.4350   -13.0710 
  205.0000    49.3450     9.1190     7.3780     6.5150    24.2010     2.4300   -13.2650 
  205.1250    59.0490     8.7590     7.0870     6.1470    24.0210     2.4170   -13.4080 
  205.2500    71.7350     8.5950     6.9540     6.0270    23.8330     2.4000   -13.5740 
  205.3750    80.7480     8.6120     6.9670     6.4440    23.6870     2.3850   -13.7750 
  205.5000    85.0060     8.7660     7.0920     7.3420    23.6300     2.3750   -13.9480 
  205.6250    87.2890     9.0200     7.2970     8.2240    23.7080     2.3690   -14.1030 
  205.7500    88.9020     9.3270     7.5460     8.7820    23.7760     2.3680   -14.2300 
  205.8750    88.3150     9.6960     7.8450     9.2420    23.7860     2.3720   -14.2960 
  206.0000    87.5920    10.1520     8.2140     9.7890    23.7270     2.3790   -14.3750 
  206.1250    86.4920    10.7100     8.6650    10.3410    23.6280     2.3860   -14.3760 
