~V
VERS. 2.00: Ver 2.00
~W
STRT.M 53.0000:
STOP.M 269.0000:
STEP.M 0.1250:
NULL. -999.2500:
UWI. F10224:
~C
DEPT.M :
DEN.GM/CC :
GR.API :
RML.OHMM :
RI. :
RXO.OHMM :
CALI.CM :
SP.MV :
~A
# ...
  210.3750     2.3870    85.1390     9.9850     8.0900    10.3470    23.6120   -16.8990 
  210.5000     2.3800    84.7010    10.1950     8.2860     9.9750    23.6490   -16.9830 
  210.6250     2.3660    81.3950    10.5550     8.5300    10.0040    23.6960   -17.0240 
  210.7500     2.3520    75.7700    11.1030     8.8770    10.7680    23.7250   -17.1150 
  210.8750     2.3380    73.5300    11.7700     9.3160    12.2510    23.7130   -17.2750 
  211.0000     2.3290    77.7670    12.4020     9.7740    13.5760    23.6860   -17.4950 
  211.1250     2.3250    82.4440    12.7870    10.1320    13.8010    23.6650   -17.6820 
  211.2500     2.3280    81.7880    12.8880    10.3400    13.5050    23.6530   -17.7690 
  211.3750     2.3320    79.4930    12.7800    10.4150    13.4660    23.6420   -17.8280 
  211.5000     2.3350    78.6390    12.6210    10.4340    13.5840    23.6310   -17.9510 
  211.6250     2.3370    78.4490    12.6090    10.5240    13.4190    23.6200   -18.1340 
  211.7500     2.3360    79.1980    12.8220    10.7670    12.9090    23.6240   -18.3030 
  211.8750     2.3320    82.1580    13.2800    11.2090    12.6680    23.6310   -18.4100 
  212.0000     2.3290    86.2890    13.9670    11.8530    13.3400    23.6310   -18.4440 
  212.1250     2.3320    87.2360    14.8200    12.6690    14.3910    23.6260   -18.5200 
  212.2500     2.3370    84.8940    15.6480    13.5120    14.4590    23.6220   -18.6960 
  212.3750     2.3370    81.1070    16.2330    14.2210    13.8220    23.6220   -18.8920 
  212.5000     2.3310    76.8170    16.3200    14.5720    13.6880    23.6230   -19.0020 
  212.6250     2.3260    73.5720    15.5590    14.2070    14.1670    23.6110   -19.0630 
  212.7500     2.3260    72.3910    14.0700    13.1500    14.2220    23.5940   -19.1610 
  212.8750     2.3240    73.8350    12.1220    11.5880    13.2240    23.5630   -19.3070 
  213.0000     2.3190    76.0760    10.1390     9.8800    10.8590    23.5350   -19.4770 
  213.1250     2.3190    77.2250     8.6470     8.4740     8.0340    23.5550   -19.6020 
  213.2500     2.3280    79.5470     7.8250     7.5590     6.2460    23.5380   -19.6680 
  213.3750     2.3430    84.3970     7.7330     7.2000     5.7460    23.5160   -19.7210 
  213.5000     2.3540    88.1580     8.3590     7.4050     6.3550    23.5020   -19.8420 
  213.6250     2.3550    83.9300     9.7290     8.2510     8.3620    23.4940   -20.0450 
  213.7500     2.3480    75.7750    11.5730     9.5820    11.3190    23.4870   -20.2210 
  213.8750     2.3390    72.3570    13.6950    11.2900    14.0230    23.4870   -20.3420 
  214.0000     2.3360    72.2700    15.9530    13.2460    15.6840    23.4980   -20.4350 
  214.1250     2.3450    69.9440    18.4190    15.4210    16.8300    23.5180   -20.5770 
  214.2500     2.3630    65.8980    21.3290    17.9010    19.0000    23.5310   -20.8010 
  214.3750     2.3870    63.0280    24.9350    20.8970    24.6080    23.5170   -21.0320 
  214.5000     2.4110    60.9280    29.2590    24.5220    36.3120    23.4760   -21.1940 
  214.6250     2.4220    59.0870    33.9050    28.5890    50.3170    23.4820   -21.3040 
  214.7500     2.4090    58.2910    38.1200    32.4630    53.8400    23.5310   -21.4590 
  214.8750     2.3720    57.6600    41.5310    35.7220    48.9730    23.6180   -21.6620 
  215.0000     2.3260    58.7460    44.3070    38.3630    46.2910    23.7110   -21.8890 
  215.1250     2.2850    63.3910    47.2080    40.9370    48.2110    23.7690   -22.0690 
  215.2500     2.2560    65.2480    50.9370    44.1590    52.7450    23.8190   -22.1770 
  215.3750     2.2350    61.9520    55.6320    48.3090    61.9050    23.8570   -22.2980 
  215.5000     2.2210    59.1580    60.8720    53.1610    76.2300    23.8840   -22.5010 
  215.6250     2.2120    60.6090    65.5890    57.8970    89.1840    23.8570   -22.6970 
  215.7500     2.2070    60.4680    68.5710    61.4250    92.5490    23.7550   -22.8440 
  215.8750     2.2080    59.2190    68.5410    62.6100    86.5300    23.6200   -22.9560 
  216.0000     2.2140    62.4610    64.4510    60.3580    78.4540    23.4780   -23.0490 
  216.1250     2.2220    68.7950    55.8960    53.7610    71.7620    23.3840   -23.2090 
  216.2500     2.2300    70.8020    45.7350    44.9940    65.2780    23.3510   -23.4330 
  216.3750     2.2420    67.1050    36.5170    36.4000    55.4860    23.3650   -23.6710 
  216.5000     2.2590    62.8280    29.9470    29.7810    38.8280    23.4200   -23.8350 
  216.6250     2.2790    63.9310    27.2860    26.4250    25.0480    23.4570   -23.9520 
  216.7500     2.2960    68.1660    28.1010    26.0610    20.6980    23.4700   -24.0860 
  216.8750     2.3040    70.7050    32.4290    28.8550    25.4460    23.4470   -24.2690 
  217.0000     2.2960    68.6500    40.3650    35.1390    38.5880    23.3930   -24.5120 
  217.1250     2.2740    63.3470    52.3590    45.7630    52.5080    23.2970   -24.6810 
  217.2500     2.2470    58.2210    66.7510    59.3050    62.3470    23.2720   -24.7670 
  217.3750     2.2240    54.8350    81.3860    73.6610    77.5070    23.2890   -24.7850 
  217.5000     2.2070    54.6010    93.7220    86.2200    99.8160    23.4000   -24.8400 
  217.6250     2.1990    56.3110   101.3420    94.5170   114.0030    23.5350   -24.9880 
  217.7500     2.2010    57.7680   104.5660    98.6320   121.9980    23.6450   -25.1230 
  217.8750     2.2080    59.5070   103.7880    98.7430   127.1980    23.7110   -25.1960 
  218.0000     2.2170    61.6450   100.1630    95.7400   123.4550    23.8000   -25.1960 
  218.1250     2.2230    62.9520    95.4670    91.1520   110.0380    24.0380   -25.2300 
  218.2500     2.2260    63.4010    91.4910    86.9020    96.5260    24.2230   -25.3320 
  218.3750     2.2280    63.8930    89.1240    84.0410    88.4290    24.3300   -25.4900 
  218.5000     2.2260    64.4160    88.7570    83.1500    87.1220    24.4080   -25.6070 
  218.6250     2.2190    61.0570    90.5310    84.6030    90.2600    24.5130   -25.6470 
  218.7500     2.2110    55.9630    93.3210    87.4480    95.1230    24.6000   -25.7340 
  218.8750     2.2050    52.4800    95.8360    90.5640   102.1590    24.6840   -25.8760 
  219.0000     2.2070    52.1840    96.5350    92.5000   111.8290    24.7530   -26.0630 
  219.1250     2.2110    53.6950    93.6680    91.3970   119.6300    24.8280   -26.2230 
  219.2500     2.2110    54.3840    87.8650    87.3270   116.7080    24.8360   -26.3190 
  219.3750     2.2080    55.8330    80.4090    81.1340   102.6410    24.7040   -26.3740 
  219.5000     2.2100    58.9040    72.9720    74.2930    86.9260    24.5420   -26.4650 
  219.6250     2.2170    62.5180    67.3140    68.5830    75.8640    24.4560   -26.6320 
  219.7500     2.2240    65.4040    63.9130    64.8050    68.2580    24.4300   -26.7570 
  219.8750     2.2270    67.1100    62.8560    63.1970    64.1100    24.3800   -26.8070 
  220.0000     2.2310    67.9530    63.9350    63.6570    64.1390    24.2340   -26.7930 
  220.1250     2.2360    67.9570    66.8760    66.0330    67.9340    24.1950   -26.7650 
  220.2500     2.2410    67.3770    70.5200    69.2790    73.8290    24.1540   -26.7880 
  220.3750     2.2510    64.5210    73.8440    72.4230    79.8980    23.9970   -26.8450 
  220.5000     2.2670    58.5740    75.9280    74.5460    85.3960    23.8020   -26.8380 
  220.6250     2.2810    55.9520    76.0770    74.9000    90.3120    23.8450   -26.7000 
  220.7500     2.2860    59.7890    74.9290    73.9540    88.2870    24.0020   -26.5210 
  220.8750     2.2840    65.0850    73.1970    72.3220    73.8350    24.0960   -26.3910 
  221.0000     2.2800    65.7470    71.5000    70.6070    62.3070    23.9550   -26.3150 
  221.1250     2.2720    62.7240    70.1700    69.1970    63.6190    23.7010   -26.1790 
  221.2500     2.2620    61.4050    69.1120    68.0810    71.2100    23.6300   -25.9070 
  221.3750     2.2520    61.7590    68.2590    67.2370    78.3180    23.8470   -25.5240 
  221.5000     2.2470    62.5780    67.6240    66.6880    78.8860    24.0820   -25.1510 
