~V
VERS. 2.00: Ver 2.00
~W
STRT.M 56.0000:
STOP.M 270.0000:
STEP.M 0.1250:
NULL. -999.2500:
UWI. F10225:
~C
DEPT.M :
SP.MV :
DEN.GM/CC :
GR.API :
RML.OHMM :
RI. :
RXO.OHMM :
CALI.CM :
~A
# ...
  101.0000   -29.1050     2.2040    58.1040     9.9670     8.5040    14.2250    24.2490 
  101.1250   -29.3280     2.1960    58.9430     9.8340     8.2750    12.9890    24.3280 
  101.2500   -29.5660     2.1690    60.5560     9.8970     8.2620    11.9460    24.3150 
  101.3750   -29.8810     2.1350    61.5740    10.1850     8.4440    12.2720    24.2440 
  101.5000   -30.2770     2.1110    60.4300    10.6750     8.8010    13.7450    24.2220 
  101.6250   -30.7030     2.1060    57.0710    11.2510     9.2740    14.9160    24.3250 
  101.7500   -31.0990     2.1140    53.3260    11.7450     9.7450    15.4980    24.4970 
  101.8750   -31.4370     2.1270    51.0290    12.0530    10.1140    15.8010    24.6470 
  102.0000   -31.7120     2.1440    49.9370    12.1750    10.3360    15.9340    24.7080 
  102.1250   -31.9280     2.1590    48.3570    12.1820    10.4270    15.8990    24.6090 
  102.2500   -32.0790     2.1660    47.6950    12.1540    10.4410    15.9520    24.4480 
  102.3750   -32.1600     2.1640    49.9300    12.1030    10.4020    16.1620    24.3320 
  102.5000   -32.1630     2.1580    52.7080    12.0090    10.3060    16.2490    24.3000 
  102.6250   -32.0810     2.1520    51.9000    11.8560    10.1450    15.9170    24.3350 
  102.7500   -31.9400     2.1500    49.4010    11.6740     9.9510    15.4300    24.4080 
  102.8750   -31.7970     2.1520    48.3760    11.5110     9.7700    15.2560    24.4880 
  103.0000   -31.6800     2.1530    49.0510    11.4070     9.6380    15.2850    24.5490 
  103.1250   -31.5910     2.1490    50.2250    11.3880     9.5700    15.0150    24.5890 
  103.2500   -31.5130     2.1430    51.2610    11.4350     9.5500    14.8120    24.5810 
  103.3750   -31.4000     2.1400    51.3290    11.5070     9.5520    14.7740    24.4750 
  103.5000   -31.2320     2.1410    50.2330    11.5650     9.5580    14.7120    24.2700 
  103.6250   -31.0590     2.1420    50.3070    11.5800     9.5580    14.5560    24.0440 
  103.7500   -30.9390     2.1410    52.1480    11.5610     9.5490    14.4120    23.9520 
  103.8750   -30.8630     2.1430    53.7290    11.5290     9.5250    14.3010    23.9910 
  104.0000   -30.7870     2.1480    53.9460    11.5020     9.4900    14.2790    24.0560 
  104.1250   -30.6780     2.1550    53.9710    11.4940     9.4730    14.3230    24.0680 
  104.2500   -30.5490     2.1570    54.7900    11.5150     9.5050    14.5260    24.0080 
  104.3750   -30.4300     2.1520    55.8520    11.5870     9.6100    14.7830    23.9090 
  104.5000   -30.3740     2.1440    56.2720    11.7420     9.7940    15.2220    23.8460 
  104.6250   -30.3520     2.1400    55.7120    12.0170    10.0500    15.7440    23.8120 
  104.7500   -30.2910     2.1420    54.7600    12.3780    10.3430    16.1040    23.7400 
  104.8750   -30.1750     2.1470    53.8460    12.7130    10.6180    15.9870    23.6500 
  105.0000   -30.0240     2.1600    53.2480    12.8560    10.7730    15.3790    23.5950 
  105.1250   -29.8480     2.1820    53.8620    12.5610    10.6110    15.1210    23.5230 
  105.2500   -29.6420     2.2020    55.1030    11.7930    10.0590    14.9880    23.3930 
  105.3750   -29.4270     2.2120    55.9050    10.7040     9.2010    14.2370    23.2480 
  105.5000   -29.2280     2.2190    57.2680     9.5710     8.2470    12.8010    23.1600 
  105.6250   -29.0470     2.2270    60.6890     8.7550     7.4790    11.1030    23.1380 
  105.7500   -28.9140     2.2260    62.2610     8.4370     7.0500     9.8300    23.1470 
  105.8750   -28.8490     2.2080    58.4440     8.6360     6.9980    10.0160    23.1800 
  106.0000   -28.8570     2.1840    52.5380     9.2350     7.2820    11.3820    23.2730 
  106.1250   -28.9470     2.1680    50.7700     9.9910     7.7930    12.4800    23.3730 
  106.2500   -29.1050     2.1600    51.5110    10.6100     8.3270    12.8790    23.4240 
  106.3750   -29.2830     2.1550    51.5430    10.9340     8.7180    13.1130    23.4360 
  106.5000   -29.3970     2.1500    50.6340    10.9590     8.8890    13.3160    23.4840 
  106.6250   -29.4520     2.1510    50.3450    10.7600     8.8180    13.3570    23.5990 
  106.7500   -29.4830     2.1600    50.0810    10.4440     8.5670    12.8750    23.7160 
  106.8750   -29.5000     2.1800    49.4040    10.0650     8.2010    12.0270    23.7750 
  107.0000   -29.4950     2.2060    49.9190     9.6790     7.8040    11.5580    23.7900 
  107.1250   -29.4850     2.2250    52.3720     9.4120     7.5060    11.1680    23.7910 
  107.2500   -29.5010     2.2210    55.8320     9.3900     7.3990    10.7130    23.7700 
  107.3750   -29.5710     2.1980    57.9510     9.6930     7.5220    11.2570    23.7050 
  107.5000   -29.7340     2.1740    56.7480    10.2990     7.8580    12.9560    23.6260 
  107.6250   -29.9610     2.1630    53.8480    11.0580     8.3300    14.3950    23.5820 
  107.7500   -30.1700     2.1600    52.4940    11.7170     8.7940    14.8540    23.5700 
  107.8750   -30.3320     2.1590    53.0190    12.0750     9.1160    14.6800    23.5690 
  108.0000   -30.4580     2.1560    52.5160    12.0700     9.2160    14.2360    23.5690 
  108.1250   -30.5510     2.1490    50.5010    11.7920     9.0860    13.9250    23.5770 
  108.2500   -30.5950     2.1410    49.2400    11.4500     8.8360    13.7260    23.6020 
  108.3750   -30.5750     2.1340    48.9710    11.1610     8.5670    13.6290    23.6490 
  108.5000   -30.4730     2.1330    48.2400    10.9360     8.3300    13.6240    23.7000 
  108.6250   -30.2710     2.1380    47.4960    10.7800     8.1640    13.7780    23.6780 
  108.7500   -30.0210     2.1510    48.3970    10.7430     8.1080    14.5500    23.5320 
  108.8750   -29.7390     2.1720    50.6280    10.9020     8.2040    15.8490    23.3460 
  109.0000   -29.4330     2.1920    52.6130    11.3000     8.4830    16.0510    23.2020 
  109.1250   -29.1090     2.2010    53.8790    11.8900     8.9430    15.3850    23.1590 
  109.2500   -28.7460     2.1960    54.8950    12.4770     9.4670    17.8890    23.1990 
  109.3750   -28.3010     2.1800    55.6380    12.8470     9.9040    24.0890    23.2850 
  109.5000   -27.7500     2.1570    56.3610    12.8720    10.1270    25.5450    23.3670 
  109.6250   -27.0830     2.1390    57.7660    12.5250    10.0640    19.8250    23.4050 
  109.7500   -26.3130     2.1360    58.5920    11.9620     9.7820    15.3600    23.4170 
  109.8750   -25.4570     2.1500    57.7210    11.2990     9.3370    13.6780    23.4240 
  110.0000   -24.5080     2.1770    55.8960    10.5560     8.7430    13.3740    23.4510 
  110.1250   -23.4330     2.2110    55.5070     9.6620     7.9700    12.5350    23.5810 
  110.2500   -22.2780     2.2440    58.2130     8.6220     7.0750    10.5150    23.8390 
  110.3750   -21.1390     2.2700    64.7620     7.5570     6.1790     8.1720    24.1290 
  110.5000   -20.1070     2.2890    73.5820     6.6620     5.4300     6.4900    24.3390 
  110.6250   -19.2690     2.3000    80.3290     6.1620     4.9730     5.6620    24.3810 
  110.7500   -18.6040     2.3020    82.1920     6.0760     4.8110     5.3670    24.3080 
  110.8750   -18.0760     2.2940    80.8320     6.3090     4.8860     5.5880    24.2290 
  111.0000   -17.6600     2.2840    78.6450     6.6930     5.1070     6.2750    24.2010 
  111.1250   -17.3540     2.2810    76.8440     7.0310     5.3580     6.8690    24.2030 
  111.2500   -17.1560     2.2910    76.7860     7.2100     5.5540     7.0260    24.2000 
  111.3750   -17.0390     2.3090    79.9610     7.2160     5.6650     6.8350    24.2030 
  111.5000   -16.9560     2.3310    84.3340     7.0960     5.6920     6.4430    24.2180 
  111.6250   -16.8710     2.3500    86.2950     6.9030     5.6370     6.4010    24.1860 
  111.7500   -16.7720     2.3600    86.4020     6.6620     5.5100     6.7430    24.0760 
  111.8750   -16.6740     2.3590    86.6970     6.3730     5.3150     6.9030    23.9400 
  112.0000   -16.6040     2.3520    89.0320     6.0590     5.0690     6.1850    23.8290 
  112.1250   -16.5970     2.3450    92.6290     5.7930     4.8210     5.5730    23.7470 
