~V
VERS. 2.00: Ver 2.00
~W
STRT.M 50.0000:
STOP.M 284.0000:
STEP.M 0.1250:
NULL. -999.2500:
UWI. F10254:
~C
DEPT.M :
GR.API :
RML.OHMM :
RI. :
RXO.OHMM :
CALI.CM :
DEN.GM/CC :
SP.MV :
~A
# ...
   95.0000    82.2000     8.2090     7.1150     7.5440    24.6140     2.2150    -5.1660 
   95.1250    82.2760     8.2430     7.1860     8.0630    24.4910     2.2300    -4.6800 
   95.2500    83.2100     8.1140     7.1250     7.8140    24.4120     2.2500    -4.2480 
   95.3750    86.5900     7.8770     6.9520     7.1730    24.3130     2.2730    -3.8850 
   95.5000    92.2970     7.6270     6.7320     6.9550    24.2560     2.2900    -3.6230 
   95.6250    97.4850     7.4710     6.5470     6.4620    24.3740     2.2940    -3.5370 
   95.7500    99.3080     7.4330     6.4370     6.2740    24.6290     2.2850    -3.5120 
   95.8750    97.2390     7.4820     6.4030     6.4810    24.8110     2.2700    -3.4490 
   96.0000    93.5750     7.5470     6.4140     6.9740    24.8390     2.2550    -3.4670 
   96.1250    92.4430     7.5450     6.4200     6.6200    24.7500     2.2480    -3.7560 
   96.2500    93.7140     7.4850     6.4060     6.3110    24.6320     2.2500    -4.2940 
   96.3750    93.3110     7.4410     6.4070     6.5260    24.6030     2.2580    -4.9630 
   96.5000    89.3330     7.5170     6.4830     7.2580    24.7080     2.2650    -5.6550 
   96.6250    85.1140     7.8410     6.7320     7.1260    24.8340     2.2560    -6.3790 
   96.7500    83.3200     8.3820     7.1610     6.9120    24.9610     2.2270    -7.2240 
   96.8750    80.0860     9.0420     7.7290     7.3900    25.0800     2.1830    -8.2300 
   97.0000    72.1170     9.6530     8.3280     8.1450    25.2010     2.1360    -9.3020 
   97.1250    64.3370     9.9930     8.7770     8.9500    25.3540     2.1060   -10.2400 
   97.2500    62.9700    10.0230     8.9830     9.0360    25.5040     2.0980   -10.9920 
   97.3750    66.8300     9.7960     8.9420     8.8530    25.6190     2.1050   -11.5880 
   97.5000    69.9180     9.4420     8.7300     8.6410    25.5710     2.1190   -12.0110 
   97.6250    67.7910     9.1320     8.4660     8.3860    25.3600     2.1330   -12.0570 
   97.7500    66.5540     8.9480     8.2440     8.1160    25.0230     2.1450   -11.8290 
   97.8750    68.8550     8.8720     8.0730     7.9080    24.5240     2.1530   -11.4300 
   98.0000    71.6050     8.8120     7.9070     7.6090    23.9710     2.1580   -10.9230 
   98.1250    71.5800     8.6150     7.6590     7.7870    23.7500     2.1610   -10.3440 
   98.2500    71.3100     8.2300     7.3060     8.0250    23.9050     2.1710    -9.7150 
   98.3750    73.6230     7.7360     6.9080     8.2230    24.3480     2.1920    -9.0480 
   98.5000    76.9710     7.3490     6.6070     8.1360    24.6640     2.2300    -8.3770 
   98.6250    78.3690     7.4720     6.6550     7.7780    24.5970     2.2820    -7.8610 
   98.7500    77.8210     8.3390     7.1990     8.1300    24.4560     2.3400    -7.4390 
   98.8750    73.9510    10.0940     8.3850    10.9090    24.3250     2.3990    -7.0810 
   99.0000    68.0890    12.6750    10.2890    15.5100    24.2400     2.4530    -6.9180 
   99.1250    63.7460    15.6530    12.8030    15.5860    24.2060     2.4930    -7.1070 
   99.2500    63.2700    18.0300    15.1550    10.5260    24.2500     2.5100    -7.5820 
   99.3750    65.1430    18.9480    16.4900     7.7490    24.3160     2.4980    -8.3170 
   99.5000    65.6940    18.1460    16.3660     7.4590    24.2650     2.4520    -9.3280 
   99.6250    63.3580    16.0820    14.9950     9.0060    24.1210     2.3740   -10.5680 
   99.7500    60.1890    13.8310    13.2780    10.9870    24.0790     2.2800   -11.9200 
   99.8750    59.5310    11.8800    11.6520    10.8950    24.2680     2.1850   -13.3000 
  100.0000    62.0300    10.4240    10.3330     9.7500    24.7000     2.0980   -14.4990 
  100.1250    64.2530     9.5680     9.4650     9.4330    25.3510     2.0350   -15.3400 
  100.2500    64.4350     9.1630     8.9820     9.4480    25.8820     2.0060   -15.9250 
  100.3750    63.0810     9.1180     8.8360     9.5440    26.0130     2.0170   -16.2990 
  100.5000    62.6660     9.3060     8.9420     9.8230    25.7620     2.0620   -16.4650 
  100.6250    65.0280     9.5810     9.1880    10.5370    25.3670     2.1210   -16.3860 
  100.7500    67.9270     9.7920     9.4210    11.3600    25.0820     2.1680   -16.1460 
  100.8750    69.4940     9.8850     9.5700    11.0100    24.9680     2.1900   -15.8480 
  101.0000    70.0420     9.8640     9.6160     9.9630    24.9470     2.1910   -15.5860 
  101.1250    70.9460     9.7750     9.5780     9.3460    24.9550     2.1860   -15.4330 
  101.2500    70.2600     9.6970     9.5220     9.5560    25.0930     2.1880   -15.3810 
  101.3750    66.5180     9.6680     9.4870     9.8210    25.3010     2.1940   -15.3830 
  101.5000    63.0310     9.6820     9.4790     9.6070    25.3930     2.1980   -15.3710 
  101.6250    61.7050     9.7180     9.4800     9.2320    25.2100     2.1870   -15.3010 
  101.7500    62.3880     9.7810     9.4920     8.8980    24.8480     2.1640   -15.2050 
  101.8750    64.5970     9.8990     9.5380     8.7540    24.4320     2.1470   -15.0600 
  102.0000    67.3260    10.0910     9.6390     8.6530    24.1190     2.1570   -14.8960 
  102.1250    67.5120    10.3270     9.7840     9.0470    23.9440     2.1980   -14.8410 
  102.2500    64.5350    10.4960     9.8930    11.8240    24.0810     2.2440   -14.8080 
  102.3750    61.7940    10.5050     9.8900    17.4820    24.4490     2.2650   -14.7510 
  102.5000    62.0080    10.3310     9.7500    15.9410    24.7810     2.2530   -14.7790 
  102.6250    63.7240    10.0420     9.5160    11.9540    25.0260     2.2220   -15.0150 
  102.7500    65.0880     9.7750     9.2930    10.3130    25.1780     2.1970   -15.4270 
  102.8750    65.7360     9.6500     9.1700    10.7930    25.2410     2.1840   -15.9510 
  103.0000    65.7210     9.7850     9.2410    12.0450    25.2520     2.1770   -16.5180 
  103.1250    65.2720    10.2790     9.6010    12.6050    25.3050     2.1730   -16.9640 
  103.2500    63.5670    11.0000    10.1600    12.0740    25.3360     2.1780   -17.3060 
  103.3750    61.0950    11.7580    10.7790    12.6160    25.1860     2.1910   -17.6870 
  103.5000    59.5800    12.2800    11.2470    14.8380    25.0160     2.1980   -18.0940 
  103.6250    59.8340    12.1860    11.2460    16.9990    24.9340     2.1780   -18.3330 
  103.7500    61.2620    11.5230    10.7760    13.8340    24.9190     2.1360   -18.3250 
  103.8750    63.7920    10.5390    10.0150    10.9020    24.9100     2.0940   -18.1750 
  104.0000    67.2600     9.5750     9.2200     9.4060    24.8340     2.0750   -17.9310 
  104.1250    68.3840     8.9750     8.6580     8.7520    24.6260     2.0880   -17.6150 
  104.2500    66.7900     8.7820     8.3970     8.7300    24.4310     2.1130   -17.3020 
  104.3750    65.4730     8.9070     8.4090     9.1430    24.3130     2.1340   -16.9750 
  104.5000    65.8450     9.1910     8.5970     9.3460    24.2770     2.1460   -16.6280 
  104.6250    66.4630     9.5220     8.8710     9.8610    24.2960     2.1550   -16.2800 
  104.7500    67.1650     9.8860     9.1900    10.4610    24.3000     2.1670   -15.9840 
  104.8750    68.6520    10.3060     9.5630    11.0450    24.2570     2.1790   -15.7120 
  105.0000    70.1420    10.7600     9.9700    11.3530    24.1920     2.1830   -15.4560 
  105.1250    69.5720    11.1270    10.3160    11.3300    24.2280     2.1700   -15.2180 
  105.2500    67.5170    11.2920    10.5060    11.0110    24.4120     2.1460   -15.0390 
  105.3750    67.0960    11.2310    10.5030    10.6610    24.5990     2.1230   -14.9330 
  105.5000    69.3350    11.0330    10.3600    10.3090    24.6690     2.1150   -14.8310 
  105.6250    70.2980    10.8650    10.1850    10.4900    24.5570     2.1300   -14.7950 
  105.7500    67.1870    10.8130    10.0600    11.0910    24.4160     2.1540   -14.8800 
  105.8750    62.8200    10.8340     9.9790    12.4070    24.3150     2.1720   -15.0520 
  106.0000    60.2030    10.8090     9.8790    12.5630    24.2830     2.1700   -15.2540 
  106.1250    58.9390    10.6040     9.6670    10.7770    24.3290     2.1480   -15.4660 
