~V
VERS. 2.00: Ver 2.00
~W
STRT.M 55.0000:
STOP.M 270.0000:
STEP.M 0.1250:
NULL. -999.2500:
UWI. F10235:
~C
DEPT.M :
GR.API :
RML.OHMM :
RI. :
RXO.OHMM :
CALI.CM :
DEN.GM/CC :
SP.MV :
~A
# ...
  111.2500    68.3200    10.5550     8.3830    12.4550    24.1360     2.1920   -17.3040 
  111.3750    63.1430    10.7700     8.5490    13.0020    24.2060     2.1970   -18.3240 
  111.5000    62.2790    11.0730     8.7930    13.2690    24.2420     2.2060   -19.1690 
  111.6250    65.1900    11.3860     9.0660    13.4410    24.2190     2.2110   -19.8600 
  111.7500    68.4530    11.6360     9.3010    13.5200    24.1270     2.2070   -20.4810 
  111.8750    69.4630    11.7780     9.4540    13.6350    24.0340     2.1990   -21.0350 
  112.0000    68.0670    11.7680     9.4830    13.5390    23.9900     2.1910   -21.4210 
  112.1250    65.7350    11.5450     9.3320    13.3720    23.9850     2.1890   -21.5440 
  112.2500    65.5190    11.1470     9.0240    13.2630    24.0040     2.1910   -21.5200 
  112.3750    68.1920    10.6330     8.5980    12.5820    24.0500     2.1950   -21.3610 
  112.5000    73.2650    10.1010     8.1310    11.1880    24.1120     2.1970   -21.0320 
  112.6250    78.3680     9.6820     7.7250    10.3070    24.1470     2.1990   -20.5440 
  112.7500    79.4810     9.4310     7.4400    10.0870    24.1880     2.2000   -20.0170 
  112.8750    77.7330     9.3560     7.2970    10.0990    24.2200     2.2030   -19.4760 
  113.0000    75.6570     9.4270     7.2880    10.2650    24.2360     2.2070   -18.9600 
  113.1250    74.1090     9.6020     7.4010    10.5160    24.2390     2.2110   -18.6080 
  113.2500    73.8520     9.8270     7.5850    10.6930    24.2390     2.2150   -18.4300 
  113.3750    75.5820    10.0860     7.8230    11.0210    24.2400     2.2180   -18.4270 
  113.5000    77.4430    10.3760     8.1060    11.5820    24.2420     2.2190   -18.6430 
  113.6250    76.4040    10.6810     8.4230    12.0570    24.2620     2.2150   -19.0530 
  113.7500    74.9510    10.9570     8.7320    12.4710    24.3310     2.2060   -19.4780 
  113.8750    75.4120    11.1540     8.9840    12.5310    24.4520     2.1960   -19.8850 
  114.0000    75.9590    11.2350     9.1360    12.2050    24.5410     2.1900   -20.2830 
  114.1250    73.4430    11.1680     9.1430    12.0030    24.5680     2.1920   -20.5690 
  114.2500    71.7360    10.9980     9.0400    11.6950    24.5580     2.2000   -20.6870 
  114.3750    74.9190    10.7580     8.8560    11.3360    24.5300     2.2080   -20.6570 
  114.5000    81.3120    10.4780     8.6220    10.9690    24.5030     2.2080   -20.4930 
  114.6250    84.6200    10.1740     8.3570    10.6210    24.4860     2.1990   -20.1830 
  114.7500    84.0550     9.8550     8.0760    10.2630    24.4910     2.1880   -19.8250 
  114.8750    81.9060     9.5250     7.7860     9.8830    24.5290     2.1820   -19.4540 
  115.0000    80.2070     9.2010     7.4990     9.5100    24.5350     2.1850   -19.0440 
  115.1250    79.4680     8.9250     7.2470     9.2420    24.4650     2.1980   -18.6260 
  115.2500    81.2370     8.7460     7.0640     9.0610    24.3660     2.2130   -18.3040 
  115.3750    84.7800     8.7080     6.9850     8.9070    24.3160     2.2270   -18.0450 
  115.5000    87.0540     8.8420     7.0340     8.9450    24.2910     2.2350   -17.8040 
  115.6250    83.7810     9.1510     7.2290     9.2660    24.2510     2.2330   -17.6170 
  115.7500    77.6830     9.5280     7.5040     9.8370    24.2090     2.2230   -17.5200 
  115.8750    74.1410     9.8590     7.7830    10.6100    24.1950     2.2080   -17.4990 
  116.0000    74.9450    10.0390     7.9770    11.1270    24.1910     2.1950   -17.5650 
  116.1250    77.5980    10.0000     8.0100    11.1510    24.1590     2.1900   -17.7130 
  116.2500    78.4610     9.8650     7.9470    10.9130    24.1510     2.1940   -17.8010 
  116.3750    75.9720     9.8050     7.9000    10.5370    24.1300     2.2090   -17.8630 
  116.5000    71.7310    10.0060     8.0030    10.3450    24.1340     2.2320   -17.9840 
  116.6250    69.9230    10.6380     8.4050    11.2720    24.2620     2.2620   -18.1980 
  116.7500    72.6960    11.5380     9.0560    13.5930    24.4390     2.2890   -18.4120 
  116.8750    76.6170    12.4220     9.7930    15.1550    24.5350     2.3040   -18.5770 
  117.0000    79.4350    12.9270    10.3270    17.2060    24.5070     2.3050   -18.6960 
  117.1250    81.9290    12.6810    10.2740    16.9720    24.3520     2.2900   -18.7260 
  117.2500    84.2950    11.8660     9.7170    15.2040    24.1980     2.2690   -18.7350 
  117.3750    85.2600    10.8060     8.9210    11.9110    24.1430     2.2470   -18.7710 
  117.5000    84.6970     9.8720     8.1830    10.0340    24.1900     2.2260   -18.8220 
  117.6250    83.2870     9.3950     7.7490    10.1920    24.1590     2.2060   -18.8930 
  117.7500    80.1200     9.3520     7.6280    10.7800    24.0650     2.1870   -19.0590 
  117.8750    73.6680     9.6280     7.7760    11.2860    24.0550     2.1720   -19.3730 
  118.0000    67.4510    10.0540     8.0930    11.2930    24.0760     2.1630   -19.7560 
  118.1250    67.5410    10.4360     8.4330    11.2480    24.0630     2.1600   -20.1890 
  118.2500    72.3150    10.6720     8.6730    11.4470    24.0240     2.1580   -20.6840 
  118.3750    76.7420    10.7510     8.7770    11.6420    24.0010     2.1580   -21.1570 
  118.5000    77.3710    10.7160     8.7690    11.7120    24.0070     2.1590   -21.5110 
  118.6250    74.6100    10.6240     8.6900    11.6090    24.0400     2.1620   -21.6900 
  118.7500    70.9790    10.5360     8.5970    11.5010    24.0570     2.1660   -21.7260 
  118.8750    69.8940    10.4730     8.5180    11.4460    24.0400     2.1690   -21.6050 
  119.0000    74.9620    10.4470     8.4690    11.5350    24.0040     2.1700   -21.4210 
  119.1250    82.5590    10.4670     8.4610    11.7160    23.9760     2.1680   -21.3100 
  119.2500    84.3860    10.5240     8.4840    11.8770    23.9560     2.1660   -21.2410 
  119.3750    79.1020    10.6110     8.5380    11.8850    23.9600     2.1680   -21.1900 
  119.5000    71.7050    10.7140     8.6190    11.8430    24.0000     2.1750   -21.1990 
  119.6250    68.0550    10.8240     8.7270    11.9500    24.0350     2.1810   -21.3190 
  119.7500    68.9470    10.9390     8.8550    12.1490    23.9830     2.1820   -21.4570 
  119.8750    72.8380    11.0870     9.0140    12.2930    23.8200     2.1750   -21.5540 
  120.0000    75.9360    11.3180     9.2390    12.3140    23.6630     2.1660   -21.5940 
  120.1250    73.9210    11.7030     9.5900    12.2810    23.5810     2.1680   -21.4900 
  120.2500    70.3960    12.1910    10.0450    12.5040    23.5890     2.1890   -21.2020 
  120.3750    69.2290    12.6340    10.5100    13.5270    23.6040     2.2250   -20.7400 
  120.5000    69.7250    12.8020    10.7890    15.3810    23.5830     2.2670   -20.0860 
  120.6250    71.5870    12.3950    10.5700    16.4040    23.5970     2.3000   -19.1350 
  120.7500    75.5050    11.5000     9.8820    14.2510    23.7490     2.3130   -17.9420 
  120.8750    83.6170    10.3390     8.9190    11.1520    23.9790     2.3060   -16.6230 
  121.0000    92.7390     9.2090     7.9450     8.2450    24.1790     2.2850   -15.3080 
  121.1250    95.0340     8.3890     7.2000     7.6700    24.0910     2.2610   -14.0820 
  121.2500    92.7410     7.8760     6.7080     7.9270    23.8630     2.2470   -12.9660 
  121.3750    91.9000     7.6030     6.4290     8.1210    23.7380     2.2470   -11.9950 
  121.5000    93.6220     7.5300     6.3290     8.1650    23.7630     2.2630   -11.1400 
  121.6250    92.3230     7.7550     6.4810     8.0970    23.8070     2.2970   -10.3140 
  121.7500    88.4540     8.4440     6.9510     8.1720    23.8930     2.3460    -9.5420 
  121.8750    86.0040     9.7700     7.8140     8.6950    24.0720     2.4020    -8.8720 
  122.0000    84.6560    11.5950     9.0750    11.3350    24.2380     2.4550    -8.2300 
  122.1250    80.9970    13.3030    10.5470    18.7650    24.2610     2.4880    -7.5790 
  122.2500    77.2720    14.2860    11.6920    23.7700    24.1640     2.4970    -7.0420 
  122.3750    75.7200    14.3380    12.0590    20.0220    23.9620     2.4820    -6.6530 
