~V
VERS. 2.00: Ver 2.00
~W
STRT.M 53.0000:
STOP.M 282.0000:
STEP.M 0.1250:
NULL. -999.2500:
UWI. F10240:
~C
DEPT.M :
GR.API :
RML.OHMM :
RI. :
RXO.OHMM :
CALI.CM :
DEN.GM/CC :
SP.MV :
~A
# ...
  109.2500    64.1470    15.4630    10.6760    15.0110    24.1190     2.1140   -29.2950 
  109.3750    65.1480    15.6640    10.8390    15.6350    24.1170     2.1060   -29.0300 
  109.5000    63.3380    15.8120    11.0380    15.9870    24.1210     2.1030   -28.7020 
  109.6250    61.3920    15.7970    11.1600    15.7790    24.1160     2.1070   -28.3040 
  109.7500    61.6730    15.5850    11.1430    15.1620    24.1120     2.1120   -27.8650 
  109.8750    64.3560    15.2020    10.9670    14.6520    24.1220     2.1160   -27.3650 
  110.0000    66.7840    14.7070    10.6420    14.7410    24.2010     2.1200   -26.7900 
  110.1250    68.3370    14.2150    10.2560    13.9820    24.3710     2.1270   -26.1510 
  110.2500    69.6200    13.7930     9.8710    12.4320    24.6040     2.1390   -25.4290 
  110.3750    71.5190    13.4280     9.5100    11.3430    24.7150     2.1530   -24.6620 
  110.5000    73.2700    12.9860     9.1210    10.7410    24.6700     2.1630   -23.9540 
  110.6250    73.8250    12.3570     8.6500    10.6270    24.5540     2.1710   -23.3560 
  110.7500    75.0480    11.5640     8.1080    10.6130    24.5600     2.1810   -22.8590 
  110.8750    77.9950    10.7680     7.5830    10.1500    24.6690     2.1930   -22.4710 
  111.0000    81.5170    10.2750     7.2430     9.3210    24.6970     2.1990   -22.2660 
  111.1250    83.0890    10.2720     7.1940     8.6870    24.5850     2.1950   -22.2610 
  111.2500    81.2460    10.8620     7.5130     9.7560    24.3120     2.1820   -22.4680 
  111.3750    76.8640    12.0360     8.2390    12.6230    23.9940     2.1690   -22.8020 
  111.5000    71.4240    13.6700     9.3910    15.1340    23.8520     2.1640   -23.0710 
  111.6250    67.9400    15.2980    10.7110    16.2640    23.8780     2.1620   -23.2330 
  111.7500    66.3600    16.4350    11.8620    16.6940    23.9730     2.1580   -23.2940 
  111.8750    67.0380    16.6780    12.4580    17.2450    24.1340     2.1480   -23.1810 
  112.0000    68.8600    15.7730    12.1590    17.0150    24.3890     2.1370   -22.8170 
  112.1250    71.2810    14.1740    11.2230    14.9230    24.7090     2.1320   -22.2300 
  112.2500    74.2050    12.2860     9.9420    11.8930    25.0030     2.1360   -21.3950 
  112.3750    76.9300    10.4650     8.6020     9.8540    25.2320     2.1550   -20.3930 
  112.5000    80.8220     8.9840     7.4320     8.7300    25.3610     2.1930   -19.4100 
  112.6250    85.5260     7.8490     6.4850     7.6230    25.4310     2.2410   -18.4860 
  112.7500    90.4570     7.0280     5.7640     6.4670    25.4800     2.2850   -17.6390 
  112.8750    96.0370     6.4740     5.2490     5.8180    25.5410     2.3090   -16.9450 
  113.0000   100.3700     6.1870     4.9480     5.3840    25.5770     2.3020   -16.4590 
  113.1250   100.8640     6.1170     4.8130     4.9930    25.5820     2.2840   -16.1310 
  113.2500    98.3740     6.2380     4.8160     4.9990    25.5770     2.2710   -15.9950 
  113.3750    97.2240     6.4730     4.9070     5.2430    25.5430     2.2710   -16.0610 
  113.5000    97.3460     6.6780     4.9980     5.5530    25.4840     2.2870   -16.2400 
  113.6250    97.5680     6.6910     4.9900     5.6830    25.4270     2.3070   -16.5010 
  113.7500    98.1240     6.4070     4.8140     5.6080    25.4100     2.3260   -16.8580 
  113.8750    96.4300     5.8700     4.4810     5.4910    25.4250     2.3340   -17.2950 
  114.0000    88.9680     5.4060     4.1400     5.4240    25.5120     2.3270   -17.7970 
  114.1250    85.2680     5.4350     4.0260     5.3650    25.5960     2.3200   -18.4090 
  114.2500    88.6710     6.3180     4.3400     5.4250    25.6470     2.3310   -19.1310 
  114.3750    91.2350     8.3920     5.2810     6.8490    25.6580     2.3750   -19.9260 
  114.5000    87.4980    12.1220     7.2110    13.1440    25.6400     2.4360   -20.9200 
  114.6250    83.1550    16.8550     9.9860    27.5390    25.5960     2.4650   -22.0930 
  114.7500    79.4500    21.0240    12.9090    38.0480    25.4990     2.4350   -23.3720 
  114.8750    73.7890    22.4330    14.5820    32.5540    25.2690     2.3560   -24.7310 
  115.0000    68.3090    20.1220    13.9540    19.8110    24.9370     2.2610   -26.1640 
  115.1250    65.9910    16.8210    12.3830    15.5890    24.7570     2.1790   -27.5110 
  115.2500    65.2420    14.3490    10.9440    14.8210    24.7340     2.1290   -28.7030 
  115.3750    66.4080    13.2980    10.1000    15.1560    24.7560     2.1070   -29.7360 
  115.5000    68.0580    13.5670     9.9770    15.8020    24.7490     2.1050   -30.4870 
  115.6250    68.0970    14.3530    10.2630    16.5050    24.7200     2.1090   -30.9480 
  115.7500    65.7360    15.1010    10.6810    17.1650    24.7040     2.1150   -31.1480 
  115.8750    62.8150    15.4260    10.9670    17.3270    24.7220     2.1230   -31.1350 
  116.0000    60.3250    15.2170    10.9680    16.7440    24.7040     2.1320   -30.9090 
  116.1250    58.4800    14.8400    10.8240    15.6680    24.6800     2.1380   -30.5430 
  116.2500    58.4480    14.6100    10.7020    14.7990    24.6190     2.1350   -30.0770 
  116.3750    61.0770    14.7050    10.7310    14.8670    24.5400     2.1220   -29.5000 
  116.5000    65.0040    15.0670    10.9350    15.2940    24.4970     2.1000   -28.7620 
  116.6250    66.1060    15.2670    11.0890    15.4690    24.5050     2.0750   -27.8980 
  116.7500    64.8670    14.8690    10.9010    15.4040    24.5020     2.0570   -26.8700 
  116.8750    65.0900    13.6540    10.1770    15.0440    24.4790     2.0590   -25.6370 
  117.0000    69.4800    11.8010     8.9740    13.3850    24.5210     2.1000   -24.1960 
  117.1250    77.9780    10.0020     7.7340    10.3130    24.7610     2.1690   -22.6440 
  117.2500    87.9740     8.7010     6.7490     7.4200    25.1510     2.2440   -21.0600 
  117.3750    94.6000     8.0880     6.1670     6.5300    25.4720     2.2920   -19.5590 
  117.5000    93.9470     8.2140     6.0680     7.0970    25.5530     2.2930   -18.2780 
  117.6250    89.2680     8.7580     6.3020     7.7650    25.5280     2.2700   -17.1880 
  117.7500    84.4640     9.4390     6.7300     8.2490    25.4260     2.2450   -16.3190 
  117.8750    81.1210     9.9530     7.1680     8.9230    25.3350     2.2320   -15.6900 
  118.0000    80.8120    10.0190     7.3870     9.0200    25.2960     2.2330   -15.2710 
  118.1250    82.0380     9.7290     7.3530     8.5230    25.3580     2.2380   -14.9950 
  118.2500    83.4010     9.2460     7.1290     8.0180    25.4110     2.2450   -14.8290 
  118.3750    85.8260     8.7200     6.8140     7.7100    25.4470     2.2550   -14.7030 
  118.5000    88.9300     8.2480     6.4920     7.5960    25.4180     2.2720   -14.5490 
  118.6250    90.5680     7.9070     6.2360     7.4830    25.4010     2.2840   -14.3670 
  118.7500    90.3310     7.8650     6.1350     7.5890    25.3890     2.2820   -14.2090 
  118.8750    88.8300     8.3980     6.3320     7.9530    25.3980     2.2650   -14.0630 
  119.0000    86.3790     9.9610     7.1010     8.6700    25.3770     2.2510   -13.9220 
  119.1250    82.0170    12.4870     8.4930     9.9980    25.3630     2.2700   -13.8190 
  119.2500    74.6930    15.5870    10.4250    13.6830    25.3550     2.3360   -13.7380 
  119.3750    64.8320    18.1870    12.3670    23.3070    25.3630     2.4300   -13.6610 
  119.5000    57.4220    18.1870    12.9130    30.1120    25.3600     2.4950   -13.5770 
  119.6250    57.9790    15.4670    11.6240    23.5900    25.3680     2.5000   -13.5120 
  119.7500    66.2180    11.6300     9.3550    12.6840    25.3790     2.4550   -13.4640 
  119.8750    76.3300     8.5610     7.2950     7.7630    25.3800     2.3900   -13.4230 
  120.0000    80.6600     7.3740     6.2210     6.5640    25.3740     2.3430   -13.4510 
  120.1250    80.6430     7.8990     6.1640     6.7110    25.3930     2.3320   -13.5060 
  120.2500    77.5750    10.2390     7.2970     8.7660    25.4400     2.3560   -13.5890 
  120.3750    70.5740    14.5470     9.9240    15.4330    25.4710     2.4060   -13.6990 
