~V
VERS. 2.00: Ver 2.00
~W
STRT.M 58.0000:
STOP.M 277.0000:
STEP.M 0.1250:
NULL. -999.2500:
UWI. F10219:
~C
DEPT.M :
SP.MV :
DEN.GM/CC :
GR.API :
RML.OHMM :
RI. :
RXO.OHMM :
CALI.CM :
~A
# ...
  148.0000    -4.4260     2.3490    87.6610     4.8450     3.6740     4.0160    24.8170 
  148.1250    -4.3750     2.3590    86.5450     4.8590     3.6740     4.0610    24.7720 
  148.2500    -4.3890     2.3610    87.4970     4.9110     3.7050     4.1230    24.7750 
  148.3750    -4.4310     2.3620    90.2020     4.9750     3.7500     4.1860    24.8220 
  148.5000    -4.4950     2.3600    93.1420     5.0180     3.7900     4.2150    24.8500 
  148.6250    -4.5500     2.3590    95.3130     5.0230     3.8090     4.1990    24.8660 
  148.7500    -4.5690     2.3640    96.2440     4.9930     3.8040     4.1900    24.8640 
  148.8750    -4.5900     2.3730    95.0770     4.9500     3.7880     4.2390    24.8380 
  149.0000    -4.6210     2.3760    91.1280     4.9350     3.7820     4.3840    24.8040 
  149.1250    -4.7140     2.3680    86.4970     4.9750     3.8080     4.6220    24.7940 
  149.2500    -4.8390     2.3510    85.1470     5.0800     3.8750     4.9060    24.8240 
  149.3750    -4.9630     2.3350    87.3290     5.2350     3.9790     5.1260    24.8780 
  149.5000    -5.1080     2.3210    88.8110     5.3990     4.0950     5.1760    24.9240 
  149.6250    -5.2750     2.3060    88.0240     5.5360     4.2000     5.0730    24.9440 
  149.7500    -5.4940     2.2950    86.9210     5.6200     4.2770     4.9180    24.9500 
  149.8750    -5.7270     2.2930    87.0830     5.6470     4.3210     4.8300    24.9500 
  150.0000    -5.9680     2.2920    87.8710     5.6470     4.3510     4.8420    24.9470 
  150.1250    -6.1940     2.2880    88.5350     5.6540     4.3860     4.8980    24.9630 
  150.2500    -6.3830     2.2850    89.0460     5.7120     4.4540     5.0020    25.0650 
  150.3750    -6.5820     2.2880    88.8170     5.8570     4.5810     5.1810    25.2700 
  150.5000    -6.7400     2.2940    86.6530     6.0970     4.7750     5.4540    25.4510 
  150.6250    -6.8590     2.2960    83.2980     6.4250     5.0340     5.7980    25.5280 
  150.7500    -6.9380     2.2940    81.3890     6.8110     5.3450     6.2270    25.5300 
  150.8750    -6.9890     2.2900    81.8790     7.2000     5.6720     6.7030    25.5100 
  151.0000    -7.0200     2.2820    83.2190     7.5300     5.9690     7.1110    25.5020 
  151.1250    -7.0070     2.2720    84.1360     7.7480     6.1950     7.3600    25.5160 
  151.2500    -6.9810     2.2630    84.8070     7.8080     6.3080     7.4690    25.5320 
  151.3750    -6.9380     2.2590    86.2540     7.7100     6.2940     7.5390    25.5270 
  151.5000    -6.9200     2.2590    88.7970     7.5360     6.1970     7.6210    25.5210 
  151.6250    -6.9250     2.2630    91.3420     7.4090     6.0920     7.6740    25.5300 
  151.7500    -6.9440     2.2670    92.2420     7.5040     6.1070     7.6610    25.5460 
  151.8750    -7.0080     2.2660    91.3820     7.9550     6.3610     7.6870    25.5600 
  152.0000    -7.0820     2.2590    89.0180     8.7360     6.8860     8.1450    25.5860 
  152.1250    -7.1840     2.2510    84.3300     9.6980     7.6270     9.3130    25.6300 
  152.2500    -7.3250     2.2470    79.2180    10.5360     8.4020    10.8600    25.6690 
  152.3750    -7.4800     2.2500    77.0900    10.9180     8.9450    11.8650    25.6690 
  152.5000    -7.6610     2.2550    78.2040    10.7160     9.0610    11.6740    25.5900 
  152.6250    -7.8460     2.2600    80.5140    10.0340     8.7300    10.5010    25.3990 
  152.7500    -8.0200     2.2620    82.9630     9.2100     8.1410     9.0890    25.1950 
  152.8750    -8.1640     2.2580    85.2960     8.6390     7.6060     8.1250    25.1420 
  153.0000    -8.2780     2.2490    86.4220     8.5320     7.3610     7.9820    25.2140 
  153.1250    -8.3740     2.2400    86.0240     8.9200     7.4930     8.7080    25.3230 
  153.2500    -8.4240     2.2380    85.0470     9.7800     8.0420     9.9030    25.4350 
  153.3750    -8.4690     2.2400    84.1050    11.0600     8.9980    11.3670    25.5150 
  153.5000    -8.5070     2.2390    82.9310    12.6790    10.3050    13.1640    25.5370 
  153.6250    -8.5520     2.2340    80.5550    14.6340    11.9610    15.0840    25.5280 
  153.7500    -8.6250     2.2280    77.1120    16.9630    14.0130    17.3360    25.5270 
  153.8750    -8.6620     2.2220    74.1880    19.6710    16.4900    20.5530    25.5600 
  154.0000    -8.7170     2.2140    72.3690    22.6530    19.3160    24.5430    25.6080 
  154.1250    -8.8140     2.2050    70.7230    25.7400    22.3640    28.5490    25.6530 
  154.2500    -8.9630     2.1950    69.4410    28.6410    25.3670    31.9780    25.6990 
  154.3750    -9.1260     2.1900    69.8920    31.0260    27.9900    34.8220    25.7310 
  154.5000    -9.2460     2.1930    71.5180    32.7080    29.9830    37.2460    25.7300 
  154.6250    -9.3640     2.2040    72.2750    33.6460    31.2400    38.7890    25.6960 
  154.7500    -9.4750     2.2200    71.9260    33.9460    31.8020    38.7660    25.6370 
  154.8750    -9.6320     2.2360    71.6580    33.8460    31.8650    37.2820    25.5700 
  155.0000    -9.8060     2.2450    71.4290    33.6350    31.7210    35.5090    25.5090 
  155.1250    -9.9360     2.2450    69.9630    33.4770    31.5500    34.5400    25.4680 
  155.2500   -10.0380     2.2370    66.8310    33.5230    31.5210    34.3380    25.4490 
  155.3750   -10.1180     2.2300    64.5720    33.9130    31.7920    34.2880    25.4600 
  155.5000   -10.2350     2.2240    65.8000    34.7540    32.4870    34.8700    25.5180 
  155.6250   -10.3990     2.2170    69.5250    36.1750    33.7390    37.2060    25.5960 
  155.7500   -10.6130     2.2060    71.3910    38.3540    35.7080    41.6150    25.6560 
  155.8750   -10.9040     2.1900    68.3270    41.5060    38.4790    47.1400    25.7060 
  156.0000   -11.2320     2.1780    63.3860    45.6290    41.9480    52.0860    25.7630 
  156.1250   -11.6030     2.1730    60.6430    50.4900    45.9760    54.9130    25.8460 
  156.2500   -12.0040     2.1740    60.7930    55.8730    50.2790    56.0980    25.9400 
  156.3750   -12.4190     2.1780    60.9860    60.7960    54.4170    58.2820    25.9940 
  156.5000   -12.8330     2.1810    59.1940    64.2060    57.9280    62.1750    26.0140 
  156.6250   -13.2040     2.1810    57.4660    66.5570    60.4950    66.5450    26.0460 
  156.7500   -13.5540     2.1770    58.0490    67.8170    62.0110    68.3200    26.1020 
  156.8750   -13.8270     2.1730    60.2470    68.4190    62.7920    66.5230    26.1440 
  157.0000   -14.0270     2.1720    61.5970    69.1340    63.5270    64.2950    26.1600 
  157.1250   -14.1730     2.1750    61.5160    70.5020    64.7670    65.1610    26.1620 
  157.2500   -14.2340     2.1770    61.0370    72.7230    66.8270    69.9590    26.1610 
  157.3750   -14.2610     2.1760    60.9840    75.4540    69.5390    76.6540    26.1600 
  157.5000   -14.2260     2.1760    61.4710    77.9640    72.2960    82.5740    26.1590 
  157.6250   -14.1200     2.1790    62.5480    79.6840    74.5440    84.8000    26.1590 
  157.7500   -13.9220     2.1860    63.7870    80.3820    75.9360    82.2120    26.1600 
  157.8750   -13.6850     2.1910    64.2300    80.3750    76.5930    78.3200    26.1660 
  158.0000   -13.5070     2.1930    64.2410    80.2500    76.9790    76.3680    26.1830 
  158.1250   -13.3590     2.1910    65.0480    80.1160    77.2370    76.4190    26.1970 
  158.2500   -13.2790     2.1890    66.3360    79.3430    76.8920    77.6120    26.1840 
  158.3750   -13.2360     2.1880    66.1420    76.8520    75.0130    78.4960    26.1650 
  158.5000   -13.2070     2.1930    64.0700    71.9590    70.9030    77.0740    26.1730 
  158.6250   -13.2420     2.2050    62.1000    64.7230    64.4580    70.5670    26.1850 
  158.7500   -13.3080     2.2240    61.4310    56.3320    56.5590    59.4810    26.1600 
  158.8750   -13.3620     2.2440    62.3210    48.7860    48.9850    48.3620    26.1120 
  159.0000   -13.3870     2.2620    65.0000    43.7600    43.4890    40.9880    26.0760 
  159.1250   -13.4090     2.2710    68.6360    42.0010    41.0280    38.2550    26.0460 
