~V
VERS. 2.00: Ver 2.00
~W
STRT.M 48.0000:
STOP.M 276.0000:
STEP.M 0.1250:
NULL. -999.2500:
UWI. F10244:
~C
DEPT.M :
GR.API :
RML.OHMM :
RI. :
RXO.OHMM :
CALI.CM :
DEN.GM/CC :
SP.MV :
~A
# ...
  104.2500    69.0780    11.3440     9.8980    14.3390    22.6960     2.2280   -11.3680 
  104.3750    69.9950    10.9670     9.6080    12.3370    22.6400     2.2330   -11.1730 
  104.5000    68.0760    10.4920     9.2130    10.6410    22.6300     2.2340   -11.0060 
  104.6250    65.1780    10.0420     8.8150     9.3620    22.6930     2.2290   -10.8690 
  104.7500    65.1460     9.6980     8.4900     8.9540    22.7780     2.2190   -10.8130 
  104.8750    67.5340     9.4980     8.2840     9.0240    22.8120     2.2070   -10.7820 
  105.0000    68.6400     9.3940     8.1690     9.0890    22.7880     2.2010   -10.7680 
  105.1250    67.0160     9.3530     8.1230     9.2120    22.7610     2.2060   -10.7720 
  105.2500    64.5750     9.3490     8.1220     9.3070    22.7090     2.2210   -10.8450 
  105.3750    63.1370     9.3680     8.1520     9.3900    22.5700     2.2410   -10.9390 
  105.5000    63.2800     9.3940     8.1940     9.5990    22.3600     2.2560   -10.9980 
  105.6250    65.4040     9.4150     8.2370     9.8400    22.2040     2.2600   -11.0860 
  105.7500    67.2840     9.4240     8.2710    10.0840    22.2010     2.2530   -11.1510 
  105.8750    67.9100     9.4210     8.2870     9.4660    22.3350     2.2430   -11.2660 
  106.0000    67.8630     9.4060     8.2820     8.9380    22.3960     2.2390   -11.3600 
  106.1250    67.2270     9.3650     8.2440     8.9460    22.4090     2.2420   -11.4490 
  106.2500    66.3270     9.2720     8.1560     9.1490    22.4150     2.2500   -11.4730 
  106.3750    64.7450     9.0880     7.9840     9.0230    22.3450     2.2540   -11.5010 
  106.5000    65.1260     8.8180     7.7370     8.7800    22.1790     2.2510   -11.5620 
  106.6250    69.0880     8.4840     7.4300     8.5180    22.0330     2.2430   -11.6220 
  106.7500    75.5120     8.1360     7.0960     8.2310    22.0670     2.2320   -11.6830 
  106.8750    78.6800     7.8670     6.8110     7.9750    22.2190     2.2250   -11.6910 
  107.0000    76.9890     7.7570     6.6590     7.9010    22.3400     2.2210   -11.6870 
  107.1250    74.3120     7.8670     6.7010     7.8730    22.4300     2.2190   -11.6950 
  107.2500    73.1700     8.2180     6.9630     7.9190    22.5350     2.2140   -11.7470 
  107.3750    71.8690     8.7790     7.4310     7.9730    22.6070     2.2060   -11.8260 
  107.5000    69.7730     9.3620     7.9560     8.5000    22.6100     2.1960   -11.9240 
  107.6250    66.8870     9.7960     8.3830     8.9250    22.5600     2.1870   -11.9750 
  107.7500    64.9650     9.9690     8.5970     8.9440    22.4900     2.1830   -12.0050 
  107.8750    65.8400     9.8710     8.5600     8.4180    22.4620     2.1850   -12.0330 
  108.0000    68.0980     9.6820     8.4090     7.7970    22.3730     2.1900   -12.0650 
  108.1250    70.7070     9.5290     8.2540     8.0930    22.2040     2.1940   -12.0980 
  108.2500    72.0670     9.4730     8.1660     8.8500    22.0230     2.1960   -12.0850 
  108.3750    71.6150     9.5080     8.1620     9.4190    21.9260     2.1940   -12.0390 
  108.5000    69.3270     9.5640     8.1870     9.4280    21.9280     2.1890   -11.9320 
  108.6250    66.0690     9.6010     8.2040     9.2340    21.9570     2.1840   -11.8560 
  108.7500    63.9480     9.6150     8.2050     9.1250    21.9710     2.1780   -11.7470 
  108.8750    64.1290     9.6290     8.2000     9.1740    21.9470     2.1730   -11.6910 
  109.0000    64.9000     9.6570     8.2040     9.1830    21.8740     2.1690   -11.6220 
  109.1250    64.4970     9.6940     8.2190     9.2610    21.7830     2.1680   -11.5420 
  109.2500    63.4550     9.7170     8.2370     9.3680    21.7310     2.1700   -11.4730 
  109.3750    63.1810     9.6960     8.2370     9.2920    21.7640     2.1730   -11.4170 
  109.5000    64.2640     9.6280     8.2060     9.1890    21.8410     2.1740   -11.3720 
  109.6250    66.8470     9.5170     8.1410     9.1620    21.9030     2.1710   -11.3340 
  109.7500    70.0660     9.3810     8.0480     9.1360    21.9290     2.1680   -11.2880 
  109.8750    71.1910     9.2390     7.9390     9.0150    21.9460     2.1680   -11.2010 
  110.0000    69.3850     9.1160     7.8370     8.8190    21.9750     2.1730   -11.0940 
  110.1250    67.2450     9.0250     7.7570     8.6210    21.9900     2.1810   -10.9820 
  110.2500    66.0260     8.9780     7.7120     8.6610    21.9760     2.1900   -10.8290 
  110.3750    65.6630     8.9830     7.7080     8.7160    21.8920     2.1910   -10.6430 
  110.5000    66.9570     9.0170     7.7310     8.7960    21.8090     2.1850   -10.4420 
  110.6250    70.0300     9.0590     7.7630     8.8640    21.7500     2.1770   -10.2400 
  110.7500    71.9870     9.0850     7.7870     8.9890    21.6930     2.1710   -10.0390 
  110.8750    71.2020     9.0870     7.7910     9.0260    21.6570     2.1700    -9.8560 
  111.0000    70.8250     9.0860     7.7870     9.0250    21.6250     2.1720    -9.7050 
  111.1250    72.4910     9.1060     7.7980     8.9730    21.5960     2.1750    -9.5720 
  111.2500    73.7260     9.1630     7.8450     8.9060    21.5710     2.1780    -9.4750 
  111.3750    73.4040     9.2450     7.9290     8.8600    21.5460     2.1800    -9.4070 
  111.5000    73.0720     9.2960     8.0100     8.8730    21.5380     2.1820    -9.3660 
  111.6250    71.9550     9.2680     8.0510     9.1900    21.5660     2.1820    -9.3020 
  111.7500    70.2260     9.1350     8.0260     9.5360    21.6690     2.1770    -9.3060 
  111.8750    69.6380     8.9350     7.9390     9.5500    21.8860     2.1660    -9.2560 
  112.0000    68.2530     8.7960     7.8760     9.3050    22.1010     2.1590    -9.2130 
  112.1250    64.5850     8.8470     7.9570     9.3600    22.2440     2.1710    -9.1410 
  112.2500    60.6520     9.1730     8.2800     9.8550    22.3310     2.2160    -9.0240 
  112.3750    60.1930     9.7340     8.8540    10.3550    22.5740     2.2870    -8.8470 
  112.5000    61.3790    10.1810     9.4100    11.7370    23.1450     2.3520    -8.6330 
  112.6250    62.8840    10.1330     9.6010    15.6230    23.8740     2.3860    -8.3470 
  112.7500    67.0080     9.3960     9.1530    18.8040    24.3510     2.3810    -7.9520 
  112.8750    77.7230     8.1220     8.0670    13.9170    24.5200     2.3520    -7.5190 
  113.0000    91.1780     6.8670     6.8560     8.0580    24.7260     2.3280    -7.0860 
  113.1250   101.4770     5.9450     5.8480     6.3190    24.9360     2.3180    -6.6960 
  113.2500   106.9270     5.4550     5.2050     6.1180    24.9990     2.3130    -6.3730 
  113.3750   107.3120     5.4230     5.0200     6.3040    24.9090     2.2990    -6.1640 
  113.5000   102.9310     5.6880     5.1650     6.4820    24.8020     2.2760    -6.0270 
  113.6250    96.3580     6.1350     5.5260     6.5450    24.6540     2.2520    -6.0050 
  113.7500    92.1240     6.6330     5.9660     6.7930    24.3550     2.2330    -6.1070 
  113.8750    90.8600     7.0440     6.3540     7.2260    24.0480     2.2290    -6.3370 
  114.0000    88.9570     7.3000     6.6220     7.2350    24.1100     2.2370    -6.5950 
  114.1250    88.6650     7.3740     6.7400     7.0950    24.3180     2.2520    -6.8590 
  114.2500    91.2470     7.2720     6.7010     7.2510    24.2100     2.2700    -7.1470 
  114.3750    94.5690     7.0430     6.5190     7.7210    23.8530     2.2910    -7.4290 
  114.5000    95.9690     6.8340     6.3110     7.8170    23.8870     2.3140    -7.6990 
  114.6250    95.0070     6.7790     6.2090     7.5980    24.2990     2.3380    -7.9260 
  114.7500    93.1600     7.0040     6.3480     7.4940    24.6080     2.3540    -8.1780 
  114.8750    92.3240     7.6790     6.8910     7.8600    24.6090     2.3460    -8.4320 
  115.0000    90.4560     8.7520     7.7980     9.5420    24.5510     2.3160    -8.6980 
  115.1250    84.5450    10.0480     8.9450    13.1160    24.5540     2.2720    -8.9150 
  115.2500    76.5100    11.1920    10.0380    16.9050    24.4220     2.2290    -9.1370 
  115.3750    72.5900    11.6520    10.5850    17.4640    23.9320     2.2010    -9.3680 
