~V
VERS. 2.00: Ver 2.00
~W
STRT.M 20.0000:
STOP.M 256.0000:
STEP.M 0.1250:
NULL. -999.2500:
UWI. F10201:
~C
DEPT.M :
DEN.GM/CC :
GR.API :
RML.OHMM :
RI. :
RXO.OHMM :
CALI.CM :
SP.MV :
~A
# ...
  110.0000     2.4740    81.1760     8.9070     9.4420     9.3730    25.1570   -10.5680 
  110.1250     2.4040    88.2600     6.8790     7.0590     6.4750    25.2090   -10.4540 
  110.2500     2.3560    90.2000     5.9090     5.7630     5.9200    25.2240   -10.3480 
  110.3750     2.3330    89.7860     5.5460     5.1570     6.1620    25.2150   -10.2790 
  110.5000     2.3300    90.3920     5.5060     4.9850     5.9490    25.1940   -10.2620 
  110.6250     2.3410    91.7640     5.6090     5.0790     5.6410    25.1470   -10.2310 
  110.7500     2.3540    92.5560     5.7390     5.2600     5.2790    25.0960   -10.2190 
  110.8750     2.3630    91.6250     5.8880     5.4690     5.2250    25.1060   -10.2200 
  111.0000     2.3630    90.0260     6.0620     5.6850     5.3980    25.1460   -10.1880 
  111.1250     2.3550    89.1120     6.2200     5.8680     5.8790    25.1390   -10.1360 
  111.2500     2.3440    89.1250     6.2820     5.9580     6.4290    25.1030   -10.0830 
  111.3750     2.3350    90.8150     6.1740     5.8970     6.5480    25.0910    -9.9760 
  111.5000     2.3320    91.5480     5.8860     5.6630     6.0320    25.1650    -9.8630 
  111.6250     2.3360    92.1770     5.4860     5.2930     5.5700    25.3220    -9.7670 
  111.7500     2.3460    95.2140     5.1290     4.9180     5.3280    25.4020    -9.6370 
  111.8750     2.3580    99.1250     4.9200     4.6370     5.1160    25.4190    -9.5570 
  112.0000     2.3680    99.5380     4.9090     4.5140     4.9240    25.3940    -9.5140 
  112.1250     2.3760    94.5960     5.1120     4.5900     5.0950    25.3390    -9.5110 
  112.2500     2.3820    92.4560     5.4210     4.7850     6.1500    25.2690    -9.5410 
  112.3750     2.3860    94.2990     5.7280     5.0150     8.2300    25.2220    -9.6130 
  112.5000     2.3850    96.9210     5.9310     5.1900    10.8780    25.2320    -9.7210 
  112.6250     2.3820    98.8600     5.9390     5.2210     9.4320    25.2690    -9.8440 
  112.7500     2.3790    99.3980     5.7920     5.1170     7.0530    25.3170    -9.9700 
  112.8750     2.3780    99.0720     5.5500     4.9130     5.6550    25.3740   -10.1010 
  113.0000     2.3800    97.4460     5.2750     4.6580     5.3180    25.4330   -10.3120 
  113.1250     2.3810    96.6090     5.0280     4.4050     5.3730    25.4570   -10.5810 
  113.2500     2.3730    97.7000     4.8550     4.2050     5.2520    25.4640   -10.9610 
  113.3750     2.3540    98.3340     4.8280     4.1090     5.0230    25.4610   -11.5100 
  113.5000     2.3290    96.5490     5.0480     4.1880     4.9700    25.4470   -12.1660 
  113.6250     2.3120    92.1130     5.7000     4.5810     5.4590    25.4140   -12.9520 
  113.7500     2.3170    85.4880     6.7960     5.3240     6.5090    25.3970   -13.8650 
  113.8750     2.3470    77.3610     7.6500     6.4370     8.1870    25.3890   -14.8200 
  114.0000     2.3900    71.0560     8.9950     7.8250    10.8770    25.3840   -15.7660 
  114.1250     2.4130    68.4370    10.1950     9.1280    14.6030    25.3770   -16.7070 
  114.2500     2.3980    65.8490    10.6100     9.8650    16.0360    25.3580   -17.5630 
  114.3750     2.3490    62.1390    10.1580     9.8120    13.7240    25.3110   -18.2810 
  114.5000     2.2890    61.5810     9.1920     9.1430    11.5360    25.2650   -18.8470 
  114.6250     2.2410    67.1030     8.2330     8.2600    10.5300    25.2660   -19.2240 
  114.7500     2.2130    72.3630     7.5620     7.5190     9.9300    25.2860   -19.4510 
  114.8750     2.2010    73.9410     7.2070     7.0230     9.3490    25.3060   -19.5680 
  115.0000     2.1980    72.3660     7.0940     6.7640     8.7490    25.3060   -19.6090 
  115.1250     2.2030    71.5180     7.1380     6.6960     8.4520    25.2800   -19.5680 
  115.2500     2.2140    73.9640     7.2430     6.7190     8.4570    25.2430   -19.4800 
  115.3750     2.2270    76.6730     7.3770     6.7930     8.8190    25.2300   -19.3840 
  115.5000     2.2400    76.6950     7.5330     6.9040     9.9550    25.2700   -19.2910 
  115.6250     2.2460    73.9210     7.7440     7.0690    11.2360    25.4210   -19.2110 
  115.7500     2.2460    72.9440     8.0530     7.3170    11.8410    25.6540   -19.1680 
  115.8750     2.2460    72.7950     8.5010     7.6870    11.2200    25.8420   -19.1300 
  116.0000     2.2500    71.2520     9.0940     8.1990    10.9180    25.8900   -19.0520 
  116.1250     2.2580    70.2380     9.7600     8.8230    10.6870    25.6580   -19.0020 
  116.2500     2.2610    71.1600    10.3090     9.4030    10.2840    25.2580   -18.9690 
  116.3750     2.2540    72.8820    10.5480     9.7680     9.8850    24.9780   -18.9350 
  116.5000     2.2380    72.6410    10.3630     9.7810     9.8420    24.8930   -18.9650 
  116.6250     2.2220    71.6900     9.7750     9.3940    10.3330    24.8920   -19.0230 
  116.7500     2.2150    71.4930     9.0830     8.8260    10.7010    24.8630   -19.0410 
  116.8750     2.2190    71.4300     8.4880     8.2530    10.7820    24.8390   -19.0950 
  117.0000     2.2270    72.0640     8.0920     7.7930    10.8090    24.8640   -19.2080 
  117.1250     2.2320    71.5490     7.9220     7.5130    10.7930    24.9250   -19.2540 
  117.2500     2.2340    69.3090     7.8720     7.3640    10.8450    24.9740   -19.2900 
  117.3750     2.2360    66.4420     7.8800     7.3030    10.8090    25.0040   -19.3130 
  117.5000     2.2430    63.0170     7.9190     7.2980    10.6720    25.0150   -19.2440 
  117.6250     2.2540    58.4260     8.0040     7.3500    10.4630    25.0230   -19.1560 
  117.7500     2.2630    55.4080     8.1340     7.4470    10.2480    25.0480   -19.0810 
  117.8750     2.2700    58.8080     8.2740     7.5640    10.0020    25.0780   -18.9470 
  118.0000     2.2730    66.6410     8.3560     7.6490     9.8710    25.0590   -18.7670 
  118.1250     2.2750    70.3150     8.2820     7.6120    10.0650    24.9580   -18.5790 
  118.2500     2.2760    68.3800     8.0530     7.4350    10.3000    24.8740   -18.3690 
  118.3750     2.2730    64.2730     7.7310     7.1470    10.2070    24.8440   -18.1550 
  118.5000     2.2640    62.2930     7.4200     6.8230     9.5080    24.8370   -17.9900 
  118.6250     2.2550    65.4260     7.2290     6.5640     8.9860    24.8150   -17.8850 
  118.7500     2.2500    70.0270     7.1630     6.4100     8.8040    24.7840   -17.8010 
  118.8750     2.2520    73.9270     7.1870     6.3570     8.9740    24.7570   -17.7620 
  119.0000     2.2560    75.7380     7.2360     6.3700     9.5630    24.7430   -17.7760 
  119.1250     2.2570    73.9260     7.2370     6.3880    10.1020    24.7450   -17.8100 
  119.2500     2.2520    70.1470     7.1680     6.3580    10.4070    24.7580   -17.8330 
  119.3750     2.2430    66.8820     7.0410     6.2650    10.3490    24.7810   -17.8510 
  119.5000     2.2350    65.4700     6.8830     6.1190     9.9770    24.8290   -17.8720 
  119.6250     2.2310    65.4520     6.7170     5.9450     9.7080    24.9130   -17.8280 
  119.7500     2.2270    68.0430     6.5530     5.7770     9.4670    24.9820   -17.7370 
  119.8750     2.2220    71.0590     6.3960     5.6280     9.1470    24.9990   -17.6380 
  120.0000     2.2150    71.5190     6.2520     5.5030     8.8140    24.9750   -17.4740 
  120.1250     2.2110    72.5700     6.1400     5.4020     8.5670    24.9370   -17.3140 
  120.2500     2.2130    73.9810     6.0630     5.3150     8.2770    24.8850   -17.1900 
  120.3750     2.2220    72.4600     6.0080     5.2330     7.8920    24.8100   -17.0620 
  120.5000     2.2350    68.7650     5.9500     5.1450     7.4720    24.7270   -16.9360 
  120.6250     2.2450    68.2610     5.8620     5.0410     7.2430    24.7180   -16.8310 
  120.7500     2.2460    68.6980     5.7520     4.9260     7.2820    24.7960   -16.7370 
  120.8750     2.2370    67.4230     5.6400     4.8140     7.5130    24.9170   -16.6670 
  121.0000     2.2230    66.5810     5.5520     4.7200     7.6890    25.0240   -16.6420 
  121.1250     2.2090    67.0620     5.5090     4.6570     7.6270    25.0990   -16.5930 
