~V
VERS. 2.00: Ver 2.00
~W
STRT.M 58.0000:
STOP.M 273.0000:
STEP.M 0.1250:
NULL. -999.2500:
UWI. F10226:
~C
DEPT.M :
SP.MV :
DEN.GM/CC :
GR.API :
RML.OHMM :
RI. :
RXO.OHMM :
CALI.CM :
~A
# ...
  215.5000   -12.6220     2.1870    68.9630    32.3990    27.8630    32.8950    24.1090 
  215.6250   -12.7890     2.1780    67.6040    33.9470    29.4900    35.7610    24.0870 
  215.7500   -12.9000     2.1770    64.7710    34.3310    30.1850    35.9540    24.0550 
  215.8750   -13.0470     2.1890    63.0700    33.5220    29.8130    34.9940    24.0120 
  216.0000   -13.2020     2.2070    65.2960    32.3500    28.9910    33.3320    23.9620 
  216.1250   -13.2920     2.2180    69.3040    31.6150    28.3650    30.7080    23.8930 
  216.2500   -13.3780     2.2160    71.7120    31.9250    28.4630    28.2770    23.8140 
  216.3750   -13.5120     2.2060    71.6450    33.7450    29.7440    29.5920    23.7130 
  216.5000   -13.6030     2.2050    69.9710    36.7050    32.0250    33.2510    23.4010 
  216.6250   -13.6310     2.2230    67.1710    40.1320    34.8560    38.6660    22.8220 
  216.7500   -13.6570     2.2540    63.8830    42.8520    37.3260    39.6680    22.4300 
  216.8750   -13.7140     2.2720    60.6910    43.0510    37.8990    37.6620    22.6930 
  217.0000   -13.7710     2.2650    58.1090    40.5570    36.2230    36.4340    23.2710 
  217.1250   -13.8360     2.2370    58.7660    36.2800    32.8940    34.9560    23.6130 
  217.2500   -13.9040     2.2080    63.1190    31.6430    29.0550    30.0800    23.8810 
  217.3750   -13.9910     2.1970    65.7060    28.0000    25.8760    23.8980    24.2390 
  217.5000   -14.0540     2.2010    65.1880    25.7090    23.7690    21.6740    24.5370 
  217.6250   -14.1200     2.2080    65.9490    24.7580    22.7880    22.2570    24.6530 
  217.7500   -14.2580     2.2100    68.6800    25.0300    22.8810    24.5240    24.6250 
  217.8750   -14.3930     2.2040    69.1530    26.5780    24.1570    26.6020    24.5260 
  218.0000   -14.4440     2.1990    67.5510    29.0710    26.3800    27.8540    24.4200 
  218.1250   -14.5030     2.2110    66.0090    32.0240    29.1830    29.4390    24.3570 
  218.2500   -14.6150     2.2410    64.0410    34.4990    31.7580    32.9950    24.3690 
  218.3750   -14.6460     2.2790    60.6940    34.7870    32.5180    38.8910    24.4290 
  218.5000   -14.6310     2.3100    58.4720    32.4170    30.8280    41.3470    24.4220 
  218.6250   -14.6550     2.3220    59.2230    28.0900    27.1730    33.3110    24.3030 
  218.7500   -14.6600     2.3180    63.6590    23.2940    22.8750    20.6090    24.1730 
  218.8750   -14.6180     2.3070    69.9880    19.5540    19.3470    15.5060    24.1790 
  219.0000   -14.6650     2.2950    74.3510    17.2400    16.9860    14.5690    24.2230 
  219.1250   -14.7490     2.2820    75.8720    16.2260    15.7290    15.3930    24.2640 
  219.2500   -14.7740     2.2700    76.1130    16.1860    15.3580    16.2570    24.2840 
  219.3750   -14.8850     2.2610    75.3820    16.7280    15.6400    16.8910    24.2920 
  219.5000   -15.0970     2.2550    73.9220    17.3540    16.1460    16.9260    24.2940 
  219.6250   -15.2890     2.2520    73.7610    17.8610    16.6440    16.9610    24.3000 
  219.7500   -15.4980     2.2460    77.0210    18.2980    17.0930    17.2700    24.3060 
  219.8750   -15.7820     2.2400    80.5600    18.8900    17.6370    17.4670    24.3010 
  220.0000   -16.0120     2.2390    80.3960    19.7840    18.4110    17.6820    24.2840 
  220.1250   -16.2170     2.2500    79.0750    20.9820    19.4600    18.6180    24.2890 
  220.2500   -16.4700     2.2800    79.8560    22.3670    20.7260    21.0980    24.3040 
  220.3750   -16.6270     2.3330    81.6910    23.7490    22.0740    24.9230    24.2860 
  220.5000   -16.7420     2.3940    80.6880    25.0500    23.3940    27.4900    24.2050 
  220.6250   -16.8400     2.4470    77.8150    26.4120    24.7360    27.2130    24.1400 
  220.7500   -16.8740     2.4810    75.3670    28.1630    26.3160    26.6680    24.1510 
  220.8750   -16.8630     2.4990    72.4280    30.7220    28.4830    29.3940    24.1880 
  221.0000   -16.8440     2.5090    68.5500    33.5960    30.9440    35.2550    24.1550 
  221.1250   -16.8410     2.5160    65.1410    35.3620    32.5540    41.4100    24.1420 
  221.2500   -16.8120     2.5150    63.8070    34.1240    31.5770    43.9690    24.1650 
  221.3750   -16.8530     2.4940    64.0000    28.7670    26.8380    41.9450    24.1660 
  221.5000   -16.8800     2.4540    64.9990    21.7700    20.5550    29.5610    24.1100 
  221.6250   -16.9250     2.4060    65.8950    15.4430    14.8330    15.5480    24.0310 
  221.7500   -16.9980     2.3620    64.1070    10.9140    10.6510     8.9950    24.0260 
  221.8750   -17.0790     2.3340    59.0890     8.4070     8.1740     7.4500    24.0040 
  222.0000   -17.2040     2.3210    54.7340     7.1650     6.7710     7.3610    23.9550 
  222.1250   -17.3460     2.3200    53.3660     6.7410     6.1070     7.1830    23.9060 
  222.2500   -17.5430     2.3270    53.1860     6.8370     5.9750     6.9950    23.8120 
  222.3750   -17.7720     2.3390    51.7040     7.2560     6.2490     6.8930    23.7170 
  222.5000   -18.0720     2.3490    48.2520     7.8040     6.7340     7.1130    23.7480 
  222.6250   -18.4370     2.3570    45.4760     8.3960     7.3250     7.8070    23.8670 
  222.7500   -18.8400     2.3620    46.6240     8.9570     7.9340     8.6620    23.9290 
  222.8750   -19.2150     2.3660    51.4880     9.3720     8.4380     8.9590    24.0470 
  223.0000   -19.5610     2.3710    55.2780     9.5950     8.7610     9.0470    24.1440 
  223.1250   -19.8330     2.3800    57.1580     9.6470     8.8890     9.0330    24.1440 
  223.2500   -20.0670     2.3920    60.1710     9.5990     8.8620     9.1110    24.1210 
  223.3750   -20.1850     2.4030    63.5440     9.5310     8.7390     9.1190    24.1280 
  223.5000   -20.1820     2.4110    63.0290     9.4740     8.5800     9.0180    24.1560 
  223.6250   -20.1390     2.4190    57.4800     9.4240     8.4070     8.8380    24.1600 
  223.7500   -20.0730     2.4310    50.7230     9.3710     8.2350     8.7460    24.1660 
  223.8750   -19.9950     2.4460    48.1140     9.3330     8.0920     8.5980    24.1480 
  224.0000   -19.8730     2.4550    48.4790     9.3470     8.0110     8.5000    24.1170 
  224.1250   -19.7270     2.4530    48.2680     9.4490     8.0160     8.3670    24.0910 
  224.2500   -19.5510     2.4370    45.7090     9.6390     8.1110     8.3730    24.1170 
  224.3750   -19.4610     2.4120    43.5790     9.8970     8.2880     8.5570    24.1810 
  224.5000   -19.4320     2.3860    44.4150    10.1650     8.5020     8.8550    24.2420 
  224.6250   -19.3400     2.3660    46.5100    10.3900     8.7050     9.0590    24.2640 
  224.7500   -19.1440     2.3530    47.8110    10.5030     8.8370     9.2790    24.2540 
  224.8750   -18.9020     2.3500    46.6440    10.3930     8.8010     9.0330    24.2140 
  225.0000   -18.6980     2.3540    45.1160    10.0320     8.5670     8.9200    24.2010 
  225.1250   -18.5240     2.3640    44.5570     9.4410     8.1480     9.0050    24.2420 
  225.2500   -18.2920     2.3790    45.3310     8.7300     7.6240     8.5850    24.2570 
  225.3750   -17.9740     2.3960    47.1910     8.1160     7.1490     7.4760    24.1970 
  225.5000   -17.6750     2.4090    48.9980     7.7680     6.8500     6.7150    24.1790 
  225.6250   -17.4060     2.4120    50.0970     7.7560     6.7920     6.5300    24.2180 
  225.7500   -17.1750     2.4020    49.1930     8.0390     6.9690     6.6830    24.2740 
  225.8750   -17.0170     2.3830    46.3990     8.4670     7.3070     7.2870    24.2800 
  226.0000   -16.8890     2.3630    45.4430     8.7910     7.6170     7.7580    24.2480 
  226.1250   -16.7290     2.3500    49.7930     8.8450     7.7430     7.8100    24.2160 
  226.2500   -16.6100     2.3470    57.7980     8.5770     7.6040     7.2430    24.2240 
  226.3750   -16.6140     2.3530    65.0780     8.0350     7.2010     6.5920    24.0050 
  226.5000   -16.5990     2.3600    69.0500     7.4140     6.6900     6.1890    23.8370 
  226.6250   -16.6040     2.3630    70.2810     6.8550     6.1990     6.0400    23.7690 
