~V
VERS. 2.00: Ver 2.00
~W
STRT.M 55.0000:
STOP.M 270.0000:
STEP.M 0.1250:
NULL. -999.2500:
UWI. F10235:
~C
DEPT.M :
GR.API :
RML.OHMM :
RI. :
RXO.OHMM :
CALI.CM :
DEN.GM/CC :
SP.MV :
~A
# ...
  246.2500    75.4020    29.0350    26.8960    30.6910    24.9330     2.2760    -8.7510 
  246.3750    75.6660    28.7080    26.4870    30.2910    24.9330     2.2770    -8.7300 
  246.5000    72.4260    28.5560    26.2420    29.9360    24.8000     2.2780    -8.6850 
  246.6250    70.0250    28.6340    26.2140    29.0200    24.8000     2.2770    -8.5480 
  246.7500    71.0650    28.9540    26.4300    28.7450    24.8000     2.2740    -8.4100 
  246.8750    73.4460    29.5660    26.9430    29.5830    24.8000     2.2700    -8.2860 
  247.0000    73.9340    30.5240    27.7980    30.1730    24.8000     2.2660    -8.1280 
  247.1250    73.3390    31.9360    29.1080    30.8710    24.6670     2.2650    -8.0010 
  247.2500    71.6440    33.7290    30.8020    33.5070    24.6000     2.2650    -7.8830 
  247.3750    69.4620    35.8420    32.8090    36.2850    24.5330     2.2620    -7.7240 
  247.5000    68.1870    38.1630    35.0340    38.6540    24.5330     2.2540    -7.6080 
  247.6250    67.5710    40.4940    37.3260    41.2650    24.5330     2.2440    -7.5690 
  247.7500    66.8250    42.5340    39.4290    42.9500    24.5330     2.2400    -7.5630 
  247.8750    65.1620    43.9040    41.0300    44.5440    24.5330     2.2450    -7.5970 
  248.0000    64.2690    44.1590    41.7000    48.5110    24.5330     2.2600    -7.6910 
  248.1250    64.5600    42.7130    40.7180    51.2680    24.5330     2.2800    -7.8500 
  248.2500    67.7240    40.0110    38.3390    49.4840    24.5330     2.2980    -8.0630 
  248.3750    74.3680    36.8490    35.3090    44.9580    24.5330     2.3100    -8.3070 
  248.5000    80.4750    34.4060    32.7400    38.9650    24.4000     2.3110    -8.5780 
  248.6250    82.3790    34.4030    32.1400    32.4250    24.4000     2.2990    -8.9400 
  248.7500    82.2190    37.4320    34.2440    33.8440    24.4000     2.2800    -9.3530 
  248.8750    81.8550    43.3820    39.4840    45.8210    24.4000     2.2640    -9.7930 
  249.0000    80.9910    50.5240    47.1130    73.7160    24.4000     2.2570   -10.2540 
  249.1250    79.5840    54.3720    53.0100   116.9820    24.2670     2.2600   -10.7230 
  249.2500    78.6630    51.9910    51.9310   121.1950    24.2670     2.2670   -11.1550 
  249.3750    79.8470    43.8260    43.4640    78.5860    24.2670     2.2800   -11.5020 
  249.5000    84.3720    33.3540    32.5370    40.3290    24.2670     2.3100   -11.6790 
  249.6250    90.3410    25.0980    24.4510    23.1040    24.2670     2.3670   -11.6130 
  249.7500    92.6490    20.5730    19.9570    16.3040    24.2670     2.4320   -11.4040 
  249.8750    90.7530    19.6680    18.5870    17.8210    24.5390     2.4790   -11.0100 
  250.0000    86.2160    21.9210    19.9820    28.1160    24.5850     2.4860   -10.5060 
  250.1250    79.0250    27.2620    24.6550    44.6100    24.5980     2.4400    -9.8630 
  250.2500    71.9280    34.4270    32.0270    64.6070    24.6320     2.3730    -9.1520 
  250.3750    68.0050    42.1760    40.9650    79.1580    24.6120     2.3160    -8.4910 
  250.5000    67.8600    49.0700    49.3260    76.9210    24.5120     2.2950    -7.8830 
  250.6250    68.1430    53.7350    54.8360    63.2330    24.5400     2.3270    -7.3800 
  250.7500    68.4330    56.3110    57.8090    58.4390    24.5800     2.3870    -7.0120 
  250.8750    69.5030    56.8710    58.6460    60.4700    24.5560     2.4450    -6.7780 
  251.0000    71.5150    55.2120    57.0530    70.6830    24.5350     2.4730    -6.6620 
  251.1250    73.8880    50.7940    52.0760    71.1700    24.5390     2.4510    -6.7560 
  251.2500    74.9110    44.8180    45.1470    69.4400    24.5780     2.3970    -6.9700 
  251.3750    74.7100    38.9320    38.3100    52.3730    24.6510     2.3280    -7.2420 
  251.5000    74.2700    35.0190    33.4920    34.9960    24.7140     2.2630    -7.6020 
  251.6250    76.1240    35.4090    32.7030    30.9680    24.7520     2.2210    -7.9370 
  251.7500    76.7150    40.5070    36.4180    42.8990    24.7700     2.2200    -8.1730 
  251.8750    71.7720    50.0260    45.0500    77.8370    24.7670     2.2750    -8.2840 
  252.0000    63.3280    61.1300    57.2570   123.4690    24.7790     2.3810    -8.2180 
  252.1250    56.1760    66.3690    65.5900   150.1590    24.7790     2.5040    -7.8500 
  252.2500    50.1260    61.5410    61.3830   167.0580    24.7320     2.5820    -7.2330 
  252.3750    42.9440    48.3540    46.2360   115.5430    24.6120     2.5790    -6.4060 
  252.5000    37.6470    32.8860    29.8360    43.9970    24.4870     2.4980    -5.3980 
  252.6250    39.4760    21.3350    19.0880    18.9150    24.4030     2.3840    -4.3040 
  252.7500    44.6110    14.1900    12.8870     9.8930    24.2600     2.2960    -3.1860 
  252.8750    48.6780    10.2550     9.5810     7.0380    24.0680     2.2550    -2.1300 
  253.0000    49.2980     8.4280     7.9900     6.2630    23.8800     2.2540    -1.1350 
  253.1250    46.8790     8.0720     7.5570     6.5680    23.9500     2.2680    -0.3010 
  253.2500    45.0840     8.2930     7.6930     7.2440    24.2420     2.2790     0.3020 
  253.3750    46.1000     8.6630     8.1130     7.7950    24.3880     2.2900     0.7390 
  253.5000    50.0440     8.9670     8.5730     8.0650    24.3830     2.3050     1.0440 
  253.6250    53.3580     9.0820     8.8680     8.2840    24.3840     2.3190     1.1870 
  253.7500    54.0480     9.0420     8.9700     8.1060    24.4370     2.3190     1.2180 
  253.8750    53.0890     8.9090     8.9150     7.7880    24.4920     2.2960     1.1780 
  254.0000    53.1410     8.7550     8.7700     7.4330    24.5480     2.2580     1.0620 
  254.1250    55.0630     8.6500     8.6050     7.7350    24.5930     2.2280     0.9710 
  254.2500    57.5570     8.6130     8.4570     8.7810    24.6180     2.2260     0.9460 
  254.3750    58.2500     8.6330     8.3300     9.6110    24.6240     2.2490     0.9520 
  254.5000    56.7630     8.6730     8.2050     9.4940    24.6030     2.2840     1.0030 
  254.6250    55.1520     8.6800     8.0580     9.1730    24.5660     2.3100     1.0920 
  254.7500    55.3930     8.6390     7.8880     8.9430    24.5350     2.3220     1.2120 
  254.8750    56.3970     8.5700     7.7190     9.1510    24.5110     2.3250     1.3140 
  255.0000    55.7660     8.5310     7.5920     9.1670    24.5340     2.3290     1.3980 
  255.1250    54.5640     8.6130     7.5750     8.5280    24.5860     2.3470     1.4020 
  255.2500    53.8550     8.8420     7.6900     7.9160    24.6260     2.3750     1.3620 
  255.3750    52.7250     9.1990     7.9310     7.9940    24.6360     2.4030     1.2810 
  255.5000    51.7790     9.6150     8.2510     8.1770    24.6110     2.4180     1.1460 
  255.6250    51.6490     9.9610     8.5470     8.1500    24.5650     2.4070     0.9940 
  255.7500    52.7500    10.1400     8.7120     7.9560    24.4930     2.3760     0.8020 
  255.8750    53.7630    10.1200     8.6930     7.7570    24.4520     2.3410     0.6600 
  256.0000    54.6350     9.9400     8.5130     8.1030    24.4430     2.3180     0.5470 
  256.1250    56.0890     9.7070     8.2660     9.3440    24.4320     2.3220     0.4680 
  256.2500    58.0080     9.5580     8.0790    11.2030    24.4470     2.3490     0.4430 
  256.3750    60.5370     9.5670     8.0200    12.5900    24.4960     2.3950     0.4400 
  256.5000    61.8930     9.7540     8.1130    13.7040    24.5310     2.4530     0.4220 
  256.6250    61.6490    10.0940     8.3580    15.9890    24.6020     2.5110     0.4020 
  256.7500    60.1340    10.4830     8.6700    17.3120    24.6230     2.5510     0.3890 
  256.8750    57.2180    10.8530     8.9860    18.8760    24.5770     2.5590     0.3620 
  257.0000    55.2800    11.1600     9.2580    18.4690    24.5030     2.5310     0.3860 
  257.1250    56.9060    11.3680     9.4430    15.9440    24.4560     2.4770     0.4710 
  257.2500    59.4030    11.4830     9.5420    12.2960    24.4330     2.4220     0.5440 
  257.3750    59.5320    11.4980     9.5510     9.8210    24.3920     2.3780     0.6580 
