~V
VERS. 2.00: Ver 2.00
~W
STRT.M 50.0000:
STOP.M 283.0000:
STEP.M 0.1250:
NULL. -999.2500:
UWI. F10256:
~C
DEPT.M :
DEN.GM/CC :
GR.API :
RML.OHMM :
RI. :
RXO.OHMM :
CALI.CM :
SP.MV :
~A
# ...
   61.2500     2.1690    56.2640     6.8380     7.2340    10.1190    24.8250   -16.8610 
   61.3750     2.1670    52.8450     6.7840     7.1540    10.0790    24.8880   -17.0080 
   61.5000     2.1620    51.7410     6.7200     7.0510     9.9340    24.9610   -17.1310 
   61.6250     2.1570    52.7280     6.6770     6.9570     9.7650    24.9790   -17.2410 
   61.7500     2.1520    55.2770     6.6580     6.8870     9.6730    24.9620   -17.3920 
   61.8750     2.1500    57.8330     6.6520     6.8390     9.6620    24.9530   -17.5820 
   62.0000     2.1490    59.6540     6.6500     6.8050     9.7520    24.9810   -17.8150 
   62.1250     2.1500    59.9000     6.6460     6.7770     9.9170    25.0360   -18.0800 
   62.2500     2.1540    58.0210     6.6450     6.7530    10.0200    25.0450   -18.3750 
   62.3750     2.1580    54.1520     6.6580     6.7450    10.1020    25.0190   -18.6860 
   62.5000     2.1610    50.2220     6.6950     6.7590    10.1900    24.9940   -19.0040 
   62.6250     2.1620    48.8290     6.7570     6.8050    10.3390    25.0080   -19.3020 
   62.7500     2.1600    49.1690     6.8320     6.8680    10.6300    25.0520   -19.5310 
   62.8750     2.1580    50.1990     6.9070     6.9350    10.8590    25.0920   -19.6620 
   63.0000     2.1580    51.8420     6.9720     6.9950    10.9610    25.1010   -19.6940 
   63.1250     2.1630    53.6380     7.0200     7.0330    10.9060    25.0710   -19.6090 
   63.2500     2.1700    53.7020     7.0550     7.0510    10.7830    24.9840   -19.4220 
   63.3750     2.1750    50.9780     7.0780     7.0480    10.5760    24.8510   -19.1070 
   63.5000     2.1760    47.8260     7.0780     7.0180    10.3490    24.7050   -18.6850 
   63.6250     2.1710    48.6060     7.0260     6.9430     9.9830    24.5930   -18.1460 
   63.7500     2.1670    54.1380     6.9120     6.8160     9.6350    24.5700   -17.5010 
   63.8750     2.1680    60.4580     6.7470     6.6410     9.3950    24.6730   -16.7690 
   64.0000     2.1790    63.7550     6.5720     6.4470     9.1010    24.8770   -15.9560 
   64.1250     2.1990    66.8300     6.4780     6.3000     8.4810    25.0910   -15.0630 
   64.2500     2.2210    71.2870     6.5240     6.2530     7.6270    25.2260   -14.1930 
   64.3750     2.2370    73.4550     6.7310     6.3370     7.0550    25.2620   -13.4430 
   64.5000     2.2450    68.8660     7.0690     6.5420     6.9430    25.2230   -12.8280 
   64.6250     2.2490    62.9680     7.4430     6.8120     7.7850    25.1730   -12.3010 
   64.7500     2.2560    62.0490     7.7170     7.0360     8.5930    25.1060   -11.8370 
   64.8750     2.2680    63.4830     7.8110     7.1300     9.0090    25.0630   -11.4120 
   65.0000     2.2780    65.4710     7.7160     7.0610     9.1500    25.0510   -11.0200 
   65.1250     2.2770    69.0930     7.5060     6.8600     9.1220    25.0750   -10.6980 
   65.2500     2.2630    72.6690     7.3300     6.6480     8.5270    25.1060   -10.3690 
   65.3750     2.2460    73.7690     7.2790     6.5110     7.4650    25.1050   -10.0190 
   65.5000     2.2340    72.4180     7.3690     6.4850     7.1280    25.0170    -9.6170 
   65.6250     2.2310    71.1870     7.5390     6.5530     7.7230    24.8990    -9.1960 
   65.7500     2.2330    71.0330     7.6720     6.6290     8.1440    24.8540    -8.7890 
   65.8750     2.2360    70.9360     7.7130     6.6590     8.2990    24.8450    -8.4260 
   66.0000     2.2400    70.3890     7.6760     6.6360     8.4830    24.8400    -8.1400 
   66.1250     2.2560    71.2290     7.6670     6.6170     8.6140    24.8040    -7.9170 
   66.2500     2.2830    74.2890     7.7740     6.6810     8.3330    24.7690    -7.7330 
   66.3750     2.3140    75.4510     7.9900     6.8410     8.1020    24.7670    -7.5200 
   66.5000     2.3330    71.4530     8.2150     7.0370     8.4520    24.8120    -7.3130 
   66.6250     2.3280    66.0790     8.2740     7.1370     9.9360    24.8840    -7.1140 
   66.7500     2.3040    65.4790     8.1010     7.0570    11.8540    24.9270    -6.9220 
   66.8750     2.2760    69.4040     7.7280     6.7910    11.4670    24.9360    -6.7430 
   67.0000     2.2570    74.7110     7.2820     6.4230     8.5850    24.9120    -6.5780 
   67.1250     2.2530    78.9100     6.9390     6.0900     7.1220    24.8960    -6.4130 
   67.2500     2.2560    80.9670     6.7710     5.8820     6.6610    24.9120    -6.2730 
   67.3750     2.2570    80.4540     6.7670     5.8150     6.7310    24.9660    -6.1570 
   67.5000     2.2510    78.5210     6.8660     5.8570     6.7230    25.0180    -6.0260 
   67.6250     2.2370    77.4290     6.9780     5.9480     6.5090    25.0560    -5.9160 
   67.7500     2.2280    78.4650     7.0360     6.0200     6.5500    25.0730    -5.8130 
   67.8750     2.2300    79.9880     7.0220     6.0420     6.8640    25.0680    -5.6770 
   68.0000     2.2420    80.4650     6.9430     6.0060     7.1850    25.0290    -5.4850 
   68.1250     2.2580    80.3930     6.8250     5.9180     6.9670    25.0590    -5.2440 
   68.2500     2.2660    80.9920     6.7040     5.8060     6.4320    25.1750    -4.9750 
   68.3750     2.2660    81.2530     6.5950     5.6880     6.0720    25.3410    -4.7210 
   68.5000     2.2590    80.1320     6.4990     5.5700     6.0820    25.4940    -4.4900 
   68.6250     2.2490    78.6150     6.4220     5.4630     6.1690    25.5700    -4.2870 
   68.7500     2.2420    78.1320     6.4030     5.3940     6.1900    25.5660    -4.1350 
   68.8750     2.2430    79.7610     6.5190     5.4170     6.1410    25.5450    -4.0930 
   69.0000     2.2620    83.0570     6.8730     5.6090     6.1950    25.5400    -4.1540 
   69.1250     2.3030    84.7570     7.5730     6.0720     6.6490    25.5140    -4.3840 
   69.2500     2.3510    82.3030     8.4990     6.7510     7.7040    25.4760    -4.7320 
   69.3750     2.3840    77.1970     9.4710     7.5430     9.3490    25.4550    -5.1900 
   69.5000     2.3850    73.7390    10.2820     8.3000    11.7410    25.4050    -5.7880 
   69.6250     2.3540    71.9460    10.7790     8.8610    14.0250    25.2720    -6.5310 
   69.7500     2.3280    68.5380    11.1410     9.2760    13.3150    25.1020    -7.3580 
   69.8750     2.3290    63.3550    11.6390     9.7060    11.2110    24.9530    -8.2110 
   70.0000     2.3610    58.5350    12.4590    10.3100    11.0500    24.8470    -9.0600 
   70.1250     2.4000    56.7060    13.5130    11.0910    13.7880    24.8760    -9.8460 
   70.2500     2.4080    56.9850    14.3280    11.7650    18.7270    24.9840   -10.5610 
   70.3750     2.3710    57.6360    14.4590    12.0060    27.6010    25.0060   -11.1840 
   70.5000     2.3050    57.6270    13.6730    11.5790    30.6630    24.8550   -11.6730 
   70.6250     2.2400    57.4040    12.1160    10.4910    20.0530    24.7140   -11.9910 
   70.7500     2.1940    57.4810    10.5310     9.2800    12.3700    24.6010   -12.2180 
   70.8750     2.1680    56.9750     9.3880     8.3190     9.6040    24.4790   -12.3630 
   71.0000     2.1540    56.7430     8.8390     7.7570     8.7050    24.3590   -12.4530 
   71.1250     2.1460    59.2950     8.8120     7.5990     8.4100    24.2370   -12.4910 
   71.2500     2.1390    62.8690     8.9780     7.6340     8.1400    24.0900   -12.5150 
   71.3750     2.1310    64.4410     9.1570     7.7290     7.8850    23.9540   -12.5090 
   71.5000     2.1240    63.2330     9.2530     7.7930     7.6430    23.8960   -12.4720 
   71.6250     2.1180    61.4040     9.2270     7.7730     7.5060    23.8830   -12.4300 
   71.7500     2.1160    61.7300     9.1070     7.6770     7.5170    23.8600   -12.4060 
   71.8750     2.1190    62.8390     8.9150     7.5180     7.6680    23.8510   -12.4400 
   72.0000     2.1220    62.5140     8.6890     7.3240     7.9960    23.9030   -12.5090 
   72.1250     2.1230    61.3120     8.5360     7.1620     8.3740    23.9960   -12.6200 
   72.2500     2.1250    60.6590     8.5990     7.1300     8.6280    24.1350   -12.7320 
   72.3750     2.1390    60.1030     9.0240     7.3380     8.8210    24.3830   -12.8540 
