~V
VERS. 2.00: Ver 2.00
~W
STRT.M 50.0000:
STOP.M 278.0000:
STEP.M 0.1250:
NULL. -999.2500:
UWI. F10217:
~C
DEPT.M :
SP.MV :
DEN.GM/CC :
GR.API :
RML.OHMM :
RI. :
RXO.OHMM :
CALI.CM :
~A
# ...
   83.7500   -31.0640     2.1310    65.7390     9.9540     6.6660     9.6340    24.4880 
   83.8750   -31.2160     2.1390    68.9260    10.2110     6.8110     9.3750    24.4820 
   84.0000   -31.4640     2.1490    70.9330    10.4690     6.9890     9.3140    24.5250 
   84.1250   -31.8110     2.1590    70.1780    10.7300     7.1820     9.4790    24.6020 
   84.2500   -32.2170     2.1670    67.5070    10.9560     7.3650     9.6420    24.6720 
   84.3750   -32.6690     2.1730    65.5610    11.0980     7.5120     9.9650    24.7420 
   84.5000   -33.1480     2.1750    64.7770    11.1250     7.5980    10.2650    24.7900 
   84.6250   -33.5830     2.1740    61.3050    11.0330     7.6050    10.3970    24.8260 
   84.7500   -34.0000     2.1740    58.0090    10.8960     7.5590    10.3930    24.8960 
   84.8750   -34.3520     2.1760    59.5270    10.7650     7.4860    10.3300    25.0010 
   85.0000   -34.6430     2.1820    63.5710    10.6640     7.4090    10.2080    25.0710 
   85.1250   -34.8540     2.1890    65.5140    10.5920     7.3450    10.0820    25.0870 
   85.2500   -34.9970     2.1920    66.0750    10.5320     7.2970     9.8420    25.0880 
   85.3750   -35.0490     2.1900    65.6510    10.4820     7.2670     9.4420    25.1000 
   85.5000   -35.0040     2.1800    62.8030    10.4580     7.2580     9.0060    25.1480 
   85.6250   -34.8890     2.1640    61.1460    10.4880     7.2800     9.0750    25.2080 
   85.7500   -34.7010     2.1480    63.7920    10.5550     7.3260     9.3720    25.2600 
   85.8750   -34.4730     2.1370    65.3560    10.6200     7.3800    10.0170    25.2740 
   86.0000   -34.1920     2.1360    61.4740    10.6260     7.4140    11.3740    25.2340 
   86.1250   -33.8610     2.1460    57.4390    10.5170     7.3950    12.6090    25.2170 
   86.2500   -33.4840     2.1540    56.5370    10.3250     7.3250    11.9140    25.2780 
   86.3750   -33.0700     2.1450    55.1400    10.1060     7.2280     9.8310    25.4220 
   86.5000   -32.5990     2.1160    52.8310     9.9290     7.1410     8.3860    25.5220 
   86.6250   -32.0480     2.0730    53.9950     9.8470     7.1050     8.4070    25.2910 
   86.7500   -31.4390     2.0350    57.2380     9.8280     7.1160     8.8920    25.0240 
   86.8750   -30.7340     2.0120    60.0360     9.8200     7.1490     9.2600    24.8320 
   87.0000   -29.9380     2.0080    62.5690     9.7720     7.1660     9.5140    24.7210 
   87.1250   -29.0240     2.0190    66.8630     9.6550     7.1350     9.8320    24.6680 
   87.2500   -28.0300     2.0370    70.4950     9.5270     7.0780     9.9960    24.6220 
   87.3750   -27.0000     2.0590    70.9590     9.4680     7.0380     9.8790    24.5300 
   87.5000   -25.9950     2.0840    67.5260     9.5440     7.0720     9.6200    24.3990 
   87.6250   -25.0090     2.1120    64.2970     9.7460     7.2050     9.5750    24.3270 
   87.7500   -24.0540     2.1380    63.9840     9.8910     7.3420     9.8180    24.3090 
   87.8750   -23.1350     2.1630    65.7750     9.7710     7.3430    10.2670    24.3130 
   88.0000   -22.2660     2.1910    68.9630     9.2360     7.0820    11.2200    24.3060 
   88.1250   -21.4570     2.2220    75.8680     8.2840     6.4990    10.8810    24.2630 
   88.2500   -20.7550     2.2540    84.2860     7.2410     5.7860     8.3660    24.1460 
   88.3750   -20.1630     2.2810    90.1310     6.3630     5.1160     5.7210    24.0260 
   88.5000   -19.6470     2.3000    93.3360     5.7810     4.6090     4.6880    23.9900 
   88.6250   -19.2570     2.3120    96.3540     5.5360     4.3370     4.6260    24.0360 
   88.7500   -18.9570     2.3210    99.4350     5.4880     4.2380     4.6560    24.0990 
   88.8750   -18.7590     2.3280   102.1480     5.5420     4.2560     4.7040    24.1230 
   89.0000   -18.6520     2.3310   103.6720     5.6300     4.3350     4.8160    24.1350 
   89.1250   -18.6780     2.3310   102.8830     5.7430     4.4510     4.9440    24.1320 
   89.2500   -18.7530     2.3320   100.3120     5.9020     4.6010     5.0720    24.1430 
   89.3750   -18.8640     2.3400    97.0180     6.1160     4.7920     5.2280    24.2230 
   89.5000   -19.0000     2.3560    92.9410     6.3650     5.0170     5.6430    24.3960 
   89.6250   -19.1420     2.3730    87.4860     6.5950     5.2490     6.6990    24.5800 
   89.7500   -19.3050     2.3790    85.9680     6.7560     5.4440     7.6880    24.6760 
   89.8750   -19.5010     2.3650    90.5810     6.8360     5.5720     7.1030    24.7350 
   90.0000   -19.7200     2.3330    94.4910     6.8710     5.6350     6.3120    24.7710 
   90.1250   -19.9430     2.2910    91.8910     6.9330     5.6660     6.0760    24.7910 
   90.2500   -20.1630     2.2520    87.3770     7.0720     5.7160     6.1600    24.7770 
   90.3750   -20.3640     2.2210    86.3900     7.2860     5.8080     6.2720    24.7170 
   90.5000   -20.5440     2.2010    88.2040     7.5140     5.9200     6.4940    24.5980 
   90.6250   -20.6820     2.1900    87.5210     7.6070     5.9690     6.7170    24.4780 
   90.7500   -20.7670     2.1850    85.2930     7.4570     5.8750     6.9560    24.4250 
   90.8750   -20.8210     2.1840    85.3780     7.0460     5.6040     6.8210    24.5090 
   91.0000   -20.8800     2.1860    90.6120     6.5190     5.2170     6.2980    24.6680 
   91.1250   -20.9700     2.1870    94.6550     6.2450     4.9120     5.9730    24.7410 
   91.2500   -21.1550     2.1940    93.6080     6.5180     4.9020     5.8430    24.7460 
   91.3750   -21.4580     2.2190    91.3600     7.5140     5.3370     5.9900    24.7260 
   91.5000   -21.9050     2.2720    88.6470     9.2610     6.3000     7.4530    24.6940 
   91.6250   -22.5390     2.3610    81.1610    11.5370     7.8000    13.0520    24.6530 
   91.7500   -23.3090     2.4590    72.3790    13.4690     9.3560    22.5620    24.6070 
   91.8750   -24.1760     2.5250    67.8630    14.1330    10.3140    24.3140    24.5570 
   92.0000   -25.0730     2.5270    67.2610    13.2050    10.2180    16.4310    24.4890 
   92.1250   -25.9490     2.4550    67.4680    11.3900     9.2400    10.4870    24.4230 
   92.2500   -26.7150     2.3580    68.5640     9.8590     8.1840     8.9870    24.4220 
   92.3750   -27.3480     2.2710    69.0160     8.9690     7.4110     8.9440    24.4810 
   92.5000   -27.8320     2.2090    67.0700     8.6520     7.0070     9.0710    24.5600 
   92.6250   -28.1480     2.1780    65.3130     8.7130     6.9300     9.0010    24.6470 
   92.7500   -28.3570     2.1640    66.9730     8.8920     7.0040     8.8320    24.7230 
   92.8750   -28.4650     2.1580    68.1330     9.1020     7.1480     8.8510    24.7570 
   93.0000   -28.5030     2.1560    66.1670     9.3130     7.3190     9.2430    24.7570 
   93.1250   -28.5030     2.1580    66.0690     9.5000     7.4810     9.7240    24.7610 
   93.2500   -28.5190     2.1610    67.4140     9.6360     7.6030     9.9370    24.8030 
   93.3750   -28.5610     2.1620    65.2050     9.6990     7.6600     9.9170    24.8630 
   93.5000   -28.6190     2.1580    59.6740     9.6860     7.6440     9.7960    24.9220 
   93.6250   -28.6280     2.1480    58.2660     9.6050     7.5500     9.7460    24.9970 
   93.7500   -28.5980     2.1340    63.1000     9.4860     7.4070     9.6850    25.0980 
   93.8750   -28.5400     2.1190    70.5610     9.3310     7.2300     9.5490    25.1920 
   94.0000   -28.4610     2.1070    75.9130     9.1350     7.0300     9.3920    25.2500 
   94.1250   -28.3280     2.0980    73.8550     8.9150     6.8210     9.2690    25.3010 
   94.2500   -28.1680     2.0910    68.5890     8.7560     6.6480     9.1260    25.3390 
   94.3750   -27.9480     2.0790    67.6770     8.7840     6.5870     8.9610    25.3410 
   94.5000   -27.6850     2.0600    70.9590     9.1050     6.7210     8.9230    25.3050 
   94.6250   -27.4230     2.0410    70.1090     9.7630     7.1240     9.3090    25.2230 
   94.7500   -27.1390     2.0450    65.1070    10.5450     7.6890    10.9100    25.0510 
   94.8750   -26.8190     2.0870    60.2270    11.1700     8.2420    15.4680    24.7900 
