~V
VERS. 2.00: Ver 2.00
~W
STRT.M 56.0000:
STOP.M 270.0000:
STEP.M 0.1250:
NULL. -999.2500:
UWI. F10225:
~C
DEPT.M :
SP.MV :
DEN.GM/CC :
GR.API :
RML.OHMM :
RI. :
RXO.OHMM :
CALI.CM :
~A
# ...
  134.7500   -20.4000     2.3710    68.3280    20.1090    19.0520    16.3730    21.9850 
  134.8750   -20.4990     2.3690    68.3630    21.1650    19.9540    16.7010    21.9870 
  135.0000   -20.5850     2.3610    65.8750    22.4520    21.1520    17.1600    21.9630 
  135.1250   -20.6600     2.3500    63.2150    23.7670    22.4840    18.1070    21.9480 
  135.2500   -20.7180     2.3460    62.3550    24.8360    23.6660    19.4560    21.9500 
  135.3750   -20.7640     2.3540    62.4730    25.4250    24.4250    20.2860    21.9490 
  135.5000   -20.7800     2.3670    62.6030    25.4180    24.6060    19.5140    21.9360 
  135.6250   -20.7490     2.3770    64.3700    24.8270    24.1830    17.3130    21.9390 
  135.7500   -20.6790     2.3830    68.0790    23.9220    23.4120    15.0560    21.9570 
  135.8750   -20.5910     2.3880    71.9650    22.9690    22.5470    13.4310    21.9720 
  136.0000   -20.5040     2.3950    73.7150    22.1610    21.7720    12.3830    21.9720 
  136.1250   -20.4280     2.4040    72.3130    21.6200    21.2000    11.9370    21.9530 
  136.2500   -20.3570     2.4120    70.0390    21.2900    20.7910    11.9450    21.9110 
  136.3750   -20.2520     2.4210    67.5590    21.0670    20.4610    12.3140    21.8490 
  136.5000   -20.1010     2.4310    63.6580    20.8820    20.1490    12.7660    21.7670 
  136.6250   -19.9520     2.4390    59.8280    20.7460    19.8760    12.8670    21.6660 
  136.7500   -19.8490     2.4430    59.9360    20.7150    19.7300    12.8080    21.5850 
  136.8750   -19.8070     2.4440    64.9050    20.7980    19.7570    13.0840    21.5460 
  137.0000   -19.8140     2.4420    71.1210    20.9020    19.8870    14.0730    21.5390 
  137.1250   -19.8320     2.4360    74.1730    20.8190    19.9030    15.7980    21.5620 
  137.2500   -19.8360     2.4290    72.9150    20.4220    19.6260    18.2670    21.6240 
  137.3750   -19.8440     2.4270    69.0870    19.7210    19.0170    19.5890    21.7040 
  137.5000   -19.8710     2.4260    67.2570    18.8490    18.1900    18.7480    21.7650 
  137.6250   -19.9410     2.4210    68.6990    18.0510    17.3750    17.5310    21.8080 
  137.7500   -20.0280     2.4080    69.9550    17.5040    16.7540    17.6840    21.8660 
  137.8750   -20.1050     2.3940    69.8240    17.2390    16.3910    18.4120    21.9330 
  138.0000   -20.1600     2.3790    69.3350    17.1620    16.2400    19.1350    21.9830 
  138.1250   -20.1960     2.3670    69.7510    17.0880    16.1630    19.6080    22.0200 
  138.2500   -20.2260     2.3560    70.9800    16.8950    16.0170    19.7850    22.0470 
  138.3750   -20.2380     2.3480    71.8030    16.6160    15.7780    18.4560    22.0610 
  138.5000   -20.2440     2.3460    70.8790    16.3880    15.5310    16.0430    22.0610 
  138.6250   -20.2490     2.3500    68.5850    16.3280    15.3790    13.0740    22.0490 
  138.7500   -20.2440     2.3490    67.1010    16.3010    15.2560    12.0270    22.0230 
  138.8750   -20.2220     2.3410    65.8020    15.9910    14.9240    13.6130    21.9920 
  139.0000   -20.1690     2.3240    63.9060    15.0730    14.0820    15.8540    21.9500 
  139.1250   -20.0860     2.3070    63.9760    13.3810    12.5550    16.1100    21.9310 
  139.2500   -19.9910     2.2920    67.0650    11.2770    10.6580    13.8710    22.0020 
  139.3750   -19.9280     2.2790    71.3990     9.2450     8.8150    10.6330    22.1510 
  139.5000   -19.9110     2.2650    74.4610     7.6520     7.3190     7.8450    22.2850 
  139.6250   -19.8950     2.2560    73.5420     6.7390     6.3500     6.5980    22.3460 
  139.7500   -19.8570     2.2560    69.6880     6.4060     5.8390     6.4210    22.3220 
  139.8750   -19.8260     2.2610    65.9060     6.4750     5.6800     6.4300    22.2020 
  140.0000   -19.8470     2.2640    64.4350     6.7510     5.7610     6.3830    22.0810 
  140.1250   -19.9190     2.2640    64.6580     7.0090     5.9340     6.5630    22.1040 
  140.2500   -20.0230     2.2680    65.2800     7.0810     6.0340     6.8210    22.2270 
  140.3750   -20.1030     2.2750    66.2250     6.9120     5.9620     6.8380    22.3890 
  140.5000   -20.1220     2.2820    68.1540     6.5510     5.7180     6.4590    22.5650 
  140.6250   -20.1160     2.2830    71.0570     6.1280     5.3940     6.0440    22.7010 
  140.7500   -20.1380     2.2810    73.8600     5.7900     5.1200     5.7800    22.7740 
  140.8750   -20.1890     2.2790    75.2070     5.6370     4.9800     5.7500    22.7700 
  141.0000   -20.2580     2.2800    73.9040     5.7080     4.9980     5.8300    22.6720 
  141.1250   -20.3350     2.2820    70.9550     6.0110     5.1700     6.1660    22.4740 
  141.2500   -20.3870     2.2820    68.4780     6.4490     5.4330     6.5110    22.2490 
  141.3750   -20.4140     2.2810    67.2750     6.8880     5.7120     6.6980    22.0920 
  141.5000   -20.4080     2.2810    66.6360     7.1850     5.9210     6.7660    22.0380 
  141.6250   -20.3580     2.2810    66.6660     7.2030     5.9460     6.8280    22.0590 
  141.7500   -20.2570     2.2800    68.1310     6.9700     5.7690     6.7270    22.1080 
  141.8750   -20.1020     2.2770    69.9210     6.5920     5.4420     6.3340    22.1730 
  142.0000   -19.9090     2.2730    72.1770     6.1840     5.0600     5.6620    22.2390 
  142.1250   -19.6870     2.2730    75.7490     5.8430     4.7330     5.2000    22.2620 
  142.2500   -19.4600     2.2780    78.9900     5.5980     4.5140     5.0930    22.2480 
  142.3750   -19.2490     2.2880    79.4580     5.4550     4.4000     5.1870    22.2240 
  142.5000   -19.0800     2.3010    78.3270     5.4130     4.3640     5.2690    22.2130 
  142.6250   -18.9590     2.3140    78.7580     5.4600     4.3710     5.2430    22.2370 
  142.7500   -18.8640     2.3250    79.9310     5.5610     4.3950     5.1810    22.3150 
  142.8750   -18.7730     2.3360    80.2220     5.6900     4.4310     5.2100    22.4420 
  143.0000   -18.6440     2.3460    80.6710     5.8440     4.4820     5.3670    22.5920 
  143.1250   -18.4850     2.3550    82.6800     6.0170     4.5470     5.6020    22.7600 
  143.2500   -18.3500     2.3600    85.5850     6.1850     4.6140     5.7860    22.9120 
  143.3750   -18.2580     2.3570    88.2990     6.3090     4.6770     5.9130    23.0220 
  143.5000   -18.1910     2.3460    89.8120     6.3560     4.7280     6.0450    23.1480 
  143.6250   -18.1180     2.3350    88.4470     6.3160     4.7590     6.0460    23.4020 
  143.7500   -18.0100     2.3310    87.0590     6.2320     4.7630     6.0150    23.7260 
  143.8750   -17.8870     2.3350    88.0140     6.1470     4.7380     6.0450    23.9790 
  144.0000   -17.7890     2.3410    89.1450     6.0910     4.6910     6.0420    24.0680 
  144.1250   -17.7270     2.3500    86.2490     6.0900     4.6440     5.9230    24.0200 
  144.2500   -17.6730     2.3590    81.6170     6.1380     4.6110     5.7950    23.9130 
  144.3750   -17.6010     2.3660    79.1590     6.2150     4.5960     5.8210    23.8590 
  144.5000   -17.5050     2.3660    78.0420     6.2960     4.5940     5.9280    23.9060 
  144.6250   -17.3700     2.3610    76.0910     6.3550     4.5930     5.9790    24.0290 
  144.7500   -17.2300     2.3510    74.3020     6.3850     4.5890     5.9190    24.1290 
  144.8750   -17.1010     2.3420    75.1340     6.3900     4.5800     5.8240    24.1580 
  145.0000   -16.9880     2.3350    80.1760     6.3790     4.5660     5.7450    24.1460 
  145.1250   -16.8880     2.3290    87.2060     6.3630     4.5550     5.7220    24.1330 
  145.2500   -16.7940     2.3290    91.1720     6.3640     4.5620     5.7220    24.1350 
  145.3750   -16.7030     2.3330    90.4530     6.4110     4.6010     5.7430    24.1470 
  145.5000   -16.6110     2.3360    88.0490     6.5220     4.6740     5.8030    24.1590 
  145.6250   -16.5350     2.3310    87.0070     6.6940     4.7700     5.8910    24.1710 
  145.7500   -16.4840     2.3200    85.4880     6.8760     4.8610     5.9830    24.1920 
  145.8750   -16.4570     2.3120    83.3270     7.0100     4.9230     6.0290    24.2220 
