~V
VERS. 2.00: Ver 2.00
~W
STRT.M 57.0000:
STOP.M 281.0000:
STEP.M 0.1250:
NULL. -999.2500:
UWI. F10238:
~C
DEPT.M :
GR.API :
RML.OHMM :
RI. :
RXO.OHMM :
CALI.CM :
DEN.GM/CC :
SP.MV :
~A
# ...
  237.0000    62.9320    25.7180    23.0040    26.9750    24.7150     2.2150   -13.5090 
  237.1250    62.7920    25.3820    22.6160    26.6300    24.7060     2.2110   -13.4150 
  237.2500    62.1860    25.1590    22.2860    26.0980    24.6970     2.2040   -13.3480 
  237.3750    61.3770    25.0370    22.0460    26.4310    24.6960     2.1990   -13.3060 
  237.5000    62.0240    24.9580    21.8670    27.1740    24.7080     2.2000   -13.2750 
  237.6250    63.3230    24.9570    21.7730    27.1360    24.7150     2.2080   -13.2490 
  237.7500    63.9500    25.2380    21.8980    26.2560    24.7170     2.2310   -13.2300 
  237.8750    65.4960    26.0730    22.4320    25.0090    24.7080     2.2670   -13.2230 
  238.0000    68.1710    27.5740    23.4780    24.6340    24.6590     2.3030   -13.2120 
  238.1250    69.8060    29.6290    25.0250    26.3180    24.5150     2.3270   -13.2080 
  238.2500    70.1020    31.7540    26.8130    29.2230    24.2340     2.3320   -13.1950 
  238.3750    70.4300    33.1950    28.3010    30.0990    23.9080     2.3190   -13.1670 
  238.5000    70.6820    33.4100    28.9460    28.8480    23.7150     2.2970   -13.1160 
  238.6250    69.5580    32.3650    28.5440    27.7880    23.6920     2.2730   -13.0400 
  238.7500    67.4580    30.5200    27.3030    25.7550    23.8080     2.2470   -12.9280 
  238.8750    64.9470    28.5290    25.7100    23.8010    24.0150     2.2220   -12.7810 
  239.0000    62.5910    26.8080    24.1910    23.5280    24.3020     2.2020   -12.6250 
  239.1250    60.7990    25.3700    22.8430    24.0050    24.5600     2.1900   -12.4530 
  239.2500    59.6630    24.0620    21.6090    24.6410    24.6870     2.1890   -12.2870 
  239.3750    60.4770    22.7770    20.4280    24.1070    24.7060     2.1970   -12.1310 
  239.5000    63.2980    21.5710    19.3350    21.5430    24.6650     2.2090   -11.9870 
  239.6250    65.5610    20.5990    18.4430    18.7020    24.5910     2.2190   -11.8580 
  239.7500    64.9570    20.0320    17.8850    17.8090    24.5530     2.2260   -11.7480 
  239.8750    62.1270    19.9320    17.7220    19.1050    24.6040     2.2300   -11.6690 
  240.0000    59.8750    20.1880    17.8700    20.7250    24.6720     2.2380   -11.6040 
  240.1250    58.3390    20.6600    18.2190    21.4690    24.6890     2.2480   -11.5520 
  240.2500    56.5420    21.1920    18.6300    21.7450    24.6860     2.2590   -11.5080 
  240.3750    55.0270    21.6720    18.9990    22.1140    24.6900     2.2670   -11.4670 
  240.5000    54.9560    22.0750    19.2990    22.5900    24.6910     2.2720   -11.4420 
  240.6250    56.1380    22.4160    19.5490    22.7590    24.6960     2.2710   -11.4280 
  240.7500    57.8460    22.7200    19.7700    22.2910    24.6470     2.2600   -11.4300 
  240.8750    60.6950    22.9930    19.9680    21.2110    24.4400     2.2410   -11.4340 
  241.0000    63.7350    23.2420    20.1460    20.3320    24.0820     2.2210   -11.4460 
  241.1250    63.4420    23.4850    20.3150    20.0610    23.8020     2.2060   -11.4610 
  241.2500    59.2890    23.7650    20.5070    20.2420    23.7740     2.2000   -11.4720 
  241.3750    55.5610    24.1330    20.7490    20.6210    23.9120     2.1970   -11.4810 
  241.5000    55.4990    24.5990    21.0480    20.8680    24.1130     2.1920   -11.4780 
  241.6250    56.8430    25.1240    21.3820    20.9220    24.1950     2.1860   -11.4790 
  241.7500    56.8490    25.6040    21.6980    21.0780    24.0880     2.1830   -11.4710 
  241.8750    56.1720    25.9280    21.9300    21.7150    23.9890     2.1880   -11.4630 
  242.0000    55.9350    26.0710    22.0510    22.4640    24.0610     2.1970   -11.4470 
  242.1250    55.5210    26.0970    22.0850    22.9260    24.2130     2.2060   -11.4170 
  242.2500    54.6530    26.1470    22.1100    22.6490    24.2570     2.2100   -11.3830 
  242.3750    53.9380    26.3640    22.2290    21.8330    24.1190     2.2100   -11.3470 
  242.5000    54.0750    26.7850    22.5020    21.4780    23.8640     2.2080   -11.3170 
  242.6250    55.3930    27.3610    22.9290    22.1290    23.6170     2.2060   -11.2760 
  242.7500    58.0110    27.9790    23.4540    23.3870    23.4750     2.2070   -11.2310 
  242.8750    60.6520    28.5210    23.9780    24.7200    23.4790     2.2130   -11.1860 
  243.0000    60.6890    28.9180    24.4130    25.5020    23.6280     2.2220   -11.1370 
  243.1250    58.3910    29.1520    24.7180    26.0200    23.9320     2.2310   -11.1040 
  243.2500    56.7070    29.2330    24.8810    27.0830    24.3170     2.2370   -11.0790 
  243.3750    56.8710    29.1870    24.9210    28.5840    24.6150     2.2390   -11.0640 
  243.5000    56.5320    29.0340    24.8640    29.5080    24.7290     2.2380   -11.0490 
  243.6250    54.0240    28.7600    24.7040    28.9940    24.7620     2.2360   -11.0440 
  243.7500    51.8710    28.3530    24.4360    27.1550    24.8010     2.2320   -11.0460 
  243.8750    52.4290    27.8470    24.0890    26.0040    24.8710     2.2290   -11.0520 
  244.0000    54.5740    27.3420    23.7370    26.3660    24.9220     2.2280   -11.0560 
  244.1250    57.1430    26.9460    23.4670    27.0820    24.9030     2.2320   -11.0550 
  244.2500    58.5850    26.7660    23.3660    27.3980    24.8430     2.2410   -11.0580 
  244.3750    58.1580    26.8120    23.4630    27.5380    24.7920     2.2480   -11.0510 
  244.5000    57.0660    26.9580    23.6790    27.5460    24.7610     2.2470   -11.0490 
  244.6250    56.2010    27.0290    23.8840    27.0400    24.7530     2.2370   -11.0410 
  244.7500    55.0240    26.8070    23.8880    25.9500    24.7540     2.2270   -11.0410 
  244.8750    53.4870    26.1530    23.5430    24.8180    24.7510     2.2250   -11.0450 
  245.0000    52.7680    25.1160    22.8530    23.9110    24.7270     2.2310   -11.0470 
  245.1250    52.3500    23.8390    21.9120    22.8760    24.6760     2.2440   -11.0550 
  245.2500    50.9670    22.5550    20.8950    21.9040    24.6230     2.2590   -11.0560 
  245.3750    50.0720    21.4980    19.9960    20.9830    24.6100     2.2740   -11.0710 
  245.5000    52.1920    20.8040    19.3530    20.2530    24.6390     2.2860   -11.0930 
  245.6250    56.7180    20.5230    19.0350    19.8400    24.6640     2.2910   -11.1190 
  245.7500    59.9510    20.6560    19.0770    20.1110    24.6700     2.2840   -11.1440 
  245.8750    59.6530    21.1260    19.4400    21.2310    24.7030     2.2700   -11.1600 
  246.0000    58.0700    21.7810    19.9980    22.4730    24.7830     2.2590   -11.1920 
  246.1250    58.2690    22.5110    20.6410    23.7360    24.8360     2.2570   -11.2200 
  246.2500    59.5450    23.2030    21.2450    25.1740    24.8400     2.2590   -11.2350 
  246.3750    58.6700    23.7520    21.6950    25.9020    24.8030     2.2560   -11.2390 
  246.5000    55.4860    24.0950    21.9410    25.9850    24.7710     2.2430   -11.2400 
  246.6250    53.1740    24.2100    21.9910    26.2330    24.7590     2.2300   -11.2220 
  246.7500    53.7800    24.1610    21.9180    26.4770    24.7580     2.2300   -11.1640 
  246.8750    55.5900    24.1490    21.8790    26.0140    24.7530     2.2420   -11.0930 
  247.0000    56.8160    24.4820    22.1030    24.6240    24.7320     2.2540   -11.0240 
  247.1250    57.9440    25.4900    22.8490    23.2590    24.6920     2.2660   -10.9610 
  247.2500    58.9590    27.5210    24.4320    24.2600    24.6580     2.2920   -10.9040 
  247.3750    59.3020    30.6820    27.0240    28.8590    24.6440     2.3470   -10.8310 
  247.5000    58.4430    34.5920    30.4100    35.4120    24.5870     2.4240   -10.7470 
  247.6250    56.1030    38.6130    34.1230    41.0570    24.3710     2.4940   -10.6930 
  247.7500    54.1310    41.7480    37.3050    43.0970    23.9030     2.5230   -10.6880 
  247.8750    55.4520    43.1760    39.1360    41.8850    23.2940     2.5060   -10.6920 
  248.0000    60.4100    42.9220    39.4540    36.7650    22.8570     2.4730   -10.6810 
  248.1250    66.1620    41.5060    38.5920    31.1110    22.7180     2.4450   -10.6790 
