~V
VERS. 2.00: Ver 2.00
~W
STRT.M 57.0000:
STOP.M 274.0000:
STEP.M 0.1250:
NULL. -999.2500:
UWI. F10215:
~C
DEPT.M :
SP.MV :
DEN.GM/CC :
GR.API :
RML.OHMM :
RI. :
RXO.OHMM :
CALI.CM :
~A
# ...
  135.7500   -13.9850     2.2440    70.8440    12.2680     9.2610     9.7800    22.8030 
  135.8750   -13.8090     2.2340    71.1930    12.6510     9.5490     9.4810    22.7680 
  136.0000   -13.6400     2.2220    68.4370    12.8630     9.7580     8.7020    22.7400 
  136.1250   -13.4610     2.2170    64.3640    13.1870    10.0380     8.4350    22.7040 
  136.2500   -13.2870     2.2280    61.4670    14.0140    10.6170     9.0290    22.6940 
  136.3750   -13.1040     2.2650    59.4030    15.7040    11.7360    10.8450    22.6680 
  136.5000   -12.9220     2.3290    57.2610    18.4730    13.6110    13.9470    22.7420 
  136.6250   -12.7420     2.4090    55.1050    22.2290    16.4080    17.4650    22.9670 
  136.7500   -12.5710     2.4840    53.6850    25.8020    19.4730    22.8380    23.3470 
  136.8750   -12.4330     2.5400    53.9550    27.6690    21.6570    28.9020    23.7530 
  137.0000   -12.3310     2.5710    55.6350    26.5940    21.6840    31.4870    24.0490 
  137.1250   -12.2350     2.5660    58.5850    22.4990    19.0390    25.2290    24.0160 
  137.2500   -12.1580     2.5280    64.4160    17.6240    15.4120    16.8130    23.7760 
  137.3750   -12.0940     2.4670    72.1330    13.3830    11.9880    10.5510    23.5160 
  137.5000   -11.9970     2.3990    78.3280    10.3180     9.3030     7.9190    23.3670 
  137.6250   -11.9150     2.3380    80.5350     8.4670     7.5100     6.6110    23.4590 
  137.7500   -11.8270     2.2930    81.2100     7.3450     6.3290     5.5140    23.7670 
  137.8750   -11.7390     2.2620    82.0350     6.7690     5.6500     5.1990    24.1110 
  138.0000   -11.6570     2.2370    80.3090     6.6710     5.4110     5.5680    24.2910 
  138.1250   -11.5960     2.2260    76.3510     7.2170     5.6960     5.8480    24.3450 
  138.2500   -11.5500     2.2460    74.5270     8.4950     6.5240     6.8470    24.3240 
  138.3750   -11.5100     2.3110    75.2500    10.6600     8.0250    10.3070    24.3130 
  138.5000   -11.5180     2.4070    74.3720    13.7300    10.2990    17.7880    24.2900 
  138.6250   -11.5210     2.4690    68.9050    17.4980    13.3940    21.7140    24.3210 
  138.7500   -11.5370     2.4530    64.7140    21.1690    16.7590    23.0130    24.4030 
  138.8750   -11.5570     2.3750    63.6670    23.9360    19.6850    23.4190    24.5510 
  139.0000   -11.5560     2.2790    63.6040    25.1280    21.4240    24.8390    24.6750 
  139.1250   -11.5540     2.2040    63.9360    24.1690    21.2310    25.6520    24.8070 
  139.2500   -11.5410     2.1580    65.2970    21.5900    19.4370    25.6920    24.8900 
  139.3750   -11.5230     2.1370    67.3560    17.9760    16.5370    21.5650    24.8700 
  139.5000   -11.4780     2.1410    71.5410    14.1720    13.2980    15.7830    24.7630 
  139.6250   -11.4460     2.1710    79.7240    11.1360    10.5580    12.0910    24.6610 
  139.7500   -11.4050     2.2170    87.1790     9.1260     8.5950     8.3220    24.5830 
  139.8750   -11.3690     2.2570    90.3210     8.0700     7.3960     6.6440    24.5140 
  140.0000   -11.3210     2.2730    89.8860     7.7260     6.8120     6.4200    24.4030 
  140.1250   -11.2660     2.2590    88.8120     7.7970     6.6700     7.0330    24.1760 
  140.2500   -11.1960     2.2420    87.0360     7.8660     6.6410     7.5410    23.9480 
  140.3750   -11.1260     2.2400    84.8780     7.7130     6.5330     7.0660    23.9200 
  140.5000   -11.0720     2.2560    83.7400     7.3340     6.2790     6.3290    24.0800 
  140.6250   -11.0190     2.2810    85.7240     6.9870     5.9990     5.8870    24.2000 
  140.7500   -10.9560     2.3050    90.0780     6.9890     5.9170     5.6350    24.1810 
  140.8750   -10.8990     2.3240    91.6600     7.5500     6.1990     5.7390    24.1090 
  141.0000   -10.8600     2.3420    85.6880     8.8040     6.9660     6.9200    24.0200 
  141.1250   -10.8260     2.3590    74.1230    10.9040     8.3700    10.3410    24.0150 
  141.2500   -10.8110     2.3730    64.9940    13.5500    10.2560    13.9670    24.0970 
  141.3750   -10.8150     2.3890    61.2330    16.3640    12.4000    15.6580    24.2120 
  141.5000   -10.8370     2.4150    60.4050    18.8910    14.4530    16.2950    24.2370 
  141.6250   -10.8630     2.4610    59.0720    20.6750    15.9980    19.5580    24.2760 
  141.7500   -10.9010     2.5170    56.3610    21.8020    17.0130    22.9430    24.2790 
  141.8750   -10.9350     2.5700    53.7370    22.4490    17.6090    24.9150    24.2730 
  142.0000   -10.9600     2.6040    51.8680    22.7860    17.9200    24.0040    24.2080 
  142.1250   -10.9970     2.6140    49.8270    22.8730    18.0020    22.4970    24.1660 
  142.2500   -11.0250     2.6090    49.3970    22.7990    17.9320    21.4650    24.1750 
  142.3750   -11.0440     2.5950    51.0650    22.6530    17.7700    20.2550    24.2440 
  142.5000   -11.0410     2.5790    51.1990    22.5440    17.6030    19.8700    24.2980 
  142.6250   -11.0410     2.5680    47.5980    22.5860    17.5310    20.0380    24.2760 
  142.7500   -11.0320     2.5660    44.2440    22.8000    17.5950    20.0120    24.2480 
  142.8750   -11.0190     2.5680    43.5430    23.1930    17.8130    19.4070    24.2450 
  143.0000   -11.0060     2.5710    45.5750    23.7330    18.1790    19.5120    24.2430 
  143.1250   -11.0000     2.5730    47.9890    24.2920    18.6270    21.1520    24.2150 
  143.2500   -10.9850     2.5760    48.6660    24.6300    18.9860    21.6320    24.2010 
  143.3750   -10.9660     2.5810    47.7490    24.5070    19.0770    20.4790    24.2110 
  143.5000   -10.9580     2.5830    47.8840    23.7730    18.7540    19.0450    24.2110 
  143.6250   -10.9500     2.5750    51.1210    22.4580    17.9720    18.0750    24.2000 
  143.7500   -10.9530     2.5580    54.4370    21.0540    17.0420    17.2100    24.2200 
  143.8750   -10.9520     2.5400    57.1400    19.9890    16.2630    15.8930    24.2350 
  144.0000   -10.9720     2.5290    59.8140    19.5850    15.8830    14.6640    24.1890 
  144.1250   -10.9650     2.5310    60.5550    20.1230    16.1410    14.6300    24.1700 
  144.2500   -10.9910     2.5390    57.9070    21.3470    16.9380    16.2340    24.1380 
  144.3750   -11.0220     2.5500    54.0210    22.8720    18.0730    19.3400    24.0640 
  144.5000   -11.0590     2.5570    53.4580    24.1100    19.1540    21.0420    23.9970 
  144.6250   -11.0990     2.5580    56.4050    24.2670    19.5470    21.3660    23.9870 
  144.7500   -11.1420     2.5530    57.8340    23.3040    19.0780    19.3900    23.9430 
  144.8750   -11.1900     2.5450    57.1690    21.5870    17.9340    16.8960    23.7500 
  145.0000   -11.2190     2.5360    56.2380    19.7280    16.5500    14.6120    23.4090 
  145.1250   -11.2610     2.5330    55.9590    18.3270    15.3860    13.7240    23.1630 
  145.2500   -11.2990     2.5340    55.4880    17.5130    14.6040    13.7180    23.2370 
  145.3750   -11.3240     2.5330    54.3240    17.2510    14.2210    14.0670    23.5480 
  145.5000   -11.3490     2.5210    53.0370    17.4400    14.1950    14.6110    23.8750 
  145.6250   -11.3580     2.4960    52.4470    17.9860    14.4910    15.4770    24.0520 
  145.7500   -11.3650     2.4670    52.9960    18.7030    14.9710    15.0210    24.1080 
  145.8750   -11.3570     2.4420    55.5240    19.4980    15.5610    15.1450    24.1570 
  146.0000   -11.3500     2.4320    57.9100    20.2870    16.1910    16.8060    24.2080 
  146.1250   -11.3200     2.4380    56.7010    20.9360    16.7480    19.4650    24.2460 
  146.2500   -11.2870     2.4490    53.6860    21.3870    17.1540    19.4980    24.2290 
  146.3750   -11.2630     2.4590    53.7900    21.6510    17.3890    18.6100    24.2070 
  146.5000   -11.2540     2.4660    58.5400    21.8130    17.5080    17.6390    24.1970 
  146.6250   -11.2570     2.4720    61.1080    22.0380    17.6390    17.5920    24.1650 
  146.7500   -11.2760     2.4790    59.3310    22.4740    17.9230    18.1370    24.1110 
  146.8750   -11.3220     2.4830    57.0200    23.1940    18.4390    18.5170    24.1780 
