~V
VERS. 2.00: Ver 2.00
~W
STRT.M 50.0000:
STOP.M 274.0000:
STEP.M 0.1250:
NULL. -999.2500:
UWI. F10206:
~C
DEPT.M :
SP.MV :
DEN.GM/CC :
GR.API :
RML.OHMM :
RI. :
RXO.OHMM :
CALI.CM :
~A
# ...
  207.5000   -13.4690     2.3440    69.9870     4.1400     3.5760     4.3510    25.6220 
  207.6250   -13.4860     2.3490    65.7240     4.3520     3.7520     4.4240    25.5850 
  207.7500   -13.5610     2.3560    66.7710     4.6210     3.9460     4.7050    25.1280 
  207.8750   -13.7360     2.3630    72.0190     4.8780     4.0990     4.9090    25.0720 
  208.0000   -13.9940     2.3660    76.0960     5.0470     4.1860     4.8600    24.9930 
  208.1250   -14.2460     2.3590    74.7390     5.0560     4.2090     4.8240    25.1930 
  208.2500   -14.5310     2.3450    70.3840     4.9470     4.1980     4.8680    25.2770 
  208.3750   -14.7890     2.3280    65.4890     4.7890     4.1650     4.7830    25.2950 
  208.5000   -15.0320     2.3140    63.6400     4.6610     4.1170     4.5340    25.2700 
  208.6250   -15.2240     2.3100    66.4330     4.6360     4.0700     4.4270    25.2370 
  208.7500   -15.3000     2.3120    69.6290     4.7140     4.0420     4.5760    25.2550 
  208.8750   -15.2620     2.3180    70.9710     4.8880     4.0490     4.7220    25.3570 
  209.0000   -15.0810     2.3230    70.8070     5.1400     4.1140     4.9320    25.4320 
  209.1250   -14.8410     2.3290    70.6290     5.4300     4.2610     5.2040    25.2050 
  209.2500   -14.5710     2.3360    69.9970     5.7070     4.4700     5.6420    24.9200 
  209.3750   -14.2870     2.3430    69.5430     5.9670     4.7220     6.3610    24.7850 
  209.5000   -14.0430     2.3450    71.9040     6.2590     5.0080     7.0390    24.7480 
  209.6250   -13.8190     2.3360    75.2640     6.7090     5.3610     7.4310    24.7200 
  209.7500   -13.6740     2.3180    75.4900     7.4170     5.8410     7.7620    24.8530 
  209.8750   -13.5970     2.2980    71.9100     8.4710     6.5510     8.8770    25.1590 
  210.0000   -13.5850     2.2830    68.1070     9.8960     7.5930    12.0780    25.4090 
  210.1250   -13.6510     2.2810    68.4670    11.6320     9.0470    17.1150    25.4300 
  210.2500   -13.7500     2.2900    69.3640    13.3760    10.7120    19.2840    25.3730 
  210.3750   -13.9000     2.3060    69.7040    14.8420    12.3150    17.2000    25.2590 
  210.5000   -14.0550     2.3190    69.5110    15.8260    13.5720    17.4560    25.1930 
  210.6250   -14.1970     2.3200    70.0020    16.2590    14.2680    17.1380    25.0020 
  210.7500   -14.3540     2.3090    69.5570    16.3960    14.6060    17.9770    24.9310 
  210.8750   -14.4930     2.2900    66.7330    16.3520    14.7630    18.3400    25.0140 
  211.0000   -14.6230     2.2690    62.8920    16.1270    14.8190    17.8900    25.1430 
  211.1250   -14.7240     2.2530    60.9420    15.6040    14.6920    18.2800    25.1870 
  211.2500   -14.8030     2.2460    61.8280    14.8090    14.3210    18.2360    25.1430 
  211.3750   -14.8640     2.2480    65.6640    13.8540    13.7120    17.6630    25.1340 
  211.5000   -14.8910     2.2560    68.7300    12.9510    12.9890    15.4510    25.1020 
  211.6250   -14.9460     2.2680    66.3170    12.3870    12.4070    12.9300    25.1200 
  211.7500   -14.9590     2.2820    61.3630    12.1950    12.1150    13.1450    25.0840 
  211.8750   -14.9620     2.2950    57.7180    12.2490    12.0950    13.8990    25.0180 
  212.0000   -14.9890     2.3030    56.9970    12.2930    12.1660    14.8170    25.0030 
  212.1250   -15.0070     2.3050    58.5530    11.9590    11.9640    14.8620    25.0560 
  212.2500   -15.0500     2.3060    62.5610    11.2000    11.3260    14.0600    25.0750 
  212.3750   -15.1340     2.3080    69.0660    10.2140    10.3640    11.4830    25.1190 
  212.5000   -15.2510     2.3120    76.1420     9.3570     9.4090     9.9000    25.1370 
  212.6250   -15.3890     2.3150    78.6310     9.1370     8.9390     9.8050    25.1380 
  212.7500   -15.5660     2.3160    75.3890     9.8590     9.2190    10.3280    25.1330 
  212.8750   -15.7610     2.3130    70.5080    11.9570    10.5790    11.6970    25.1370 
  213.0000   -15.9840     2.3080    67.8980    16.0010    13.5380    15.2280    25.1390 
  213.1250   -16.2400     2.3010    66.5800    27.8730    19.4980    23.8700    25.1340 
  213.2500   -16.5180     2.2900    63.3950    40.5840    29.1550    43.8070    25.1460 
  213.3750   -16.7770     2.2700    58.2550    57.0110    42.7300    74.1850    25.1870 
  213.5000   -17.0210     2.2440    53.8360    74.6920    58.4140    92.9170    25.2230 
  213.6250   -17.2660     2.2150    51.5600    87.7330    71.2400    91.4380    25.3590 
  213.7500   -17.4820     2.1890    51.6080    93.7550    78.3120    81.8930    25.3860 
  213.8750   -17.6990     2.1670    53.2490    94.7160    80.3670    81.1650    25.4200 
  214.0000   -17.8760     2.1480    54.8030    93.9830    79.8770    86.9610    25.4180 
  214.1250   -18.0590     2.1360    55.1260    93.9520    79.1270    86.5750    25.5060 
  214.2500   -18.2240     2.1330    54.1610    95.2420    79.3080    82.8800    25.5160 
  214.3750   -18.3700     2.1460    52.1360    97.8900    80.8180    77.8760    25.4590 
  214.5000   -18.5290     2.1740    48.9520   101.5890    83.6750    75.4690    25.1710 
  214.6250   -18.6570     2.2070    47.3870   105.4340    87.4640    84.6060    25.2700 
  214.7500   -18.7790     2.2290    48.1550   107.8950    90.8370   106.3400    25.5550 
  214.8750   -18.8920     2.2320    49.4810   107.5920    92.4430   123.0240    25.6670 
  215.0000   -18.9870     2.2170    51.1190   103.9650    91.3850   111.3710    25.6780 
  215.1250   -19.0770     2.1920    53.8210    97.6320    87.5540    88.3380    25.6240 
  215.2500   -19.1520     2.1690    56.6580    90.9290    82.7160    76.4420    25.5700 
  215.3750   -19.2030     2.1550    57.4170    85.3480    78.2430    72.7410    25.4450 
  215.5000   -19.2490     2.1530    56.5040    81.6410    75.0620    70.9450    25.3680 
  215.6250   -19.2840     2.1670    54.4040    79.9450    73.5860    69.5190    25.2100 
  215.7500   -19.3380     2.1920    52.8450    79.2140    73.0580    68.1830    25.1150 
  215.8750   -19.3730     2.2180    53.2650    78.7680    72.9130    65.9520    25.2910 
  216.0000   -19.4260     2.2340    53.9610    78.2040    72.7800    63.8530    25.3670 
  216.1250   -19.4900     2.2320    53.8000    77.4400    72.5520    62.8770    25.3240 
  216.2500   -19.5450     2.2190    54.1250    76.7760    72.4530    61.3340    25.2950 
  216.3750   -19.6280     2.2020    55.4140    76.6040    72.8300    60.6240    25.1990 
  216.5000   -19.7010     2.1890    56.2800    77.2960    74.0280    64.8010    25.1460 
  216.6250   -19.7880     2.1800    55.5420    79.2400    76.3940    69.3410    25.2810 
  216.7500   -19.8780     2.1740    53.9140    82.1670    79.6700    73.7360    25.2980 
  216.8750   -19.9730     2.1710    52.1440    85.6930    83.5130    78.1030    25.3160 
  217.0000   -20.0980     2.1730    51.9850    89.2410    87.4260    80.6220    25.3250 
  217.1250   -20.1970     2.1800    53.2920    92.1060    90.8400    85.4690    25.3260 
  217.2500   -20.3170     2.1910    53.4280    93.9350    93.4670    90.0420    25.3340 
  217.3750   -20.4650     2.2000    53.3790    94.3370    94.9120    91.3100    25.2960 
  217.5000   -20.5920     2.2050    54.6910    92.8520    94.5830    91.0630    25.2440 
  217.6250   -20.7450     2.2040    55.9020    88.8820    91.5790    92.7210    25.2440 
  217.7500   -20.8970     2.1990    54.2570    83.3680    86.5920    94.4880    25.2220 
  217.8750   -21.0540     2.1910    50.4670    77.6090    80.8010    87.5070    25.2440 
  218.0000   -21.2210     2.1840    48.0100    73.1850    75.7940    74.1070    25.3240 
  218.1250   -21.4100     2.1830    47.2050    72.0930    73.6240    66.2600    25.4270 
  218.2500   -21.5870     2.1860    46.4780    74.8140    75.0420    65.1930    25.4660 
  218.3750   -21.7550     2.1930    46.5540    81.6750    80.5400    77.4490    25.3640 
  218.5000   -21.9290     2.2000    48.8310    97.1640    90.1220    94.8230    25.3160 
  218.6250   -22.1120     2.2000    52.2680   112.2920   103.5220   111.6120    25.3160 
