~V
VERS. 2.00: Ver 2.00
~W
STRT.M 53.0000:
STOP.M 286.0000:
STEP.M 0.1250:
NULL. -999.2500:
UWI. F10262:
~C
DEPT.M :
DEN.GM/CC :
GR.API :
RML.OHMM :
RI. :
RXO.OHMM :
CALI.CM :
SP.MV :
~A
# ...
  176.7500     2.3140   101.5180     6.7500     5.1370     6.0820    24.0860    -7.2080 
  176.8750     2.3160   101.9780     6.8300     5.1990     5.9930    23.9210    -7.5080 
  177.0000     2.3160   104.5950     6.9610     5.2890     6.1770    23.7860    -7.8300 
  177.1250     2.3150   105.0460     7.1160     5.3930     6.7130    23.6510    -8.1570 
  177.2500     2.3150   101.7870     7.2520     5.4850     7.3260    23.4790    -8.4220 
  177.3750     2.3200    97.4120     7.3190     5.5400     7.8040    23.2540    -8.5980 
  177.5000     2.3290    93.7590     7.3210     5.5560     8.3870    23.0840    -8.7310 
  177.6250     2.3390    92.3390     7.2820     5.5440     8.9950    22.9750    -8.7810 
  177.7500     2.3460    93.3570     7.2310     5.5220     9.2490    22.8590    -8.6970 
  177.8750     2.3410    97.3480     7.2060     5.5190     8.4290    22.7520    -8.5320 
  178.0000     2.3260    99.3000     7.2310     5.5560     7.5650    22.8610    -8.3490 
  178.1250     2.3090    95.7350     7.3280     5.6470     7.1010    23.1820    -8.1660 
  178.2500     2.3000    91.4730     7.5060     5.7940     6.9290    23.6220    -8.0070 
  178.3750     2.3080    92.3310     7.7450     5.9880     7.1300    23.9270    -7.9340 
  178.5000     2.3280    95.4980     7.9550     6.1720     7.6560    24.1390    -7.8580 
  178.6250     2.3490    95.3070     8.0330     6.2780     7.9860    24.2110    -7.7910 
  178.7500     2.3640    93.5690     7.9100     6.2530     7.7960    24.2300    -7.7880 
  178.8750     2.3670    96.8720     7.5710     6.0620     7.6330    24.2560    -7.8140 
  179.0000     2.3640   101.2110     7.1450     5.7830     7.3280    24.2140    -7.8940 
  179.1250     2.3610   103.7020     6.7490     5.4920     6.6350    24.0660    -7.9840 
  179.2500     2.3600   103.8610     6.4730     5.2590     6.0880    23.8730    -8.0870 
  179.3750     2.3620   102.9440     6.3740     5.1370     5.9500    23.7910    -8.1970 
  179.5000     2.3640   102.1400     6.3960     5.1080     6.0400    23.7920    -8.2880 
  179.6250     2.3640   103.4720     6.4890     5.1480     6.1810    23.8050    -8.3800 
  179.7500     2.3620   107.2920     6.5950     5.2210     6.2450    23.7980    -8.4590 
  179.8750     2.3600   107.1760     6.6620     5.2890     6.2460    23.8080    -8.5120 
  180.0000     2.3600   104.1840     6.6800     5.3320     6.2100    23.8820    -8.5630 
  180.1250     2.3650   104.0720     6.6640     5.3500     6.2470    24.0100    -8.5950 
  180.2500     2.3710   106.5230     6.6350     5.3520     6.3160    24.1600    -8.6300 
  180.3750     2.3740   106.7370     6.6200     5.3550     6.4290    24.2340    -8.6820 
  180.5000     2.3710   105.3800     6.6510     5.3830     6.4700    24.1610    -8.7460 
  180.6250     2.3630   105.0650     6.7640     5.4630     6.5210    24.0140    -8.8600 
  180.7500     2.3590   105.7900     6.9950     5.6240     6.6270    23.9550    -8.9900 
  180.8750     2.3650   105.5580     7.3650     5.8880     6.9430    23.9700    -9.1230 
  181.0000     2.3770   101.5800     7.8060     6.2140     7.4740    23.9410    -9.2400 
  181.1250     2.3850    95.4480     8.2280     6.5430     8.1590    23.8820    -9.3810 
  181.2500     2.3810    92.9190     8.5230     6.8020     8.7960    23.8130    -9.5150 
  181.3750     2.3730    97.3960     8.5810     6.9050     8.3680    23.7170    -9.6420 
  181.5000     2.3730   101.0700     8.4990     6.8950     8.2090    23.6370    -9.7800 
  181.6250     2.3870   101.1340     8.4340     6.8700     8.1520    23.6120    -9.9010 
  181.7500     2.4070   100.6700     8.5570     6.9520     7.7680    23.6320   -10.0030 
  181.8750     2.4230    99.6360     9.0420     7.2760     7.3760    23.6700   -10.0750 
  182.0000     2.4320    96.0320     9.8290     7.8380     7.9540    23.7180   -10.1470 
  182.1250     2.4400    92.0260    10.7820     8.5710     9.6330    23.7630   -10.1770 
  182.2500     2.4530    89.8860    11.6840     9.3340    11.1510    23.7710   -10.2290 
  182.3750     2.4650    90.7530    12.2690     9.9230    11.6890    23.7180   -10.2700 
  182.5000     2.4610    93.0590    12.5160    10.2650    10.9040    23.6650   -10.2750 
  182.6250     2.4390    94.3320    12.5200    10.3910    10.1090    23.7610   -10.3250 
  182.7500     2.4050    94.2030    12.4520    10.4080    10.0140    23.9870   -10.3880 
  182.8750     2.3800    92.9300    12.5010    10.4540    10.9910    24.2490   -10.5460 
  183.0000     2.3730    90.8210    12.7330    10.6110    12.0760    24.3580   -10.8000 
  183.1250     2.3850    87.5420    13.1590    10.9080    12.7710    24.2870   -11.0710 
  183.2500     2.4060    83.6620    13.7620    11.3460    13.0970    24.1020   -11.3760 
  183.3750     2.4230    84.1610    14.4900    11.9030    13.6010    24.0270   -11.7030 
  183.5000     2.4320    89.1740    15.1750    12.4640    14.2580    24.0660   -12.0260 
  183.6250     2.4360    94.1180    15.6430    12.9030    14.9860    24.1170   -12.3410 
  183.7500     2.4380    96.6550    15.7640    13.1120    15.4440    24.1360   -12.6220 
  183.8750     2.4400    98.4190    15.5280    13.0540    14.9610    24.1500   -12.8720 
  184.0000     2.4360    99.2420    15.2190    12.9120    13.6890    24.1860   -13.0730 
  184.1250     2.4240    97.0380    15.0880    12.8630    13.0660    24.2480   -13.2560 
  184.2500     2.4050    93.0190    15.3070    13.0470    13.5900    24.3660   -13.4460 
  184.3750     2.3830    89.3990    15.9830    13.5870    15.1780    24.4720   -13.6640 
  184.5000     2.3670    87.4630    16.9670    14.4180    17.3390    24.4900   -13.9000 
  184.6250     2.3590    88.0920    18.1280    15.4660    18.2310    24.4250   -14.1320 
  184.7500     2.3580    91.1790    19.3330    16.6260    17.9800    24.3740   -14.3670 
  184.8750     2.3610    91.8130    20.3900    17.7330    18.7350    24.3070   -14.6220 
  185.0000     2.3650    90.0510    21.1250    18.6050    19.6580    24.2390   -14.8860 
  185.1250     2.3690    89.6480    21.4190    19.1200    20.1180    24.2310   -15.1550 
  185.2500     2.3720    92.2910    21.2930    19.2680    21.1470    24.2420   -15.4110 
  185.3750     2.3710    94.7070    20.9540    19.1780    20.0660    24.1450   -15.5600 
  185.5000     2.3630    93.2190    20.8400    19.1820    18.7620    23.9740   -15.7100 
  185.6250     2.3510    88.3330    21.3070    19.5740    20.3310    23.9120   -15.8640 
  185.7500     2.3390    83.0910    22.5420    20.5590    25.5970    23.9670   -15.9850 
  185.8750     2.3320    80.7580    27.7310    22.2600    28.9460    24.1620   -16.0670 
  186.0000     2.3290    81.8830    30.2620    24.3380    31.4820    24.3050   -16.1040 
  186.1250     2.3240    88.5610    32.4690    26.3720    33.4290    24.3880   -16.1310 
  186.2500     2.3160    97.9420    33.8620    27.9140    34.1240    24.3850   -16.1620 
  186.3750     2.3050   101.1010    34.2560    28.6660    33.5320    24.3510   -16.2260 
  186.5000     2.2980    96.9720    34.2630    28.9940    32.7050    24.3680   -16.3420 
  186.6250     2.2960    91.4630    34.4250    29.2990    32.5130    24.4140   -16.4620 
  186.7500     2.3010    88.6340    35.1780    29.9460    31.3460    24.4280   -16.5950 
  186.8750     2.3070    87.7630    36.9250    31.3190    35.2540    24.3760   -16.7870 
  187.0000     2.3090    87.4130    39.5140    33.3970    37.4010    24.3740   -16.9920 
  187.1250     2.3050    86.3990    42.7070    36.0540    40.5710    24.4510   -17.2420 
  187.2500     2.2930    83.0880    46.1170    39.0160    44.3040    24.5680   -17.5470 
  187.3750     2.2770    81.1940    49.1800    41.8430    48.3300    24.6470   -17.8680 
  187.5000     2.2630    83.2950    51.5850    44.2060    50.5350    24.7050   -18.1940 
  187.6250     2.2570    84.0560    53.3430    46.0430    52.4610    24.7550   -18.5430 
  187.7500     2.2610    78.9640    54.8180    47.5920    55.0870    24.8300   -18.9020 
  187.8750     2.2730    75.3560    56.7640    49.4390    56.7970    24.9440   -19.2610 
