~V
VERS. 2.00: Ver 2.00
~W
STRT.M 49.0000:
STOP.M 279.0000:
STEP.M 0.1250:
NULL. -999.2500:
UWI. F10243:
~C
DEPT.M :
GR.API :
RML.OHMM :
RI. :
RXO.OHMM :
CALI.CM :
DEN.GM/CC :
SP.MV :
~A
# ...
   94.0000    67.1880    10.2430     8.6580     8.2500    23.2360     2.1960   -14.2200 
   94.1250    65.2350    10.2780     8.6890     8.1700    23.2350     2.1940   -14.1200 
   94.2500    65.9060    10.3370     8.7330     8.1530    23.2360     2.1900   -14.0760 
   94.3750    69.3990    10.3700     8.7600     8.2860    23.2500     2.1840   -14.0380 
   94.5000    72.8010    10.3020     8.7350     8.5590    23.3040     2.1800   -14.0100 
   94.6250    75.0600    10.1220     8.6450     8.9430    23.4090     2.1760   -13.9720 
   94.7500    75.8390     9.8340     8.4860     9.2030    23.5670     2.1740   -13.8310 
   94.8750    75.6310     9.4530     8.2620     9.1710    23.7340     2.1780   -13.6110 
   95.0000    74.9750     8.9950     7.9880     8.7720    23.8060     2.1880   -13.4470 
   95.1250    75.0980     8.5250     7.7090     8.2990    23.8180     2.2050   -13.3150 
   95.2500    76.6100     8.1100     7.4630     7.9510    23.7970     2.2240   -13.1310 
   95.3750    78.7900     7.8070     7.2790     7.4830    23.7590     2.2460   -12.8810 
   95.5000    81.2030     7.6510     7.1630     7.4780    23.7790     2.2660   -12.6030 
   95.6250    84.9250     7.5760     7.0710     7.3570    23.9140     2.2840   -12.3750 
   95.7500    89.3620     7.5130     6.9590     7.1730    24.1230     2.2970   -12.2230 
   95.8750    91.1820     7.4070     6.7940     6.8240    24.3110     2.3040   -12.0510 
   96.0000    89.2830     7.2240     6.5640     6.5360    24.4550     2.3070   -11.8420 
   96.1250    90.9820     6.9830     6.3040     6.3410    24.5170     2.3100   -11.6900 
   96.2500    99.3310     6.6980     6.0360     6.1800    24.5350     2.3140   -11.5420 
   96.3750   108.8320     6.3880     5.7720     6.1360    24.5380     2.3190   -11.3910 
   96.5000   110.4830     6.0990     5.5250     6.1350    24.5410     2.3240   -11.3460 
   96.6250   107.2030     5.9060     5.3390     6.0260    24.5550     2.3260   -11.3910 
   96.7500   103.6080     5.8920     5.2980     5.8590    24.5810     2.3280   -11.5170 
   96.8750   100.5120     6.1240     5.4810     5.7440    24.6000     2.3390   -11.7870 
   97.0000    96.5740     6.6580     5.9520     6.2660    24.5980     2.3710   -12.2180 
   97.1250    91.3670     7.3540     6.5910     8.1880    24.5720     2.4180   -12.6860 
   97.2500    85.1490     8.0130     7.2360    11.4540    24.5220     2.4600   -13.2350 
   97.3750    81.0010     8.4160     7.6890    11.1640    24.4510     2.4770   -13.9310 
   97.5000    82.6430     8.4210     7.7950     8.5510    24.3180     2.4500   -14.7550 
   97.6250    86.4510     8.2240     7.6980     7.1020    24.1250     2.3950   -15.6000 
   97.7500    86.1380     8.0290     7.5580     7.4370    23.9400     2.3360   -16.4130 
   97.8750    82.3340     7.9710     7.4920     8.1720    23.8480     2.2910   -17.1180 
   98.0000    80.3100     8.0860     7.5510     8.5250    23.8440     2.2680   -17.6150 
   98.1250    80.5660     8.2560     7.6700     8.1670    23.8660     2.2560   -18.0170 
   98.2500    79.6860     8.3780     7.7800     7.7560    23.8790     2.2480   -18.3770 
   98.3750    76.6250     8.3950     7.8350     7.6720    23.8820     2.2390   -18.6080 
   98.5000    74.4900     8.2950     7.8130     7.8180    23.8720     2.2340   -18.6620 
   98.6250    74.2330     8.1220     7.7110     8.0850    23.8660     2.2370   -18.6330 
   98.7500    76.5460     7.8830     7.5040     8.3200    23.9300     2.2520   -18.6000 
   98.8750    80.8000     7.5880     7.1890     8.1670    24.1450     2.2740   -18.5960 
   99.0000    86.5010     7.2860     6.8180     7.1510    24.4530     2.2940   -18.6040 
   99.1250    91.6440     7.0730     6.5120     6.5100    24.6330     2.3000   -18.6050 
   99.2500    94.1010     7.0340     6.3640     6.4300    24.5570     2.2870   -18.6160 
   99.3750    93.6020     7.2200     6.4300     6.5900    24.2060     2.2610   -18.6710 
   99.5000    88.8190     7.6410     6.7400     7.1180    23.7870     2.2310   -18.6890 
   99.6250    82.6030     8.1770     7.1820     7.8550    23.6100     2.2070   -18.6780 
   99.7500    78.5430     8.7360     7.6610     8.5680    23.5980     2.1870   -18.6430 
   99.8750    76.9720     9.2550     8.1080     8.9870    23.5980     2.1680   -18.5830 
  100.0000    74.9520     9.7020     8.4860     8.8360    23.5520     2.1530   -18.5450 
  100.1250    72.0470    10.0940     8.8070     8.6960    23.4940     2.1500   -18.5050 
  100.2500    70.3050    10.4180     9.0640     9.2580    23.4600     2.1630   -18.4170 
  100.3750    70.4730    10.6280     9.2270    11.3170    23.4670     2.1870   -18.2630 
  100.5000    71.1740    10.6210     9.2220    13.9220    23.5070     2.2080   -18.1180 
  100.6250    71.6380    10.3960     9.0480    12.0010    23.5440     2.2140   -18.0080 
  100.7500    72.0260    10.0020     8.7370     9.5530    23.5530     2.2050   -17.9640 
  100.8750    72.4370     9.5420     8.3560     8.4850    23.5330     2.1890   -17.9670 
  101.0000    73.5650     9.1540     8.0020     8.2560    23.4640     2.1800   -17.9470 
  101.1250    74.2950     8.9100     7.7500     8.1470    23.3790     2.1820   -17.8950 
  101.2500    74.4280     8.8320     7.6370     8.0150    23.3230     2.1920   -17.8290 
  101.3750    75.2750     8.9030     7.6680     7.9550    23.3030     2.2050   -17.8230 
  101.5000    74.4820     9.1090     7.8320     8.1760    23.2890     2.2150   -17.8850 
  101.6250    71.6550     9.3810     8.0540     8.3330    23.2560     2.2180   -17.9290 
  101.7500    69.3630     9.6450     8.2680     8.4960    23.2270     2.2150   -17.9260 
  101.8750    68.0940     9.8190     8.4110     8.5980    23.2590     2.2090   -17.9480 
  102.0000    66.3110     9.8240     8.4330     8.6920    23.2770     2.2040   -18.0550 
  102.1250    65.6110     9.7050     8.3730     8.7500    23.2790     2.2000   -18.1710 
  102.2500    67.9940     9.5270     8.2820     8.8400    23.2920     2.1980   -18.2450 
  102.3750    70.7270     9.3550     8.2010     8.9660    23.3690     2.1970   -18.2630 
  102.5000    70.2120     9.2330     8.1490     9.0580    23.4720     2.1940   -18.2560 
  102.6250    69.9910     9.1580     8.1110     9.0100    23.5620     2.1890   -18.2410 
  102.7500    71.7410     9.1180     8.0700     8.7980    23.6100     2.1820   -18.1490 
  102.8750    72.3310     9.1130     8.0230     8.5800    23.6260     2.1760   -17.9670 
  103.0000    69.4820     9.1580     7.9940     8.5080    23.6180     2.1750   -17.7360 
  103.1250    66.2190     9.2520     8.0070     8.5390    23.5960     2.1780   -17.4990 
  103.2500    65.0620     9.3820     8.0720     8.5840    23.5720     2.1840   -17.2940 
  103.3750    65.4260     9.5140     8.1730     8.5150    23.5600     2.1920   -17.1440 
  103.5000    66.4540     9.5870     8.2650     8.3980    23.5590     2.2000   -17.0230 
  103.6250    69.2230     9.5650     8.2990     8.2580    23.5590     2.2060   -16.8950 
  103.7500    70.7810     9.4430     8.2520     8.0770    23.5590     2.2090   -16.8150 
  103.8750    68.6940     9.2580     8.1390     7.9850    23.5590     2.2090   -16.8290 
  104.0000    66.4160     9.0830     8.0080     7.9770    23.5590     2.2100   -16.9490 
  104.1250    69.3510     8.9820     7.9150     7.9150    23.5580     2.2140   -17.1150 
  104.2500    75.9170     8.9720     7.8830     7.8980    23.5450     2.2210   -17.2870 
  104.3750    80.0210     9.0310     7.9100     8.3260    23.5290     2.2270   -17.3950 
  104.5000    78.5210     9.0990     7.9690     8.5230    23.5390     2.2280   -17.3930 
  104.6250    74.6950     9.1110     8.0230     8.5560    23.5980     2.2220   -17.4110 
  104.7500    70.8950     9.0420     8.0560     8.4900    23.6510     2.2140   -17.4660 
  104.8750    68.6600     8.9040     8.0780     8.3840    23.7230     2.2070   -17.4580 
  105.0000    68.3880     8.7490     8.1170     8.2340    23.8160     2.2050   -17.3650 
  105.1250    68.4800     8.6390     8.2000     8.2870    23.8670     2.2070   -17.2910 
