~V
VERS. 2.00: Ver 2.00
~W
STRT.M 55.0000:
STOP.M 274.0000:
STEP.M 0.1250:
NULL. -999.2500:
UWI. F10255:
~C
DEPT.M :
GR.API :
RML.OHMM :
RI. :
RXO.OHMM :
CALI.CM :
DEN.GM/CC :
SP.MV :
~A
# ...
  133.7500    60.5190    10.5270     9.3700    10.4730    24.1040     2.2540    -4.7600 
  133.8750    62.7150    10.5870     9.4390    10.6370    23.9560     2.2540    -4.5800 
  134.0000    62.9420    10.8400     9.6920    10.9170    23.9230     2.2500    -4.3940 
  134.1250    61.4390    11.1800    10.0740    11.3820    23.9750     2.2470    -4.1620 
  134.2500    60.3700    11.3560    10.3860    11.8680    23.7960     2.2480    -3.9180 
  134.3750    61.2320    11.1500    10.4120    12.0370    23.4610     2.2560    -3.6650 
  134.5000    63.6160    10.5120    10.0020    11.4830    23.2140     2.2710    -3.3870 
  134.6250    66.9090     9.5850     9.1540    10.3130    23.2510     2.2920    -3.1120 
  134.7500    70.1270     8.6480     8.1770     8.6690    23.5350     2.3130    -2.8190 
  134.8750    72.3810     7.8440     7.2920     7.3460    23.7690     2.3290    -2.4810 
  135.0000    75.3090     7.2540     6.6250     6.7810    23.7880     2.3370    -2.1420 
  135.1250    80.1360     6.9230     6.2300     6.7270    23.6680     2.3370    -1.9020 
  135.2500    82.7980     6.7120     5.9920     6.9000    23.4800     2.3360    -1.7600 
  135.3750    80.5100     6.5040     5.8050     7.1570    23.2260     2.3350    -1.6370 
  135.5000    76.8540     6.2340     5.5820     6.8910    23.0840     2.3390    -1.4700 
  135.6250    77.3710     5.9190     5.3080     6.1620    23.4820     2.3500    -1.3360 
  135.7500    80.9840     5.6480     5.0560     5.7350    24.0140     2.3670    -1.3000 
  135.8750    84.5630     5.4870     4.8900     5.4250    24.3870     2.3880    -1.3090 
  136.0000    84.2400     5.4550     4.8430     5.2430    24.5850     2.4070    -1.3180 
  136.1250    78.6010     5.5410     4.9210     5.8750    24.6500     2.4200    -1.2890 
  136.2500    75.2930     5.6710     5.0590     6.7650    24.6960     2.4230    -1.2320 
  136.3750    78.4320     5.8090     5.2160     6.6790    24.7630     2.4150    -1.1850 
  136.5000    84.3400     5.9550     5.3850     6.1550    24.8020     2.3950    -1.2080 
  136.6250    86.3020     6.1580     5.6080     6.1600    24.7950     2.3660    -1.3010 
  136.7500    85.0280     6.4360     5.9040     6.5910    24.7630     2.3360    -1.4030 
  136.8750    81.8460     6.7510     6.2430     7.1010    24.6930     2.3120    -1.5100 
  137.0000    77.6550     6.9870     6.5210     7.4970    24.5940     2.3030    -1.6350 
  137.1250    73.5830     6.9680     6.5430     7.9940    24.5790     2.3130    -1.7980 
  137.2500    72.1470     6.7020     6.2840     8.1070    24.6420     2.3340    -1.9160 
  137.3750    74.6890     6.2980     5.8460     7.5500    24.7360     2.3560    -1.9830 
  137.5000    80.7220     5.9110     5.3910     6.2270    24.8020     2.3720    -2.0500 
  137.6250    86.0140     5.6860     5.0700     5.4540    24.8120     2.3770    -2.1110 
  137.7500    86.6910     5.6400     4.9170     5.8150    24.7550     2.3740    -2.1810 
  137.8750    85.4800     5.7590     4.9280     6.6940    24.6800     2.3640    -2.2840 
  138.0000    84.8260     6.0190     5.0850     6.9100    24.7110     2.3490    -2.3920 
  138.1250    83.4060     6.4220     5.3930     6.5990    24.7580     2.3290    -2.4870 
  138.2500    78.8990     6.9580     5.8290     6.3730    24.7280     2.3060    -2.6730 
  138.3750    72.4350     7.6420     6.4030     7.0050    24.6220     2.2830    -2.9730 
  138.5000    66.4380     8.4720     7.1180     8.6680    24.5470     2.2710    -3.3080 
  138.6250    61.1750     9.3670     7.9340     9.8490    24.5140     2.2830    -3.5850 
  138.7500    57.2290    10.1560     8.7100    10.0200    24.4760     2.3170    -3.7410 
  138.8750    56.7210    10.7180     9.3270     9.8280    24.4150     2.3680    -3.8100 
  139.0000    59.3850    11.0550     9.7530    11.5880    24.3690     2.4210    -3.8690 
  139.1250    62.3310    11.3250    10.0930    14.9820    24.3890     2.4570    -3.8940 
  139.2500    61.7110    11.7660    10.5600    16.6700    24.4300     2.4740    -3.8360 
  139.3750    58.1820    12.5240    11.2870    15.0690    24.4310     2.4790    -3.7320 
  139.5000    55.5180    13.6070    12.3030    13.6960    24.3830     2.4820    -3.6370 
  139.6250    55.8870    14.7250    13.4300    15.0040    24.3580     2.4830    -3.5580 
  139.7500    57.3540    15.2600    14.1720    17.0640    24.3290     2.4750    -3.5120 
  139.8750    58.3470    14.7010    14.0040    16.1990    24.3410     2.4550    -3.4940 
  140.0000    60.6550    12.9840    12.7000    13.3830    24.3840     2.4240    -3.4780 
  140.1250    66.5190    10.5990    10.5390    10.4930    24.5370     2.3930    -3.4570 
  140.2500    73.7060     8.4110     8.3530     9.1340    24.7570     2.3730    -3.4020 
  140.3750    79.7600     6.8170     6.5980     7.7410    24.9940     2.3710    -3.3380 
  140.5000    83.7560     5.9160     5.4900     5.9970    25.2730     2.3970    -3.2950 
  140.6250    87.1350     5.8030     5.2530     5.4300    25.5090     2.4580    -3.2510 
  140.7500    88.3630     6.4550     5.8820     6.1340    25.4860     2.5370    -3.2310 
  140.8750    84.2170     8.1550     7.5610     9.1740    25.0750     2.6050    -3.2660 
  141.0000    74.7480    11.0860    10.4160    17.3790    24.6610     2.6320    -3.3440 
  141.1250    63.4110    14.3850    13.9980    30.6070    24.4660     2.5920    -3.5320 
  141.2500    56.5420    16.0850    16.3270    33.5050    24.4030     2.5150    -3.8510 
  141.3750    56.1070    15.2710    15.8710    21.4850    24.4200     2.4370    -4.1610 
  141.5000    59.5030    12.7280    13.2450    13.2260    24.4600     2.3810    -4.3940 
  141.6250    62.5230    10.2350    10.4050    10.2570    24.5100     2.3490    -4.6600 
  141.7500    67.0920     8.6750     8.4060     8.4090    24.5340     2.3190    -4.9890 
  141.8750    75.1100     7.9780     7.3180     7.3350    24.4700     2.2790    -5.3280 
  142.0000    81.2070     7.9420     6.9800     7.3040    24.4070     2.2380    -5.6330 
  142.1250    78.8550     8.4580     7.2500     8.0160    24.3330     2.2140    -5.8360 
  142.2500    72.4000     9.2000     7.7870     8.6460    24.1960     2.2090    -5.9990 
  142.3750    66.7110     9.8790     8.3350     9.0300    23.9990     2.2150    -6.1670 
  142.5000    64.4320    10.2510     8.6760     9.1100    23.8050     2.2200    -6.3040 
  142.6250    66.2320    10.2190     8.7030     8.8070    23.8210     2.2150    -6.3780 
  142.7500    70.5860    10.0340     8.6010     8.4630    24.0780     2.2050    -6.3960 
  142.8750    73.0950     9.9160     8.5490     8.3800    24.3150     2.1930    -6.3820 
  143.0000    69.0170    10.0050     8.6630     8.8210    24.6010     2.1800    -6.3230 
  143.1250    61.0450    10.3600     9.0030    10.0200    24.9370     2.1700    -6.2450 
  143.2500    57.1690    10.8410     9.4730    10.9560    25.1450     2.1650    -6.1430 
  143.3750    58.8490    11.2730     9.9430    11.2920    25.1730     2.1720    -5.9990 
  143.5000    61.7280    11.4500    10.2330    11.0640    25.0400     2.1960    -5.8470 
  143.6250    63.3830    11.1350    10.0990    10.7150    24.8030     2.2360    -5.7050 
  143.7500    66.4550    10.4050     9.5570    10.7430    24.4850     2.2810    -5.5600 
  143.8750    70.8250     9.4170     8.7140    10.6300    24.1890     2.3200    -5.3370 
  144.0000    75.1330     8.3900     7.7620     9.6340    23.9950     2.3480    -5.0650 
  144.1250    78.7510     7.5580     6.9370     7.9090    23.8290     2.3590    -4.8270 
  144.2500    83.8990     6.9960     6.3500     7.1470    23.7250     2.3580    -4.5860 
  144.3750    90.3310     6.7170     6.0290     6.7040    23.6560     2.3510    -4.3960 
  144.5000    91.5370     6.6920     5.9630     6.3560    23.6090     2.3480    -4.2960 
  144.6250    83.3140     6.8690     6.1240     6.4640    23.5490     2.3570    -4.1820 
  144.7500    75.7830     7.0980     6.3720     6.7330    23.4600     2.3750    -4.0090 
  144.8750    75.0830     7.2540     6.5910     6.7820    23.3790     2.3890    -3.9060 
