~V
VERS. 2.00: Ver 2.00
~W
STRT.M 60.0000:
STOP.M 271.0000:
STEP.M 0.1250:
NULL. -999.2500:
UWI. F10237:
~C
DEPT.M :
GR.API :
RML.OHMM :
RI. :
RXO.OHMM :
CALI.CM :
DEN.GM/CC :
SP.MV :
~A
# ...
  127.5000    44.3640    19.7220    18.1790    15.8900    24.5810     2.5840    -7.0310 
  127.6250    45.3010    19.7110    18.2220    16.5880    24.5760     2.5930    -6.9400 
  127.7500    44.3870    19.7260    18.2550    16.5790    24.6100     2.5990    -6.8730 
  127.8750    42.2050    19.7870    18.3010    15.6790    24.6270     2.6020    -6.7920 
  128.0000    40.6050    20.0230    18.3900    15.2440    24.5860     2.6060    -6.7160 
  128.1250    41.0750    20.3750    18.5270    16.0200    24.5460     2.6100    -6.6560 
  128.2500    43.6370    20.7270    18.6850    17.3360    24.5400     2.6140    -6.6090 
  128.3750    45.0100    21.0960    18.8740    17.6100    24.5360     2.6160    -6.5830 
  128.5000    43.1290    21.4980    19.1250    16.4080    24.5100     2.6170    -6.5750 
  128.6250    41.7070    21.8040    19.4510    16.2280    24.4250     2.6190    -6.5560 
  128.7500    43.3600    21.9230    19.7960    17.0770    24.3190     2.6210    -6.5230 
  128.8750    46.2510    21.9680    20.0830    18.1120    24.2300     2.6220    -6.4840 
  129.0000    46.8720    21.9220    20.2140    18.8990    24.1890     2.6220    -6.4710 
  129.1250    45.4210    21.7500    20.0970    18.7160    24.2760     2.6230    -6.4860 
  129.2500    44.0530    21.4770    19.8290    18.2470    24.4840     2.6260    -6.4830 
  129.3750    42.4180    21.1210    19.5260    17.8580    24.6990     2.6280    -6.4670 
  129.5000    40.8070    20.8580    19.2940    17.5140    24.7840     2.6240    -6.4680 
  129.6250    40.3430    20.7510    19.1810    17.4680    24.7430     2.6160    -6.4850 
  129.7500    39.9260    20.5990    19.0700    17.8920    24.6930     2.6040    -6.5030 
  129.8750    40.2640    20.2300    18.8140    17.8490    24.6500     2.5900    -6.5270 
  130.0000    42.2860    19.6050    18.3360    16.6990    24.5780     2.5770    -6.5560 
  130.1250    43.5130    18.8830    17.7020    15.5500    24.5540     2.5700    -6.5780 
  130.2500    44.0040    18.3180    17.1250    15.0220    24.6570     2.5670    -6.6370 
  130.3750    46.4780    18.0390    16.7500    14.4270    24.7870     2.5660    -6.7230 
  130.5000    50.3340    18.0290    16.6180    14.3300    24.7990     2.5640    -6.8000 
  130.6250    49.7650    18.1090    16.6470    14.6970    24.7350     2.5550    -6.9140 
  130.7500    45.6150    18.0430    16.6260    15.5260    24.7100     2.5390    -7.0460 
  130.8750    42.5350    17.7600    16.4590    15.5480    24.6760     2.5170    -7.1500 
  131.0000    42.9900    17.3420    16.1710    14.4300    24.5640     2.4960    -7.2270 
  131.1250    45.6060    16.9840    15.8940    13.1420    24.4110     2.4870    -7.3380 
  131.2500    48.0490    16.8210    15.7460    12.4500    24.3720     2.4940    -7.4360 
  131.3750    49.5990    16.8810    15.7650    12.7170    24.4450     2.5150    -7.4440 
  131.5000    48.9440    17.0960    15.9210    13.9320    24.5340     2.5380    -7.3890 
  131.6250    45.7820    17.3230    16.1330    14.6890    24.5810     2.5490    -7.3440 
  131.7500    43.2300    17.4360    16.2910    14.1440    24.5840     2.5510    -7.3180 
  131.8750    43.6590    17.3940    16.3310    13.7530    24.5850     2.5520    -7.2580 
  132.0000    45.6610    17.2280    16.2410    13.7950    24.5920     2.5580    -7.1660 
  132.1250    45.4740    17.0100    16.0530    13.8800    24.6160     2.5670    -7.0710 
  132.2500    44.4940    16.8080    15.8500    13.6460    24.6520     2.5770    -6.9900 
  132.3750    44.6010    16.6360    15.6740    13.3770    24.6340     2.5830    -6.9360 
  132.5000    44.1580    16.4830    15.5480    13.4610    24.5740     2.5820    -6.9150 
  132.6250    41.1180    16.3730    15.4960    13.7860    24.5440     2.5720    -6.9120 
  132.7500    39.1830    16.3560    15.5290    13.3900    24.5290     2.5570    -6.9360 
  132.8750    40.8060    16.4610    15.6590    12.8580    24.5350     2.5450    -7.0020 
  133.0000    44.3430    16.6610    15.8670    12.6090    24.5890     2.5430    -7.0670 
  133.1250    47.6690    16.8740    16.0900    12.9650    24.7210     2.5550    -7.1630 
  133.2500    48.8750    16.9960    16.2490    13.7450    24.8020     2.5770    -7.3130 
  133.3750    45.5920    16.9330    16.2640    14.1390    24.8210     2.5970    -7.4970 
  133.5000    40.4030    16.6010    16.0500    13.3620    24.7740     2.6080    -7.6680 
  133.6250    41.1300    15.9210    15.5060    12.4050    24.6470     2.6010    -7.8370 
  133.7500    47.4750    15.0210    14.7280    11.5850    24.5020     2.5820    -8.0150 
  133.8750    53.9040    14.0660    13.8530    11.0900    24.4200     2.5550    -8.2060 
  134.0000    55.3570    13.2560    13.0590    10.2250    24.3920     2.5310    -8.4430 
  134.1250    51.8290    12.8200    12.5520     9.5800    24.3960     2.5200    -8.6710 
  134.2500    48.2450    12.7750    12.3670     9.6140    24.4190     2.5220    -8.8720 
  134.3750    48.8820    13.1270    12.5270    10.5400    24.4540     2.5310    -9.0790 
  134.5000    52.4940    13.8920    13.0650    11.8900    24.5000     2.5400    -9.3190 
  134.6250    54.5730    15.2210    14.1190    13.1280    24.5640     2.5400    -9.6040 
  134.7500    55.4110    17.1240    15.6820    13.6050    24.5900     2.5390    -9.9170 
  134.8750    57.2490    19.6150    17.7820    14.9370    24.5780     2.5470   -10.2430 
  135.0000    61.2950    22.4890    20.3240    20.0140    24.4970     2.5650   -10.5240 
  135.1250    66.8110    25.0690    22.8650    26.7790    24.2990     2.5720   -10.7910 
  135.2500    72.2680    26.5530    24.6570    29.3000    24.0420     2.5530   -11.0990 
  135.3750    74.8440    26.4980    25.1420    27.9170    23.8150     2.5160   -11.3930 
  135.5000    74.8970    25.1030    24.2790    25.5900    23.6810     2.4790   -11.6280 
  135.6250    73.6090    23.1680    22.5910    21.8490    23.6310     2.4530   -11.7990 
  135.7500    74.7960    21.6640    21.0240    17.5970    23.6200     2.4410   -11.9290 
  135.8750    78.8250    20.9960    20.0500    16.6900    23.6030     2.4420   -12.0040 
  136.0000    81.4380    21.2130    19.8430    17.6360    23.6070     2.4560   -12.0280 
  136.1250    81.2760    22.2130    20.4580    19.1530    23.6280     2.4730   -12.0270 
  136.2500    79.1000    23.4890    21.5090    20.2040    23.6770     2.4890   -11.9800 
  136.3750    76.7290    24.5870    22.5960    22.1710    23.7330     2.4990   -11.8860 
  136.5000    76.3620    25.1160    23.2980    24.3550    23.7660     2.5050   -11.7590 
  136.6250    77.8850    24.8410    23.2780    23.9620    23.8060     2.5090   -11.6300 
  136.7500    78.0970    24.1190    22.7600    22.2200    23.8590     2.5100   -11.5100 
  136.8750    74.6810    23.3180    22.0200    19.0670    23.8980     2.5050   -11.3970 
  137.0000    72.3130    22.7920    21.3550    16.6650    23.9040     2.4930   -11.2710 
  137.1250    72.6060    22.8890    21.0950    16.4990    23.8720     2.4810   -11.0710 
  137.2500    71.8440    23.5320    21.3100    17.7130    23.8520     2.4790   -10.8940 
  137.3750    69.4320    24.5100    21.9270    19.0460    23.9190     2.4910   -10.7780 
  137.5000    66.9960    25.4800    22.7200    20.9940    24.0320     2.5100   -10.6720 
  137.6250    66.4060    25.9460    23.2880    23.7550    24.0360     2.5240   -10.4630 
  137.7500    67.7980    25.7110    23.3380    25.2980    24.0010     2.5240   -10.2450 
  137.8750    68.2320    24.8480    22.8140    22.5180    24.0310     2.5100   -10.1020 
  138.0000    66.2620    23.7020    21.9200    18.1690    24.0470     2.4940    -9.9820 
  138.1250    65.9560    22.7290    20.9980    16.7660    24.0340     2.4900    -9.8300 
  138.2500    69.6880    22.1140    20.2740    16.9950    24.1030     2.4930    -9.6420 
  138.3750    73.8140    21.8130    19.7840    17.7910    24.1780     2.5000    -9.4670 
  138.5000    73.9830    21.6080    19.4280    19.1690    24.1940     2.5050    -9.3200 
  138.6250    73.9040    21.0860    18.9240    19.9760    24.1690     2.5070    -9.1840 
