~V
VERS. 2.00: Ver 2.00
~W
STRT.M 53.0000:
STOP.M 267.0000:
STEP.M 0.1250:
NULL. -999.2500:
UWI. F10211:
~C
DEPT.M :
GR.API :
RML.OHMM :
RI. :
RXO.OHMM :
CALI.CM :
SP.MV :
DEN.GM/CC :
~A
# ...
  120.5000    40.8210    28.1280    24.0290    26.4120    23.7940    -7.1490     2.5720 
  120.6250    38.0050    26.7800    23.5230    24.9980    23.8570    -7.2150     2.5700 
  120.7500    37.3880    25.5210    22.7160    22.8330    23.8780    -7.2860     2.5690 
  120.8750    40.0600    24.8380    22.1050    21.0040    23.8050    -7.3780     2.5650 
  121.0000    44.7710    24.9760    22.0020    20.7110    23.7040    -7.5520     2.5580 
  121.1250    48.1140    25.7870    22.4300    20.7910    23.6250    -7.7610     2.5540 
  121.2500    49.1390    26.9910    23.2700    21.2660    23.5210    -7.9820     2.5510 
  121.3750    49.4410    28.1520    24.2440    22.5380    23.3730    -8.2170     2.5490 
  121.5000    50.2510    28.6410    24.8720    24.5410    23.2410    -8.4470     2.5420 
  121.6250    51.4950    28.2210    24.8590    26.1920    23.1190    -8.6580     2.5310 
  121.7500    52.9370    27.0460    24.2070    25.3200    23.0120    -8.8640     2.5200 
  121.8750    52.5530    25.5410    23.1690    21.8390    22.9280    -9.0480     2.5120 
  122.0000    48.3690    24.2240    22.1150    20.0150    22.8540    -9.1740     2.5090 
  122.1250    44.9880    23.3690    21.3200    19.8430    22.7380    -9.2850     2.5090 
  122.2500    46.2070    23.0390    20.9090    19.6340    22.6150    -9.3930     2.5110 
  122.3750    49.1740    23.1590    20.8970    19.7140    22.5250    -9.4920     2.5190 
  122.5000    49.4100    23.5710    21.2160    19.3560    22.4230    -9.5600     2.5410 
  122.6250    48.8580    24.0500    21.6740    19.0260    22.2670    -9.5900     2.5700 
  122.7500    49.4610    24.4650    22.1430    19.5320    22.0650    -9.5980     2.5930 
  122.8750    50.0270    24.7480    22.5520    20.4190    21.8700    -9.6080     2.5990 
  123.0000    48.9650    24.8400    22.8350    19.2560    21.8240    -9.6350     2.5850 
  123.1250    48.9570    24.7250    22.9440    17.9450    21.9160    -9.6730     2.5650 
  123.2500    50.8950    24.3880    22.8290    18.2150    22.0260    -9.6950     2.5470 
  123.3750    51.6110    23.8290    22.4650    19.3890    22.1140    -9.6920     2.5330 
  123.5000    48.9490    23.0820    21.8740    19.0820    22.1860    -9.6640     2.5210 
  123.6250    45.9820    22.2820    21.1920    17.3460    22.2020    -9.6470     2.5130 
  123.7500    45.5530    21.5730    20.5520    15.7400    22.1700    -9.6750     2.5110 
  123.8750    47.1160    21.0710    20.0640    15.4750    22.1690    -9.7130     2.5160 
  124.0000    48.7290    20.8390    19.8000    16.5030    22.2740    -9.7110     2.5180 
  124.1250    49.5340    20.7760    19.7000    16.9740    22.4240    -9.6660     2.5160 
  124.2500    49.4480    20.7600    19.6710    16.7540    22.5480    -9.6070     2.5180 
  124.3750    49.0540    20.7070    19.6330    16.8230    22.6660    -9.5550     2.5310 
  124.5000    48.6320    20.6090    19.5540    17.2390    22.7640    -9.5350     2.5450 
  124.6250    47.9670    20.5300    19.4780    17.2190    22.7960    -9.5350     2.5510 
  124.7500    47.0400    20.5140    19.4470    17.1820    22.7510    -9.5130     2.5530 
  124.8750    46.9770    20.5640    19.4740    17.2260    22.6290    -9.4850     2.5550 
  125.0000    48.3130    20.6900    19.5660    17.1240    22.4040    -9.4930     2.5580 
  125.1250    50.1250    20.8930    19.7250    17.1250    22.1400    -9.5360     2.5570 
  125.2500    50.9930    21.1670    19.9450    17.7890    21.9490    -9.6000     2.5560 
  125.3750    50.2850    21.4890    20.2140    18.4730    21.8680    -9.6720     2.5580 
  125.5000    49.7660    21.8270    20.5140    19.0660    21.8090    -9.7450     2.5640 
  125.6250    49.8620    22.1560    20.8220    18.9920    21.7420    -9.7990     2.5730 
  125.7500    50.0260    22.4680    21.1260    18.4340    21.6960    -9.8090     2.5800 
  125.8750    50.2550    22.7520    21.4090    17.8910    21.6640    -9.7950     2.5850 
  126.0000    50.4690    22.9280    21.5990    17.2890    21.6230    -9.7790     2.5880 
  126.1250    50.1160    22.9070    21.6160    16.7550    21.5830    -9.7370     2.5920 
  126.2500    47.5720    22.6360    21.4120    17.0680    21.5730    -9.6450     2.5920 
  126.3750    43.6790    22.1550    21.0120    17.9630    21.6060    -9.5100     2.5900 
  126.5000    42.9540    21.5890    20.5240    17.6170    21.7010    -9.3630     2.5860 
  126.6250    45.5720    21.0720    20.0750    16.6230    21.8960    -9.2360     2.5850 
  126.7500    48.4860    20.6390    19.7060    16.3310    22.1530    -9.1510     2.5850 
  126.8750    48.8580    20.2260    19.3690    16.9970    22.3990    -9.0560     2.5830 
  127.0000    46.8890    19.7070    18.9560    17.5320    22.5530    -8.9370     2.5790 
  127.1250    45.7830    19.0200    18.4060    16.8870    22.6540    -8.8580     2.5740 
  127.2500    47.8330    18.1980    17.7240    15.4700    22.7130    -8.8260     2.5640 
  127.3750    51.6660    17.3570    16.9900    14.4220    22.7460    -8.8270     2.5470 
  127.5000    52.3640    16.6830    16.3520    14.4720    22.7500    -8.8230     2.5220 
  127.6250    50.9040    16.2710    15.9100    14.9770    22.8330    -8.7990     2.5030 
  127.7500    50.9050    16.1320    15.7080    15.2660    23.0080    -8.7660     2.5000 
  127.8750    51.5530    16.2420    15.7510    15.5610    23.1930    -8.7420     2.5110 
  128.0000    49.1620    16.5800    16.0380    16.1930    23.2940    -8.7360     2.5250 
  128.1250    46.1990    17.0660    16.4940    16.8980    23.3400    -8.7330     2.5340 
  128.2500    45.8370    17.6200    17.0380    17.3290    23.3280    -8.7370     2.5320 
  128.3750    47.2920    18.1260    17.5660    17.8900    23.2750    -8.7530     2.5170 
  128.5000    48.6630    18.4050    17.9040    18.2770    23.2590    -8.7960     2.4920 
  128.6250    49.8010    18.3860    17.9650    18.2560    23.3070    -8.8640     2.4670 
  128.7500    51.0990    18.0980    17.7550    17.8890    23.3670    -8.9410     2.4540 
  128.8750    51.8770    17.6400    17.3520    17.4390    23.3470    -9.0270     2.4610 
  129.0000    52.7180    17.1560    16.8790    16.6300    23.2160    -9.0890     2.4870 
  129.1250    54.5440    16.7550    16.4550    16.2040    22.9610    -9.0950     2.5180 
  129.2500    54.9420    16.4720    16.1270    15.9140    22.6200    -9.0480     2.5360 
  129.3750    51.7350    16.2910    15.9000    15.5610    22.3800    -8.9550     2.5340 
  129.5000    46.7170    16.2000    15.7890    15.2970    22.5080    -8.8330     2.5130 
  129.6250    44.3690    16.1820    15.7940    15.1450    23.0080    -8.6970     2.4850 
  129.7500    44.4980    16.2350    15.9140    14.8820    23.5720    -8.5750     2.4630 
  129.8750    43.9600    16.3520    16.1350    14.7250    23.9320    -8.4780     2.4530 
  130.0000    42.4220    16.4620    16.3850    15.4260    24.1360    -8.4200     2.4550 
  130.1250    42.0970    16.4120    16.5080    16.0970    24.3290    -8.3990     2.4590 
  130.2500    43.0090    16.0410    16.3290    15.9610    24.4970    -8.4260     2.4620 
  130.3750    43.6300    15.2790    15.7460    15.1870    24.5630    -8.5140     2.4660 
  130.5000    44.4800    14.1960    14.7820    14.6920    24.5110    -8.6440     2.4700 
  130.6250    46.6620    13.0610    13.6860    13.1800    24.4430    -8.7960     2.4710 
  130.7500    50.0470    12.1170    12.7020    11.2230    24.4310    -8.9590     2.4690 
  130.8750    54.0210    11.5030    11.9920    10.2530    24.4650    -9.1140     2.4660 
  131.0000    56.2800    11.2940    11.6680    10.5510    24.5420    -9.2520     2.4650 
  131.1250    56.5080    11.4030    11.6760    11.3630    24.6550    -9.3850     2.4680 
  131.2500    56.4320    11.7540    11.9520    11.5180    24.7430    -9.4940     2.4790 
  131.3750    57.8520    12.2930    12.4370    11.0490    24.6990    -9.5710     2.4960 
  131.5000    60.1130    12.9990    13.0990    11.0030    24.5460    -9.6520     2.5150 
  131.6250    62.7350    13.8050    13.8640    11.9180    24.3260    -9.7410     2.5310 
