~V
VERS. 2.00: Ver 2.00
~W
STRT.M 57.0000:
STOP.M 281.0000:
STEP.M 0.1250:
NULL. -999.2500:
UWI. F10238:
~C
DEPT.M :
GR.API :
RML.OHMM :
RI. :
RXO.OHMM :
CALI.CM :
DEN.GM/CC :
SP.MV :
~A
# ...
  124.5000    41.3060    47.9650    37.6400    42.9390    24.4800     2.5780    -8.8040 
  124.6250    41.1480    49.0610    38.3370    45.7580    24.4800     2.6080    -8.7890 
  124.7500    40.6500    49.5540    38.8770    45.6180    24.4810     2.6320    -8.7780 
  124.8750    39.6780    48.5350    38.6020    43.3300    24.4750     2.6390    -8.7890 
  125.0000    39.7050    45.7850    37.1540    43.0280    24.4550     2.6290    -8.8110 
  125.1250    40.3370    41.6920    34.6030    42.1320    24.4350     2.6050    -8.8430 
  125.2500    40.5820    37.1970    31.4780    36.9750    24.4440     2.5750    -8.8840 
  125.3750    41.5020    33.3440    28.5380    30.1580    24.4670     2.5460    -8.9340 
  125.5000    44.7420    30.6900    26.3250    25.8390    24.4780     2.5270    -8.9910 
  125.6250    48.4950    29.2800    24.9850    25.0660    24.4790     2.5220    -9.0450 
  125.7500    49.0360    28.8430    24.4160    25.7450    24.4780     2.5300    -9.1000 
  125.8750    47.0400    28.8450    24.2940    26.2280    24.4630     2.5460    -9.1490 
  126.0000    46.3870    28.6630    24.1600    26.6130    24.4190     2.5590    -9.1930 
  126.1250    47.5860    27.9880    23.7330    25.9340    24.3720     2.5610    -9.2340 
  126.2500    48.5080    26.8870    22.9750    23.4300    24.3810     2.5530    -9.2560 
  126.3750    47.9170    25.7590    22.1270    20.8040    24.4450     2.5440    -9.2640 
  126.5000    46.1650    25.0230    21.5030    19.7250    24.5010     2.5430    -9.2680 
  126.6250    43.2610    24.8570    21.2700    19.6230    24.5210     2.5520    -9.2740 
  126.7500    40.7200    25.2480    21.4780    19.9700    24.5160     2.5660    -9.2880 
  126.8750    40.4820    25.9690    22.0070    21.3230    24.5030     2.5730    -9.3080 
  127.0000    42.6460    26.6570    22.5860    23.5180    24.5110     2.5690    -9.3550 
  127.1250    45.4810    27.0460    22.9790    24.4950    24.5160     2.5560    -9.4180 
  127.2500    46.2830    26.9240    22.9770    23.5940    24.5100     2.5430    -9.5180 
  127.3750    44.7220    26.2370    22.4970    22.2840    24.5010     2.5340    -9.6500 
  127.5000    42.7990    25.1590    21.6490    21.0920    24.4510     2.5260    -9.8020 
  127.6250    42.7110    23.9210    20.6090    20.1200    24.3390     2.5160    -9.9650 
  127.7500    45.6320    22.7890    19.6020    19.1100    24.1910     2.5060   -10.1230 
  127.8750    49.7500    21.9370    18.7910    18.1280    24.0650     2.5030   -10.2660 
  128.0000    51.9990    21.3940    18.2220    17.4430    23.9900     2.5060   -10.3700 
  128.1250    52.4530    21.1600    17.9010    17.8490    23.9350     2.5120   -10.4430 
  128.2500    53.8480    21.2540    17.8560    18.8950    23.8920     2.5140   -10.4750 
  128.3750    56.8570    21.6840    18.1040    19.0960    23.8580     2.5150   -10.4600 
  128.5000    58.1910    22.3920    18.6060    18.0950    23.8330     2.5180   -10.3990 
  128.6250    56.1390    23.2860    19.3030    17.8590    23.8270     2.5220   -10.2990 
  128.7500    52.8910    24.1350    20.0310    19.8130    23.8610     2.5200   -10.1600 
  128.8750    51.0380    24.6060    20.5280    21.8270    23.9410     2.5090   -10.0050 
  129.0000    51.2750    24.4690    20.5710    21.2630    24.0220     2.4950    -9.8400 
  129.1250    53.0240    23.6930    20.0880    19.1510    24.0580     2.4900    -9.6750 
  129.2500    55.1710    22.4960    19.2040    17.4010    24.0290     2.4960    -9.5210 
  129.3750    56.2620    21.2930    18.2230    16.2960    23.9640     2.5080    -9.3950 
  129.5000    55.6150    20.4770    17.4730    15.5060    23.9380     2.5160    -9.2900 
  129.6250    53.6810    20.2340    17.1260    15.1970    23.9530     2.5170    -9.2070 
  129.7500    51.3640    20.6010    17.2510    15.7880    23.9640     2.5140    -9.1590 
  129.8750    49.9440    21.4300    17.7790    17.0820    23.9500     2.5080    -9.1230 
  130.0000    50.0190    22.3950    18.4940    18.5250    23.9640     2.5020    -9.1130 
  130.1250    50.0170    23.2000    19.1790    19.8610    24.0250     2.5000    -9.1190 
  130.2500    48.1860    23.5830    19.6040    20.6630    24.0910     2.5060    -9.1330 
  130.3750    45.9670    23.4970    19.6690    20.3300    24.0620     2.5200    -9.1440 
  130.5000    46.3160    23.1660    19.4890    19.1690    23.9560     2.5330    -9.1540 
  130.6250    48.2170    22.8390    19.2370    18.3710    23.8970     2.5370    -9.1610 
  130.7500    48.6970    22.7290    19.0860    18.2580    23.9450     2.5280    -9.1540 
  130.8750    48.7210    22.9030    19.1300    19.0040    24.0770     2.5090    -9.1490 
  131.0000    50.3740    23.2410    19.3290    20.0730    24.2170     2.4920    -9.1440 
  131.1250    52.0210    23.5580    19.5710    20.7700    24.3120     2.4860    -9.1390 
  131.2500    51.2570    23.6230    19.6790    20.9800    24.3490     2.4940    -9.1350 
  131.3750    49.5500    23.2830    19.5080    20.4580    24.3320     2.5120    -9.1230 
  131.5000    48.9830    22.5770    19.0500    19.6400    24.3120     2.5300    -9.1020 
  131.6250    48.0070    21.6330    18.3810    18.2400    24.3180     2.5430    -9.0930 
  131.7500    46.8780    20.6570    17.6520    16.5720    24.3470     2.5470    -9.0950 
  131.8750    47.0230    19.8380    17.0150    15.7600    24.3790     2.5500    -9.1140 
  132.0000    46.8310    19.2510    16.5480    15.5900    24.3920     2.5540    -9.1450 
  132.1250    44.5650    18.8870    16.2600    15.4080    24.3900     2.5570    -9.1880 
  132.2500    42.5790    18.7090    16.1340    15.0210    24.3740     2.5530    -9.2430 
  132.3750    43.4940    18.6700    16.1330    14.8700    24.3540     2.5400    -9.3130 
  132.5000    45.5810    18.7040    16.2040    14.7850    24.3480     2.5220    -9.4120 
  132.6250    47.2190    18.7450    16.2920    14.8930    24.3670     2.5070    -9.5150 
  132.7500    48.8000    18.6890    16.3090    15.6400    24.3860     2.5050    -9.6340 
  132.8750    50.4760    18.4290    16.1560    16.4580    24.3930     2.5140    -9.7650 
  133.0000    51.1990    17.9620    15.8080    16.0670    24.3930     2.5260    -9.9110 
  133.1250    51.5140    17.3780    15.3220    14.2490    24.3930     2.5310   -10.0740 
  133.2500    52.6750    16.8540    14.8320    12.3390    24.3930     2.5240   -10.2500 
  133.3750    54.0200    16.5420    14.4740    11.8100    24.3920     2.5060   -10.4540 
  133.5000    53.9390    16.4790    14.3050    12.6840    24.3910     2.4870   -10.6780 
  133.6250    51.4180    16.6380    14.3220    13.7160    24.3910     2.4740   -10.9310 
  133.7500    47.7430    16.9810    14.5070    13.9970    24.3910     2.4710   -11.2310 
  133.8750    45.9530    17.4910    14.8410    13.9530    24.3910     2.4780   -11.5730 
  134.0000    48.1320    18.1730    15.3080    13.9380    24.3940     2.4890   -11.9440 
  134.1250    54.4880    19.0680    15.9310    14.5080    24.3970     2.4940   -12.3480 
  134.2500    62.3180    20.1920    16.7450    16.3820    24.3980     2.4850   -12.7790 
  134.3750    67.5370    21.4540    17.7120    18.7330    24.3870     2.4600   -13.2330 
  134.5000    69.2880    22.6570    18.6960    19.7380    24.3370     2.4260   -13.6920 
  134.6250    70.4410    23.6480    19.5600    19.3040    24.2290     2.3950   -14.1490 
  134.7500    72.4820    24.3440    20.1940    19.2970    24.0750     2.3850   -14.5580 
  134.8750    72.9590    24.7770    20.5830    19.5800    23.9100     2.4010   -14.9100 
  135.0000    71.1520    25.0770    20.8200    19.3850    23.7630     2.4320   -15.2190 
  135.1250    70.5310    25.3280    20.9850    18.6540    23.6340     2.4610   -15.4760 
  135.2500    72.4700    25.5570    21.1160    18.2670    23.5240     2.4720   -15.6820 
  135.3750    74.7310    25.7540    21.2150    18.6010    23.4620     2.4610   -15.8180 
  135.5000    75.7070    25.9170    21.2790    19.0560    23.4400     2.4410   -15.9050 
  135.6250    75.8950    26.0440    21.3000    19.0930    23.4300     2.4270   -15.9380 
