~V
VERS. 2.00: Ver 2.00
~W
STRT.M 57.0000:
STOP.M 274.0000:
STEP.M 0.1250:
NULL. -999.2500:
UWI. F10215:
~C
DEPT.M :
SP.MV :
DEN.GM/CC :
GR.API :
RML.OHMM :
RI. :
RXO.OHMM :
CALI.CM :
~A
# ...
  192.0000   -20.2600     2.1980    55.2000   186.2050   152.9070   184.0090    24.5250 
  192.1250   -20.1640     2.1930    53.7240   186.4500   153.7280   177.6530    24.3930 
  192.2500   -20.0720     2.1950    54.6010   180.7120   149.2310   162.1690    24.2770 
  192.3750   -19.9740     2.2040    54.5420   173.3590   142.5250   147.4950    24.1950 
  192.5000   -19.8770     2.2150    53.2590   168.1570   136.8250   129.7560    24.1780 
  192.6250   -19.7540     2.2200    54.0370   167.8090   134.7980   115.9730    24.1800 
  192.7500   -19.6400     2.2160    56.7540   171.5990   136.2840   118.6730    24.2250 
  192.8750   -19.5070     2.2070    58.4680   178.1930   140.3190   133.3840    24.2570 
  193.0000   -19.3720     2.1970    57.7580   185.6360   145.3540   153.4660    24.2520 
  193.1250   -19.2180     2.1950    56.3660   192.1960   150.0690   165.5930    24.2200 
  193.2500   -19.0700     2.1990    55.0820   198.3520   154.8230   164.4840    24.2390 
  193.3750   -18.9090     2.2030    53.1670   206.0510   161.2310   155.2460    24.3030 
  193.5000   -18.7450     2.1990    51.3140   217.2740   170.8930   158.0710    24.3530 
  193.6250   -18.5480     2.1760    49.1880   232.7580   184.3730   188.7130    24.4660 
  193.7500   -18.3460     2.1450    46.6650   248.2590   198.3880   300.6360    24.5640 
  193.8750   -18.1250     2.1240    44.3240   255.7690   207.6480   536.7600    24.5940 
  194.0000   -17.8980     2.1410    44.4480   242.2970   203.4850   597.9060    24.5290 
  194.1250   -17.6660     2.2430    48.2420   194.2170   172.3280   338.9130    24.5450 
  194.2500   -17.4130     2.4130    50.8630   132.2820   123.3520   235.4560    24.4790 
  194.3750   -17.1560     2.5830    49.7690    78.8380    75.1250   170.5730    24.3760 
  194.5000   -16.8980     2.6610    48.5250    43.0590    40.7170    71.3260    24.2540 
  194.6250   -16.6700     2.6150    51.5960    24.3490    22.6940    26.0720    24.1100 
  194.7500   -16.4780     2.5270    57.3970    14.4240    13.3280    10.4880    23.9830 
  194.8750   -16.3270     2.4530    62.4220     9.4870     8.6710     6.2360    23.9730 
  195.0000   -16.2160     2.4240    63.2400     7.2260     6.4000     5.3840    24.0440 
  195.1250   -16.1640     2.4370    58.1030     6.5180     5.5110     5.2130    24.1420 
  195.2500   -16.1590     2.4560    51.6240     6.4900     5.2960     5.1280    24.2330 
  195.3750   -16.1990     2.4580    47.6900     6.8370     5.5100     5.1660    24.2960 
  195.5000   -16.2600     2.4490    45.1980     7.3500     5.9620     5.5260    24.2660 
  195.6250   -16.3760     2.4540    43.3430     7.8480     6.4850     6.1290    24.2390 
  195.7500   -16.4900     2.4820    43.0600     8.1690     6.8970     6.7650    24.1890 
  195.8750   -16.6030     2.5230    41.9800     8.1620     7.0420     6.7830    24.1460 
  196.0000   -16.7010     2.5520    40.2420     7.7150     6.7920     6.5610    24.1830 
  196.1250   -16.7820     2.5500    41.3560     6.7940     6.0770     6.9050    24.1760 
  196.2500   -16.8450     2.5370    44.9700     5.6970     5.1420     7.0720    24.1540 
  196.3750   -16.9040     2.5260    46.3190     4.6910     4.2120     6.5090    24.1460 
  196.5000   -16.9470     2.5070    44.4950     3.9670     3.4620     5.3820    24.1420 
  196.6250   -16.9770     2.4500    42.8370     3.6630     3.0300     4.9880    24.1740 
  196.7500   -17.0080     2.3580    42.0890     3.7140     2.8880     4.6850    24.2200 
  196.8750   -17.0710     2.2520    41.2170     4.0770     3.0150     4.7090    24.4160 
  197.0000   -17.1680     2.1740    40.1020     4.6710     3.3570     4.5930    24.5090 
  197.1250   -17.2990     2.1710    39.6980     5.3550     3.8340     4.5690    24.2580 
  197.2500   -17.4610     2.2230    40.8850     5.9500     4.3110     4.7940    23.9970 
  197.3750   -17.6280     2.2820    42.2290     6.3920     4.7180     5.0470    23.8830 
  197.5000   -17.8100     2.3170    42.0160     6.7120     5.0420     5.2000    23.8040 
  197.6250   -17.9970     2.3320    39.9780     6.9840     5.3030     5.8160    23.9210 
  197.7500   -18.1860     2.3550    39.1840     7.2320     5.5210     7.3790    24.0830 
  197.8750   -18.3530     2.3860    40.3200     7.4030     5.6670     9.1230    24.1760 
  198.0000   -18.5130     2.4110    41.2780     7.4530     5.7100     8.3020    24.1310 
  198.1250   -18.6650     2.4180    39.6810     7.3790     5.6410     6.7130    23.9630 
  198.2500   -18.8250     2.4200    38.1350     7.2640     5.5200     5.8860    23.8170 
  198.3750   -19.0180     2.4290    38.1790     7.1620     5.3890     5.7730    23.6990 
  198.5000   -19.2230     2.4380    39.5540     7.1040     5.2820     5.9120    23.7160 
  198.6250   -19.4550     2.4300    41.4960     7.1220     5.2330     5.9850    23.6650 
  198.7500   -19.7150     2.4020    44.4690     7.2300     5.2540     5.8780    23.5920 
  198.8750   -20.0250     2.3660    48.5150     7.4660     5.3600     5.8410    23.5050 
  199.0000   -20.3720     2.3380    52.5100     7.8780     5.5710     6.1070    23.2830 
  199.1250   -20.7640     2.3320    58.5400     8.4940     5.9140     7.1190    22.8330 
  199.2500   -21.1630     2.3450    67.6050     9.1970     6.3290     8.1650    22.5680 
  199.3750   -21.5620     2.3620    76.7010     9.8500     6.7410     8.4220    22.7790 
  199.5000   -21.9540     2.3690    81.7580    10.3260     7.0690     8.4270    23.2460 
  199.6250   -22.3500     2.3510    83.7650    10.5310     7.2400     8.0800    23.6140 
  199.7500   -22.7210     2.3200    86.4860    10.5670     7.2930     7.5720    23.7680 
  199.8750   -23.0600     2.2900    88.1470    10.5450     7.2840     7.2580    23.9820 
  200.0000   -23.3650     2.2750    87.4330    10.5420     7.2600     7.8560    24.2700 
  200.1250   -23.6280     2.2880    88.3930    10.5910     7.2480     8.6210    24.5070 
  200.2500   -23.8540     2.3170    89.6460    10.6910     7.2570     9.0450    24.5250 
  200.3750   -24.0580     2.3480    87.7430    10.8660     7.3120     9.2230    24.4340 
  200.5000   -24.2640     2.3710    84.4080    11.1610     7.4480     9.2700    24.3420 
  200.6250   -24.4610     2.3840    85.5140    11.6570     7.7250     9.4260    24.3660 
  200.7500   -24.6770     2.3880    88.2680    12.3350     8.1400    10.0870    24.4160 
  200.8750   -24.8880     2.3860    87.8060    13.1350     8.6720    11.1220    24.4170 
  201.0000   -25.0960     2.3800    85.6930    13.9420     9.2600    12.1710    24.3090 
  201.1250   -25.2790     2.3730    84.8500    14.6170     9.8100    12.2890    24.2440 
  201.2500   -25.4840     2.3670    83.4330    15.1320    10.2660    12.2680    24.2480 
  201.3750   -25.6700     2.3650    81.5500    15.5030    10.6110    12.4490    24.2790 
  201.5000   -25.8480     2.3660    79.8920    15.7450    10.8430    12.7760    24.3190 
  201.6250   -25.9920     2.3700    79.9380    15.7760    10.9080    13.1300    24.3310 
  201.7500   -26.1260     2.3700    80.0820    15.5120    10.7670    13.5090    24.3330 
  201.8750   -26.2610     2.3660    79.1980    14.8800    10.3700    13.0820    24.3560 
  202.0000   -26.3920     2.3600    78.3480    13.9330     9.7410    11.5920    24.3800 
  202.1250   -26.5320     2.3600    80.9190    12.8840     9.0000    10.3840    24.2860 
  202.2500   -26.6830     2.3700    85.9390    12.0270     8.3400     9.5370    24.1860 
  202.3750   -26.8620     2.3860    89.6620    11.5460     7.8880     8.7920    24.0660 
  202.5000   -27.0530     2.3960    89.9040    11.5310     7.7180     8.6300    23.9530 
  202.6250   -27.2490     2.3860    86.3160    12.0030     7.8930     9.5370    24.0900 
  202.7500   -27.4140     2.3610    81.1650    12.7260     8.3110    10.6910    24.2220 
  202.8750   -27.5330     2.3300    78.1330    13.5180     8.8830    11.8630    24.3060 
  203.0000   -27.5920     2.3040    78.8010    14.2640     9.5230    13.4790    24.3590 
  203.1250   -27.5690     2.2920    78.0760    15.0470    10.2190    14.4610    24.4420 
