~V
VERS. 2.00: Ver 2.00
~W
STRT.M 53.0000:
STOP.M 269.0000:
STEP.M 0.1250:
NULL. -999.2500:
UWI. F10224:
~C
DEPT.M :
DEN.GM/CC :
GR.API :
RML.OHMM :
RI. :
RXO.OHMM :
CALI.CM :
SP.MV :
~A
# ...
  187.8750     2.1840    55.8100   270.9790   258.0760    95.4450    23.2820   -36.5540 
  188.0000     2.1860    56.1150   279.9180   266.5880    71.0580    22.9480   -36.5280 
  188.1250     2.1910    52.8870   287.5300   273.8380    66.7100    22.6110   -36.5140 
  188.2500     2.1970    52.1340   294.1320   280.1250    70.0650    22.2430   -36.4730 
  188.3750     2.2020    54.1210   301.1260   286.7870    81.3560    22.0650   -36.3900 
  188.5000     2.2040    54.8620   310.7850   295.9860   102.2540    22.1880   -36.3070 
  188.6250     2.2050    54.1880   326.1340   310.6040   133.9220    22.5030   -36.2200 
  188.7500     2.2070    54.5370   346.8600   330.3430   167.3880    22.8150   -36.1700 
  188.8750     2.2070    55.5090   371.1840   353.5090   176.8250    23.0340   -36.1390 
  189.0000     2.2010    55.6070   395.1570   376.3400   153.8260    22.9480   -36.0500 
  189.1250     2.1890    54.2640   410.5980   391.0450   138.8720    22.6910   -35.8730 
  189.2500     2.1760    54.5410   409.4230   389.9270   151.6640    22.8390   -35.6920 
  189.3750     2.1650    56.6400   382.3700   364.1620   187.9840    23.3310   -35.5660 
  189.5000     2.1610    58.7280   325.2210   309.7340   227.3790    23.8920   -35.5180 
  189.6250     2.1680    59.2080   246.6730   234.9260   249.8960    24.3100   -35.5060 
  189.7500     2.1860    57.1090   172.8990   164.6660   252.2060    24.5420   -35.4120 
  189.8750     2.2130    55.8990   117.5250   111.9290   205.7320    24.6620   -35.2220 
  190.0000     2.2430    58.6990    82.6120    78.6780   121.9470    24.7110   -35.0040 
  190.1250     2.2730    65.2770    65.7520    62.6200    62.0590    24.7380   -34.8680 
  190.2500     2.3040    68.9330    58.7300    55.9330    40.2100    24.7690   -34.7930 
  190.3750     2.3260    66.9680    58.0870    55.3210    40.1540    24.6520   -34.7030 
  190.5000     2.3260    62.5940    61.5700    58.6380    56.7390    24.4130   -34.5270 
  190.6250     2.3110    57.9380    67.4600    64.2480    79.7310    24.1330   -34.2950 
  190.7500     2.2990    53.4840    73.3940    69.8990    81.3690    23.9880   -34.1280 
  190.8750     2.2940    51.6430    77.9880    74.2750    75.2320    24.0320   -34.0360 
  191.0000     2.2830    54.3340    80.6310    76.7910    78.3820    24.2170   -33.9760 
  191.1250     2.2570    60.6940    81.2590    77.3900    89.6980    24.3330   -33.8450 
  191.2500     2.2310    65.5620    80.8450    76.9950    89.6030    24.3610   -33.6460 
  191.3750     2.2210    68.6740    80.1600    76.3430    78.9520    24.3430   -33.4600 
  191.5000     2.2270    69.5010    80.1370    76.3210    71.8900    24.3400   -33.3430 
  191.6250     2.2410    67.5580    82.1880    78.2750    72.7150    24.3340   -33.2440 
  191.7500     2.2490    65.2600    86.6030    82.4790    78.9070    24.3590   -33.0310 
  191.8750     2.2490    63.7300    92.7270    88.3110    89.7660    24.3640   -32.7290 
  192.0000     2.2510    60.9420    98.7100    94.0100   106.5840    24.3440   -32.3990 
  192.1250     2.2610    55.5620   101.3320    96.5060   125.2410    24.2380   -32.1380 
  192.2500     2.2760    51.8390    99.2700    94.5420   138.1460    24.0960   -31.9270 
  192.3750     2.2930    53.5800    92.8370    88.4160   134.0310    24.0080   -31.6890 
  192.5000     2.3040    58.0500    83.7880    79.7980   111.4350    23.9990   -31.3820 
  192.6250     2.3030    60.8090    74.3690    70.8280    89.9160    24.0990   -31.0170 
  192.7500     2.2930    61.0390    66.0980    62.9510    74.8010    24.1840   -30.7450 
  192.8750     2.2840    60.7850    56.4240    56.6880    65.0020    24.2280   -30.5540 
  193.0000     2.2830    63.4640    51.3590    52.2360    58.3500    24.2290   -30.4100 
  193.1250     2.2860    69.6750    49.4740    49.8170    52.3590    24.1980   -30.2220 
  193.2500     2.2810    75.7240    49.0070    48.8750    48.4400    24.1900   -29.9520 
  193.3750     2.2660    77.5720    49.6020    49.0580    48.8010    24.2310   -29.6540 
  193.5000     2.2480    75.0400    50.8080    49.9330    52.5450    24.2690   -29.4020 
  193.6250     2.2390    73.8710    52.1250    50.9990    54.6360    24.2470   -29.2390 
  193.7500     2.2370    75.4200    53.2020    51.8350    52.6210    24.1910   -29.0390 
  193.8750     2.2360    78.2120    53.9930    52.3430    50.8120    24.1260   -28.7710 
  194.0000     2.2360    79.0160    54.5770    52.5840    52.5150    24.0340   -28.4390 
  194.1250     2.2450    76.6390    54.9600    52.5880    55.0070    23.9680   -28.1000 
  194.2500     2.2670    73.8350    55.0210    52.3340    55.3990    23.8060   -27.8530 
  194.3750     2.2960    70.7980    54.5250    51.6740    55.5350    23.5290   -27.6460 
  194.5000     2.3210    67.5700    53.3630    50.5130    54.5020    23.3830   -27.3940 
  194.6250     2.3390    66.5530    51.7150    48.9190    49.9900    23.6430   -27.0670 
  194.7500     2.3590    67.9140    50.2510    47.3950    48.4420    23.8710   -26.7800 
  194.8750     2.3910    67.7000    49.4620    46.4070    51.8600    23.9450   -26.5490 
  195.0000     2.4380    65.0500    49.3430    46.0980    58.3970    23.9630   -26.3490 
  195.1250     2.4900    64.9810    48.9500    45.8390    70.7290    23.8890   -26.1040 
  195.2500     2.5210    65.1820    46.9240    44.3550    96.9150    23.7270   -25.7720 
  195.3750     2.5240    62.2730    42.5900    40.8190   134.9190    23.6020   -25.4050 
  195.5000     2.5170    59.5070    36.4750    35.4610   120.5170    23.5030   -25.1030 
  195.6250     2.5120    64.5740    30.1480    29.5800    58.1000    23.1830   -24.8780 
  195.7500     2.4990    72.2490    24.9890    24.5760    29.1440    22.6360   -24.6170 
  195.8750     2.4750    75.9870    21.3590    20.8850    20.2550    22.2360   -24.3220 
  196.0000     2.4630    77.0010    19.0810    18.4090    19.8250    22.0340   -23.9940 
  196.1250     2.4810    78.2370    17.8600    16.9420    21.2220    21.9960   -23.7350 
  196.2500     2.5100    79.8760    17.0730    15.9700    20.3920    22.0180   -23.5720 
  196.3750     2.5320    80.3580    16.4080    15.2300    18.8220    22.2560   -23.4640 
  196.5000     2.5400    80.6150    15.7720    14.5900    17.8270    22.8470   -23.3150 
  196.6250     2.5440    82.1670    15.4120    14.1670    17.2190    23.4260   -23.1270 
  196.7500     2.5560    82.6450    15.5800    14.1110    16.5460    23.7840   -22.9810 
  196.8750     2.5730    81.4360    16.3760    14.5010    16.1590    23.9150   -22.8960 
  197.0000     2.5930    78.2990    17.6590    15.2670    16.7110    23.9480   -22.8930 
  197.1250     2.6200    73.2920    18.8840    16.0810    19.7820    23.9370   -22.8720 
  197.2500     2.6580    66.9860    19.2050    16.3340    24.1170    23.8900   -22.8050 
  197.3750     2.7020    59.3480    18.0290    15.5580    24.5850    23.8140   -22.7390 
  197.5000     2.7390    53.5760    15.4790    13.7800    19.7750    23.7400   -22.7090 
  197.6250     2.7370    52.5520    12.4510    11.5720    14.9650    23.7890   -22.6600 
  197.7500     2.6890    52.6560     9.9390     9.6310    11.8270    23.9870   -22.5300 
  197.8750     2.6110    52.8290     8.2660     8.2240     9.2630    24.3230   -22.3030 
  198.0000     2.5300    53.4510     7.3900     7.3960     7.3030    24.5130   -21.9750 
  198.1250     2.4650    52.4130     7.1880     7.1510     6.7860    24.5600   -21.6770 
  198.2500     2.4140    47.6020     7.3670     7.2910     6.9500    24.6100   -21.4390 
  198.3750     2.3570    43.3330     7.8010     7.7050     7.1690    24.5060   -21.2210 
  198.5000     2.2920    45.4950     8.3470     8.2460     7.1410    24.4610   -20.9850 
  198.6250     2.2470    48.7320     8.7470     8.6510     7.2180    24.4620   -20.7790 
  198.7500     2.2510    46.9710     8.7150     8.6430     7.5590    24.5020   -20.6500 
  198.8750     2.3000    43.3070     8.0430     8.0270     7.8210    24.4610   -20.6390 
  199.0000     2.3670    42.8550     6.7700     6.8460     7.4690    24.3930   -20.7730 
