~V
VERS. 2.00: Ver 2.00
~W
STRT.M 50.0000:
STOP.M 270.0000:
STEP.M 0.1250:
NULL. -999.2500:
UWI. F10223:
~C
DEPT.M :
GR.API :
RML.OHMM :
RI. :
RXO.OHMM :
CALI.CM :
DEN.GM/CC :
SP.MV :
~A
# ...
  173.7500    62.3560    79.3640    74.6070    76.0900    24.0840     2.2810   -35.5670 
  173.8750    63.8420    79.1990    74.2180    75.8310    24.0610     2.2780   -35.5370 
  174.0000    66.9690    79.2560    73.7640    65.4900    24.0150     2.2800   -35.5290 
  174.1250    67.4350    81.3200    74.7920    57.8390    23.9960     2.2860   -35.5830 
  174.2500    65.5430    86.1810    78.2010    58.3530    24.0030     2.2920   -35.6960 
  174.3750    63.5330    93.9740    84.3030    70.3520    24.0270     2.2960   -35.8170 
  174.5000    63.4240   104.0090    92.6510    88.9240    24.0890     2.2980   -35.9350 
  174.6250    65.7170   114.6770   101.9460   111.5310    24.1780     2.3020   -36.0570 
  174.7500    66.9230   124.0080   110.2610   131.2770    24.3120     2.3100   -36.1510 
  174.8750    65.7610   131.3040   116.7450   133.5790    24.4010     2.3250   -36.2310 
  175.0000    64.0440   137.0650   121.6810   126.6850    24.3670     2.3490   -36.2870 
  175.1250    63.2090   141.9560   125.6940   125.9990    24.2880     2.3680   -36.2910 
  175.2500    62.6170   145.5890   128.7490   133.7100    24.2010     2.3620   -36.2580 
  175.3750    62.0350   146.2040   129.6000   145.6710    24.1340     2.3290   -36.2210 
  175.5000    63.7710   141.9270   126.6790   152.6700    24.0340     2.2970   -36.1870 
  175.6250    67.2490   131.9130   118.8000   146.4830    23.9710     2.2850   -36.1450 
  175.7500    67.1950   119.9770   108.6630   126.5530    23.9240     2.2860   -36.1060 
  175.8750    62.5000   109.7630    99.3080   104.3680    23.9010     2.2940   -36.0860 
  176.0000    57.4600   103.9610    93.3140    88.5960    23.8390     2.3080   -36.0990 
  176.1250    56.7420   105.0500    93.2210    80.6960    23.6690     2.3230   -36.1440 
  176.2500    57.6660   112.3450    98.8630    88.0540    23.5780     2.3260   -36.2010 
  176.3750    57.9460   124.8450   109.6700   113.2410    23.5680     2.3120   -36.2580 
  176.5000    57.7090   139.6440   123.3070   144.7350    23.6120     2.2860   -36.2970 
  176.6250    56.8490   149.6600   133.8910   165.7590    23.6880     2.2680   -36.3040 
  176.7500    55.3580   149.1700   135.9750   171.2790    23.7580     2.2630   -36.2750 
  176.8750    55.2450   138.0880   128.3940   155.4640    23.8090     2.2660   -36.1900 
  177.0000    57.2930   122.0410   114.9990   121.3680    23.8690     2.2740   -36.0630 
  177.1250    59.6350   108.2330   102.0450    85.9280    23.8940     2.2860   -35.9020 
  177.2500    60.7270    99.3420    93.0080    67.5160    23.9000     2.3000   -35.7230 
  177.3750    60.2960    95.2740    88.3230    73.1690    23.9090     2.3140   -35.5480 
  177.5000    59.0280    95.0490    87.3150    91.7010    23.9420     2.3230   -35.3830 
  177.6250    57.2650    97.6940    89.2330   107.9140    24.0440     2.3220   -35.2490 
  177.7500    55.6380   101.4450    92.4640   103.3730    24.1340     2.3140   -35.1650 
  177.8750    52.9230   105.2370    96.0120    98.9170    24.1250     2.3040   -35.1260 
  178.0000    51.4640   108.1840    99.0060   101.4780    24.0540     2.2950   -35.1180 
  178.1250    53.2980   109.2640   100.4670   122.5750    24.0640     2.2880   -35.1230 
  178.2500    54.7740   108.2140   100.0450   124.6970    24.1340     2.2820   -35.1380 
  178.3750    53.7440   104.9990    97.5680   105.6770    24.1510     2.2770   -35.1390 
  178.5000    54.0920   100.2590    93.4730    91.9830    24.1450     2.2780   -35.1210 
  178.6250    57.7720    95.3600    88.9110    89.5280    24.2210     2.2850   -35.0960 
  178.7500    59.7390    91.6580    85.2670    89.6290    24.3770     2.2950   -35.0410 
  178.8750    58.9000    89.7580    83.2440    87.1700    24.4880     2.2990   -34.9620 
  179.0000    59.5470    89.6780    82.9960    85.6130    24.5160     2.2970   -34.8560 
  179.1250    63.1470    91.1870    84.4460    86.2900    24.5100     2.2920   -34.7270 
  179.2500    66.1280    93.4850    86.8710    89.5090    24.4800     2.2870   -34.5860 
  179.3750    67.4870    96.1720    89.9080    94.0440    24.4320     2.2830   -34.4590 
  179.5000    67.4550    98.9770    93.2820    98.2700    24.3510     2.2790   -34.3590 
  179.6250    66.3590   101.7610    96.7870    99.2130    24.3590     2.2750   -34.2670 
  179.7500    65.0410   104.3060   100.1760   100.0910    24.4580     2.2720   -34.1960 
  179.8750    64.0460   105.7260   102.7340   103.5370    24.5950     2.2680   -34.1570 
  180.0000    61.6400   104.0450   102.6050   109.0140    24.7660     2.2640   -34.1550 
  180.1250    58.2580    96.1220    96.3590   116.5450    24.9260     2.2550   -34.1940 
  180.2500    58.9470    83.1920    84.6460   120.3200    25.0860     2.2430   -34.2490 
  180.3750    65.3160    68.2360    70.2070   111.9710    25.1950     2.2350   -34.2940 
  180.5000    71.7120    54.6300    56.5730    80.8960    25.2010     2.2350   -34.3360 
  180.6250    72.5650    45.1120    46.7570    55.5010    25.1310     2.2420   -34.3700 
  180.7500    72.2130    39.4720    40.7070    48.2460    25.0790     2.2530   -34.4050 
  180.8750    72.6770    37.2730    37.9400    49.0440    25.0280     2.2640   -34.4340 
  181.0000    73.7720    38.0520    37.9690    37.7870    24.9770     2.2750   -34.4610 
  181.1250    73.0800    41.8580    40.9750    31.5730    24.9820     2.2850   -34.5060 
  181.2500    70.8270    47.8060    46.3440    37.5970    24.9610     2.2960   -34.5730 
  181.3750    66.0870    55.2740    53.6590    53.0970    24.8120     2.3030   -34.6810 
  181.5000    60.7700    63.3740    62.1200    69.1640    24.6300     2.3040   -34.8250 
  181.6250    60.5380    70.6840    70.2730    77.3870    24.5780     2.3020   -35.0120 
  181.7500    63.6810    76.0470    76.5690    78.4000    24.5970     2.3000   -35.2390 
  181.8750    66.4590    78.9220    80.1090    79.1160    24.6370     2.2980   -35.4930 
  182.0000    65.3840    79.6240    81.0280    80.2050    24.7410     2.2960   -35.7740 
  182.1250    62.7640    78.9870    80.1000    80.4890    24.8810     2.2960   -36.0850 
  182.2500    63.1470    78.1890    78.6910    78.9830    24.8800     2.2970   -36.4050 
  182.3750    64.3220    77.8290    77.5020    71.0130    24.6380     2.2960   -36.7290 
  182.5000    64.2760    78.3510    77.0460    60.5270    24.4300     2.2920   -37.0480 
  182.6250    62.7860    80.3520    77.9820    59.2740    24.4510     2.2860   -37.3460 
  182.7500    62.1130    83.8120    80.3900    78.5260    24.5510     2.2810   -37.6200 
  182.8750    61.9100    88.7150    84.3180    93.3950    24.6340     2.2770   -37.8620 
  183.0000    62.7140    94.9080    89.6690    97.0190    24.7270     2.2740   -38.0820 
  183.1250    65.8400   102.1210    96.2750   103.3170    24.6960     2.2700   -38.2710 
  183.2500    67.8700   109.5280   103.2970   104.5130    24.6410     2.2650   -38.4720 
  183.3750    65.6790   116.4540   110.0100   102.4930    24.5060     2.2560   -38.6860 
  183.5000    62.7810   122.3440   115.7800    97.3260    24.3080     2.2460   -38.9160 
  183.6250    64.8170   126.7150   120.0170    90.5590    24.1530     2.2430   -39.1600 
  183.7500    67.2170   130.0190   123.0540    85.1370    24.0640     2.2460   -39.4240 
  183.8750    65.6860   132.7850   125.3640    83.2820    24.0170     2.2530   -39.7080 
  184.0000    62.3730   135.4620   127.4220    82.6660    23.9660     2.2600   -40.0000 
  184.1250    62.6480   138.0900   129.3600    80.9600    23.8510     2.2680   -40.2780 
  184.2500    64.4070   140.3950   131.0130    78.4030    23.7160     2.2740   -40.5140 
  184.3750    64.4170   142.2770   132.2910    78.1460    23.6280     2.2780   -40.7090 
  184.5000    64.5210   144.1460   133.4860    77.3200    23.5780     2.2790   -40.8640 
  184.6250    64.7410   147.4350   135.7370    72.9340    23.5020     2.2780   -40.9960 
  184.7500    62.5400   153.5820   140.3340    68.2630    23.4160     2.2760   -41.0730 
  184.8750    58.3030   163.9400   148.5830    68.6600    23.3650     2.2750   -41.1000 
