~V
VERS. 2.00: Ver 2.00
~W
STRT.M 50.0000:
STOP.M 278.0000:
STEP.M 0.1250:
NULL. -999.2500:
UWI. F10217:
~C
DEPT.M :
SP.MV :
DEN.GM/CC :
GR.API :
RML.OHMM :
RI. :
RXO.OHMM :
CALI.CM :
~A
   50.0000    92.1750  -999.2500  -999.2500  -999.2500  -999.2500  -999.2500  -999.2500 
   50.1250    92.9400  -999.2500  -999.2500  -999.2500  -999.2500  -999.2500  -999.2500 
   50.2500    93.6580  -999.2500  -999.2500  -999.2500  -999.2500  -999.2500  -999.2500 
   50.3750    94.3270  -999.2500  -999.2500  -999.2500  -999.2500  -999.2500  -999.2500 
   50.5000    94.9460  -999.2500  -999.2500  -999.2500  -999.2500  -999.2500  -999.2500 
   50.6250    95.4310  -999.2500  -999.2500  -999.2500  -999.2500  -999.2500  -999.2500 
   50.7500    95.7520  -999.2500  -999.2500  -999.2500  -999.2500  -999.2500  -999.2500 
   50.8750    95.8840  -999.2500  -999.2500  -999.2500  -999.2500  -999.2500  -999.2500 
   51.0000    95.8550  -999.2500  -999.2500  -999.2500  -999.2500  -999.2500  -999.2500 
   51.1250    95.7110  -999.2500  -999.2500  -999.2500  -999.2500  -999.2500  -999.2500 
   51.2500    95.5290  -999.2500  -999.2500  -999.2500  -999.2500  -999.2500  -999.2500 
   51.3750    95.3240  -999.2500  -999.2500  -999.2500  -999.2500  -999.2500  -999.2500 
   51.5000    95.1170  -999.2500  -999.2500  -999.2500  -999.2500  -999.2500  -999.2500 
   51.6250    94.9630  -999.2500  -999.2500  -999.2500  -999.2500  -999.2500  -999.2500 
   51.7500    94.9160  -999.2500  -999.2500  -999.2500  -999.2500  -999.2500  -999.2500 
   51.8750    95.0100  -999.2500  -999.2500  -999.2500  -999.2500  -999.2500  -999.2500 
   52.0000    95.2080  -999.2500  -999.2500  -999.2500  -999.2500  -999.2500  -999.2500 
   52.1250    95.5060  -999.2500  -999.2500  -999.2500  -999.2500  -999.2500  -999.2500 
   52.2500    95.8370  -999.2500  -999.2500  -999.2500  -999.2500  -999.2500  -999.2500 
   52.3750    96.1770  -999.2500    43.5730 14513.9420     0.2690     0.5030    25.2660 
   52.5000    96.5210  -999.2500    43.5730 14513.9420     0.2690     0.5030    25.2660 
   52.6250    96.8500  -999.2500    46.3150 14513.9420     0.2480     0.9030    25.2660 
   52.7500    97.1280  -999.2500    46.8100 14513.9420     0.2340     0.9080    25.2670 
   52.8750    97.3230  -999.2500    44.8530 14513.9420     0.2310     0.5810    25.2690 
   53.0000    97.4180  -999.2500    42.3690 14513.9420     0.2350     0.6040    25.2700 
   53.1250    97.3860  -999.2500    40.1500 14513.9420     0.2430     0.7930    25.2690 
   53.2500    97.3080  -999.2500    37.2650 14513.9420     0.2510     0.9890    25.2670 
   53.3750    97.1940     2.0920    34.7960 14513.9420     0.2560     1.2260    25.2660 
   53.5000    97.0330     2.0920    34.8380 14513.9420     0.2600     1.5810    25.2660 
   53.6250    96.8610     2.0970    37.7460 14513.9420     0.2600     1.3640    25.2660 
   53.7500    96.7040     2.0970    39.5670 14513.9420     0.2600     0.8850    25.2680 
   53.8750    96.5700     2.0940    38.7550 14513.9420     0.2620     0.6330    25.2690 
   54.0000    96.4900     2.0870    37.3030 14513.9420     0.2680     0.5210    25.2680 
   54.1250    96.4230     2.0800    38.8090 14513.9420     0.2760     0.6190    25.2680 
   54.2500    96.3280     2.0760    41.0020 14513.9420     0.2810     0.7280    25.2670 
   54.3750    96.2250     2.0770    40.4640 14513.9420     0.2780     0.7240    25.2670 
   54.5000    96.0750     2.0810    38.0860 14513.9420     0.2680     0.6650    25.2690 
   54.6250    95.8130     2.0860    36.3740 14513.9420     0.2500     0.6450    25.2680 
   54.7500    95.3850     2.0910    34.7490 14513.9420     0.2350     0.7040    25.2670 
   54.8750    94.8030     2.0950    32.6560 14513.9420     0.2270     0.9120    25.2660 
   55.0000    94.1160     2.0980    32.8390 14513.9420     0.2270     1.3610    25.2660 
   55.1250    93.3590     2.1010    38.0630 14513.9420     0.2310     1.0100    25.2660 
   55.2500    92.5380     2.1010    42.8400 14513.9420     0.2360     0.6130    25.2670 
   55.3750    91.6440     2.0940    43.6990  3844.8750     0.2410     0.3300    25.2670 
   55.5000    90.7040     2.0800    40.6260    38.6070     0.2480     0.2720    25.2660 
   55.6250    89.7640     2.0620    38.0270     8.6090     0.2560     0.5130    25.2660 
   55.7500    88.9190     2.0440    38.2840     2.8230     0.2580     1.8910    25.2660 
   55.8750    88.1650     2.0290    39.4800     1.1630     0.2530     6.8470    25.2660 
   56.0000    87.4510     2.0180    39.8200     0.5560     0.2420     7.9750    25.2680 
   56.1250    86.7960     2.0120    37.7540     0.3310     0.2320     2.1420    25.2670 
   56.2500    86.2030     2.0110    35.0660     0.2170     0.2290     0.8590    25.2670 
   56.3750    85.7050     2.0160    34.1370     0.1510     0.2320     0.4850    25.2670 
   56.5000    85.3510     2.0250    36.5750     0.1100     0.2320     0.5110    25.2660 
   56.6250    85.1530     2.0360    41.2600     0.0960     0.2260     0.4930    25.2660 
   56.7500    85.0490     2.0440    42.6590     0.1090     0.2230     0.4540    25.2660 
   56.8750    85.0510     2.0460    40.2120     0.1390     0.2240     0.4320    25.2670 
   57.0000    85.1560     2.0430    36.8960     0.1620     0.2300     0.4880    25.2670 
   57.1250    85.3480     2.0390    35.9410     0.1730     0.2390     0.7740    25.2660 
   57.2500    85.6290     2.0390    36.0130     0.1970     0.2480     1.1050    25.2660 
   57.3750    85.9330     2.0430    37.3410     0.2650     0.2550     1.1310    25.2670 
   57.5000    86.2060     2.0490    40.5590     0.4390     0.2650     1.1190    25.2690 
   57.6250    86.4670     2.0520    43.0240     0.9490     0.2780     1.7960    25.2690 
   57.7500    86.6670     2.0510    43.6750     1.7460     0.2910     2.0300    25.2680 
   57.8750    86.7660     2.0480    43.5070     2.0540     0.2980     1.4610    25.2670 
   58.0000    86.7800     2.0460    43.7020     1.7060     0.3000     0.7580    25.2660 
   58.1250    86.7060     2.0500    42.8750     1.3490     0.3070     0.6220    25.2660 
   58.2500    86.5570     2.0580    41.1140     1.2040     0.3280     0.6250    25.2670 
   58.3750    86.3340     2.0670    39.7220     1.5890     0.3590     0.6940    25.2680 
   58.5000    86.0590     2.0750    38.4970     5.0120     0.3800     0.7090    25.2690 
   58.6250    85.6900     2.0800    37.1240   153.9050     0.3700     0.8330    25.2670 
   58.7500    85.2660     2.0840    36.8590  6039.4330     0.3410     1.3060    25.2650 
   58.8750    84.7820     2.0880    38.1630 13774.9650     0.3100     4.2970    25.2630 
   59.0000    84.1860     2.0910    39.0170 14513.9420     0.2980     9.8680    25.2600 
   59.1250    83.3970     2.0890    38.4180 14513.9420     0.3050     7.0600    25.2620 
   59.2500    82.3970     2.0830    37.9780 14513.9420     0.3130     2.2600    25.2640 
   59.3750    81.1460     2.0760    38.5500 14513.9420     0.3080     1.4450    25.2650 
   59.5000    79.5590     2.0700    40.1750 14513.9420     0.2910     1.5220    25.2660 
   59.6250    77.4690     2.0680    41.8250 14513.9420     0.2730     1.3460    25.2660 
   59.7500    74.8530     2.0690    41.7890 14513.9420     0.2610     1.5110    25.2660 
   59.8750    71.6250     2.0680    40.6060 14513.9420     0.2510     1.0780    25.2660 
   60.0000    67.7120     2.0670    40.2460    40.1550     0.2340     0.8100    25.2670 
   60.1250    62.8360     2.0830    40.6090     5.3360     0.2080     0.8850    25.2650 
   60.2500    56.9120     2.1390    40.5870     1.2130     0.1870     0.6620    25.2630 
   60.3750    49.8260     2.2530    41.9000     0.3410     0.1790     0.6140    25.2700 
   60.5000    41.5280     2.4180    48.0800     0.1100     0.1850     0.6250    25.2850 
   60.6250    31.9720     2.5740    57.9520     0.0710     0.2030     1.2600    25.2960 
   60.7500    21.7380     2.6360    65.3100     0.1070     0.2480     2.3340    25.3720 
   60.8750    11.4070     2.5680    68.4400     0.2120     0.3720     3.8450    25.6030 
   61.0000     1.4220     2.4040    68.9480     0.4130     0.6590     5.6580    26.0200 
   61.1250    -7.7070     2.2080    69.9570     0.8310     1.2820     6.4670    26.1750 
