~V
VERS. 2.00: Ver 2.00
~W
STRT.M 50.0000:
STOP.M 275.0000:
STEP.M 0.1250:
NULL. -999.2500:
UWI. F10202:
~C
DEPT.M :
GR.API :
RML.OHMM :
RI. :
RXO.OHMM :
CALI.CM :
SP.MV :
DEN.GM/CC :
~A
# ...
  185.0000    79.4390   148.5480   139.4270   100.2070    24.6780   -25.4700     2.2370 
  185.1250    70.2440   161.9290   152.6990   120.6330    24.6870   -25.0380     2.2330 
  185.2500    64.4960   174.3320   165.7650   159.9680    24.7270   -24.3770     2.2280 
  185.3750    65.0390   181.9570   174.4100   200.4710    24.2900   -23.7620     2.2220 
  185.5000    66.3060   181.2650   174.2330   207.8320    24.0000   -23.2850     2.2150 
  185.6250    67.5430   169.9490   162.2700   155.4690    24.0000   -22.9340     2.2110 
  185.7500    70.6140   153.1180   144.3540    56.9570    23.9330   -22.5400     2.2120 
  185.8750    72.9460   136.2550   126.7400    27.3830    23.8670   -22.0870     2.2210 
  186.0000    72.3720   124.5040   114.7950    33.1350    23.8670   -21.5820     2.2330 
  186.1250    71.9950   122.7470   113.0660    48.0970    23.8300   -21.2460     2.2410 
  186.2500    72.6990   130.1980   120.5430    73.6350    24.1140   -21.1210     2.2390 
  186.3750    71.7050   145.1090   135.7260   110.3420    24.1090   -21.1790     2.2270 
  186.5000    68.1610   163.7160   155.1030   171.8760    24.1380   -21.2650     2.2110 
  186.6250    65.9710   179.4280   171.8490   211.5540    24.2250   -21.4450     2.1990 
  186.7500    66.1650   186.6650   179.6900   203.1590    24.4180   -21.9630     2.1910 
  186.8750    67.0420   182.6390   175.5680   172.8960    24.7160   -22.6150     2.1880 
  187.0000    72.0090   167.8710   160.3020   149.4920    25.0370   -23.2120     2.1890 
  187.1250    78.0010   145.1200   137.3060   141.1900    25.2110   -23.5580     2.1980 
  187.2500    78.3070   120.4650   112.9330   131.2880    25.2480   -23.7400     2.2200 
  187.3750    73.7050    97.3890    90.5720   107.2830    25.2210   -23.8480     2.2550 
  187.5000    69.3520    77.9640    72.0700    67.8500    25.1750   -23.8590     2.2970 
  187.6250    70.6740    63.6960    58.7040    51.5470    25.1560   -23.4390     2.3320 
  187.7500    74.0940    53.6200    49.3650    45.1000    25.1830   -22.4640     2.3530 
  187.8750    76.6000    47.1750    43.4390    41.3620    25.2500   -21.3330     2.3570 
  188.0000    73.9880    43.7760    40.3540    37.8060    25.3120   -20.4410     2.3500 
  188.1250    75.0230    43.2450    39.9700    35.3450    25.2980   -20.0260     2.3390 
  188.2500    87.9970    44.5950    41.4100    36.3910    25.2840   -19.8060     2.3290 
  188.3750    98.7400    47.2060    44.1120    45.7390    25.2800   -19.7190     2.3200 
  188.5000    92.7300    50.3190    47.3240    61.5520    25.2860   -19.9100     2.3140 
  188.6250    77.6850    53.0100    50.0360    66.4690    25.3080   -20.4300     2.3090 
  188.7500    70.1870    54.8260    51.7270    59.8950    25.3450   -21.1940     2.3070 
  188.8750    69.2770    55.8690    52.5030    53.4400    25.3790   -22.0460     2.3070 
  189.0000    67.5700    56.7150    53.0150    50.8060    25.3890   -22.8700     2.3070 
  189.1250    68.6650    58.3870    54.3910    43.6940    25.3810   -23.5990     2.3030 
  189.2500    70.8470    61.4400    57.2460    43.0080    25.3970   -24.3010     2.2950 
  189.3750    73.1310    65.9250    61.6590    55.3750    25.4280   -24.6960     2.2810 
  189.5000    73.8820    71.2910    67.0900    70.4280    25.4830   -24.7130     2.2660 
  189.6250    72.4870    76.2050    72.1870    73.5080    25.5380   -24.7100     2.2550 
  189.7500    70.7930    79.2320    75.4030    72.0700    25.5590   -24.6700     2.2500 
  189.8750    69.4110    79.3570    75.6340    67.8520    25.5560   -24.6220     2.2520 
  190.0000    68.7700    76.2200    72.4990    66.0100    25.5770   -24.5180     2.2610 
  190.1250    68.7600    69.9230    66.1590    66.1810    25.6480   -24.4520     2.2760 
  190.2500    70.0400    62.1590    58.4070    67.1490    25.7120   -24.5450     2.2930 
  190.3750    74.4860    54.1850    50.5460    65.7940    25.7380   -24.8530     2.3090 
  190.5000    81.0750    47.0500    43.6190    62.3290    25.7480   -25.2620     2.3250 
  190.6250    84.2290    41.7340    38.5540    52.9660    25.7650   -25.5840     2.3380 
  190.7500    81.1310    38.2410    35.2770    41.7020    25.7630   -26.0130     2.3500 
  190.8750    75.3990    36.5440    33.7140    32.9790    25.7270   -26.5330     2.3580 
  191.0000    71.6210    36.5280    33.7310    30.8900    25.6180   -27.0200     2.3600 
  191.1250    72.1070    38.2670    35.4240    32.5520    25.3620   -27.2700     2.3540 
  191.2500    72.8450    41.1840    38.3240    33.5400    25.0380   -27.3220     2.3410 
  191.3750    74.1430    44.6640    41.9210    38.7190    24.8530   -27.2050     2.3260 
  191.5000    76.5930    47.6750    45.2270    53.0490    24.8950   -26.8980     2.3130 
  191.6250    77.6200    48.4210    46.3160    61.7270    25.0440   -26.3880     2.3070 
  191.7500    75.5810    46.1060    44.1510    54.8170    25.0800   -25.7080     2.3080 
  191.8750    73.5420    40.6470    38.6630    45.3080    25.0250   -24.8530     2.3160 
  192.0000    77.5920    32.9710    31.0810    33.2440    24.9890   -23.8160     2.3260 
  192.1250    84.3340    24.9930    23.6010    27.6410    25.1000   -22.5780     2.3320 
  192.2500    89.6430    18.7550    17.8440    21.1190    25.2620   -21.1490     2.3300 
  192.3750    95.2580    15.2860    14.2880    13.1550    25.3330   -19.8610     2.3170 
  192.5000   100.1110    14.8450    12.9330     8.6220    25.3090   -19.0190     2.3010 
  192.6250    99.9310    17.8690    14.3280     8.9820    25.2490   -18.5880     2.2960 
  192.7500    95.2250    23.9700    18.7970    15.5930    25.2030   -18.2250     2.3090 
  192.8750    87.6130    33.0590    27.2550    36.2180    25.1690   -17.8390     2.3340 
  193.0000    78.0650    44.0360    39.8500    71.9700    25.0840   -17.4990     2.3600 
  193.1250    69.9270    53.5990    53.8720    89.9290    24.9450   -17.2470     2.3760 
  193.2500    67.1730    58.1780    63.1890    73.2900    24.7450   -17.1260     2.3870 
  193.3750    68.9350    56.0400    63.5630    57.3650    24.5460   -17.1020     2.3990 
  193.5000    77.2140    48.1540    55.1880    49.6550    24.4950   -17.1690     2.4150 
  193.6250    89.2220    37.6760    42.4760    49.0890    24.6250   -17.2030     2.4300 
  193.7500    93.2610    28.3950    31.1390    45.6510    24.8760   -17.1570     2.4370 
  193.8750    86.6580    21.7420    23.0050    30.7830    24.9560   -17.1620     2.4330 
  194.0000    79.5440    17.8540    18.0320    15.3330    24.8480   -17.2970     2.4190 
  194.1250    80.4930    16.6030    15.8620    11.6150    24.7700   -17.6560     2.4010 
  194.2500    82.6310    17.1770    15.4850    11.7760    24.7860   -18.0390     2.3860 
  194.3750    81.7580    19.4800    16.7320    14.6810    24.7900   -18.2300     2.3750 
  194.5000    78.7270    23.6520    19.7840    24.7060    24.7450   -18.2250     2.3700 
  194.6250    82.6930    30.2830    25.5720    41.7430    24.7460   -18.1030     2.3740 
  194.7500    90.0820    38.8030    34.2190    48.5250    24.7780   -17.9930     2.3910 
  194.8750    87.6280    47.9240    45.2790    52.9600    24.7980   -17.8830     2.4320 
  195.0000    71.0870    55.0800    56.2450    69.1260    24.8470   -17.7060     2.4980 
  195.1250    55.1950    56.0140    60.9530   116.7020    24.8120   -17.3420     2.5820 
  195.2500    53.2160    50.2050    56.5130   133.5830    24.7480   -16.8120     2.6590 
  195.3750    57.6680    39.4150    44.4710    95.2590    24.7030   -16.1820     2.7140 
  195.5000    59.4640    27.1670    29.9300    52.3310    24.6930   -15.4300     2.7360 
  195.6250    58.8350    17.2760    18.4550    22.6060    24.7030   -14.7020     2.7160 
  195.7500    57.6400    10.6670    11.0610     9.9570    24.7190   -14.1570     2.6600 
  195.8750    56.6690     6.8250     6.7940     5.5800    24.7190   -13.8410     2.5810 
  196.0000    55.2720     4.7960     4.4400     4.0180    24.7020   -13.7150     2.4980 
  196.1250    54.3740     3.8960     3.2620     3.2900    24.6490   -13.7440     2.4400 
