~V
VERS. 2.00: Ver 2.00
~W
STRT.M 56.0000:
STOP.M 275.0000:
STEP.M 0.1250:
NULL. -999.2500:
UWI. F10253:
~C
DEPT.M :
GR.API :
RML.OHMM :
RI. :
RXO.OHMM :
CALI.CM :
DEN.GM/CC :
SP.MV :
~A
# ...
  247.2500    69.9180    56.4160    52.6780    30.4960    23.4040     2.2720    -6.1330 
  247.3750    68.7660    60.7140    56.0460    35.4710    23.5560     2.2800    -6.2380 
  247.5000    68.8100    66.2780    60.3820    42.0860    23.7100     2.3040    -6.3090 
  247.6250    68.3150    72.8380    65.5830    51.3040    23.7870     2.3470    -6.3570 
  247.7500    65.7370    79.4950    70.9500    64.3980    23.7400     2.4040    -6.3740 
  247.8750    63.0360    84.8470    75.3350    78.5490    23.6980     2.4620    -6.3610 
  248.0000    62.2950    88.3600    78.2750    87.3110    23.6820     2.5070    -6.2960 
  248.1250    64.3480    90.2780    79.9730    89.8390    23.7120     2.5320    -6.1990 
  248.2500    66.0450    91.3910    81.0980    86.6740    23.7170     2.5380    -6.0900 
  248.3750    61.9180    91.7980    81.7620    77.8260    23.7060     2.5250    -5.9630 
  248.5000    51.3470    90.1000    80.7000    74.1890    23.6470     2.5040    -5.8260 
  248.6250    38.4710    84.0600    75.8660    76.4700    23.6130     2.4910    -5.6710 
  248.7500    30.2840    72.0500    65.6170    80.3150    23.6450     2.4990    -5.5010 
  248.8750    30.6780    54.5980    50.0500    89.6790    23.6320     2.5360    -5.3050 
  249.0000    33.8170    37.2670    34.2510    86.3780    23.6200     2.5810    -5.1000 
  249.1250    36.3760    23.8270    21.9230    62.5130    23.6670     2.6090    -4.8810 
  249.2500    38.0890    15.1810    13.9870    31.3960    23.7300     2.5950    -4.6500 
  249.3750    39.6420    10.7710     9.8540    14.9900    23.7720     2.5330    -4.4280 
  249.5000    40.3630     8.5450     7.6400     7.9900    23.7900     2.4540    -4.2210 
  249.6250    39.9640     7.5860     6.5560     5.8550    23.7530     2.3830    -4.0410 
  249.7500    39.3730     7.3050     6.1220     5.4660    23.6690     2.3300    -3.8960 
  249.8750    38.5950     7.3550     6.0730     5.4760    23.6230     2.3010    -3.8020 
  250.0000    39.2340     7.4640     6.1470     5.4850    23.5770     2.2900    -3.7570 
  250.1250    42.7720     7.5250     6.2350     5.4870    23.5050     2.2900    -3.7440 
  250.2500    46.0800     7.5010     6.2810     5.3820    23.4650     2.2970    -3.7640 
  250.3750    44.4370     7.3920     6.2690     5.2810    23.4560     2.3040    -3.7880 
  250.5000    39.7870     7.2320     6.2210     5.2900    23.4930     2.3060    -3.8030 
  250.6250    37.7390     7.0560     6.1560     5.3940    23.5590     2.3020    -3.8220 
  250.7500    39.0140     6.9200     6.0830     5.5240    23.6130     2.2970    -3.8410 
  250.8750    39.2820     6.8150     6.0030     5.6270    23.6010     2.2980    -3.8520 
  251.0000    38.2560     6.7300     5.9170     5.7630    23.5730     2.3040    -3.8540 
  251.1250    37.1670     6.6630     5.8270     5.8810    23.5780     2.3150    -3.8340 
  251.2500    37.2120     6.5950     5.7380     5.8830    23.5920     2.3240    -3.8130 
  251.3750    38.6630     6.4980     5.6570     5.6560    23.6210     2.3280    -3.8610 
  251.5000    40.6980     6.4130     5.5870     5.4740    23.6580     2.3280    -3.9340 
  251.6250    42.6420     6.3510     5.5260     5.4770    23.6940     2.3270    -4.0150 
  251.7500    42.8380     6.2730     5.4760     5.5840    23.7020     2.3290    -4.0970 
  251.8750    42.1930     6.2160     5.4350     5.6810    23.6720     2.3360    -4.1270 
  252.0000    42.1340     6.1510     5.4030     5.7120    23.6260     2.3430    -4.1100 
  252.1250    42.5110     6.0890     5.3800     5.7730    23.5830     2.3480    -4.1080 
  252.2500    42.3200     6.0880     5.3610     5.8730    23.5540     2.3490    -4.1060 
  252.3750    42.2440     6.0980     5.3400     5.9490    23.5390     2.3480    -4.0440 
  252.5000    42.8390     6.0950     5.3110     5.9270    23.5560     2.3510    -3.9700 
  252.6250    43.1630     6.0740     5.2700     6.0780    23.6070     2.3560    -3.9100 
  252.7500    42.3090     6.0390     5.2160     6.2960    23.6430     2.3620    -3.8710 
  252.8750    41.3990     5.9970     5.1540     6.3440    23.6560     2.3650    -3.8790 
  253.0000    43.3820     5.9580     5.0940     6.2610    23.6620     2.3650    -3.9420 
  253.1250    47.2700     5.9310     5.0460     5.9800    23.6730     2.3610    -4.0100 
  253.2500    49.4870     5.9240     5.0170     5.5970    23.6910     2.3540    -4.0810 
  253.3750    47.3330     5.9530     5.0200     5.3350    23.6990     2.3450    -4.1460 
  253.5000    44.0830     6.0170     5.0520     5.1990    23.6630     2.3330    -4.2260 
  253.6250    41.8780     6.1020     5.1050     5.1330    23.6270     2.3180    -4.3150 
  253.7500    39.9850     6.1780     5.1590     5.1150    23.6270     2.3000    -4.3770 
  253.8750    39.6100     6.1970     5.1780     5.1240    23.6460     2.2840    -4.4620 
  254.0000    40.4830     6.1430     5.1460     5.1900    23.6170     2.2780    -4.5340 
  254.1250    41.5920     6.0290     5.0660     5.2170    23.5350     2.2850    -4.5930 
  254.2500    42.6580     5.8950     4.9610     5.1590    23.5010     2.3050    -4.6360 
  254.3750    43.3460     5.8040     4.8730     5.0180    23.5430     2.3340    -4.7180 
  254.5000    43.8320     5.7870     4.8330     5.0020    23.5650     2.3570    -4.7870 
  254.6250    44.3570     5.8400     4.8460     5.2450    23.5680     2.3650    -4.8160 
  254.7500    45.2320     5.9320     4.8980     5.7490    23.5830     2.3580    -4.8470 
  254.8750    45.3620     6.0070     4.9560     6.3430    23.5990     2.3410    -4.8720 
  255.0000    45.2640     6.0310     4.9870     6.5800    23.6110     2.3240    -4.8970 
  255.1250    46.6740     5.9970     4.9780     6.0890    23.6020     2.3100    -4.9590 
  255.2500    48.5650     5.9240     4.9350     5.5050    23.5550     2.3030    -5.0150 
  255.3750    48.3870     5.8430     4.8760     5.0990    23.4730     2.3080    -5.0200 
  255.5000    46.5970     5.7790     4.8200     4.8770    23.4130     2.3230    -5.0410 
  255.6250    45.1970     5.7400     4.7770     4.8090    23.4120     2.3440    -5.0930 
  255.7500    45.5760     5.7220     4.7490     4.8770    23.4750     2.3600    -5.1400 
  255.8750    46.5830     5.7240     4.7360     4.9630    23.5920     2.3580    -5.1330 
  256.0000    45.9730     5.7380     4.7340     5.0150    23.6990     2.3390    -5.0950 
  256.1250    44.4690     5.7590     4.7410     4.9960    23.7800     2.3130    -5.0080 
  256.2500    43.6400     5.7870     4.7560     4.8730    23.8080     2.2910    -4.9290 
  256.3750    44.8850     5.8200     4.7770     4.6880    23.7340     2.2840    -4.8960 
  256.5000    47.1620     5.8540     4.8000     4.5340    23.6180     2.2900    -4.8730 
  256.6250    48.9490     5.8870     4.8250     4.4260    23.5590     2.3020    -4.8630 
  256.7500    49.4840     5.9160     4.8490     4.3730    23.5340     2.3100    -4.8770 
  256.8750    47.4550     5.9350     4.8720     4.3640    23.5260     2.3060    -4.9360 
  257.0000    45.0120     5.9480     4.8920     4.3560    23.5300     2.2930    -5.0040 
  257.1250    45.2760     5.9570     4.9090     4.3260    23.5510     2.2780    -5.0810 
  257.2500    48.3180     5.9620     4.9200     4.2740    23.5950     2.2690    -5.1610 
  257.3750    50.2300     5.9660     4.9250     4.2210    23.6770     2.2720    -5.2760 
  257.5000    48.4790     5.9700     4.9260     4.1800    23.7630     2.2860    -5.4000 
  257.6250    45.3000     5.9760     4.9250     4.1710    23.8140     2.3070    -5.4880 
  257.7500    44.1280     5.9890     4.9280     4.2000    23.8540     2.3300    -5.5300 
  257.8750    44.5150     6.0190     4.9380     4.2540    23.9130     2.3490    -5.5280 
  258.0000    44.9730     6.0650     4.9590     4.3380    23.9890     2.3620    -5.5590 
  258.1250    45.6840     6.1250     4.9910     4.4640    24.0770     2.3690    -5.6630 
  258.2500    46.9710     6.1900     5.0290     4.6300    24.1560     2.3700    -5.7890 
  258.3750    47.2780     6.2420     5.0670     4.8770    24.2040     2.3650    -5.8650 
