~V
VERS. 2.00: Ver 2.00
~W
STRT.M 40.0000:
STOP.M 276.0000:
STEP.M 0.1250:
NULL. -999.2500:
UWI. F10236:
~C
DEPT.M :
SP.MV :
GR.API :
RML.OHMM :
RI. :
RXO.OHMM :
CALI.CM :
DEN.GM/CC :
~A
# ...
  265.0000    -6.5300    56.8980    12.7250    10.2180    10.0460    24.8340     2.4940 
  265.1250    -6.4450    56.8980    12.4580     9.9700     8.7950    24.7740     2.4940 
  265.2500    -6.4060    56.8980    12.3140     9.8010     8.0280    24.6500     2.4900 
  265.3750    -6.3810    56.8980    12.3210     9.7440     7.4730    24.4930     2.4830 
  265.5000    -6.3440    56.8980    12.4120     9.7630     7.8780    24.3900     2.4820 
  265.6250    -6.3080    56.8980    12.5120     9.8130     8.7250    24.3890     2.4900 
  265.7500    -6.3450    56.8980    12.5410     9.8410     9.6810    24.4510     2.5020 
  265.8750    -6.4100    56.8980    12.4220     9.7860    10.7190    24.4830     2.5060 
  266.0000    -6.4570    56.8980    12.1960     9.6560    12.2510    24.4950     2.5010 
  266.1250    -6.5110    56.8980    11.9380     9.4910    13.4460    24.4950     2.4870 
  266.2500    -6.5310    56.8980    11.7400     9.3580    14.0740    24.5030     2.4670 
  266.3750    -6.5110    56.8980    11.7250     9.3470    14.1240    24.5020     2.4410 
  266.5000    -6.4600    56.8980    11.9340     9.4910    13.4000    24.4970     2.4210 
  266.6250    -6.4440    56.8980    12.3670     9.7960    11.8740    24.4980     2.4160 
  266.7500    -6.4730    56.8980    12.9490    10.2180    11.4320    24.5010     2.4310 
  266.8750    -6.5170    56.8980    13.4720    10.6280    12.1010    24.4500     2.4600 
  267.0000    -6.5420    56.8980    13.6650    10.8310    12.0580    24.3680     2.4900 
  267.1250    -6.5150    56.8980    13.3250    10.6640    11.5870    24.3610     2.5170 
  267.2500    -6.4310    56.8980    12.4250    10.0820    10.6700    24.5400     2.5320 
  267.3750    -6.3050    56.8980    11.1580     9.1930     9.3020    24.6510     2.5230 
  267.5000    -6.1970    56.8980     9.9290     8.2860     8.2570    24.6790     2.5000 
  267.6250    -6.0590    56.8980     8.9710     7.5270     7.5250    24.6740     2.4750 
  267.7500    -5.8050    56.8980     8.3790     7.0000     7.1610    24.6690     2.4540 
  267.8750    -5.5240    56.8980     8.1970     6.7550     7.3270    24.6440     2.4380 
  268.0000    -5.2730    56.8980     8.2870     6.7150     7.6600    24.6160     2.4260 
  268.1250    -4.9710    56.8980     8.5480     6.8240     7.9790    24.6310     2.4210 
  268.2500    -4.6910    56.8980     8.8650     7.0050     8.0160    24.6540     2.4240 
  268.3750    -4.4750    56.8980     9.1110     7.1720     7.5680    24.6660     2.4410 
  268.5000    -4.3240    56.8980     9.2390     7.2730     7.2230    24.6610     2.4660 
  268.6250    -4.2650    56.8980     9.2580     7.3060     7.3590    24.6470     2.4850 
  268.7500    -4.2550    56.8980     9.2130     7.2970     7.7090    24.6340     2.4930 
  268.8750    -4.2400    56.8980     9.1640     7.2820     8.3030    24.6550     2.4930 
  269.0000    -4.2720    56.8980     9.1340     7.2750     8.6600    24.6630     2.4880 
  269.1250    -4.3660    56.8980     9.1170     7.2730     8.8300    24.6610     2.4740 
  269.2500    -4.4320    56.8980     9.1010     7.2730     8.7700    24.6580     2.4530 
  269.3750    -4.4750    56.8980     9.0790     7.2720     8.4700    24.6350     2.4320 
  269.5000    -4.5130    56.8980     9.0520     7.2690     8.0450    24.6040     2.4170 
  269.6250    -4.5000    56.8980     9.0310     7.2630     7.6720    24.5990     2.4050 
  269.7500    -4.4720    56.8980     9.0250     7.2580     7.9670    24.5830     2.3910 
  269.8750    -4.5030    56.8980     9.0420     7.2560     8.5490    24.6010     2.3730 
  270.0000    -4.4850    56.8980     9.0710     7.2580     8.9420    24.6180     2.3580 
  270.1250    -4.4500    56.8980     9.0990     7.2620     8.7750    24.5890     2.3500 
  270.2500    -4.4990    56.8980     9.1170     7.2670     8.4560    24.5500     2.3520 
  270.3750    -4.6170    56.8980     9.1230     7.2700     8.2920    24.5270     2.3590 
  270.5000    -4.6720    56.8980     9.1230     7.2700     8.0050    24.5190     2.3650 
  270.6250    -4.7200    56.8980     9.1230     7.2700     7.5590    24.5230     2.3670 
  270.7500    -4.8230    56.8980     9.1230     7.2700     7.1480    24.5240     2.3660 
  270.8750    -4.8390    56.8980     9.1230     7.2700     6.7320    24.5110     2.3610 
  271.0000    -4.8760    56.8980     9.1230     7.2700     6.4320    24.5100     2.3450 
  271.1250    -4.8810    56.8980     9.1230     7.2700     6.2020    24.5210     2.3190 
  271.2500    -4.8870    56.8980     9.1230     7.2700     6.1000    24.5240     2.2930 
  271.3750  -999.2500    56.8980     9.1230     7.2700     6.0830    24.5110     2.2790 
  271.5000  -999.2500    56.8980     9.1230     7.2700     6.0010    24.5080     2.2780 
  271.6250  -999.2500    56.8980     9.1230     7.2700     5.9720    24.5140     2.2890 
  271.7500  -999.2500    56.8980     9.1230     7.2700     5.9820    24.5060     2.3090 
  271.8750  -999.2500    56.8980     9.1230     7.2700     5.9330    24.4950     2.3330 
  272.0000  -999.2500    56.8980     9.1230     7.2700     5.8400    24.4870     2.3490 
  272.1250  -999.2500    56.8980     9.1230     7.2700     5.6960    24.4820     2.3580 
  272.2500  -999.2500    56.8980     9.1230     7.2700     5.7390    24.4600     2.3630 
  272.3750  -999.2500    56.8980     9.1230     7.2700     6.0690    24.4000     2.3640 
  272.5000  -999.2500    56.8980     9.1230     7.2700     6.2940    24.3590     2.3590 
  272.6250  -999.2500    56.8980     9.1230     7.2700     6.5720    24.3320     2.3380 
  272.7500  -999.2500    56.8980     9.1230     7.2700     7.0250    24.2980     2.2920 
  272.8750  -999.2500    56.8980     9.1230     7.2700     7.1320    24.1650     2.2100 
  273.0000  -999.2500    56.8980     9.1230     7.2700     6.7450    23.5090     2.0910 
  273.1250  -999.2500    56.8980     9.1230     7.2700     5.7960    21.6230     1.9180 
  273.2500  -999.2500    56.8980     9.1230     7.2700     4.8240    18.4600     1.7160 
  273.3750  -999.2500    56.8980     9.1230     7.2700     4.4650    16.4490     1.5750 
  273.5000  -999.2500    56.8980     9.1230     7.2700     4.3890    15.7200     1.5050 
  273.6250  -999.2500    56.8980     9.1230     7.2700     4.3920    15.6210     1.4850 
  273.7500  -999.2500    56.8980     9.1230     7.2700     4.3930    15.6150     1.4870 
  273.8750  -999.2500    56.8980     9.1230     7.2700     4.3890    15.6120     1.4890 
  274.0000  -999.2500    56.8980     9.1230     7.2700     4.3890    15.6140     1.4890 
  274.1250  -999.2500    56.8980     9.1230     7.2700     4.3750    15.6140     1.4880 
  274.2500  -999.2500    56.8980     9.1230     7.2700     4.3610    15.6070     1.4890 
  274.3750  -999.2500    56.8980     9.1230     7.2700     4.3620    15.6070     1.4980 
  274.5000  -999.2500    56.8980     9.1230     7.2700     4.3720    15.6040     1.5170 
  274.6250  -999.2500    56.8980     9.1230     7.2700     4.3700    15.5970     1.5480 
  274.7500  -999.2500    56.8980     9.1230     7.2700     4.3670    15.5910     1.5890 
  274.8750  -999.2500    56.8980     9.1230     7.2700     4.3700    15.5860     1.6380 
  275.0000  -999.2500    56.8980     9.1230     7.2700     4.3740    15.5890     1.6880 
  275.1250  -999.2500    56.8980     9.1230     7.2700     4.3710    15.5880     1.7310 
  275.2500  -999.2500    56.8980     9.1230     7.2700     4.3760    15.5890     1.7270 
  275.3750  -999.2500  -999.2500  -999.2500  -999.2500  -999.2500  -999.2500     1.6350 
  275.5000  -999.2500  -999.2500  -999.2500  -999.2500  -999.2500  -999.2500     1.5110 
  275.6250  -999.2500  -999.2500  -999.2500  -999.2500  -999.2500  -999.2500     1.4310 
  275.7500  -999.2500  -999.2500  -999.2500  -999.2500  -999.2500  -999.2500     1.4020 
  275.8750  -999.2500  -999.2500  -999.2500  -999.2500  -999.2500  -999.2500     1.3690 
  276.0000  -999.2500  -999.2500  -999.2500  -999.2500  -999.2500  -999.2500     1.3510 
