~V
VERS. 2.00: Ver 2.00
~W
STRT.M 53.0000:
STOP.M 276.0000:
STEP.M 0.1250:
NULL. -999.2500:
UWI. F10245:
~C
DEPT.M :
GR.API :
RML.OHMM :
RI. :
RXO.OHMM :
CALI.CM :
DEN.GM/CC :
SP.MV :
~A
# ...
  233.0000    95.2710    11.7740     9.6560    10.6700    22.7370     2.3940    -9.8490 
  233.1250    90.5300    12.5380    10.1560    12.6130    22.6290     2.4350    -9.9090 
  233.2500    85.4160    13.7320    10.9000    14.0320    22.6080     2.4520   -10.0240 
  233.3750    80.4430    15.7550    12.1320    13.6440    22.6620     2.4440   -10.2120 
  233.5000    77.4220    19.1070    14.2110    13.2800    22.7050     2.4180   -10.4740 
  233.6250    76.5450    24.6280    17.8560    15.7510    22.7240     2.3820   -10.7760 
  233.7500    75.0560    32.1890    23.2400    20.7160    22.7300     2.3430   -11.0700 
  233.8750    71.8280    41.3130    30.3070    29.0460    22.7180     2.3060   -11.3680 
  234.0000    67.6690    50.8390    38.3980    37.7120    22.7060     2.2780   -11.6480 
  234.1250    64.0540    58.6760    45.9640    41.2320    22.6980     2.2610   -11.8860 
  234.2500    60.1930    63.5330    51.4790    41.6900    22.6740     2.2550   -12.0950 
  234.3750    57.6290    65.3050    54.3750    40.1670    22.6240     2.2580   -12.2750 
  234.5000    58.0330    65.3240    55.3970    36.5830    22.5740     2.2670   -12.4070 
  234.6250    60.7200    65.8700    56.2680    34.1410    22.5770     2.2760   -12.5170 
  234.7500    62.3190    68.3520    58.3960    33.5440    22.6230     2.2790   -12.6130 
  234.8750    61.8100    73.0790    62.2720    34.9100    22.6940     2.2710   -12.6990 
  235.0000    60.9150    79.5870    67.7390    37.5550    22.7980     2.2550   -12.7760 
  235.1250    60.0500    86.6060    73.9530    40.3280    22.9690     2.2360   -12.8550 
  235.2500    58.5140    92.2810    79.3460    41.9660    23.1830     2.2220   -12.9260 
  235.3750    55.6650    95.2570    82.6900    42.6370    23.3390     2.2190   -12.9880 
  235.5000    53.2140    94.9430    83.3190    45.3070    23.4340     2.2270   -13.0340 
  235.6250    55.2520    91.5440    81.1510    50.4440    23.5650     2.2440   -13.0470 
  235.7500    59.9000    87.0520    77.7410    56.8910    23.7460     2.2630   -13.0570 
  235.8750    63.1770    82.8540    74.2590    62.2550    23.8760     2.2800   -13.0660 
  236.0000    62.8740    79.9530    71.6380    62.7510    23.9140     2.2940   -13.0850 
  236.1250    59.6050    79.3520    70.8300    58.0690    23.8170     2.3020   -13.1100 
  236.2500    56.5760    80.9860    71.9150    50.3310    23.6140     2.3020   -13.1570 
  236.3750    55.5860    84.6580    74.8190    42.1200    23.3590     2.2960   -13.2350 
  236.5000    56.6950    89.7090    79.0590    38.7360    23.1830     2.2850   -13.3560 
  236.6250    58.9110    94.8470    83.6420    42.2670    23.2840     2.2730   -13.5340 
  236.7500    60.2800    98.5330    87.2230    52.3840    23.5710     2.2660   -13.7270 
  236.8750    59.0660    99.8090    88.8980    65.9690    23.8790     2.2660   -13.9330 
  237.0000    56.2750    98.6340    88.4640    78.0020    24.0670     2.2720   -14.1460 
  237.1250    56.4630    96.1530    86.6460    83.0910    24.0480     2.2770   -14.3420 
  237.2500    58.9660    94.5320    85.2630    76.2720    23.9000     2.2790   -14.5260 
  237.3750    59.4530    95.0700    85.5690    62.6450    23.6770     2.2780   -14.7000 
  237.5000    57.0700    98.1390    88.1190    50.2200    23.4890     2.2730   -14.8620 
  237.6250    56.2350   103.3040    92.8080    48.1160    23.4450     2.2670   -14.9740 
  237.7500    57.6120   108.8190    98.1670    51.4970    23.5070     2.2620   -15.0740 
  237.8750    58.4240   113.3610   103.0130    55.3450    23.6420     2.2590   -15.1510 
  238.0000    58.0720   116.0310   106.4530    59.9570    23.7600     2.2590   -15.2130 
  238.1250    58.1710   116.3150   107.8530    59.0730    23.7030     2.2630   -15.2710 
  238.2500    59.4740   115.0430   107.7570    51.7620    23.5020     2.2670   -15.3240 
  238.3750    62.3910   112.6780   106.5230    45.9740    23.3270     2.2710   -15.3580 
  238.5000    64.4350   109.3220   104.2710    47.2420    23.2410     2.2730   -15.3490 
  238.6250    63.4070   104.6840   100.6480    50.8440    23.1740     2.2720   -15.3030 
  238.7500    59.4440    99.2180    95.7520    50.9650    23.0480     2.2660   -15.2190 
  238.8750    56.9040    93.0810    89.7930    48.3660    22.8180     2.2580   -15.1080 
  239.0000    58.6310    86.7750    83.2920    46.3690    22.6020     2.2510   -14.9670 
  239.1250    61.5010    81.8810    77.2380    44.2140    22.7220     2.2530   -14.8140 
  239.2500    62.8430    76.8340    72.5770    44.6560    23.1600     2.2590   -14.6200 
  239.3750    62.6700    74.3390    70.0470    47.0110    23.6930     2.2660   -14.4180 
  239.5000    62.3100    74.9060    70.1910    51.2250    24.1380     2.2700   -14.2130 
  239.6250    63.4800    79.2990    73.8240    56.0970    24.3380     2.2720   -14.0320 
  239.7500    64.8640    86.6340    80.2720    63.9210    24.3950     2.2740   -13.8600 
  239.8750    63.9660    96.0090    88.7930    72.2480    24.4000     2.2790   -13.7060 
  240.0000    60.8620   106.0530    98.1670    77.6580    24.4100     2.2880   -13.5800 
  240.1250    60.4010   114.8450   106.6210    87.1120    24.4850     2.3040   -13.4690 
  240.2500    63.0820   121.3870   113.0690    99.5700    24.4470     2.3240   -13.3800 
  240.3750    65.0380   125.7740   117.4370   103.7950    24.3320     2.3410   -13.3000 
  240.5000    65.5350   129.0800   120.5730   101.3170    24.2410     2.3470   -13.2220 
  240.6250    65.6770   132.8030   123.8020    95.6140    24.1840     2.3350   -13.1370 
  240.7500    64.2200   137.6230   127.9280    99.3110    24.1340     2.3150   -13.0590 
  240.8750    61.0050   143.3570   132.9610   117.5680    24.1220     2.2950   -12.9660 
  241.0000    58.1140   149.2140   138.3310   146.3410    24.1060     2.2800   -12.8400 
  241.1250    55.8820   153.6490   142.7930   160.4760    24.0520     2.2710   -12.6930 
  241.2500    53.3670   155.4930   145.2830   156.6280    23.9650     2.2660   -12.5420 
  241.3750    53.0020   153.7300   144.8770   151.6250    23.8860     2.2630   -12.3920 
  241.5000    55.9860   147.6310   140.8160   153.2200    23.8420     2.2600   -12.2630 
  241.6250    59.1130   136.6260   132.1470   157.4250    23.8910     2.2550   -12.1750 
  241.7500    59.7530   123.1440   120.2610   150.4200    24.0160     2.2470   -12.0990 
  241.8750    58.9060   108.9530   106.7350   134.9570    24.2100     2.2390   -12.0230 
  242.0000    59.1010    96.0400    93.5800   110.5720    24.3830     2.2310   -11.9350 
  242.1250    59.4540    87.2880    83.1060    91.6630    24.4340     2.2260   -11.8200 
  242.2500    60.3070    79.0540    75.7700    78.3610    24.4090     2.2220   -11.7440 
  242.3750    62.9490    74.0130    71.3710    73.0650    24.3840     2.2180   -11.6690 
  242.5000    65.4870    71.3760    69.2520    71.0480    24.3740     2.2140   -11.5720 
  242.6250    66.9840    70.3190    68.6930    72.1900    24.2800     2.2140   -11.4880 
  242.7500    67.2480    69.5350    68.4540    73.9740    24.0310     2.2170   -11.3650 
  242.8750    66.4910    68.1610    67.6710    72.7330    23.7030     2.2230   -11.2380 
  243.0000    65.3710    65.5890    65.6770    69.4840    23.4810     2.2320   -11.1890 
  243.1250    64.9920    61.4570    61.9920    68.7710    23.3740     2.2440   -11.1560 
  243.2500    65.0960    56.4650    57.2540    67.1090    23.3070     2.2600   -11.0780 
  243.3750    63.8940    51.4110    52.2360    60.9670    23.2660     2.2750   -11.0220 
  243.5000    61.6940    47.1500    47.7960    49.7750    23.2470     2.2860   -11.0330 
  243.6250    60.7150    44.6910    44.9360    41.9680    23.2360     2.2890   -10.9800 
  243.7500    60.7070    44.2070    43.8780    40.1020    23.2370     2.2870   -10.9730 
  243.8750    61.0040    45.7950    44.7540    41.0270    23.2360     2.2810   -11.0440 
  244.0000    61.2900    49.3390    47.5140    43.3480    23.2170     2.2720   -11.1020 
  244.1250    60.8010    54.7080    52.1250    47.9400    23.1780     2.2610   -11.1810 
