~V
VERS. 2.00: Ver 2.00
~W
STRT.M 53.0000:
STOP.M 296.0000:
STEP.M 0.1250:
NULL. -999.2500:
UWI. F10258:
~C
DEPT.M :
GR.API :
RML.OHMM :
RI. :
RXO.OHMM :
CALI.CM :
DEN.GM/CC :
SP.MV :
~A
# ...
   86.7500    78.7580     9.4700     7.7530     8.0440    25.6520     2.1940   -23.5560 
   86.8750    81.2730     9.4680     7.8010     7.8610    25.6310     2.2000   -23.3910 
   87.0000    81.0980     9.4710     7.8250     7.8570    25.4540     2.1860   -23.2370 
   87.1250    76.5220     9.4770     7.8280     8.1990    25.2640     2.1560   -23.1350 
   87.2500    71.5170     9.4590     7.8000     8.4070    25.2020     2.1280   -23.0700 
   87.3750    68.1870     9.3930     7.7290     8.4760    25.2040     2.1150   -23.0270 
   87.5000    67.2430     9.2820     7.6170     8.6020    25.2080     2.1210   -22.9870 
   87.6250    67.3640     9.1700     7.4840     8.7340    25.1980     2.1470   -22.9210 
   87.7500    68.2210     9.1350     7.3870     8.8970    25.1930     2.1770   -22.8330 
   87.8750    69.6760     9.2390     7.3830     9.1150    25.1670     2.2010   -22.7490 
   88.0000    71.2650     9.4930     7.5030     9.1560    25.1570     2.2120   -22.6750 
   88.1250    71.8730     9.8380     7.7350     8.8590    25.3170     2.2070   -22.5940 
   88.2500    71.1900    10.1240     7.9740     8.5480    25.6310     2.1900   -22.5190 
   88.3750    69.9560    10.2370     8.1230     8.5350    25.8670     2.1700   -22.4590 
   88.5000    69.3160    10.1220     8.1050     8.5710    25.7860     2.1540   -22.4250 
   88.6250    70.5550     9.8100     7.8980     8.3270    25.4800     2.1510   -22.4190 
   88.7500    71.4190     9.4780     7.6250     8.2000    25.2600     2.1620   -22.4180 
   88.8750    69.6550     9.2680     7.3970     8.3220    25.1900     2.1860   -22.4230 
   89.0000    68.0110     9.2700     7.3040     8.7370    25.1980     2.2110   -22.4500 
   89.1250    70.9820     9.5120     7.4110     8.9680    25.1660     2.2220   -22.5210 
   89.2500    75.5050     9.8550     7.6430     8.8860    25.0860     2.2120   -22.6210 
   89.3750    77.4500    10.1720     7.9020     8.5570    25.0110     2.1840   -22.7440 
   89.5000    76.3090    10.3630     8.0920     8.3040    24.9510     2.1770   -22.8970 
   89.6250    74.0340    10.3820     8.1480     8.2620    24.9080     2.1450   -23.0900 
   89.7500    72.6150    10.3170     8.1270     8.1920    24.9970     2.1250   -23.3360 
   89.8750    71.8990    10.2510     8.0920     8.2150    25.1960     2.1210   -23.6270 
   90.0000    70.2080    10.2410     8.0970     8.2930    25.3840     2.1230   -23.9590 
   90.1250    66.2230    10.2930     8.1680     9.0480    25.4290     2.1190   -24.3290 
   90.2500    63.9580    10.3390     8.2640     9.7700    25.3770     2.1060   -24.7050 
   90.3750    66.0050    10.3150     8.3320     9.5180    25.3240     2.0890   -25.0740 
   90.5000    68.5270    10.1930     8.3250     8.8340    25.3260     2.0770   -25.4240 
   90.6250    67.4860     9.9930     8.2260     8.6120    25.3280     2.0780   -25.7220 
   90.7500    65.7020     9.8010     8.0960     8.6920    25.3060     2.0880   -25.9570 
   90.8750    64.8930     9.6770     7.9890     8.6670    25.2930     2.1010   -26.1100 
   91.0000    64.1600     9.6440     7.9380     8.5410    25.2900     2.1090   -26.1780 
   91.1250    62.6390     9.6920     7.9500     8.6330    25.3110     2.1070   -26.1800 
   91.2500    61.7850     9.7630     7.9900     8.7420    25.3660     2.1000   -26.1640 
   91.3750    62.0170     9.8170     8.0310     8.8070    25.4140     2.0920   -26.1310 
   91.5000    62.5820     9.8300     8.0520     8.8470    25.3740     2.0870   -26.0730 
   91.6250    63.3880     9.7870     8.0370     8.7320    25.2040     2.0910   -25.9890 
   91.7500    65.1060     9.7090     7.9930     8.6150    25.0530     2.1040   -25.8770 
   91.8750    68.4910     9.6190     7.9310     8.5670    24.9540     2.1230   -25.7390 
   92.0000    71.6590     9.5420     7.8690     8.5910    24.8810     2.1420   -25.5770 
   92.1250    71.3540     9.5020     7.8260     8.7820    24.9020     2.1540   -25.3840 
   92.2500    69.2270     9.5000     7.8110     8.7770    25.0620     2.1560   -25.1750 
   92.3750    68.3990     9.5240     7.8210     8.6860    25.2440     2.1500   -24.9730 
   92.5000    69.8840     9.5510     7.8430     8.6270    25.3390     2.1420   -24.7780 
   92.6250    72.1550     9.5390     7.8500     8.6160    25.3430     2.1390   -24.5680 
   92.7500    73.3930     9.4600     7.8160     8.6490    25.3200     2.1450   -24.3340 
   92.8750    73.5260     9.3040     7.7220     8.8060    25.2760     2.1570   -24.0770 
   93.0000    74.1000     9.0820     7.5690     9.0760    25.2080     2.1700   -23.8130 
   93.1250    77.1650     8.8260     7.3730     9.1160    25.1480     2.1750   -23.5790 
   93.2500    80.1910     8.5910     7.1750     8.7920    25.1160     2.1740   -23.3580 
   93.3750    80.7760     8.4120     7.0060     8.4670    25.1220     2.1720   -23.1360 
   93.5000    80.2800     8.3100     6.8890     8.2120    25.1040     2.1730   -22.9310 
   93.6250    81.6910     8.2900     6.8380     8.1070    24.9930     2.1770   -22.7670 
   93.7500    83.8540     8.3060     6.8270     7.9660    24.8300     2.1800   -22.6610 
   93.8750    85.2870     8.3200     6.8270     7.5960    24.6430     2.1810   -22.6140 
   94.0000    86.6660     8.2990     6.8090     7.4120    24.4490     2.1800   -22.6010 
   94.1250    88.5840     8.2290     6.7520     7.4040    24.3630     2.1810   -22.5870 
   94.2500    88.0320     8.1450     6.6750     7.6740    24.4490     2.1870   -22.5890 
   94.3750    84.7030     8.0890     6.6080     8.0030    24.6350     2.1950   -22.6500 
   94.5000    81.2310     8.0980     6.5850     8.3070    24.8420     2.2010   -22.7850 
   94.6250    79.4960     8.2030     6.6410     8.4280    25.0850     2.1940   -23.0100 
   94.7500    78.1450     8.3770     6.7630     8.2050    25.3570     2.1760   -23.3090 
   94.8750    76.5240     8.5870     6.9280     7.9150    25.5470     2.1510   -23.6720 
   95.0000    75.4730     8.7950     7.1070     7.8610    25.6050     2.1310   -24.0850 
   95.1250    74.0950     8.9610     7.2660     7.9480    25.5410     2.1240   -24.5120 
   95.2500    72.2720     9.0730     7.3860     8.2440    25.4820     2.1290   -24.9190 
   95.3750    72.2760     9.1330     7.4620     8.4770    25.5240     2.1400   -25.2880 
   95.5000    74.3850     9.1570     7.4990     8.7650    25.6590     2.1490   -25.6150 
   95.6250    75.6120     9.1620     7.5080     8.8720    25.8450     2.1520   -25.8840 
   95.7500    74.0060     9.1680     7.5080     8.8100    26.0760     2.1490   -26.0940 
   95.8750    72.4550     9.1840     7.5110     8.6590    26.2430     2.1420   -26.2260 
   96.0000    72.5880     9.2120     7.5230     8.6480    26.3190     2.1320   -26.2620 
   96.1250    72.0430     9.2570     7.5460     8.6980    26.3700     2.1190   -26.2200 
   96.2500    71.7190     9.3150     7.5740     8.4690    26.4210     2.1080   -26.1410 
   96.3750    73.9940     9.3840     7.6040     8.2360    26.3920     2.1010   -26.0340 
   96.5000    77.6110     9.4480     7.6270     8.3310    26.2660     2.0990   -25.9270 
   96.6250    77.5270     9.4630     7.6300     8.5670    26.1180     2.1010   -25.8130 
   96.7500    74.2410     9.3950     7.5980     8.7680    26.0020     2.1100   -25.6780 
   96.8750    72.2110     9.2250     7.5100     8.9970    25.8360     2.1260   -25.5510 
   97.0000    73.3220     8.9930     7.3560     9.4430    25.6310     2.1500   -25.4460 
   97.1250    75.6600     8.8560     7.1880    10.2480    25.4890     2.1760   -25.3680 
   97.2500    76.5530     9.0040     7.1550    10.6480    25.4450     2.1980   -25.2950 
   97.3750    76.0310     9.5790     7.4000    10.3540    25.4770     2.2140   -25.2030 
   97.5000    75.2160    10.5930     8.0030     9.8130    25.5330     2.2350   -25.0870 
   97.6250    71.2970    11.8560     8.9620    11.1070    25.5570     2.2670   -24.9870 
   97.7500    64.3120    12.8890     9.9670    16.3200    25.4900     2.2960   -24.9280 
   97.8750    58.9370    13.2880    10.6240    21.2210    25.4280     2.3020   -24.8930 
