~V
VERS. 2.00: Ver 2.00
~W
STRT.M 53.0000:
STOP.M 276.0000:
STEP.M 0.1250:
NULL. -999.2500:
UWI. F10245:
~C
DEPT.M :
GR.API :
RML.OHMM :
RI. :
RXO.OHMM :
CALI.CM :
DEN.GM/CC :
SP.MV :
~A
# ...
  143.0000    83.1800     5.2970     4.8950     5.7250    24.3840     2.2890    -5.6990 
  143.1250    78.8480     5.3380     4.9600     5.7740    24.3790     2.2890    -5.5940 
  143.2500    77.1260     5.3000     4.9760     5.8780    24.3530     2.2900    -5.5260 
  143.3750    78.5980     5.1790     4.9270     5.8110    24.3300     2.2910    -5.4580 
  143.5000    80.7050     5.0110     4.8310     5.6420    24.3260     2.2930    -5.4140 
  143.6250    83.1450     4.8660     4.7360     5.5490    24.3200     2.2980    -5.3720 
  143.7500    85.8670     4.8110     4.6970     5.4810    24.3180     2.3030    -5.3180 
  143.8750    85.3900     4.8820     4.7490     5.4280    24.3300     2.3080    -5.2730 
  144.0000    81.0500     5.0770     4.9040     5.4740    24.3500     2.3160    -5.2580 
  144.1250    76.9550     5.3520     5.1370     5.7550    24.3430     2.3280    -5.2570 
  144.2500    74.3920     5.5960     5.3620     6.2530    24.3100     2.3400    -5.2650 
  144.3750    72.8390     5.7180     5.4950     6.7680    24.2660     2.3440    -5.2920 
  144.5000    74.8480     5.6650     5.4770     7.0310    24.2240     2.3360    -5.3150 
  144.6250    81.1590     5.4310     5.2790     6.9830    24.1750     2.3180    -5.3290 
  144.7500    86.0110     5.1440     5.0030     6.3420    24.1470     2.3020    -5.3380 
  144.8750    87.2700     4.9120     4.7480     5.5420    24.1330     2.2990    -5.3410 
  145.0000    88.5870     4.8230     4.6010     5.0930    24.1140     2.3120    -5.3600 
  145.1250    90.8050     4.9690     4.6520     5.1320    24.0460     2.3400    -5.4040 
  145.2500    88.6790     5.3630     4.9170     5.5190    23.9200     2.3740    -5.4740 
  145.3750    82.2340     6.0550     5.4360     6.2560    23.8140     2.4080    -5.5450 
  145.5000    74.0750     7.0910     6.2500     7.3140    23.7720     2.4420    -5.5940 
  145.6250    66.5660     8.5350     7.4370     8.1720    23.7750     2.4790    -5.6580 
  145.7500    59.4850    10.2410     8.9100     9.5340    23.7810     2.5170    -5.7360 
  145.8750    54.1630    12.0310    10.5570    12.0770    23.7930     2.5500    -5.8280 
  146.0000    51.7220    13.6880    12.2030    15.2140    23.7900     2.5710    -5.9200 
  146.1250    49.5370    14.9900    13.6190    16.7770    23.7970     2.5770    -5.9970 
  146.2500    46.2410    15.9920    14.7580    16.6720    23.7840     2.5800    -6.0500 
  146.3750    43.4700    16.8380    15.6890    16.3930    23.7540     2.5850    -6.1070 
  146.5000    42.1560    17.6880    16.5460    16.5020    23.7170     2.5910    -6.1730 
  146.6250    41.5740    18.5950    17.4160    17.1040    23.7290     2.5980    -6.2530 
  146.7500    42.3010    19.4260    18.2420    18.9370    23.7570     2.6020    -6.3240 
  146.8750    42.5290    20.0140    18.8930    20.7450    23.7670     2.6040    -6.3850 
  147.0000    40.3010    20.2610    19.2650    20.7370    23.7620     2.6030    -6.4070 
  147.1250    36.4090    20.1630    19.3100    19.7610    23.7630     2.5990    -6.4230 
  147.2500    36.7120    19.9310    19.1910    19.3330    23.7580     2.5920    -6.4480 
  147.3750    42.3800    19.7320    19.0520    19.1860    23.7240     2.5820    -6.4870 
  147.5000    47.3630    19.6720    19.0070    19.3360    23.6910     2.5730    -6.5250 
  147.6250    46.9410    19.8120    19.1390    18.5290    23.7080     2.5690    -6.5400 
  147.7500    45.8140    20.0880    19.4120    18.8800    23.7690     2.5710    -6.5630 
  147.8750    46.1370    20.4420    19.7820    19.6820    23.8160     2.5770    -6.6230 
  148.0000    44.9810    20.7960    20.1820    19.9540    23.8180     2.5840    -6.7410 
  148.1250    41.6830    21.0310    20.5010    19.9130    23.8010     2.5840    -6.9100 
  148.2500    42.9790    21.0880    20.6600    20.0560    23.7880     2.5720    -7.0720 
  148.3750    46.8390    20.9580    20.6290    21.0850    23.7990     2.5480    -7.2120 
  148.5000    46.7870    20.7000    20.4400    22.2570    23.7710     2.5160    -7.3480 
  148.6250    43.2990    20.4070    20.1650    20.7040    23.7770     2.4880    -7.4650 
  148.7500    42.3800    20.1310    19.8700    18.7250    23.8560     2.4700    -7.5510 
  148.8750    43.3580    19.8100    19.5260    18.2820    23.9140     2.4650    -7.6050 
  149.0000    43.5080    19.3240    19.0420    18.9970    23.8810     2.4660    -7.6310 
  149.1250    43.8600    18.5290    18.2990    19.3450    23.7540     2.4630    -7.6120 
  149.2500    46.1700    17.5280    17.3710    18.7180    23.6950     2.4550    -7.5860 
  149.3750    49.1960    16.5280    16.4260    17.3540    23.7560     2.4460    -7.5470 
  149.5000    52.9720    15.7990    15.6880    15.4860    23.8340     2.4430    -7.4990 
  149.6250    55.9900    15.6180    15.4110    14.3110    23.9390     2.4480    -7.4570 
  149.7500    56.6170    15.8930    15.5510    13.9890    23.9450     2.4580    -7.4360 
  149.8750    55.9000    16.4290    15.9770    14.3800    23.8870     2.4660    -7.4110 
  150.0000    57.0850    16.9520    16.4650    15.4580    23.8690     2.4700    -7.3920 
  150.1250    59.9980    17.1250    16.7040    16.3080    23.9160     2.4670    -7.3600 
  150.2500    59.8400    16.8680    16.5570    16.2710    23.8860     2.4570    -7.3230 
  150.3750    58.1840    16.2490    16.0350    15.4780    23.7220     2.4430    -7.2800 
  150.5000    58.8140    15.4390    15.2700    14.6010    23.4100     2.4290    -7.2470 
  150.6250    59.8160    14.6140    14.4210    13.5780    22.9010     2.4230    -7.2130 
  150.7500    58.9720    13.8680    13.6050    12.8610    22.2910     2.4250    -7.1970 
  150.8750    57.1340    13.2160    12.8580    12.3190    22.0340     2.4320    -7.1760 
  151.0000    55.2720    12.6660    12.2020    12.1980    22.3550     2.4390    -7.1400 
  151.1250    53.1960    12.2890    11.7060    11.9320    23.0620     2.4410    -7.1180 
  151.2500    52.5200    12.1270    11.4060    11.0390    23.5740     2.4380    -7.1040 
  151.3750    53.4360    12.2160    11.3390    10.3350    23.7470     2.4360    -7.1230 
  151.5000    53.1540    12.5430    11.5030    10.7120    23.6970     2.4350    -7.1610 
  151.6250    50.6750    13.0540    11.8750    11.9390    23.7000     2.4360    -7.2100 
  151.7500    48.6410    13.6060    12.3360    13.5270    23.7790     2.4400    -7.2440 
  151.8750    48.3320    14.1020    12.8030    14.8610    23.7860     2.4430    -7.2780 
  152.0000    48.9170    14.4910    13.2200    15.1350    23.7700     2.4440    -7.3220 
  152.1250    47.9370    14.7670    13.5700    15.3530    23.7750     2.4370    -7.3510 
  152.2500    46.3320    14.9930    13.8920    15.3500    23.8080     2.4280    -7.3900 
  152.3750    46.6030    15.2010    14.2080    15.6700    23.8500     2.4210    -7.4290 
  152.5000    48.6990    15.3830    14.4940    16.0580    23.8880     2.4240    -7.4580 
  152.6250    49.7320    15.3970    14.6140    16.8440    23.8450     2.4350    -7.4850 
  152.7500    52.0650    15.0440    14.3870    17.4280    23.7730     2.4450    -7.4960 
  152.8750    57.9280    14.1180    13.6160    17.2540    23.8090     2.4410    -7.5160 
  153.0000    62.6000    12.5320    12.2060    16.6810    23.8800     2.4190    -7.5280 
  153.1250    63.6160    10.3880    10.2280    15.3320    23.9230     2.3820    -7.5470 
  153.2500    67.2160     8.1810     8.1480    13.3040    23.9200     2.3450    -7.5380 
  153.3750    74.9840     6.2850     6.3140    10.3130    23.8800     2.3180    -7.5070 
  153.5000    80.8250     4.9090     4.9220     7.0240    23.8270     2.3000    -7.4630 
  153.6250    81.2940     4.1460     4.0710     5.1780    23.7810     2.2930    -7.4300 
  153.7500    82.3350     3.7810     3.6000     4.6160    23.7340     2.2920    -7.3820 
  153.8750    84.9150     3.6770     3.4090     4.4710    23.7000     2.2960    -7.3060 
  154.0000    86.5510     3.7180     3.4030     4.3900    23.6430     2.3020    -7.2580 
  154.1250    87.7910     3.8130     3.5040     4.3470    23.5430     2.3100    -7.2230 
