~V
VERS. 2.00: Ver 2.00
~W
STRT.M 50.0000:
STOP.M 273.0000:
STEP.M 0.1250:
NULL. -999.2500:
UWI. F10249:
~C
DEPT.M :
DEN.GM/CC :
GR.API :
RML.OHMM :
RI. :
RXO.OHMM :
CALI.CM :
SP.MV :
~A
# ...
  207.5000     2.3800    71.2420    17.1560    13.2150    20.6490    24.9310    -6.1210 
  207.6250     2.3510    71.9000    19.7050    15.6820    24.6420    24.9950    -6.1880 
  207.7500     2.3090    73.7470    21.7110    17.8760    26.0030    25.0710    -6.2730 
  207.8750     2.2680    73.3720    23.0000    19.3890    25.4090    25.1410    -6.3730 
  208.0000     2.2390    71.3570    23.7840    20.1850    24.4960    25.1750    -6.4830 
  208.1250     2.2340    70.0970    24.7480    20.7480    24.4190    25.1820    -6.5840 
  208.2500     2.2510    69.4920    26.6010    21.8450    25.4960    25.1790    -6.6860 
  208.3750     2.2840    68.5720    29.7220    23.9630    28.0900    25.1560    -6.8160 
  208.5000     2.3210    66.8840    34.0620    27.2940    33.5010    25.0960    -6.9590 
  208.6250     2.3450    67.1770    39.0190    31.6730    43.8330    25.0320    -7.0730 
  208.7500     2.3470    69.0580    43.3970    35.9880    56.0600    25.0230    -7.1590 
  208.8750     2.3300    69.4460    46.4370    39.2270    63.9340    25.0380    -7.2210 
  209.0000     2.3020    67.5300    48.1300    41.0430    63.6960    25.0540    -7.2760 
  209.1250     2.2770    67.6350    49.4170    42.1540    60.7600    25.0760    -7.3990 
  209.2500     2.2570    70.3960    51.6800    43.9600    62.4270    25.1020    -7.5720 
  209.3750     2.2410    72.1910    55.6240    47.3300    67.8230    25.1180    -7.7490 
  209.5000     2.2260    68.4280    61.1700    52.5010    72.7160    25.1340    -7.9240 
  209.6250     2.2100    62.0630    67.2940    58.8400    75.5690    25.1750    -8.0980 
  209.7500     2.1950    60.5270    72.3450    64.5440    77.8910    25.2130    -8.2790 
  209.8750     2.1840    64.1400    75.4060    68.3750    79.2860    25.2450    -8.4840 
  210.0000     2.1800    67.0000    76.5770    70.1420    79.6680    25.2770    -8.7170 
  210.1250     2.1830    63.7010    76.8810    70.8040    79.8150    25.3250    -8.9270 
  210.2500     2.1890    59.6810    77.3810    71.8660    80.2280    25.3620    -9.1080 
  210.3750     2.1920    60.1180    77.7210    73.4800    80.6970    25.3760    -9.2650 
  210.5000     2.1890    63.9200    76.9890    74.1940    80.9290    25.3780    -9.4090 
  210.6250     2.1860    66.1850    73.3660    70.8010    80.5070    25.3880    -9.5520 
  210.7500     2.1900    65.8430    66.4570    63.1370    79.5720    25.4040    -9.6880 
  210.8750     2.2070    65.1530    57.4090    53.4200    79.2590    25.3940    -9.8110 
  211.0000     2.2300    66.6810    49.0730    44.7670    78.7060    25.3160    -9.9170 
  211.1250     2.2460    69.3990    45.1600    40.0260    70.8120    25.2190   -10.0220 
  211.2500     2.2470    69.7790    45.9990    39.5380    59.5010    25.1600   -10.1300 
  211.3750     2.2340    67.1650    51.3010    43.5090    56.5950    25.1800   -10.2140 
  211.5000     2.2140    64.3090    60.3410    51.7830    67.5140    25.2490   -10.2720 
  211.6250     2.1990    63.7000    71.1080    63.3470    82.9660    25.3200   -10.3380 
  211.7500     2.1910    63.9170    79.5830    73.9190    91.0310    25.3590   -10.4150 
  211.8750     2.1900    63.6310    82.7150    79.2490    91.2780    25.3500   -10.5120 
  212.0000     2.1930    63.9010    79.7270    77.5400    84.7990    25.2830   -10.5960 
  212.1250     2.1990    66.6290    72.4100    70.5470    72.7180    25.1700   -10.6150 
  212.2500     2.2080    68.4630    64.9050    62.8610    60.3690    25.0780   -10.6280 
  212.3750     2.2180    66.2790    59.3540    56.6060    51.5620    25.0300   -10.6980 
  212.5000     2.2260    62.0170    56.7710    52.8570    47.1820    24.9930   -10.8180 
  212.6250     2.2290    60.5720    58.1000    52.7160    45.6670    24.9680   -10.9450 
  212.7500     2.2270    61.0720    62.7540    55.9000    44.5410    25.0170   -11.0750 
  212.8750     2.2180    60.8470    70.2410    62.2150    44.3980    25.0590   -11.2100 
  213.0000     2.2050    60.4340    79.4170    70.8050    48.5410    25.0330   -11.3710 
  213.1250     2.1900    61.7390    88.1270    79.6660    61.5630    25.0670   -11.6130 
  213.2500     2.1780    63.1130    94.4450    86.3570    77.6210    25.3230   -11.8690 
  213.3750     2.1710    63.2920    97.8350    89.8630    88.8880    25.7250   -12.1100 
  213.5000     2.1700    63.1800    99.2830    90.9580    95.0080    26.0950   -12.3540 
  213.6250     2.1740    63.2090   101.0010    91.9140   102.1500    26.3730   -12.6180 
  213.7500     2.1820    62.2690   104.7110    94.8510   110.2500    26.5140   -12.8810 
  213.8750     2.1880    60.6140   110.7030   100.4410   115.5460    26.4570   -13.1210 
  214.0000     2.1850    60.1040   117.9750   108.0180   118.4400    26.3210   -13.3380 
  214.1250     2.1670    62.0640   124.0550   115.3780   121.7160    26.1750   -13.5270 
  214.2500     2.1400    63.9050   126.6960   119.9080   123.9730    25.9750   -13.7100 
  214.3750     2.1130    64.2140   124.7740   120.0390   124.5310    25.7800   -13.8780 
  214.5000     2.0960    63.3740   118.5970   115.6300   124.2540    25.8800   -13.9990 
  214.6250     2.0920    61.9990   109.5650   107.7170   119.0210    26.1100   -14.0480 
  214.7500     2.0930    62.2240   100.3420    99.0250   106.4810    26.1790   -14.0680 
  214.8750     2.0970    65.3670    92.5190    91.2480    90.1590    26.1410   -14.0890 
  215.0000     2.1050    69.7510    87.0320    85.5400    77.2160    26.1110   -14.1250 
  215.1250     2.1220    72.1100    84.5080    82.8420    74.0880    26.0460   -14.1730 
  215.2500     2.1490    71.0210    83.9960    82.3910    77.8260    25.9560   -14.1640 
  215.3750     2.1780    66.9260    84.6240    83.3260    85.3340    25.8740   -14.0970 
  215.5000     2.2030    61.3340    85.4720    84.5930    92.6130    25.8350   -14.0370 
  215.6250     2.2160    57.1660    85.8250    85.1790    94.4990    25.8390   -14.0700 
  215.7500     2.2190    56.1620    85.7870    85.0420    91.2170    25.8630   -14.1480 
  215.8750     2.2160    58.8210    85.8800    84.7550    87.1810    25.8870   -14.2300 
  216.0000     2.2120    64.3030    86.7060    85.1060    87.2490    25.8900   -14.2970 
  216.1250     2.2050    68.7900    88.7340    86.8270    92.5550    25.8690   -14.3170 
  216.2500     2.1960    68.3690    91.4820    89.5780    99.1680    25.8420   -14.3380 
  216.3750     2.1850    65.3910    94.2760    92.6560   104.4430    25.8300   -14.3920 
  216.5000     2.1740    63.9180    96.4300    95.1780   106.4020    25.8190   -14.4370 
  216.6250     2.1690    64.4280    97.3840    96.3840   103.9470    25.7850   -14.4160 
  216.7500     2.1720    64.0940    97.3820    96.5950    99.2350    25.7290   -14.3760 
  216.8750     2.1790    62.9610    96.6270    96.1310    94.4590    25.6790   -14.3510 
  217.0000     2.1880    62.7260    95.1930    95.0810    91.5030    25.5900   -14.3350 
  217.1250     2.1940    64.1190    92.8820    93.1520    89.8020    25.3300   -14.3210 
  217.2500     2.1950    66.2520    89.8170    90.3840    84.6740    24.8380   -14.3030 
  217.3750     2.1930    68.0200    86.2120    86.9730    74.0550    24.2700   -14.2570 
  217.5000     2.1900    68.2480    82.4370    83.3110    62.2390    23.8300   -14.2210 
  217.6250     2.1900    65.1190    78.9760    79.8760    58.9130    23.6300   -14.2110 
  217.7500     2.1950    63.1680    76.0840    76.9420    64.8090    23.5690   -14.1830 
  217.8750     2.2060    65.0660    73.8530    74.6500    73.3230    23.6170   -14.1020 
  218.0000     2.2210    68.7210    72.2110    73.0180    77.2750    23.7110   -13.9730 
  218.1250     2.2360    69.0380    70.9810    71.8880    75.9790    23.7740   -13.8640 
  218.2500     2.2460    65.9910    69.8160    70.8080    75.0060    23.7720   -13.8140 
  218.3750     2.2490    62.5670    68.5330    69.5360    74.1640    23.7380   -13.8030 
  218.5000     2.2450    61.6300    67.0500    68.0080    70.0140    23.7060   -13.7570 
  218.6250     2.2320    65.8190    65.3780    66.1950    62.6410    23.7290   -13.6700 
