~V
VERS. 2.00: Ver 2.00
~W
STRT.M 53.0000:
STOP.M 296.0000:
STEP.M 0.1250:
NULL. -999.2500:
UWI. F10258:
~C
DEPT.M :
GR.API :
RML.OHMM :
RI. :
RXO.OHMM :
CALI.CM :
DEN.GM/CC :
SP.MV :
~A
# ...
   98.0000    59.5780    12.8810    10.6270    14.3620    25.4130     2.2730   -24.8840 
   98.1250    63.4370    11.8160     9.9750    10.0250    25.4480     2.2150   -24.8860 
   98.2500    64.4140    10.6760     9.1580     8.6590    25.5070     2.1590   -24.8740 
   98.3750    62.4090     9.8140     8.4800     8.7430    25.5630     2.1240   -24.8330 
   98.5000    60.8620     9.3700     8.0950     8.9570    25.5880     2.1140   -24.7370 
   98.6250    61.3580     9.3320     8.0520     9.0780    25.5880     2.1210   -24.5610 
   98.7500    62.2450     9.4930     8.2010     9.0130    25.5770     2.1300   -24.3220 
   98.8750    63.4060     9.7340     8.4420     8.9650    25.5550     2.1380   -24.0300 
   99.0000    65.3520     9.9680     8.7120     9.0480    25.5700     2.1430   -23.6690 
   99.1250    67.4490    10.0710     8.9330     8.9600    25.6180     2.1460   -23.2110 
   99.2500    70.2520     9.9460     9.0010     8.9060    25.6350     2.1500   -22.6780 
   99.3750    74.8250     9.5160     8.8050     8.9130    25.6130     2.1570   -22.0560 
   99.5000    80.0100     8.7650     8.2840     8.7730    25.6260     2.1740   -21.3520 
   99.6250    83.8450     7.7940     7.4570     7.9870    25.6690     2.2060   -20.5690 
   99.7500    90.2750     6.8900     6.5350     6.8050    25.7020     2.2500   -19.7210 
   99.8750   102.3890     6.1820     5.6730     5.7970    25.7400     2.2970   -18.8490 
  100.0000   116.1120     5.6480     4.9660     4.9840    25.8150     2.3380   -17.9960 
  100.1250   123.8900     5.2510     4.4810     4.7200    25.8490     2.3650   -17.2150 
  100.2500   126.6790     5.0110     4.1840     4.6140    25.8280     2.3790   -16.5460 
  100.3750   127.2440     4.9900     4.0730     4.5110    25.7660     2.3840   -16.0200 
  100.5000   125.7400     5.1870     4.1520     4.3990    25.6830     2.3810   -15.6530 
  100.6250   120.1920     5.6090     4.4490     4.4350    25.6290     2.3700   -15.4580 
  100.7500   111.1900     6.1440     4.8940     5.0680    25.6220     2.3520   -15.4210 
  100.8750   101.1390     6.6570     5.3940     6.4680    25.6760     2.3310   -15.5340 
  101.0000    94.2300     6.9900     5.7980     7.5360    25.8100     2.3140   -15.7540 
  101.1250    95.6750     6.9900     5.9050     7.2140    25.9700     2.3090   -16.0410 
  101.2500   102.6830     6.7580     5.7430     6.3260    26.0810     2.3160   -16.3460 
  101.3750   109.9970     6.4660     5.4530     5.8840    26.1310     2.3310   -16.6590 
  101.5000   113.7360     6.3230     5.2170     5.8110    26.1500     2.3440   -16.9790 
  101.6250   111.8390     6.5960     5.2360     5.7910    26.1840     2.3380   -17.3120 
  101.7500   105.0760     7.4030     5.6000     6.2250    26.1180     2.3060   -17.6640 
  101.8750    93.6750     8.9230     6.4300     7.3900    25.9200     2.2600   -18.0510 
  102.0000    82.0690    11.3920     7.9230     8.3370    25.7230     2.2280   -18.4950 
  102.1250    77.3760    15.2610    10.6270     9.9530    25.6990     2.2560   -19.0130 
  102.2500    77.4010    20.2190    14.7190    14.9790    25.7950     2.3460   -19.5840 
  102.3750    74.9920    25.3160    19.9250    28.5320    25.9570     2.4710   -20.1800 
  102.5000    66.8560    28.7320    24.6670    48.1020    26.1410     2.5800   -20.7690 
  102.6250    59.0840    28.0430    25.4710    63.6990    26.2010     2.6120   -21.3380 
  102.7500    57.5220    24.0010    22.2190    46.0430    26.0480     2.5650   -21.8820 
  102.8750    59.9140    18.5330    17.2250    21.6230    25.7670     2.4590   -22.3940 
  103.0000    61.9690    13.6890    12.7640    11.2560    25.6170     2.3350   -22.8920 
  103.1250    62.7540    10.7430     9.8990     8.8780    25.5980     2.2320   -23.3510 
  103.2500    64.0300     9.2460     8.2200     8.4360    25.6130     2.1850   -23.7530 
  103.3750    65.7040     8.7140     7.3920     8.5280    25.6040     2.1580   -24.1080 
  103.5000    64.8990     8.7190     7.1360     8.7110    25.5860     2.1340   -24.4100 
  103.6250    62.0170     8.9420     7.2330     8.7410    25.6990     2.1340   -24.6290 
  103.7500    61.1050     9.1410     7.4230     8.6770    25.8770     2.1400   -24.7410 
  103.8750    62.3830     9.2420     7.6060     8.7470    26.0040     2.1420   -24.7200 
  104.0000    63.9060     9.2440     7.7470     8.7740    26.0610     2.1390   -24.5820 
  104.1250    64.1320     9.1650     7.8270     8.7600    26.0400     2.1320   -24.3670 
  104.2500    64.1150     9.0480     7.8540     8.8720    25.9690     2.1260   -24.1240 
  104.3750    63.8730     8.9060     7.8260     9.2630    25.9250     2.1240   -23.8480 
  104.5000    63.1590     8.7470     7.7440     9.5380    25.9350     2.1270   -23.5410 
  104.6250    62.3110     8.5880     7.6150     9.5190    25.9720     2.1320   -23.1940 
  104.7500    62.8440     8.4480     7.4740     9.1430    26.0490     2.1350   -22.8070 
  104.8750    65.8800     8.3410     7.3510     8.6420    26.2120     2.1330   -22.3730 
  105.0000    69.4930     8.2550     7.2600     8.2000    26.4670     2.1240   -21.8710 
  105.1250    68.6370     8.1360     7.1770     7.9020    26.6430     2.1080   -21.2800 
  105.2500    67.3910     7.9290     7.0470     7.8140    26.7030     2.0930   -20.6300 
  105.3750    71.1530     7.6160     6.8290     7.6780    26.6250     2.0890   -19.9400 
  105.5000    78.9790     7.2320     6.5250     7.1810    26.4400     2.1080   -19.2020 
  105.6250    86.0830     6.8880     6.2070     6.4440    26.2160     2.1530   -18.4200 
  105.7500    91.1670     6.6980     5.9820     6.0890    26.0030     2.2070   -17.6480 
  105.8750    94.7540     6.7180     5.9160     6.2260    25.8710     2.2510   -16.9110 
  106.0000    94.7370     6.9320     6.0250     6.5640    25.8000     2.2710   -16.2580 
  106.1250    88.3080     7.2320     6.2630     6.9690    25.7260     2.2600   -15.7670 
  106.2500    81.1260     7.4260     6.4620     7.4230    25.6230     2.2370   -15.4020 
  106.3750    79.5590     7.3800     6.4760     7.2910    25.4950     2.2160   -15.1490 
  106.5000    85.5060     7.0460     6.2230     7.0080    25.3980     2.2110   -15.0080 
  106.6250    94.2570     6.4690     5.7230     6.3720    25.3210     2.2300   -14.9750 
  106.7500   101.1740     5.8620     5.1520     5.5040    25.2670     2.2640   -15.0120 
  106.8750   106.0440     5.4160     4.6520     4.9430    25.2650     2.3010   -15.0900 
  107.0000   109.6470     5.3200     4.3600     4.9050    25.2600     2.3290   -15.1800 
  107.1250   109.4250     5.8570     4.4880     5.0500    25.2150     2.3390   -15.2530 
  107.2500   105.2270     7.0540     5.1150     5.3170    25.1050     2.3430   -15.3360 
  107.3750    98.1090     8.8760     6.3420     6.7740    24.9620     2.3650   -15.4800 
  107.5000    90.5780    11.0450     8.1710    12.0090    24.8730     2.4200   -15.7200 
  107.6250    83.8790    12.8370    10.2640    34.2980    24.8950     2.4960   -16.0970 
  107.7500    76.4100    13.5840    11.7120    63.3030    24.9700     2.5520   -16.5880 
  107.8750    69.4600    13.0830    11.8840    47.9230    25.1320     2.5500   -17.1730 
  108.0000    65.6010    11.7110    10.9540    19.3820    25.2940     2.4820   -17.7980 
  108.1250    66.6010    10.2350     9.6800    11.3220    25.2760     2.3710   -18.3830 
  108.2500    69.7360     9.2390     8.6950     9.3090    25.1970     2.2660   -18.8900 
  108.3750    73.0330     8.8250     8.1450     9.1170    25.1320     2.1930   -19.3080 
  108.5000    75.3390     8.8470     7.9710     9.1810    25.0480     2.1550   -19.6510 
  108.6250    75.7330     9.0660     8.0220     9.1800    24.9400     2.1420   -19.8950 
  108.7500    75.7060     9.2240     8.0820     9.1220    24.8880     2.1390   -20.0270 
  108.8750    76.9120     9.2030     8.0390     9.3880    24.8740     2.1430   -20.0370 
  109.0000    80.4160     8.9820     7.8450    10.0400    24.8440     2.1530   -19.9350 
  109.1250    83.1170     8.6650     7.5200    10.6150    24.7600     2.1630   -19.7700 
