~V
VERS. 2.00: Ver 2.00
~W
STRT.M 63.0000:
STOP.M 280.0000:
STEP.M 0.1250:
NULL. -999.2500:
UWI. F10220:
~C
DEPT.M :
SP.MV :
DEN.GM/CC :
GR.API :
RML.OHMM :
RI. :
RXO.OHMM :
CALI.CM :
~A
# ...
  265.5000    -5.4450     2.4330    64.0410    16.2790    14.7170    13.6230    24.5880 
  265.6250    -5.4970     2.4270    64.4520    16.4300    14.7310    13.3770    24.6810 
  265.7500    -5.6080     2.4400    65.7790    16.8560    14.9960    13.7760    24.6710 
  265.8750    -5.7310     2.4640    66.9160    17.4050    15.4190    13.9690    24.6080 
  266.0000    -5.8360     2.4830    67.8800    17.9540    15.9090    13.9310    24.5820 
  266.1250    -5.9100     2.4850    69.3820    18.4160    16.3730    13.9300    24.5370 
  266.2500    -5.9830     2.4720    69.7530    18.7350    16.7300    14.5150    24.3990 
  266.3750    -6.0960     2.4560    66.3000    18.9430    16.9730    15.3340    24.3090 
  266.5000    -6.2310     2.4420    62.6210    19.0630    17.1190    15.6630    24.3690 
  266.6250    -6.3240     2.4360    62.9120    19.1150    17.1960    15.4270    24.4880 
  266.7500    -6.4120     2.4380    65.6650    19.0930    17.2120    15.1790    24.5980 
  266.8750    -6.4820     2.4400    67.0850    19.0040    17.1740    15.6460    24.6970 
  267.0000    -6.5750     2.4380    66.4310    18.8550    17.0810    16.5530    24.8070 
  267.1250    -6.7140     2.4290    63.9660    18.6840    16.9540    19.2830    24.8590 
  267.2500    -6.8290     2.4180    62.8300    18.5510    16.8400    26.6040    24.8690 
  267.3750    -6.9080     2.4150    64.0780    18.4790    16.7750    34.0390    24.9120 
  267.5000    -6.9830     2.4220    66.1330    18.4560    16.7640    32.9750    24.9860 
  267.6250    -7.0850     2.4330    67.0640    18.4440    16.7880    26.9600    25.1140 
  267.7500    -7.1120     2.4430    65.5150    18.3560    16.7740    22.8630    25.1270 
  267.8750    -7.0960     2.4460    62.9030    18.1270    16.6470    21.0770    25.0580 
  268.0000    -7.0760     2.4370    60.8990    17.7510    16.3760    20.6990    25.0380 
  268.1250    -7.0410     2.4220    61.7150    17.2760    15.9920    19.5260    25.0140 
  268.2500    -6.9940     2.4230    64.7650    16.7930    15.5710    17.1870    24.8870 
  268.3750    -6.9360     2.4390    66.2180    16.3960    15.2080    14.9230    24.6970 
  268.5000    -6.8410     2.4530    65.6610    16.1360    14.9610    14.8910    24.5860 
  268.6250    -6.7280     2.4560    64.5770    16.0130    14.8410    15.0280    24.6100 
  268.7500    -6.6130     2.4510    64.5990    15.9860    14.8240    14.7870    24.7080 
  268.8750    -6.5530     2.4490    65.8130    15.9800    14.8310    14.5750    24.7770 
  269.0000    -6.5070     2.4510    66.7230    15.9570    14.8200    14.5180    24.8400 
  269.1250    -6.4280     2.4540    67.2210    15.9020    14.7710    13.9480    24.8820 
  269.2500    -6.3940     2.4550    67.3160    15.8160    14.6880    13.8890    24.9010 
  269.3750    -6.3810     2.4560    66.5670    15.7230    14.6060    14.7910    24.9180 
  269.5000    -6.3960     2.4550    65.8050    15.6350    14.5410    15.7460    24.9220 
  269.6250    -6.4450     2.4480    65.1160    15.5550    14.4970    14.8930    24.8710 
  269.7500    -6.5150     2.4360    64.8310    15.5050    14.4720    15.0950    24.7160 
  269.8750    -6.5840     2.4290    64.8310    15.4950    14.4660    16.0170    24.5640 
  270.0000    -6.6500     2.4300    64.8310    15.5190    14.4760    15.8490    24.4920 
  270.1250    -6.7000     2.4340    64.8310    15.5540    14.4930    14.9450    24.5160 
  270.2500    -6.7190     2.4350    64.8310    15.5500    14.4910    13.8170    24.4410 
  270.3750    -6.7820     2.4370    64.8310    15.4750    14.4450    13.5540    24.3460 
  270.5000    -6.8530     2.4400    64.8310    15.3250    14.3420    13.8410    24.3320 
  270.6250    -6.8630     2.4430    64.8310    15.1380    14.1950    13.7540    24.4440 
  270.7500    -6.9120     2.4420    64.8310    14.9910    14.0530    13.6540    24.5270 
  270.8750    -6.9270     2.4390    64.8310    14.9420    13.9770    13.5620    24.5660 
  271.0000    -6.9330     2.4370    64.8310    15.0110    13.9960    13.4180    24.6570 
  271.1250    -6.9840     2.4320    64.8310    15.1570    14.0990    12.7160    24.8530 
  271.2500    -7.0750     2.4190    64.8310    15.2740    14.2160    11.9000    25.0310 
  271.3750    -7.1540     2.3980    64.8310    15.2820    14.2650    11.3460    25.1720 
  271.5000    -7.2150     2.3650    64.8310    15.1800    14.2180    11.1780    25.3150 
  271.6250    -7.2880     2.3280    64.8310    15.0290    14.1060    11.0170    25.4340 
  271.7500    -7.2710     2.3110    64.8310    14.9540    14.0170    11.3310    25.4200 
  271.8750    -7.2170     2.3240    64.8310    15.0370    14.0380    12.5620    25.2620 
  272.0000    -7.1640     2.3580    64.8310    15.2940    14.2100    14.0200    25.0880 
  272.1250    -7.0910     2.3910    64.8310    15.6870    14.5270    14.7460    24.9310 
  272.2500    -6.9490     2.4030    64.8310    16.1490    14.9540    15.8100    24.7580 
  272.3750    -6.7980     2.4050    64.8310    16.5870    15.3950    17.5150    24.6080 
  272.5000    -6.6560     2.4100    64.8310    16.9420    15.7780    19.5680    24.5050 
  272.6250    -6.5230     2.4220    64.8310    17.1890    16.0550    20.5320    24.4180 
  272.7500    -6.4430     2.4410    64.8310    17.3340    16.2040    21.1660    24.4040 
  272.8750    -6.3820     2.4560    64.8310    17.4220    16.2700    20.6640    24.4240 
  273.0000    -6.3110     2.4640    64.8310    17.4690    16.2820    17.9850    24.5690 
  273.1250    -6.2650     2.4640    64.8310    17.4890    16.2720    16.3490    24.7360 
  273.2500    -6.2510     2.4590    64.8310    17.4910    16.2720    16.5370    24.8430 
  273.3750    -6.2370     2.4560    64.8310    17.4850    16.2910    17.3300    24.8900 
  273.5000    -6.2230     2.4580    64.8310    17.4740    16.3230    17.2810    24.8810 
  273.6250    -6.2210     2.4610    64.8310    17.4530    16.3550    16.9520    24.8290 
  273.7500    -6.2120     2.4610    64.8310    17.4130    16.3710    16.7260    24.7680 
  273.8750    -6.2260     2.4630    64.8310    17.3670    16.3710    17.1740    24.7040 
  274.0000    -6.2370     2.4680    64.8310    17.3380    16.3660    18.2520    24.6710 
  274.1250    -6.2440     2.4690    64.8310    17.3480    16.3670    18.3540    24.6640 
  274.2500    -6.2500     2.4660    64.8310    17.3950    16.3760    17.5800    24.6660 
  274.3750  -999.2500     2.4660    64.8310    17.4500    16.3840    17.5040    24.6640 
  274.5000  -999.2500     2.4710    64.8310    17.4900    16.3830    17.7900    24.6560 
  274.6250  -999.2500     2.4780    64.8310    17.5070    16.3720    18.3400    24.6430 
  274.7500  -999.2500     2.4840    64.8310    17.5030    16.3550    18.6450    24.6650 
  274.8750  -999.2500     2.4770    64.8310    17.4920    16.3430    18.2300    24.7440 
  275.0000  -999.2500     2.4550    64.8310    17.4830    16.3360    17.6670    24.9220 
  275.1250  -999.2500     2.4280    64.8310    17.4830    16.3340    17.1440    25.1310 
  275.2500  -999.2500     2.4180    64.8310    17.4960    16.3330    16.6100    25.2530 
  275.3750  -999.2500     2.4210    64.8310    17.5140    16.3320    16.1550    25.3980 
  275.5000  -999.2500     2.4120    64.8310    17.5270    16.3290    15.9630    25.6720 
  275.6250  -999.2500     2.3820    64.8310    17.5280    16.3250    15.9660    25.9780 
  275.7500  -999.2500     2.3630    64.8310    17.5280    16.3250    15.8220    26.0640 
  275.8750  -999.2500     2.3780    64.8310    17.5280    16.3250    16.3070    25.7940 
  276.0000  -999.2500     2.4160    64.8310    17.5280    16.3250    18.6090    25.3960 
  276.1250  -999.2500     2.4510    64.8310    17.5280    16.3250    20.6080    25.1680 
  276.2500  -999.2500     2.4650    64.8310    17.5280    16.3250    20.8200    25.1610 
  276.3750  -999.2500     2.4730    64.8310    17.5280    16.3250    20.1180    25.1750 
  276.5000  -999.2500     2.4760    64.8310    17.5280    16.3250    19.4090    25.1120 
  276.6250  -999.2500     2.4850    64.8310    17.5280    16.3250    19.3320    24.9350 
