~V
VERS. 2.00: Ver 2.00
~W
STRT.M 53.0000:
STOP.M 282.0000:
STEP.M 0.1250:
NULL. -999.2500:
UWI. F10240:
~C
DEPT.M :
GR.API :
RML.OHMM :
RI. :
RXO.OHMM :
CALI.CM :
DEN.GM/CC :
SP.MV :
~A
# ...
  199.2500    62.6810    37.0620    33.5480    32.8870    25.2760     2.1690   -24.0870 
  199.3750    56.3850    39.8640    34.7710    33.6720    25.1810     2.1580   -23.7310 
  199.5000    52.7640    45.5030    39.1740    38.8950    25.0580     2.1680   -23.3390 
  199.6250    52.4390    51.9950    45.0650    45.4430    25.1140     2.2020   -22.8860 
  199.7500    52.0660    58.3470    51.3790    49.7390    25.1490     2.2550   -22.3690 
  199.8750    49.9350    64.5920    57.7490    42.0170    25.0890     2.3190   -21.8270 
  200.0000    49.3440    71.7050    64.7460    29.0280    25.0560     2.3930   -21.3100 
  200.1250    51.6740    79.3450    72.1140    28.1900    25.0660     2.4810   -20.8080 
  200.2500    53.4030    85.0300    77.8150    60.1150    25.0130     2.5800   -20.3200 
  200.3750    52.7360    84.7060    78.3400   140.6530    24.9450     2.6690   -19.8510 
  200.5000    52.6890    74.3400    69.6600   168.7980    24.8640     2.6960   -19.4020 
  200.6250    54.5740    58.1520    55.0740    83.5480    24.8270     2.6600   -18.9780 
  200.7500    56.1700    41.4630    39.5820    47.0670    24.7900     2.5960   -18.5910 
  200.8750    56.2520    28.0250    27.0060    41.6810    24.8460     2.5500   -18.2280 
  201.0000    54.9990    19.3750    18.8780    32.8990    24.9600     2.5460   -17.9030 
  201.1250    53.4780    13.9800    13.7050    20.4930    25.1410     2.5570   -17.5900 
  201.2500    53.2630    10.8610    10.5810    11.6720    25.2500     2.5480   -17.2500 
  201.3750    53.9280     9.2060     8.8120     8.2120    25.2510     2.5090   -16.8860 
  201.5000    53.6500     8.5360     8.0320     7.7280    25.1700     2.4500   -16.5320 
  201.6250    53.2590     8.3270     7.7810     7.7140    25.1330     2.4060   -16.2270 
  201.7500    53.7600     8.3180     7.8250     7.6870    25.1760     2.3900   -16.0000 
  201.8750    54.9760     8.2930     7.9280     7.7230    25.2100     2.3920   -15.8370 
  202.0000    56.5640     8.1100     7.8730     7.9610    25.2030     2.4030   -15.7010 
  202.1250    57.9440     7.7800     7.6090     8.1010    25.1250     2.4270   -15.5960 
  202.2500    58.1610     7.2900     7.1340     7.9830    25.0040     2.4700   -15.5690 
  202.3750    55.2270     6.6140     6.4600     6.9900    24.9010     2.5270   -15.6360 
  202.5000    50.9040     5.7930     5.6480     5.9240    24.8500     2.5760   -15.7600 
  202.6250    48.7010     5.0200     4.8690     5.5870    24.8300     2.5940   -15.8870 
  202.7500    49.7050     4.4590     4.2580     5.9420    24.8770     2.5690   -15.9820 
  202.8750    51.6950     4.2160     3.9000     5.8330    25.0060     2.5020   -16.0650 
  203.0000    51.9370     4.3730     3.8730     5.5980    25.0870     2.3980   -16.1790 
  203.1250    50.1690     4.8170     4.0910     6.3240    25.0730     2.2850   -16.3490 
  203.2500    47.8360     5.4210     4.4710     7.9190    25.0080     2.1820   -16.5460 
  203.3750    46.6630     6.0090     4.8900     8.0970    24.9660     2.1100   -16.7310 
  203.5000    47.0000     6.3780     5.1960     7.0810    24.9390     2.1060   -16.9110 
  203.6250    48.3510     6.5370     5.3620     6.3020    24.9150     2.1620   -17.1460 
  203.7500    51.4650     6.6200     5.4520     6.3630    24.9270     2.2470   -17.4680 
  203.8750    56.6240     6.7790     5.5650     7.0340    25.0350     2.3230   -17.8550 
  204.0000    62.0540     7.1070     5.7750     7.6510    25.1110     2.3600   -18.2790 
  204.1250    65.8630     7.5350     6.0540     7.8650    25.1020     2.3650   -18.6820 
  204.2500    68.8530     7.9960     6.3620     7.9720    25.0500     2.3430   -19.0530 
  204.3750    72.7900     8.4500     6.6680     8.1190    25.0560     2.3010   -19.4240 
  204.5000    78.7010     8.9140     6.9760     8.5550    25.1610     2.2490   -19.8290 
  204.6250    82.6630     9.4550     7.3230     9.2920    25.2470     2.2070   -20.2270 
  204.7500    79.7850    10.1740     7.7760    10.5580    25.2840     2.1930   -20.5940 
  204.8750    71.7750    11.2030     8.4270    12.0190    25.2840     2.2070   -20.9260 
  205.0000    68.0020    12.7010     9.4140    13.6230    25.2810     2.2350   -21.1980 
  205.1250    71.0310    14.5220    10.6760    15.0090    25.2740     2.2740   -21.4180 
  205.2500    75.6300    16.3730    12.0400    17.0750    25.2860     2.3350   -21.5920 
  205.3750    77.5320    17.7910    13.1740    21.5460    25.2830     2.4260   -21.7150 
  205.5000    78.9590    18.1020    13.5400    23.7050    25.2830     2.5180   -21.7740 
  205.6250    82.6410    17.3420    13.0850    19.1260    25.2600     2.5710   -21.7970 
  205.7500    84.5280    15.8640    12.0270    14.3900    25.2260     2.5740   -21.8210 
  205.8750    83.1140    14.1760    10.7230    12.7200    25.1710     2.5450   -21.8800 
  206.0000    82.4100    12.7410     9.5100    12.3080    25.1580     2.5060   -21.9930 
  206.1250    84.0470    11.7190     8.5590    11.2910    25.1820     2.4710   -22.1520 
  206.2500    85.0000    11.1310     7.9330     9.6720    25.2520     2.4420   -22.3660 
  206.3750    85.0520    10.9620     7.6420     9.0010    25.3000     2.4180   -22.6690 
  206.5000    86.1930    11.3770     7.7720     9.7980    25.3050     2.3910   -23.0840 
  206.6250    85.7860    12.4770     8.3470    12.3320    25.2590     2.3550   -23.5570 
  206.7500    82.1940    14.3770     9.4490    15.5910    25.2050     2.3150   -24.0170 
  206.8750    77.7570    17.0030    11.0920    17.9630    25.1650     2.2880   -24.3780 
  207.0000    75.3020    19.8870    13.0930    21.3620    25.1790     2.3100   -24.5740 
  207.1250    74.4640    21.9840    14.7650    26.7050    25.2020     2.3780   -24.6260 
  207.2500    73.0920    22.3170    15.3520    28.2940    25.2080     2.4520   -24.5410 
  207.3750    70.5390    20.5530    14.4750    24.1450    25.1760     2.4850   -24.3060 
  207.5000    67.9840    17.3350    12.4630    17.8970    25.1780     2.4540   -23.8730 
  207.6250    68.3320    14.1710    10.3420    13.6770    25.2350     2.4010   -23.2840 
  207.7500    72.6950    11.8010     8.6170    11.4640    25.2750     2.3580   -22.5990 
  207.8750    80.2000    10.4840     7.4860    10.1660    25.2880     2.3380   -21.9140 
  208.0000    86.9300    10.3280     7.0690     9.7270    25.3300     2.3440   -21.3200 
  208.1250    89.9480    11.0020     7.2180     9.6660    25.3830     2.3580   -20.8250 
  208.2500    88.6970    12.3350     7.8750    10.6010    25.4420     2.3710   -20.4230 
  208.3750    83.1610    14.0630     8.9320    12.6210    25.4920     2.3810   -20.0840 
  208.5000    74.4620    15.6330    10.1330    14.6560    25.4550     2.3930   -19.7700 
  208.6250    69.0880    16.3770    10.9920    15.5840    25.3990     2.4120   -19.4590 
  208.7500    69.4750    15.8920    11.1170    15.1380    25.3520     2.4340   -19.1390 
  208.8750    72.5720    14.2910    10.4200    13.6540    25.3290     2.4410   -18.7670 
  209.0000    76.0610    12.1730     9.1690    11.3260    25.3040     2.4200   -18.2600 
  209.1250    81.9770    10.2950     7.9010     9.0630    25.3230     2.3810   -17.6110 
  209.2500    88.0940     8.9520     6.8710     7.2690    25.5240     2.3410   -16.8280 
  209.3750    86.2780     8.1710     6.1700     6.3190    26.0270     2.3170   -15.9540 
  209.5000    72.3760     7.8840     5.8260     6.2120    26.3180     2.3200   -15.0860 
  209.6250    57.8320     7.8410     5.7060     6.3080    26.2830     2.3340   -14.2820 
  209.7500    50.5130     7.9000     5.7250     6.3470    26.1650     2.3470   -13.5420 
  209.8750    51.7570     7.9610     5.8080     6.2670    26.0730     2.3540   -12.8720 
  210.0000    57.2970     7.9830     5.9110     6.2520    25.7930     2.3520   -12.3520 
  210.1250    62.2790     8.0050     6.0280     6.2280    25.4750     2.3440   -12.0180 
  210.2500    65.2610     8.0750     6.1770     6.3080    25.4740     2.3340   -11.8720 
  210.3750    66.9340     8.2200     6.3690     6.3750    25.3690     2.3280   -11.8780 
