~V
VERS. 2.00: Ver 2.00
~W
STRT.M 52.0000:
STOP.M 271.0000:
STEP.M 0.1250:
NULL. -999.2500:
UWI. F10212:
~C
DEPT.M :
GR.API :
RML.OHMM :
RI. :
RXO.OHMM :
CALI.CM :
SP.MV :
DEN.GM/CC :
~A
# ...
  175.7500    56.8840   170.5240   166.1650   112.9650    23.7760   -30.5660     2.2340 
  175.8750    59.1730   175.8890   172.6340   138.1000    23.7900   -30.7020     2.2350 
  176.0000    61.2120   177.2950   175.9870   132.2050    23.6980   -30.8470     2.2280 
  176.1250    62.6360   169.5670   170.5430   104.2710    23.4910   -30.9950     2.2250 
  176.2500    64.7500   154.8550   157.3120    78.1190    23.1670   -31.1490     2.2340 
  176.3750    67.5260   137.5620   140.0900    71.3100    22.8820   -31.2800     2.2500 
  176.5000    68.6630   122.5630   123.9650    70.7780    22.7850   -31.3780     2.2660 
  176.6250    67.9990   114.4290   114.0440    68.0860    22.9420   -31.4880     2.2780 
  176.7500    68.6880   113.8880   111.4960    67.7340    23.2270   -31.6620     2.2820 
  176.8750    69.2370   121.6400   117.2040    73.6920    23.5920   -31.8680     2.2770 
  177.0000    65.9040   137.7880   131.4990    92.1860    23.9220   -32.0620     2.2670 
  177.1250    59.5010   161.7280   153.9050   146.2800    24.1170   -32.1880     2.2530 
  177.2500    55.1200   187.8070   178.8000   212.1630    24.1550   -32.2140     2.2300 
  177.3750    54.6410   210.3510   200.9420   248.1410    24.1210   -32.1810     2.2050 
  177.5000    56.6060   224.7340   216.2140   210.4670    24.0750   -32.1170     2.1870 
  177.6250    59.3780   226.9150   220.7310   162.8350    24.0570   -31.9960     2.1850 
  177.7500    61.0180   218.1290   214.8760   176.5280    24.1280   -31.8330     2.1910 
  177.8750    60.9360   199.1630   198.6610   259.6140    24.2180   -31.6150     2.1970 
  178.0000    58.5650   173.1910   174.3380   348.4410    24.2430   -31.3540     2.1980 
  178.1250    55.2390   146.8460   147.6720   279.0680    24.1710   -31.0840     2.1950 
  178.2500    56.4820   126.4270   125.6900   147.5270    24.0460   -30.8350     2.1940 
  178.3750    61.0430   114.5160   111.6470    88.4030    23.9590   -30.5820     2.1970 
  178.5000    64.6240   111.4100   106.2090    85.1560    23.8270   -30.3340     2.2020 
  178.6250    63.3780   117.3010   109.6570   110.5910    23.6810   -30.1270     2.2030 
  178.7500    60.1550   128.9870   118.8900   143.8470    23.6510   -29.9160     2.1990 
  178.8750    58.8500   143.9560   131.5200   156.1400    23.7290   -29.7240     2.1960 
  179.0000    59.3800   159.3320   144.7160   140.6830    23.8020   -29.5470     2.1980 
  179.1250    59.3630   167.8400   156.2000   125.1370    23.7680   -29.3400     2.2050 
  179.2500    57.9850   164.5280   166.3860   138.7920    23.6710   -29.0890     2.2120 
  179.3750    57.6050   176.4030   176.3260   173.3150    23.5730   -28.8340     2.2140 
  179.5000    59.9430   189.1640   186.4570   199.4420    23.5490   -28.6070     2.2080 
  179.6250    62.6800   202.2890   196.3710   203.4480    23.5860   -28.4180     2.2000 
  179.7500    63.2320   215.1610   205.7210   183.4310    23.6220   -28.2200     2.1970 
  179.8750    62.3510   227.9150   214.6660   169.2320    23.6310   -27.9660     2.2000 
  180.0000    61.0400   240.9300   223.5520   166.9220    23.6070   -27.6790     2.2030 
  180.1250    59.6650   253.7490   232.1800   197.2280    23.5530   -27.4410     2.2010 
  180.2500    57.6080   264.4490   239.4300   223.8240    23.4570   -27.2770     2.1940 
  180.3750    54.7630   270.6860   243.8260   221.9910    23.3250   -27.1580     2.1870 
  180.5000    52.8670   270.8930   244.2530   197.2770    23.2710   -27.0390     2.1850 
  180.6250    53.9310   264.3250   239.9320   179.8110    23.6130   -26.8690     2.1880 
  180.7500    55.3510   253.7100   232.4600   196.8530    24.2480   -26.6540     2.1910 
  180.8750    54.2970   241.1070   223.1450   215.7020    24.6820   -26.4390     2.1900 
  181.0000    53.1670   228.2840   213.3670   214.0450    24.8110   -26.2270     2.1870 
  181.1250    55.8850   214.6920   202.9900   194.0990    24.7780   -25.9840     2.1870 
  181.2500    58.6070   196.4640   188.8350   182.8990    24.8060   -25.7050     2.1900 
  181.3750    57.2320   169.6980   166.5760   169.1050    24.8840   -25.3980     2.1960 
  181.5000    55.2190   135.0320   135.0770   143.7340    24.8740   -25.0910     2.2030 
  181.6250    58.4200    99.6970   100.1780   113.1670    24.6340   -24.7860     2.2100 
  181.7500    63.6510    70.9970    70.9310    64.1930    24.2020   -24.4870     2.2190 
  181.8750    68.7840    50.9270    50.5450    30.7710    23.8620   -24.1970     2.2320 
  182.0000    74.9000    38.4530    38.1240    17.6780    23.6720   -23.9070     2.2510 
  182.1250    79.9890    32.1450    31.8490    15.4650    23.5530   -23.6190     2.2740 
  182.2500    81.4950    29.1040    28.6570    16.2080    23.4630   -23.3490     2.2940 
  182.3750    80.9030    28.1120    27.4410    17.1900    23.4950   -23.1150     2.3040 
  182.5000    79.5020    28.4210    27.5770    18.5830    23.6100   -22.9060     2.3060 
  182.6250    77.1610    29.8580    28.9030    20.0720    23.7060   -22.7280     2.3030 
  182.7500    74.9790    32.3260    31.2230    21.7910    23.6730   -22.5680     2.2980 
  182.8750    73.4990    35.9240    34.6650    25.5600    23.5940   -22.4120     2.2920 
  183.0000    72.1170    40.4210    39.2030    37.4010    23.5330   -22.2900     2.2840 
  183.1250    70.5410    44.8770    44.2190    52.0660    23.5510   -22.2380     2.2760 
  183.2500    70.2920    47.8640    48.1090    58.9900    23.6110   -22.2260     2.2690 
  183.3750    70.9250    48.3150    49.3590    58.7570    23.6750   -22.2140     2.2650 
  183.5000    71.0220    46.0430    47.3920    51.5190    23.7930   -22.1920     2.2640 
  183.6250    70.0280    41.8810    42.9920    38.1960    24.0080   -22.1660     2.2720 
  183.7500    69.5620    37.6960    38.3490    28.3730    24.2180   -22.1830     2.2880 
  183.8750    71.8230    34.4820    34.5610    26.8290    24.2520   -22.2590     2.3070 
  184.0000    76.8520    32.6930    32.0870    24.6200    24.1430   -22.3690     2.3210 
  184.1250    79.1420    32.5640    31.1720    22.4360    24.0570   -22.4910     2.3270 
  184.2500    77.2990    33.4530    31.2960    22.7790    24.0300   -22.6290     2.3270 
  184.3750    74.5390    34.7460    31.9770    25.0360    24.0450   -22.8030     2.3230 
  184.5000    73.3950    35.7690    32.6330    26.4240    24.0810   -22.9920     2.3200 
  184.6250    72.2060    35.8450    32.6260    29.7580    24.1170   -23.1960     2.3200 
  184.7500    69.3680    35.1510    31.9740    31.5950    24.1630   -23.3830     2.3220 
  184.8750    68.5610    34.3730    31.1600    28.4200    24.2290   -23.5410     2.3240 
  185.0000    72.2060    34.5690    30.9460    24.1970    24.2900   -23.6750     2.3280 
  185.1250    77.0130    37.3910    32.5090    28.2110    24.3180   -23.7980     2.3300 
  185.2500    78.7140    43.5590    36.5430    38.1050    24.3420   -23.9040     2.3230 
  185.3750    76.1650    53.6580    43.8540    58.4980    24.3740   -23.9700     2.3080 
  185.5000    71.8250    67.6110    54.8520    83.9950    24.3620   -23.9930     2.2870 
  185.6250    67.9960    84.0680    68.9300    89.8150    24.2030   -23.9460     2.2630 
  185.7500    64.9290    98.6570    82.2650   116.2730    23.9300   -23.8490     2.2410 
  185.8750    62.9970   106.6830    90.6520   146.6050    23.5270   -23.7210     2.2220 
  186.0000    62.0540   105.3370    91.3660   117.8920    23.1670   -23.5720     2.2070 
  186.1250    64.1300    95.5270    84.5110    80.6550    23.0180   -23.3890     2.2040 
  186.2500    67.1120    83.7280    75.2040    64.2260    23.0100   -23.1600     2.2120 
  186.3750    68.0780    73.7930    66.7630    58.3740    23.0660   -22.8900     2.2240 
  186.5000    66.9520    67.6780    61.1050    52.9730    23.1440   -22.6130     2.2350 
  186.6250    65.7110    66.0610    59.1780    47.3890    23.1980   -22.3980     2.2440 
  186.7500    65.1690    66.6040    59.3630    46.5520    23.2370   -22.2530     2.2530 
  186.8750    64.0050    66.9810    59.8230    54.4730    23.2640   -22.1450     2.2590 
