~V
VERS. 2.00: Ver 2.00
~W
STRT.M 47.0000:
STOP.M 270.0000:
STEP.M 0.1250:
NULL. -999.2500:
UWI. F10221:
~C
DEPT.M :
SP.MV :
GR.API :
RML.OHMM :
RI. :
RXO.OHMM :
CALI.CM :
DEN.GM/CC :
~A
# ...
  103.2500   -26.1030    76.8020     8.1070     6.7390     7.9730    23.6070     2.2030 
  103.3750   -26.1660    76.7310     8.1890     6.7320     8.2840    24.2350     2.1910 
  103.5000   -26.2440    72.8590     8.4130     6.8560     8.8420    24.6730     2.1770 
  103.6250   -26.3370    68.6830     8.6540     7.0290     9.6170    24.8450     2.1660 
  103.7500   -26.4430    65.4280     8.8420     7.1890    10.3700    24.8580     2.1610 
  103.8750   -26.5440    64.6830     8.9510     7.2950    10.5520    24.8170     2.1650 
  104.0000   -26.5980    66.0670     8.9870     7.3370    10.3080    24.7140     2.1770 
  104.1250   -26.5990    65.8980     9.0090     7.3630     9.9200    24.5390     2.1940 
  104.2500   -26.5410    64.1340     9.0620     7.4110     9.6590    24.2360     2.2080 
  104.3750   -26.4460    65.2390     9.1740     7.5040     9.6330    23.8290     2.2140 
  104.5000   -26.3500    67.9210     9.3340     7.6420    10.0260    23.5000     2.2120 
  104.6250   -26.2630    66.2730     9.4800     7.7870    10.6160    23.4640     2.2110 
  104.7500   -26.1950    62.7460     9.5620     7.8960    11.1770    23.5910     2.2110 
  104.8750   -26.1720    62.0010     9.5500     7.9310    11.3830    23.5020     2.2100 
  105.0000   -26.1370    63.7640     9.4270     7.8570    11.2540    23.1290     2.2080 
  105.1250   -26.0960    65.4580     9.2440     7.7100    10.8300    22.9510     2.2060 
  105.2500   -26.0130    67.1130     9.0500     7.5340    10.3850    23.0880     2.2080 
  105.3750   -25.9090    69.7200     8.8910     7.3780    10.0400    23.2400     2.2130 
  105.5000   -25.7420    72.8830     8.7910     7.2850     9.7610    23.2700     2.2210 
  105.6250   -25.5220    74.5580     8.7070     7.2300     9.6760    23.2870     2.2280 
  105.7500   -25.2610    72.5420     8.5810     7.1630     9.5810    23.3040     2.2350 
  105.8750   -24.9820    65.9570     8.3590     7.0210     9.0680    23.2790     2.2400 
  106.0000   -24.6960    61.8360     8.0090     6.7610     8.1870    23.3030     2.2420 
  106.1250   -24.4480    66.5710     7.5950     6.4260     7.4750    23.6050     2.2450 
  106.2500   -24.2540    76.6600     7.1980     6.0790     7.1680    24.0440     2.2510 
  106.3750   -24.1270    85.1880     6.9100     5.7940     7.1290    24.3580     2.2550 
  106.5000   -24.1210    88.1970     6.8520     5.6670     7.2340    24.4200     2.2530 
  106.6250   -24.2280    86.2990     7.0420     5.7210     7.2840    24.3560     2.2470 
  106.7500   -24.4580    80.1300     7.4570     5.9630     7.4360    24.2810     2.2350 
  106.8750   -24.7990    72.3380     8.0150     6.3540     8.0820    24.3400     2.2180 
  107.0000   -25.2910    68.2930     8.5660     6.8070     9.4980    24.3860     2.2080 
  107.1250   -25.8150    66.6140     8.9470     7.1790    10.8230    24.1060     2.2080 
  107.2500   -26.3560    65.9520     9.0720     7.3770    10.6500    23.5270     2.2100 
  107.3750   -26.8680    67.8080     8.9700     7.3890     9.3870    23.0090     2.2050 
  107.5000   -27.3040    71.1230     8.7910     7.2770     7.8650    22.8020     2.1950 
  107.6250   -27.6610    71.9640     8.7160     7.1680     7.4810    22.8530     2.1910 
  107.7500   -27.9360    69.7850     8.8010     7.1200     8.3430    23.0190     2.1930 
  107.8750   -28.1550    65.8960     8.9910     7.1480     9.4000    23.1830     2.1950 
  108.0000   -28.3140    64.1330     9.1470     7.2250     9.8260    23.3310     2.1960 
  108.1250   -28.4510    64.2230     9.1760     7.2910     9.8810    23.4520     2.1950 
  108.2500   -28.5520    64.8440     9.0880     7.3270     9.9450    23.5380     2.1930 
  108.3750   -28.6440    65.3470     8.9590     7.3410     9.8590    23.6700     2.1940 
  108.5000   -28.7080    66.3060     8.8850     7.3620     9.6560    23.9410     2.2010 
  108.6250   -28.7720    67.1930     8.8840     7.4020     9.3170    24.3400     2.2120 
  108.7500   -28.8130    66.8390     8.9150     7.4530     9.3150    24.7590     2.2200 
  108.8750   -28.8090    65.8180     8.9190     7.4860     9.5590    25.0770     2.2200 
  109.0000   -28.7440    65.6880     8.8510     7.4710     9.8670    25.2150     2.2120 
  109.1250   -28.6590    63.4090     8.7410     7.4150     9.8520    25.2320     2.2050 
  109.2500   -28.5550    60.9100     8.6440     7.3520     9.0780    25.1250     2.2040 
  109.3750   -28.4240    63.8060     8.6040     7.3180     8.0190    24.9550     2.2070 
  109.5000   -28.2810    67.0510     8.6220     7.3270     7.5050    24.8860     2.2120 
  109.6250   -28.1070    65.9030     8.6320     7.3380     9.0190    24.9230     2.2130 
  109.7500   -27.9100    63.8720     8.5880     7.3080    10.1740    25.0230     2.2110 
  109.8750   -27.6730    64.4720     8.4700     7.2140    10.3460    25.0130     2.2090 
  110.0000   -27.4460    66.2730     8.2910     7.0660     9.8490    24.7000     2.2150 
  110.1250   -27.2460    69.7700     8.1210     6.9200     9.2780    24.1860     2.2220 
  110.2500   -27.1010    75.1620     8.0160     6.8240     9.2060    23.8270     2.2250 
  110.3750   -26.9900    76.9920     8.0040     6.8000     8.9980    23.8200     2.2210 
  110.5000   -26.9130    73.2630     8.0710     6.8430     8.6520    23.9980     2.2130 
  110.6250   -26.8490    70.4120     8.1390     6.8960     8.6870    24.0380     2.2070 
  110.7500   -26.7940    68.2890     8.1430     6.9080     9.2660    23.8560     2.2050 
  110.8750   -26.7580    66.5750     8.0600     6.8500     9.4960    23.5380     2.2060 
  111.0000   -26.7030    68.1340     7.9340     6.7460     9.0570    23.1430     2.2160 
  111.1250   -26.5990    71.0340     7.8640     6.6690     8.5850    22.7840     2.2320 
  111.2500   -26.4540    72.1340     7.9170     6.6740     8.4650    22.5920     2.2490 
  111.3750   -26.3180    69.7870     8.1150     6.7880     9.0030    22.5500     2.2570 
  111.5000   -26.1760    65.7610     8.4310     7.0100     9.4590    22.5670     2.2520 
  111.6250   -26.0530    61.9990     8.7510     7.2690     9.6260    22.5970     2.2440 
  111.7500   -25.9520    60.0560     8.9890     7.4990     9.5900    22.6560     2.2400 
  111.8750   -25.8790    59.5430     9.0800     7.6340     9.6520    22.7060     2.2400 
  112.0000   -25.7810    58.3280     8.9800     7.6110     9.4960    22.7380     2.2430 
  112.1250   -25.6740    59.3900     8.7560     7.4640     9.1110    22.8020     2.2430 
  112.2500   -25.5220    64.4310     8.4820     7.2510     8.5590    22.9380     2.2400 
  112.3750   -25.3050    71.3570     8.2370     7.0320     7.9350    23.1190     2.2360 
  112.5000   -25.0400    74.7040     8.0940     6.8610     7.6790    23.2660     2.2340 
  112.6250   -24.7710    72.4960     8.0300     6.7490     7.8830    23.4230     2.2260 
  112.7500   -24.4930    67.8410     7.9940     6.6820     8.4260    23.6120     2.2060 
  112.8750   -24.1700    64.1940     7.9620     6.6500     8.7390    23.8030     2.1810 
  113.0000   -23.8390    63.3500     8.0250     6.7110     8.7310    23.8350     2.1760 
  113.1250   -23.4770    64.2280     8.3330     6.9520     8.9160    23.7350     2.2020 
  113.2500   -23.0790    65.3980     8.9840     7.4520     9.5020    23.6010     2.2520 
  113.3750   -22.6440    65.3240     9.9520     8.2250    10.4130    23.4820     2.3180 
  113.5000   -22.1950    62.4410    11.0190     9.1660    12.8850    23.3690     2.3950 
  113.6250   -21.7350    61.6810    11.7670     9.9380    16.6970    23.4300     2.4600 
  113.7500   -21.3200    65.3540    11.8540    10.1990    17.4320    23.5770     2.4710 
  113.8750   -20.9720    70.8470    11.1870     9.8020    13.2780    23.6940     2.4060 
  114.0000   -20.6820    75.7430    10.0140     8.9170    11.0910    23.6140     2.3080 
  114.1250   -20.4010    79.1410     8.9240     8.0240    10.7530    23.4380     2.2390 
  114.2500   -20.1430    79.8150     8.2740     7.3970    10.8760    23.3030     2.2090 
  114.3750   -19.9100    77.1090     8.2170     7.1810    10.8320    23.3050     2.2030 
