~V
VERS. 2.00: Ver 2.00
~W
STRT.M 56.0000:
STOP.M 281.0000:
STEP.M 0.1250:
NULL. -999.2500:
UWI. F10232:
~C
DEPT.M :
SP.MV :
GR.API :
RML.OHMM :
RI. :
RXO.OHMM :
CALI.CM :
DEN.GM/CC :
~A
# ...
  258.5000    -3.2150    63.7980    14.9810    13.9510    15.5940    24.1270     2.4880 
  258.6250    -3.2560    61.2340    14.8860    13.8730    16.0240    24.1120     2.4930 
  258.7500    -3.3200    58.7350    14.7970    13.8080    16.6450    24.0810     2.4930 
  258.8750    -3.3960    58.1630    14.7200    13.7520    17.1260    24.0190     2.4870 
  259.0000    -3.4710    58.4690    14.6590    13.7000    17.3660    23.9270     2.4790 
  259.1250    -3.5530    57.8710    14.6190    13.6520    17.3500    23.8110     2.4730 
  259.2500    -3.6470    55.5590    14.6010    13.6100    17.1460    23.6840     2.4680 
  259.3750    -3.7490    53.6720    14.5950    13.5690    16.7320    23.5530     2.4630 
  259.5000    -3.8540    54.8450    14.5760    13.5240    16.2990    23.4620     2.4590 
  259.6250    -3.9410    58.0370    14.5260    13.4690    16.0920    23.4280     2.4560 
  259.7500    -4.0140    59.8960    14.4340    13.4010    16.0940    23.4400     2.4590 
  259.8750    -4.0990    58.9750    14.2980    13.3160    15.9490    23.4960     2.4660 
  260.0000    -4.1680    57.1640    14.1380    13.2170    15.4490    23.6040     2.4730 
  260.1250    -4.2390    56.4060    13.9620    13.1050    14.8210    23.7170     2.4760 
  260.2500    -4.3170    57.3580    13.7680    12.9750    14.0810    23.7760     2.4770 
  260.3750    -4.4060    59.2350    13.5420    12.8070    13.3540    23.7730     2.4760 
  260.5000    -4.4790    59.8020    13.2800    12.5950    12.4180    23.7520     2.4770 
  260.6250    -4.5210    59.6270    12.9810    12.3350    11.3770    23.7310     2.4770 
  260.7500    -4.5800    59.9130    12.6520    12.0330    10.5550    23.7230     2.4770 
  260.8750    -4.6370    59.5200    12.3090    11.7050    10.0600    23.7370     2.4740 
  261.0000    -4.6780    57.6480    11.9750    11.3800     9.7250    23.7560     2.4700 
  261.1250    -4.7340    56.9040    11.6740    11.0810     9.3240    23.7420     2.4670 
  261.2500    -4.7610    57.8960    11.4350    10.8380     8.7640    23.6700     2.4660 
  261.3750    -4.7310    58.3830    11.3050    10.7000     8.2910    23.5420     2.4680 
  261.5000    -4.7140    57.3860    11.2910    10.6750     8.1060    23.4030     2.4720 
  261.6250    -4.6910    56.5030    11.3910    10.7620     8.2040    23.2890     2.4760 
  261.7500    -4.6350    56.1940    11.5790    10.9360     8.5260    23.2540     2.4790 
  261.8750    -4.5890    56.2180    11.7990    11.1470     9.2190    23.3210     2.4780 
  262.0000    -4.5510    56.9920    11.9780    11.3280    10.3660    23.4590     2.4770 
  262.1250    -4.4870    58.6930    12.0800    11.4420    11.7990    23.6010     2.4750 
  262.2500    -4.4410    60.7910    12.1060    11.4860    13.1090    23.6860     2.4740 
  262.3750    -4.4290    61.8740    12.1040    11.4940    13.3440    23.6870     2.4710 
  262.5000    -4.3900    61.1960    12.1490    11.5360    13.0390    23.6640     2.4670 
  262.6250    -4.3570    59.7760    12.2910    11.6560    13.8070    23.6420     2.4660 
  262.7500    -4.3580    59.5480    12.5410    11.8690    15.8230    23.6120     2.4720 
  262.8750    -4.3720    60.3080    12.8790    12.1620    18.2200    23.5600     2.4840 
  263.0000    -4.3970    60.6360    13.2190    12.4650    19.1370    23.4920     2.4980 
  263.1250    -4.4150    60.2090    13.4870    12.7180    18.5040    23.4240     2.5060 
  263.2500    -4.4060    59.8310    13.6220    12.8660    17.1420    23.3630     2.5070 
  263.3750    -4.4010    60.3130    13.5670    12.8560    16.0570    23.3270     2.5010 
  263.5000    -4.4240    60.6970    13.3760    12.7220    15.6320    23.3110     2.4950 
  263.6250    -4.4700    59.8220    13.1140    12.5110    15.4400    23.2990     2.4930 
  263.7500    -4.5120    57.9430    12.8690    12.2910    15.1430    23.2860     2.4940 
  263.8750    -4.5140    57.4110    12.7550    12.1630    14.6580    23.2950     2.4950 
  264.0000    -4.4890    59.1000    12.8120    12.1780    14.7450    23.3570     2.4920 
  264.1250    -4.4640    61.4290    13.0380    12.3510    15.4020    23.4960     2.4850 
  264.2500    -4.4350    63.6300    13.3710    12.6470    16.1240    23.7110     2.4730 
  264.3750    -4.4010    64.5310    13.6940    12.9780    15.8450    23.9180     2.4580 
  264.5000    -4.3640    62.8370    13.8870    13.2250    15.1300    24.0350     2.4440 
  264.6250    -4.3210    59.4370    13.8860    13.3100    14.8160    24.0560     2.4340 
  264.7500    -4.2540    56.2880    13.6860    13.2010    14.9720    24.0210     2.4320 
  264.8750    -4.2240    55.5260    13.3230    12.9010    14.8470    23.9750     2.4420 
  265.0000    -4.2430    56.5240    12.9040    12.5080    14.6250    23.9380     2.4570 
  265.1250    -4.2880    58.7380    12.4980    12.0930    14.2590    23.9320     2.4710 
  265.2500    -4.3370    60.6660    12.1570    11.7130    14.0440    23.9670     2.4790 
  265.3750    -4.3640    60.3640    11.9430    11.4370    13.9760    24.0030     2.4800 
  265.5000    -4.3780    59.0140    11.8680    11.2900    13.9660    24.0270     2.4810 
  265.6250    -4.3880    57.6620    11.9390    11.2890    14.2800    24.0400     2.4860 
  265.7500    -4.4100    56.4300    12.1420    11.4310    14.9020    24.0360     2.4960 
  265.8750    -4.4190    56.0370    12.4440    11.6980    15.4650    24.0060     2.5080 
  266.0000    -4.4080    55.7730    12.7650    12.0130    15.8140    23.9560     2.5160 
  266.1250    -4.4030    55.0750    13.0500    12.3190    15.7740    23.9020     2.5180 
  266.2500    -4.4280    54.6290    13.2650    12.5720    15.6760    23.8690     2.5150 
  266.3750    -4.4620    55.7770    13.4030    12.7440    15.8260    23.8650     2.5080 
  266.5000    -4.4990    57.8330    13.5160    12.8730    16.1680    23.8860     2.5020 
  266.6250    -4.5200    59.3390    13.6440    12.9940    16.8470    23.9330     2.4960 
  266.7500    -4.5350    59.2900    13.8060    13.1340    17.7130    24.0110     2.4920 
  266.8750    -4.5420    57.7410    13.9840    13.2900    18.2970    24.1150     2.4900 
  267.0000    -4.5430    56.9920    14.1290    13.4350    18.0130    24.2090     2.4910 
  267.1250    -4.5380    57.9300    14.2120    13.5390    17.2770    24.2600     2.4930 
  267.2500    -4.5070    58.7230    14.2240    13.5880    16.4850    24.2790     2.4960 
  267.3750    -4.4980    57.3140    14.1810    13.5770    15.8500    24.2890     2.4970 
  267.5000    -4.4940    55.4950    14.1230    13.5310    15.4830    24.3000     2.4960 
  267.6250    -4.5030    55.6580    14.0680    13.4640    15.4580    24.3070     2.4940 
  267.7500    -4.5180    57.5800    14.0190    13.3840    15.4730    24.3030     2.4920 
  267.8750    -4.5260    58.8920    13.9700    13.2960    15.0370    24.2900     2.4890 
  268.0000    -4.5420    57.6920    13.9150    13.2030    14.1170    24.2760     2.4860 
  268.1250    -4.5520    55.2080    13.8550    13.1080    13.4210    24.2560     2.4820 
  268.2500    -4.5590    54.8720    13.7890    13.0170    13.5170    24.2170     2.4770 
  268.3750    -4.5780    58.0320    13.7190    12.9320    14.6820    24.1390     2.4750 
  268.5000    -4.5920    60.1450    13.6400    12.8510    16.2290    24.0380     2.4760 
  268.6250    -4.6160    58.3590    13.5540    12.7710    17.6290    23.9470     2.4790 
  268.7500    -4.6250    55.6480    13.4670    12.6940    18.5240    23.8740     2.4820 
  268.8750    -4.6200    56.0650    13.4000    12.6320    18.4640    23.7990     2.4830 
  269.0000    -4.6170    56.1370    13.3680    12.5930    18.4050    23.7180     2.4850 
  269.1250    -4.6290    54.7170    13.3770    12.5810    18.3990    23.6320     2.4890 
  269.2500    -4.6430    54.4300    13.4210    12.5950    18.1000    23.5530     2.4970 
  269.3750    -4.6240    56.4350    13.4830    12.6260    17.3130    23.5030     2.5070 
  269.5000    -4.6130    57.2950    13.5430    12.6620    16.9530    23.4810     2.5140 
  269.6250    -4.5860    56.2230    13.5890    12.6940    17.1300    23.4680     2.5160 
