~V
VERS. 2.00: Ver 2.00
~W
STRT.M 50.0000:
STOP.M 274.0000:
STEP.M 0.1250:
NULL. -999.2500:
UWI. F10208:
~C
DEPT.M :
SP.MV :
DEN.GM/CC :
GR.API :
RML.OHMM :
RI. :
RXO.OHMM :
CALI.CM :
~A
# ...
  151.2500   -18.2760     2.2690    69.8080     7.6090     5.5310     8.5900    24.2620 
  151.3750   -18.2270     2.2640    72.0390     7.7340     5.6920     9.3640    24.2360 
  151.5000   -18.1200     2.2650    74.6630     7.7670     5.8150     9.5170    24.1400 
  151.6250   -17.9800     2.2730    74.3000     7.7630     5.9020    10.0690    24.1840 
  151.7500   -17.8490     2.2810    72.6200     7.7700     5.9710    10.3020    24.1890 
  151.8750   -17.7720     2.2870    73.5660     7.7660     6.0100     9.4850    24.2360 
  152.0000   -17.7290     2.2880    76.2900     7.6710     5.9820     8.4420    24.2900 
  152.1250   -17.7220     2.2800    77.1100     7.3580     5.8170     7.8580    24.2580 
  152.2500   -17.7260     2.2680    75.5200     6.8570     5.5170     7.2010    24.2250 
  152.3750   -17.7490     2.2530    74.9040     6.2840     5.1320     6.3860    24.1860 
  152.5000   -17.7660     2.2410    75.9660     5.7810     4.7480     5.7180    24.1460 
  152.6250   -17.8420     2.2390    77.9090     5.4780     4.4780     5.2990    24.0600 
  152.7500   -17.9060     2.2460    81.1030     5.3790     4.3660     5.0840    24.0650 
  152.8750   -17.9570     2.2570    84.4540     5.4650     4.4250     5.0430    24.1400 
  153.0000   -18.0040     2.2650    84.1300     5.6690     4.6160     5.3110    24.1130 
  153.1250   -18.0650     2.2620    77.5790     5.8330     4.8220     5.7720    24.0110 
  153.2500   -18.1230     2.2500    71.4220     5.7670     4.8900     6.1600    23.8380 
  153.3750   -18.1450     2.2370    70.5530     5.4030     4.7380     6.0390    23.7950 
  153.5000   -18.0350     2.2290    72.4840     4.8480     4.3940     5.1450    23.9120 
  153.6250   -17.7540     2.2320    72.0010     4.3500     3.9880     4.1660    23.8960 
  153.7500   -17.4180     2.2440    71.5130     4.0610     3.6620     3.8360    23.8710 
  153.8750   -17.0830     2.2600    71.9360     3.9870     3.4670     3.8840    23.9110 
  154.0000   -16.7160     2.2760    71.1000     4.0730     3.3980     4.0130    23.9010 
  154.1250   -16.3040     2.2880    68.9710     4.2270     3.4160     4.0820    24.0130 
  154.2500   -15.8530     2.2970    68.1920     4.3500     3.4510     4.1580    23.9650 
  154.3750   -15.4150     2.3000    68.7380     4.4270     3.4870     4.2410    23.9100 
  154.5000   -15.0810     2.3010    70.8980     4.5360     3.5580     4.3220    23.9250 
  154.6250   -14.9130     2.3010    73.2690     4.8910     3.7810     4.5160    23.8320 
  154.7500   -14.8090     2.3010    73.1380     5.6090     4.2330     5.0610    23.6700 
  154.8750   -14.7240     2.2970    69.0640     6.6680     4.9380     6.2060    23.4980 
  155.0000   -14.6410     2.2870    62.8170     7.8440     5.8030     8.2440    23.7090 
  155.1250   -14.5470     2.2740    59.3520     8.6490     6.5330    11.1970    24.0020 
  155.2500   -14.4980     2.2650    59.7470     8.8380     6.8720    13.3260    24.2020 
  155.3750   -14.5590     2.2700    61.9250     8.6000     6.8380    11.8020    24.1720 
  155.5000   -14.7140     2.2890    63.0760     8.4710     6.7300     7.8490    24.1750 
  155.6250   -14.8870     2.3150    64.4180     9.1780     7.0420     6.4750    24.2250 
  155.7500   -15.0350     2.3310    65.0320    10.9910     8.0750     8.4040    24.1530 
  155.8750   -15.1510     2.3250    61.2840    14.0570    10.0830    14.9470    24.0600 
  156.0000   -15.2330     2.2930    55.1020    18.2700    13.2130    23.9280    24.1510 
  156.1250   -15.2510     2.2420    53.9980    22.8240    17.2340    29.4990    24.3450 
  156.2500   -15.2120     2.1920    55.9440    25.9000    20.6820    30.3130    24.3390 
  156.3750   -15.0390     2.1550    55.0350    26.1450    22.0620    29.4700    24.2160 
  156.5000   -14.7940     2.1380    52.2290    23.7720    21.0250    28.0270    24.1320 
  156.6250   -14.6080     2.1420    51.7570    20.3590    18.5830    25.0770    24.1670 
  156.7500   -14.5310     2.1570    52.4720    17.4830    16.2150    20.2520    24.1920 
  156.8750   -14.5050     2.1760    52.1040    15.5780    14.4250    15.1850    24.1800 
  157.0000   -14.4520     2.1940    52.6420    14.6190    13.3090    13.3810    24.1990 
  157.1250   -14.3180     2.2060    57.0620    14.4120    12.8350    14.6100    24.3380 
  157.2500   -14.1890     2.2150    60.8740    14.3490    12.6250    15.9990    24.4220 
  157.3750   -14.1570     2.2200    61.0870    13.9200    12.3230    15.7860    24.4680 
  157.5000   -14.2020     2.2210    60.6370    12.8040    11.6160    15.0770    24.5070 
  157.6250   -14.2000     2.2180    63.6760    11.1140    10.4190    15.6400    24.6750 
  157.7500   -14.1350     2.2150    66.5630     9.5060     9.1400    15.3060    24.8170 
  157.8750   -14.0190     2.2160    66.2880     8.4210     8.1280    11.7580    24.8690 
  158.0000   -13.9820     2.2240    66.0330     8.0660     7.6160     7.7150    24.7690 
  158.1250   -14.1180     2.2390    67.4920     8.5520     7.8100     8.4300    24.6070 
  158.2500   -14.2930     2.2530    69.2510     9.6660     8.6160    11.0650    24.6140 
  158.3750   -14.3410     2.2600    69.1610    11.2690     9.9850    13.6640    24.5860 
  158.5000   -14.1830     2.2580    67.1880    13.0260    11.7320    16.7320    24.4450 
  158.6250   -13.9290     2.2500    64.4570    14.2200    13.3130    19.3930    24.5070 
  158.7500   -13.7930     2.2430    61.9860    14.4750    14.1590    19.0170    24.4770 
  158.8750   -13.8310     2.2380    62.3940    13.9710    14.1860    18.5750    24.4600 
  159.0000   -13.9760     2.2350    65.2990    13.2590    13.7580    19.6880    24.5170 
  159.1250   -14.1730     2.2320    67.4170    12.9550    13.3830    16.6260    24.4830 
  159.2500   -14.3850     2.2300    66.2550    13.2720    13.3840    13.4800    24.4820 
  159.3750   -14.7160     2.2320    62.5550    14.1020    13.8080    13.8700    24.6600 
  159.5000   -15.2450     2.2390    59.9970    14.9700    14.3940    18.3510    24.8720 
  159.6250   -15.8500     2.2510    62.9040    14.9650    14.4340    20.2620    25.0510 
  159.7500   -16.3040     2.2610    67.6110    13.7120    13.4760    19.3230    24.8480 
  159.8750   -16.5670     2.2660    70.2480    11.5530    11.6660    15.7340    24.4290 
  160.0000   -16.6920     2.2630    70.1990     9.4470     9.6900    10.6670    23.8580 
  160.1250   -16.7300     2.2550    71.9450     8.5770     8.4460     7.4880    23.9650 
  160.2500   -16.6890     2.2500    75.6910     9.3440     8.3200     6.8300    24.1270 
  160.3750   -16.5880     2.2520    76.1510    12.1930     9.7240     8.3820    24.0740 
  160.5000   -16.4110     2.2580    70.0900    17.8040    13.3940    13.1370    24.2470 
  160.6250   -16.2510     2.2550    58.7890    27.8660    21.2980    29.0380    24.6200 
  160.7500   -16.1490     2.2350    49.0580    42.2500    33.9410    56.3070    25.3750 
  160.8750   -16.1470     2.1990    45.9550    58.8070    49.8890    76.9810    26.4300 
  161.0000   -16.2340     2.1580    47.8300    71.1190    63.4730    77.3860    26.9220 
  161.1250   -16.4420     2.1320    48.7830    70.7270    66.2990    73.2350    27.0620 
  161.2500   -16.7350     2.1270    48.0470    62.4560    60.8140    66.8880    27.0770 
  161.3750   -17.0640     2.1410    48.6990    52.8940    52.3360    54.5480    26.8860 
  161.5000   -17.3940     2.1650    53.9050    45.6430    44.7640    41.2770    26.3240 
  161.6250   -17.7010     2.1860    58.5650    41.9190    39.9470    36.7480    25.6290 
  161.7500   -17.9740     2.1970    58.6050    40.6390    37.3920    36.1130    25.3830 
  161.8750   -18.2330     2.1970    56.6160    40.9660    36.5730    36.5470    25.3540 
  162.0000   -18.4680     2.1900    55.1650    42.0050    36.8280    37.5360    25.3250 
  162.1250   -18.6650     2.1840    53.8930    42.8570    37.3960    39.4550    25.3490 
  162.2500   -18.8490     2.1800    53.6320    43.1170    37.6620    41.1100    25.2700 
  162.3750   -19.0340     2.1800    55.6870    42.9120    37.5630    39.9920    25.1960 
