~V
VERS. 2.00: Ver 2.00
~W
STRT.M 50.0000:
STOP.M 271.0000:
STEP.M 0.1250:
NULL. -999.2500:
UWI. F10251:
~C
DEPT.M :
DEN.GM/CC :
GR.API :
RML.OHMM :
RI. :
RXO.OHMM :
CALI.CM :
SP.MV :
~A
# ...
  196.2500     2.2040    59.4750   172.2710   162.7860   309.6550    24.8410    -9.5960 
  196.3750     2.2110    59.8330   194.6430   188.0620   281.2550    24.8290    -9.3090 
  196.5000     2.2190    58.3440   194.7370   193.5150   253.6100    24.7890    -9.1040 
  196.6250     2.2290    57.5330   169.8450   173.6690   228.4820    24.7420    -9.0230 
  196.7500     2.2400    57.8320   137.5970   143.6240   186.3610    24.6810    -8.8500 
  196.8750     2.2500    57.9960   108.1200   114.0060   140.3760    24.6100    -8.7320 
  197.0000     2.2570    59.0320    85.5950    90.2780   108.4640    24.5210    -8.7550 
  197.1250     2.2630    62.3500    71.8910    75.1500    79.7060    24.3910    -8.7850 
  197.2500     2.2630    66.0430    64.7200    66.7040    59.2610    24.2540    -8.8030 
  197.3750     2.2530    67.4450    62.7380    63.6350    56.6850    24.1730    -8.9080 
  197.5000     2.2340    65.6580    64.5040    64.5350    66.4990    24.2700    -9.1010 
  197.6250     2.2210    63.8790    68.6130    68.1860    85.0870    24.4920    -9.2320 
  197.7500     2.2190    64.5170    73.0050    72.5540    93.3000    24.6500    -9.3930 
  197.8750     2.2220    64.9060    76.5990    76.4440    90.6190    24.7300    -9.6600 
  198.0000     2.2220    61.2220    79.2500    79.4580    86.6920    24.7790    -9.8560 
  198.1250     2.2210    55.8170    81.9280    82.2620    85.1550    24.9110    -9.9570 
  198.2500     2.2260    54.1380    85.8210    85.9990    88.8130    25.0060   -10.1550 
  198.3750     2.2350    57.0030    91.3250    91.1660   103.4250    24.9620   -10.4530 
  198.5000     2.2410    60.5120    97.9480    97.4040   119.8240    24.8040   -10.6480 
  198.6250     2.2410    61.9500   104.1660   103.2400   128.7780    24.7650   -10.8250 
  198.7500     2.2360    61.5900   108.3880   107.0820   129.9790    24.7940   -11.0900 
  198.8750     2.2310    60.0250   109.8430   108.1150   124.3510    24.7770   -11.2590 
  199.0000     2.2280    59.7250   108.8240   106.5290   116.5340    24.6510   -11.4040 
  199.1250     2.2260    61.8450   106.5570   103.4410   110.2350    24.5010   -11.6410 
  199.2500     2.2250    62.5900   104.8290   100.7600   109.1410    24.4080   -11.8700 
  199.3750     2.2270    61.0170   104.7180    99.6740   108.6330    24.3930   -12.0070 
  199.5000     2.2300    60.6560   107.0110   100.9750   107.7530    24.3920   -12.1100 
  199.6250     2.2300    63.4610   112.9790   105.7970   111.3390    24.3530   -12.2270 
  199.7500     2.2260    63.3970   122.8210   114.2110   106.5050    24.2420   -12.2470 
  199.8750     2.2180    58.6780   137.0170   126.5810    97.4940    24.0100   -12.2660 
  200.0000     2.2060    53.4290   155.3890   142.7180    99.2600    23.8020   -12.3470 
  200.1250     2.1920    52.3880   176.1170   161.0130   116.0200    23.8240   -12.3910 
  200.2500     2.1770    53.3870   194.0190   177.0850   149.9580    24.1030   -12.3490 
  200.3750     2.1620    53.5240   203.5030   186.4590   185.9420    24.4150   -12.3170 
  200.5000     2.1470    52.2200   201.0140   186.1280   218.2910    24.5840   -12.3390 
  200.6250     2.1400    52.6840   187.3510   175.9010   202.6320    24.4980   -12.2500 
  200.7500     2.1440    54.8900   170.8330   162.1790   174.3850    24.4510   -12.2320 
  200.8750     2.1590    55.7080   156.3610   149.3320   156.5860    24.5150   -12.2770 
  201.0000     2.1760    53.7900   146.0620   139.7500   155.8200    24.6080   -12.2090 
  201.1250     2.1790    51.2530   140.5380   134.4120   175.2330    24.7020   -12.0170 
  201.2500     2.1680    51.5340   137.7780   131.6620   211.7210    24.7770   -11.8580 
  201.3750     2.1560    54.5470   136.3710   130.0950   208.4820    24.8180   -11.7490 
  201.5000     2.1510    57.1420   135.0470   128.4100   187.0550    24.8200   -11.5550 
  201.6250     2.1580    57.4910   130.9950   124.2440   157.8290    24.7820   -11.3650 
  201.7500     2.1690    57.3770   120.0720   114.1910   142.7110    24.7270   -11.1880 
  201.8750     2.1890    57.5490    99.4750    95.4080   131.4650    24.6430   -10.9190 
  202.0000     2.2290    57.5280    72.6150    70.2660   117.3940    24.4950   -10.6260 
  202.1250     2.2930    59.8280    48.7230    47.2070    79.4310    24.1900   -10.4410 
  202.2500     2.3610    67.1750    32.3250    31.1260    43.7040    23.8050   -10.3440 
  202.3750     2.4060    77.4710    23.0780    21.8330    23.0700    23.4610   -10.1930 
  202.5000     2.4110    85.2480    19.2280    17.5280    14.7200    23.1640   -10.1050 
  202.6250     2.3840    85.1180    19.6210    16.9670    15.7400    22.9650   -10.1490 
  202.7500     2.3510    79.5080    22.4630    18.6420    22.5170    22.8010   -10.1140 
  202.8750     2.3280    73.8870    26.8450    22.0380    30.0480    22.6380   -10.0780 
  203.0000     2.3190    73.4200    31.5270    26.2950    31.8450    22.5960   -10.1160 
  203.1250     2.3240    76.0140    34.4730    29.5490    29.3190    22.7230   -10.1710 
  203.2500     2.3370    76.4650    34.7950    30.4670    29.9320    22.9860   -10.0910 
  203.3750     2.3570    73.9610    32.8160    29.0660    33.2410    23.3020    -9.9290 
  203.5000     2.3820    71.3840    29.5320    26.2260    34.8150    23.5280    -9.7360 
  203.6250     2.4030    72.9070    25.8520    22.8520    29.7690    23.6410    -9.3850 
  203.7500     2.4110    76.8780    22.4010    19.6260    24.0910    23.7910    -9.0360 
  203.8750     2.4050    81.0790    19.4730    16.8420    20.9140    24.0090    -8.7390 
  204.0000     2.3940    82.8490    17.2030    14.6230    21.2970    24.2350    -8.3740 
  204.1250     2.3960    83.9030    15.7140    13.0580    19.0690    24.3470    -7.8850 
  204.2500     2.4180    85.5950    14.8470    12.0010    16.4180    24.3640    -7.4450 
  204.3750     2.4490    87.1700    14.5110    11.3840    15.3650    24.3290    -7.0510 
  204.5000     2.4780    88.1130    14.5830    11.1110    15.1850    24.2310    -6.5710 
  204.6250     2.4990    87.6870    14.9690    11.1190    16.7130    24.1070    -6.1620 
  204.7500     2.5140    85.9720    15.4740    11.2760    17.6160    24.0610    -5.7650 
  204.8750     2.5170    82.4970    15.9340    11.4940    19.3150    24.0700    -5.2400 
  205.0000     2.5030    78.1900    16.1730    11.6620    17.2850    24.0850    -4.6600 
  205.1250     2.4870    76.8120    16.0210    11.6580    16.6240    24.1370    -4.1590 
  205.2500     2.4880    77.0640    15.6010    11.5080    16.8880    24.1400    -3.6430 
  205.3750     2.5060    78.7850    15.1140    11.3090    17.6020    24.1020    -3.0530 
  205.5000     2.5280    81.6840    14.8240    11.2100    16.3950    24.0820    -2.5100 
  205.6250     2.5470    83.4110    15.0610    11.4060    16.2970    24.0710    -2.0070 
  205.7500     2.5640    82.2750    15.8490    11.9400    17.0280    24.0670    -1.4380 
  205.8750     2.5830    79.2640    17.1050    12.7990    19.8980    24.0620    -0.8820 
  206.0000     2.6000    77.2900    18.5550    13.8660    21.7360    24.0440    -0.4390 
  206.1250     2.6110    78.1670    19.5190    17.1200    21.1230    24.0350    -0.0050 
  206.2500     2.6130    78.6840    19.3200    17.1860    20.2980    24.0290     0.5080 
  206.3750     2.6060    77.4550    17.6220    15.8860    19.6220    24.0230     0.9520 
  206.5000     2.5900    76.0560    14.7430    13.4470    18.5560    24.0050     1.3510 
  206.6250     2.5540    78.3250    11.5540    10.6600    15.6140    23.9920     1.8580 
  206.7500     2.5050    80.5420     8.8980     8.2760    11.1130    24.0620     2.3310 
  206.8750     2.4570    77.9370     7.0640     6.5360     7.3750    24.2550     2.7130 
  207.0000     2.4230    72.9050     6.0230     5.4330     5.8620    24.3430     3.1350 
  207.1250     2.4050    71.8690     5.6460     4.9210     5.7110    24.2020     3.6450 
  207.2500     2.3880    73.5700     5.5950     4.7620     5.5320    23.9570     4.0780 
  207.3750     2.3620    76.2120     5.6900     4.8220     5.2730    23.8100     4.4430 
