~V
VERS. 2.00: Ver 2.00
~W
STRT.M 50.0000:
STOP.M 281.0000:
STEP.M 0.1250:
NULL. -999.2500:
UWI. F10234:
~C
DEPT.M :
DEN.GM/CC :
GR.API :
RML.OHMM :
RI. :
RXO.OHMM :
CALI.CM :
SP.MV :
~A
# ...
  128.7500     2.0970    61.1720     8.9730     7.4880     8.9600    24.1570    -6.0420 
  128.8750     2.0880    57.8120     9.0980     7.5390     8.9110    24.1570    -6.0230 
  129.0000     2.0930    56.3890     9.2060     7.5820     9.2210    24.1580    -5.9750 
  129.1250     2.1070    56.8190     9.2670     7.5880     9.4930    24.1590    -5.8590 
  129.2500     2.1240    56.0230     9.2820     7.5680     9.5120    24.1620    -5.7490 
  129.3750     2.1450    55.1360     9.2580     7.5330     9.4890    24.1670    -5.6300 
  129.5000     2.1710    55.3630     9.2060     7.4950     9.4970    24.1700    -5.5050 
  129.6250     2.1840    54.6820     9.1550     7.4770     9.5960    24.1720    -5.4460 
  129.7500     2.1660    51.1730     9.1450     7.5030     9.7020    24.1730    -5.3340 
  129.8750     2.1220    47.4210     9.2020     7.5900     9.6790    24.1690    -5.1680 
  130.0000     2.0800    47.7490     9.3220     7.7400     9.5040    24.1470    -5.0410 
  130.1250     2.0850    50.9230     9.4840     7.9400     9.3930    24.1000    -4.9710 
  130.2500     2.1610    52.7660     9.6610     8.1670     9.5150    24.0410    -4.8580 
  130.3750     2.2760    51.8590     9.8550     8.4080     9.8680    23.9870    -4.7450 
  130.5000     2.3580    49.3590    10.0560     8.6460    10.1660    23.9550    -4.6020 
  130.6250     2.3490    50.1040    10.1760     8.8040    10.2830    23.9430    -4.4370 
  130.7500     2.2910    53.9230    10.0890     8.7830    10.3440    23.9480    -4.2760 
  130.8750     2.2330    57.8940     9.6960     8.4930    10.3930    23.9680    -4.0820 
  131.0000     2.1980    61.1980     8.9950     7.9270    10.5680    23.9950    -3.8640 
  131.1250     2.1920    67.0430     8.1040     7.1730     9.6080    24.0000    -3.5960 
  131.2500     2.2090    74.7140     7.2790     6.4430     7.3690    23.9710    -3.3390 
  131.3750     2.2370    79.4490     6.6910     5.8780     5.6070    23.9140    -3.0990 
  131.5000     2.2640    78.1590     6.4220     5.5580     5.2640    23.8390    -2.8990 
  131.6250     2.2800    74.1240     6.4950     5.5340     5.8010    23.7780    -2.7020 
  131.7500     2.2850    71.2390     6.7550     5.7070     6.5100    23.7510    -2.4840 
  131.8750     2.2810    70.3000     7.0710     5.9870     7.1120    23.7580    -2.2980 
  132.0000     2.2690    69.7100     7.3390     6.2790     7.5390    23.7950    -2.1480 
  132.1250     2.2500    67.6800     7.5110     6.5020     7.5240    23.8590    -2.0170 
  132.2500     2.2250    65.6610     7.6540     6.6720     7.2640    23.9270    -1.9160 
  132.3750     2.1980    64.7010     7.8710     6.8570     7.2570    23.9870    -1.8110 
  132.5000     2.1760    63.8520     8.2880     7.1580     7.5780    24.0340    -1.6540 
  132.6250     2.1710    61.4840     9.1190     7.7390     8.3140    24.0610    -1.4340 
  132.7500     2.1900    57.1280    10.4050     8.6450     9.6160    24.0700    -1.1840 
  132.8750     2.2380    51.7740    12.1020     9.8780    11.7340    24.0680    -0.9160 
  133.0000     2.3100    46.9420    13.9710    11.3090    14.7170    24.0640    -0.6290 
  133.1250     2.3890    44.8650    15.5100    12.5940    15.8080    24.0620    -0.3590 
  133.2500     2.4520    45.4720    16.3980    13.4360    16.2330    24.0610    -0.0730 
  133.3750     2.4930    46.5390    16.6460    13.7820    16.8110    24.0600     0.1710 
  133.5000     2.5160    46.0970    16.5780    13.8140    16.2430    24.0620     0.3540 
  133.6250     2.5300    45.5760    16.7050    13.8610    15.1410    24.0660     0.4710 
  133.7500     2.5410    45.7800    17.2710    14.1520    16.4960    24.0700     0.4880 
  133.8750     2.5460    44.3040    18.2380    14.7210    19.9630    24.0740     0.4820 
  134.0000     2.5400    40.2140    19.3880    15.4810    22.7310    24.0800     0.4700 
  134.1250     2.5170    37.6910    20.4130    16.2830    20.6970    24.0800     0.4040 
  134.2500     2.4870    39.2630    21.1890    17.0060    19.4120    24.0800     0.3200 
  134.3750     2.4630    42.5970    21.7990    17.6440    19.0860    24.0800     0.2550 
  134.5000     2.4590    44.1320    22.3780    18.2460    19.9310    24.0800     0.1830 
  134.6250     2.4840    42.5870    22.8640    18.7850    21.0120    24.0810     0.0850 
  134.7500     2.5230    40.2060    23.0310    19.1250    21.6600    24.0810     0.0310 
  134.8750     2.5570    38.7260    22.7460    19.1450    23.0970    24.0810    -0.0470 
  135.0000     2.5730    39.9400    22.1360    18.8790    25.1680    24.0820    -0.1460 
  135.1250     2.5660    42.4600    21.5690    18.5280    23.5230    24.0840    -0.1660 
  135.2500     2.5510    44.1530    21.1810    18.2440    20.0400    24.0850    -0.1800 
  135.3750     2.5420    43.5700    20.6810    17.8770    18.9150    24.0850    -0.1980 
  135.5000     2.5490    40.7860    19.5590    17.0600    20.5440    24.0850    -0.2080 
  135.6250     2.5570    41.2530    17.3470    15.3740    21.5500    24.0840    -0.2500 
  135.7500     2.5370    47.0640    14.5080    13.1250    20.7990    24.0810    -0.3510 
  135.8750     2.4780    55.2990    11.6620    10.7840    15.4730    24.0780    -0.4560 
  136.0000     2.3920    60.7640     9.3480     8.7940     8.9930    24.0760    -0.5740 
  136.1250     2.3060    60.6790     7.9280     7.4780     7.1500    24.0750    -0.7450 
  136.2500     2.2430    59.6060     7.2120     6.7290     6.7910    24.0750    -0.9340 
  136.3750     2.2080    60.5580     7.0330     6.4460     6.8180    24.0760    -1.1460 
  136.5000     2.1970    63.4010     7.1780     6.4970     6.7360    24.0770    -1.3610 
  136.6250     2.2000    64.5360     7.4130     6.7400     6.7460    24.0780    -1.5300 
  136.7500     2.2020    63.3520     7.5590     6.9940     6.8520    24.0770    -1.6750 
  136.8750     2.2010    61.9380     7.5860     7.1780     6.9870    24.0770    -1.8200 
  137.0000     2.1950    61.8150     7.5310     7.2640     7.0110    24.0750    -1.9470 
  137.1250     2.1900    62.8750     7.4360     7.2410     6.9290    24.0710    -2.0510 
  137.2500     2.1900    64.2620     7.3220     7.1460     6.8960    24.0630    -2.1360 
  137.3750     2.1930    64.2580     7.1880     7.0080     6.7800    24.0490    -2.1990 
  137.5000     2.1970    62.3620     7.0490     6.8480     6.6180    24.0290    -2.2280 
  137.6250     2.1990    60.7060     6.9370     6.6830     6.5290    24.0070    -2.2400 
  137.7500     2.2000    59.7640     6.8680     6.5220     6.5010    23.9850    -2.2280 
  137.8750     2.1990    58.8590     6.8400     6.3720     6.4700    23.9640    -2.1970 
  138.0000     2.1960    58.2250     6.8510     6.2580     6.4840    23.9480    -2.1550 
  138.1250     2.1920    58.3680     6.9610     6.2510     6.6450    23.9310    -2.0540 
  138.2500     2.1890    59.1950     7.2540     6.4160     6.9500    23.9120    -1.9170 
  138.3750     2.1930    60.8470     7.8460     6.8380     7.4360    23.8900    -1.6970 
  138.5000     2.2170    62.8000     8.8190     7.5830     8.5140    23.8600    -1.4650 
  138.6250     2.2740    62.7160    10.2020     8.7150     9.9600    23.8080    -1.2040 
  138.7500     2.3490    59.4510    11.7690    10.0780    11.4430    23.7290    -0.9520 
  138.8750     2.4220    54.4890    13.3020    11.5010    12.7590    23.6220    -0.7460 
  139.0000     2.4740    49.4490    14.5720    12.7780    14.6000    23.4940    -0.5680 
  139.1250     2.4980    46.3230    15.2550    13.6030    15.2780    23.3590    -0.4410 
  139.2500     2.5100    46.6110    15.2560    13.8410    14.5240    23.2290    -0.3880 
  139.3750     2.5160    48.8490    14.5070    13.3940    13.6320    23.1210    -0.4070 
  139.5000     2.5080    51.5760    13.0730    12.2870    13.4300    23.0600    -0.4640 
  139.6250     2.4690    55.4640    11.1760    10.6730    12.5140    23.0610    -0.5940 
  139.7500     2.4080    62.2110     9.3010     8.9900     8.8290    23.1100    -0.7480 
  139.8750     2.3410    70.4290     7.7760     7.5350     6.3660    23.1900    -0.8830 
