~V
VERS. 2.00: Ver 2.00
~W
STRT.M 53.0000:
STOP.M 276.0000:
STEP.M 0.1250:
NULL. -999.2500:
UWI. F10245:
~C
DEPT.M :
GR.API :
RML.OHMM :
RI. :
RXO.OHMM :
CALI.CM :
DEN.GM/CC :
SP.MV :
~A
# ...
  109.2500    53.9030     8.6040     7.5390     9.0530    23.6070     2.1680   -11.3610 
  109.3750    53.4420     8.6810     7.5530     9.2240    23.6020     2.1690   -11.2150 
  109.5000    55.4480     8.7510     7.5780     9.4220    23.5720     2.1750   -11.1210 
  109.6250    58.3670     8.7860     7.6060     9.6550    23.4750     2.1850   -11.0530 
  109.7500    60.9300     8.7920     7.6320     9.7840    23.3180     2.1960   -11.0460 
  109.8750    62.4360     8.7870     7.6560     9.6560    23.1150     2.2040   -11.0520 
  110.0000    60.5880     8.7940     7.6820     9.3360    22.8790     2.2080   -11.0250 
  110.1250    56.9140     8.8320     7.7130     8.9700    22.6500     2.2090   -11.0240 
  110.2500    55.5960     8.8830     7.7400     8.8640    22.4500     2.2060   -11.0420 
  110.3750    56.2310     8.9120     7.7460     9.0670    22.2770     2.2020   -11.0410 
  110.5000    55.4270     8.8820     7.7060     9.3730    22.1160     2.1960   -11.0030 
  110.6250    53.7690     8.7570     7.5940     9.4990    21.9600     2.1940   -10.8890 
  110.7500    54.3470     8.5690     7.4300     9.5210    21.9390     2.1960   -10.7210 
  110.8750    55.9230     8.3630     7.2450     9.2250    22.0010     2.2030   -10.5290 
  111.0000    56.8950     8.1890     7.0790     8.6580    22.0490     2.2080   -10.3830 
  111.1250    56.8040     8.0940     6.9740     8.2350    22.0670     2.2100   -10.2200 
  111.2500    57.9330     8.0720     6.9340     8.3750    22.0960     2.2080   -10.0700 
  111.3750    61.3430     8.1110     6.9550     8.7790    22.1580     2.2070    -9.9520 
  111.5000    64.1930     8.1930     7.0270     9.0450    22.2120     2.2070    -9.8540 
  111.6250    63.1860     8.3040     7.1380     9.0790    22.1700     2.2090    -9.8120 
  111.7500    60.6040     8.4200     7.2600     9.0480    22.0680     2.2070    -9.7550 
  111.8750    60.2080     8.5210     7.3680     9.2140    21.9810     2.2030    -9.6650 
  112.0000    61.7260     8.5780     7.4360     9.2590    21.9160     2.1950    -9.5330 
  112.1250    61.6410     8.5530     7.4300     9.0490    21.8980     2.1870    -9.4210 
  112.2500    60.1370     8.4470     7.3560     8.6810    22.0080     2.1810    -9.3120 
  112.3750    59.1960     8.2730     7.2270     8.2940    22.2960     2.1800    -9.1610 
  112.5000    59.4520     8.0570     7.0630     8.0530    22.6780     2.1820    -8.9860 
  112.6250    62.0850     7.8190     6.8750     7.8240    22.8540     2.1890    -8.7500 
  112.7500    67.0870     7.5670     6.6670     7.6540    22.9070     2.1960    -8.4810 
  112.8750    72.1420     7.2930     6.4320     7.7810    22.9400     2.2010    -8.1560 
  113.0000    74.7550     6.9980     6.1730     7.8540    23.0680     2.2060    -7.7920 
  113.1250    74.2740     6.7090     5.9180     7.6600    23.4090     2.2120    -7.4330 
  113.2500    75.2880     6.4730     5.7070     7.2790    23.8840     2.2200    -7.0760 
  113.3750    78.7900     6.3270     5.5720     6.9680    24.2350     2.2270    -6.7660 
  113.5000    81.0280     6.2900     5.5300     6.7300    24.3490     2.2280    -6.5070 
  113.6250    79.3330     6.3910     5.6040     6.7190    24.3040     2.2200    -6.2940 
  113.7500    74.9200     6.6110     5.7800     6.9320    24.2620     2.2060    -6.1300 
  113.8750    70.8800     6.9450     6.0530     7.1480    24.2300     2.1940    -6.0300 
  114.0000    69.0300     7.3540     6.3960     7.3360    24.1230     2.1900    -5.9540 
  114.1250    68.6460     7.7240     6.7250     7.5580    23.8380     2.1990    -5.8200 
  114.2500    67.8590     7.9080     6.9200     7.9850    23.5750     2.2170    -5.6010 
  114.3750    67.4130     7.7950     6.8820     8.2990    23.6260     2.2320    -5.2350 
  114.5000    71.6170     7.3640     6.5760     8.2760    23.9730     2.2380    -4.7290 
  114.6250    80.1410     6.6990     6.0460     7.7510    24.4740     2.2290    -4.1680 
  114.7500    85.7410     6.0340     5.4760     6.6950    24.9700     2.2150    -3.6110 
  114.8750    87.8910     5.5260     5.0000     5.7900    25.2270     2.2050    -3.0850 
  115.0000    89.7510     5.2540     4.6920     5.4070    25.0770     2.2050    -2.6020 
  115.1250    92.2430     5.2290     4.5900     5.5340    24.5920     2.2170    -2.2120 
  115.2500    90.9460     5.3270     4.6160     5.8030    24.1900     2.2350    -1.8860 
  115.3750    86.1730     5.4560     4.7100     5.9520    23.9440     2.2530    -1.6920 
  115.5000    83.3670     5.5430     4.8100     6.0310    23.8450     2.2690    -1.6700 
  115.6250    83.8480     5.5370     4.8580     6.0810    23.8200     2.2820    -1.7300 
  115.7500    84.8750     5.4590     4.8420     6.0680    23.8120     2.2900    -1.8420 
  115.8750    85.6050     5.3480     4.7790     5.9990    23.7990     2.2920    -2.0040 
  116.0000    87.1470     5.2470     4.7010     5.9900    23.7940     2.2890    -2.1790 
  116.1250    87.5460     5.2120     4.6560     6.0290    23.8460     2.2830    -2.3790 
  116.2500    85.9730     5.2720     4.6760     6.0530    23.9090     2.2770    -2.6900 
  116.3750    85.4730     5.4560     4.7870     6.1100    23.9480     2.2690    -3.0830 
  116.5000    86.5870     5.7920     5.0150     6.4000    23.9590     2.2570    -3.5000 
  116.6250    85.8370     6.3410     5.4100     6.7720    23.9690     2.2460    -3.9890 
  116.7500    82.9790     7.0650     5.9540     7.0500    24.0150     2.2480    -4.5020 
  116.8750    81.2000     7.8970     6.6140     7.1490    24.1130     2.2790    -4.9880 
  117.0000    79.4960     8.7050     7.3010     7.3490    24.2010     2.3370    -5.4730 
  117.1250    77.3040     9.2690     7.8530     7.5310    24.1170     2.3990    -5.9210 
  117.2500    75.0650     9.4930     8.1590     7.7010    23.9340     2.4200    -6.2620 
  117.3750    72.0950     9.3710     8.1790     7.8460    23.8070     2.3880    -6.4700 
  117.5000    68.4080     9.0010     7.9560     7.9070    23.7320     2.3200    -6.5620 
  117.6250    68.0350     8.5210     7.5810     7.8350    23.7590     2.2500    -6.4710 
  117.7500    72.1220     8.0430     7.1680     7.7350    23.8720     2.2000    -6.2190 
  117.8750    75.6580     7.5800     6.7530     7.6070    24.0040     2.1750    -5.8280 
  118.0000    75.6370     7.1180     6.3430     7.4160    24.1120     2.1750    -5.3380 
  118.1250    77.1330     6.6550     5.9480     6.9540    24.2160     2.1990    -4.7650 
  118.2500    82.7000     6.2270     5.5860     6.3180    24.2300     2.2310    -4.2040 
  118.3750    88.9780     5.8780     5.2830     5.7640    24.1670     2.2590    -3.6840 
  118.5000    91.7090     5.6380     5.0590     5.5570    24.1140     2.2740    -3.2100 
  118.6250    91.2770     5.5170     4.9280     5.5510    24.0980     2.2740    -2.8280 
  118.7500    90.6990     5.4640     4.8560     5.5100    24.0860     2.2680    -2.5670 
  118.8750    90.3910     5.4400     4.8170     5.5200    24.0550     2.2640    -2.3940 
  119.0000    88.6130     5.4130     4.7870     5.4490    24.0290     2.2690    -2.2910 
  119.1250    86.8810     5.3680     4.7480     5.4140    24.0100     2.2820    -2.2360 
  119.2500    88.5090     5.3210     4.7060     5.3430    24.0040     2.2960    -2.1760 
  119.3750    93.2670     5.2910     4.6710     5.3420    23.9660     2.3040    -2.1380 
  119.5000    96.9830     5.2960     4.6580     5.3490    23.9240     2.3020    -2.1400 
  119.6250    95.2530     5.3560     4.6790     5.3890    23.9050     2.2900    -2.1640 
  119.7500    90.5060     5.4620     4.7320     5.5430    23.8710     2.2740    -2.2060 
  119.8750    86.2600     5.5990     4.8120     5.6790    23.7990     2.2590    -2.2840 
  120.0000    84.3440     5.7360     4.8990     5.8370    23.7240     2.2490    -2.3560 
  120.1250    83.5840     5.8090     4.9590     5.9030    23.6870     2.2500    -2.4040 
  120.2500    82.3610     5.7820     4.9630     5.9460    23.6810     2.2580    -2.4190 
  120.3750    81.9640     5.6570     4.8990     5.9640    23.7160     2.2690    -2.3640 
