~V
VERS. 2.00: Ver 2.00
~W
STRT.M 55.0000:
STOP.M 270.0000:
STEP.M 0.1250:
NULL. -999.2500:
UWI. F10235:
~C
DEPT.M :
GR.API :
RML.OHMM :
RI. :
RXO.OHMM :
CALI.CM :
DEN.GM/CC :
SP.MV :
~A
# ...
  122.5000    73.9700    13.5910    11.5950    13.1270    23.8350     2.4480    -6.4280 
  122.6250    69.0170    12.3640    10.6100    12.2710    23.7790     2.4010    -6.5480 
  122.7500    65.3350    11.1540     9.5760    12.6380    23.6880     2.3550    -6.9250 
  122.8750    67.6380    10.1520     8.6750    11.6820    23.5780     2.3200    -7.3700 
  123.0000    73.8730     9.3860     7.9600    10.1860    23.6170     2.3000    -7.7630 
  123.1250    79.2680     8.8370     7.4320     8.5030    23.8650     2.2940    -8.0870 
  123.2500    83.3690     8.4570     7.0570     7.4610    24.0740     2.2920    -8.3950 
  123.3750    85.9690     8.2700     6.8610     7.7670    24.1230     2.2940    -8.7840 
  123.5000    86.1610     8.2870     6.8630     8.5630    24.1680     2.2990    -9.3380 
  123.6250    84.2110     8.4950     7.0740     8.2560    24.1560     2.3050   -10.0090 
  123.7500    81.4680     8.7910     7.4110     8.6580    24.0690     2.3080   -10.7270 
  123.8750    78.1620     9.1170     7.8160     9.3080    23.9650     2.3060   -11.5800 
  124.0000    75.1420     9.4330     8.2270     9.8510    23.8700     2.2960   -12.6430 
  124.1250    74.1640     9.7230     8.5940     9.9430    23.8040     2.2800   -13.8780 
  124.2500    74.1670     9.9930     8.9040    10.1320    23.7850     2.2600   -15.0740 
  124.3750    73.0660    10.2500     9.1480    10.2870    23.8140     2.2400   -16.1310 
  124.5000    69.5250    10.4860     9.3240    10.3090    23.9140     2.2240   -16.9840 
  124.6250    67.8010    10.6200     9.3870    10.4140    24.0710     2.2190   -17.5110 
  124.7500    70.5820    10.5420     9.2560    10.7820    24.1070     2.2250   -17.7380 
  124.8750    76.1090    10.1580     8.8370    11.0170    24.0760     2.2360   -17.6380 
  125.0000    79.8050     9.4970     8.1560    11.1470    24.1450     2.2500   -17.1460 
  125.1250    79.5450     8.8100     7.4410    10.4510    24.2830     2.2690   -16.2150 
  125.2500    78.7900     8.5000     7.0010     8.9630    24.4330     2.3040   -15.0920 
  125.3750    78.9710     8.9190     7.0440     7.8360    24.5380     2.3600   -13.8930 
  125.5000    77.4450    10.3150     7.7310     9.1280    24.6130     2.4310   -12.6250 
  125.6250    69.0440    12.9020     9.3590    14.4470    24.6730     2.5000   -11.3560 
  125.7500    57.1600    16.2170    11.8520    21.5970    24.6990     2.5510   -10.1670 
  125.8750    49.4080    19.7030    14.9720    24.9670    24.6680     2.5810    -9.1400 
  126.0000    48.2940    22.7190    18.1170    24.3450    24.6300     2.5980    -8.3800 
  126.1250    50.9040    24.7040    20.4420    24.9960    24.6100     2.6110    -7.9610 
  126.2500    51.6630    25.9400    21.9140    25.7030    24.6210     2.6230    -7.7180 
  126.3750    50.3800    26.8500    22.9040    26.0370    24.6180     2.6280    -7.5250 
  126.5000    48.5390    27.7580    23.7840    25.8470    24.5970     2.6230    -7.4040 
  126.6250    48.2160    28.6520    24.6190    28.0150    24.5920     2.6070    -7.4500 
  126.7500    50.3740    29.2450    25.1890    29.2860    24.5990     2.5840    -7.6110 
  126.8750    52.3490    29.2820    25.2760    29.7320    24.5980     2.5560    -7.7800 
  127.0000    50.8930    28.6860    24.7960    31.3770    24.6030     2.5280    -7.9310 
  127.1250    46.8070    27.5870    23.8300    26.8030    24.6210     2.5050    -8.1280 
  127.2500    45.3150    26.4630    22.8040    23.1480    24.6590     2.4970    -8.3200 
  127.3750    46.5570    25.6880    22.0490    21.9690    24.7020     2.5070    -8.4580 
  127.5000    47.2530    25.5260    21.7950    22.2400    24.7020     2.5320    -8.5600 
  127.6250    48.8570    26.1560    22.2320    23.6260    24.6770     2.5630    -8.5760 
  127.7500    51.2550    27.2850    23.1750    24.9250    24.6940     2.5870    -8.4940 
  127.8750    51.2770    28.5770    24.3740    28.0130    24.6750     2.5990    -8.4160 
  128.0000    47.8710    29.6260    25.4620    28.7580    24.6090     2.6020    -8.3800 
  128.1250    46.2660    29.9580    25.9630    28.9160    24.5700     2.5970    -8.3250 
  128.2500    48.6310    29.5310    25.7680    27.8610    24.5490     2.5890    -8.2780 
  128.3750    51.9860    28.4540    24.9480    26.8930    24.5280     2.5790    -8.3040 
  128.5000    54.5140    26.9870    23.7310    26.2870    24.4710     2.5660    -8.3680 
  128.6250    56.8330    25.4810    22.4260    22.2150    24.4170     2.5550    -8.4400 
  128.7500    58.8880    24.2540    21.3320    19.3590    24.3230     2.5470    -8.5270 
  128.8750    59.3860    23.4840    20.6150    18.3240    24.2600     2.5470    -8.5780 
  129.0000    57.2990    23.2510    20.3550    18.7850    24.2670     2.5510    -8.5600 
  129.1250    52.9780    23.6020    20.6300    20.0560    24.3560     2.5580    -8.4950 
  129.2500    48.4280    24.3040    21.2660    21.1340    24.4570     2.5630    -8.4550 
  129.3750    45.7310    25.1540    22.1030    22.4950    24.5350     2.5650    -8.4190 
  129.5000    46.0390    25.9200    22.9400    24.4490    24.5920     2.5660    -8.3260 
  129.6250    48.8630    26.3270    23.5200    24.6630    24.6070     2.5670    -8.1970 
  129.7500    51.7820    26.3020    23.7280    25.3200    24.6090     2.5660    -8.1070 
  129.8750    52.8490    25.8640    23.5310    25.5100    24.6090     2.5620    -8.0450 
  130.0000    52.3390    25.1410    23.0140    25.6740    24.6110     2.5550    -7.9970 
  130.1250    51.5430    24.3240    22.3460    24.6560    24.6250     2.5470    -7.9980 
  130.2500    50.5660    23.5840    21.7060    22.2150    24.6400     2.5450    -7.9790 
  130.3750    49.7780    22.9570    21.1380    20.7920    24.6540     2.5510    -7.8920 
  130.5000    49.6960    22.4050    20.6100    20.7080    24.7080     2.5610    -7.8170 
  130.6250    50.8000    21.8700    20.0710    21.6030    24.7410     2.5670    -7.8320 
  130.7500    51.9390    21.3670    19.5400    21.3910    24.7540     2.5640    -7.8740 
  130.8750    53.0930    21.0040    19.1220    19.6010    24.7550     2.5540    -7.9070 
  131.0000    53.8030    20.9230    18.9590    18.7090    24.7580     2.5450    -7.9490 
  131.1250    53.1830    21.2820    19.2160    19.1970    24.7640     2.5430    -7.9940 
  131.2500    52.0000    21.9550    19.8190    20.9480    24.7810     2.5460    -7.9970 
  131.3750    50.9210    22.7430    20.6240    23.8570    24.8380     2.5500    -7.9770 
  131.5000    50.4310    23.3990    21.3920    26.4660    24.9760     2.5500    -7.9190 
  131.6250    52.0410    23.6870    21.8270    25.4760    25.0990     2.5470    -7.7740 
  131.7500    54.5810    23.6860    21.9360    23.2250    25.2020     2.5450    -7.5870 
  131.8750    55.6540    23.5660    21.8720    22.4320    25.2660     2.5480    -7.4260 
  132.0000    54.3240    23.4970    21.8180    22.6430    25.4860     2.5570    -7.2780 
  132.1250    52.3020    23.5600    21.8860    24.3120    25.1960     2.5680    -7.0700 
  132.2500    51.0690    23.6470    22.0050    25.7270    25.0620     2.5770    -6.8980 
  132.3750    51.7340    23.6220    22.0440    26.2270    24.9960     2.5850    -6.8200 
  132.5000    53.6910    23.3970    21.8920    24.9980    25.1820     2.5930    -6.8110 
  132.6250    54.6940    22.9810    21.5180    23.4340    25.3510     2.6030    -6.7900 
  132.7500    54.2970    22.5550    21.0980    22.2650    24.9330     2.6100    -6.8020 
  132.8750    54.1860    22.2700    20.7890    21.7360    24.8330     2.6090    -6.8860 
  133.0000    54.1090    22.2010    20.6860    21.9090    24.8000     2.5950    -6.9910 
  133.1250    52.3920    22.3390    20.8000    21.6750    24.8000     2.5740    -7.0700 
  133.2500    49.9290    22.5280    21.0010    21.3100    24.8000     2.5560    -7.1350 
  133.3750    49.0650    22.6560    21.1840    23.1410    24.8000     2.5480    -7.1670 
  133.5000    49.0580    22.6630    21.2810    23.0050    24.8000     2.5470    -7.1460 
  133.6250    49.6000    22.5470    21.2750    23.2570    24.6670     2.5450    -7.1520 
