~V
VERS. 2.00: Ver 2.00
~W
STRT.M 40.0000:
STOP.M 276.0000:
STEP.M 0.1250:
NULL. -999.2500:
UWI. F10236:
~C
DEPT.M :
SP.MV :
GR.API :
RML.OHMM :
RI. :
RXO.OHMM :
CALI.CM :
DEN.GM/CC :
~A
# ...
   96.2500   -16.0860    71.0440    10.1740     7.7930     9.6020    23.1420     2.2070 
   96.3750   -16.0430    70.9850    10.1150     7.7970     9.7170    23.1330     2.2030 
   96.5000   -15.9690    69.5520    10.0560     7.7600     9.8500    23.1450     2.1960 
   96.6250   -15.9310    68.2900    10.0190     7.6990     9.8970    23.1480     2.1930 
   96.7500   -15.8620    68.3750     9.9770     7.6250     9.9610    23.1390     2.1970 
   96.8750   -15.8150    70.1490     9.8830     7.5250     9.9600    23.1320     2.2020 
   97.0000   -15.7720    71.5160     9.6990     7.3810     9.8930    23.1420     2.2050 
   97.1250   -15.7410    69.7380     9.4170     7.1800     9.7610    23.1460     2.2110 
   97.2500   -15.7100    68.2020     9.1170     6.9630     9.4590    23.1380     2.2200 
   97.3750   -15.6650    68.3350     8.8870     6.7790     9.0090    23.1340     2.2300 
   97.5000   -15.6360    67.6770     8.8040     6.6830     8.5730    23.1460     2.2360 
   97.6250   -15.5730    66.1040     8.9310     6.7330     8.4900    23.1480     2.2380 
   97.7500   -15.5100    67.3790     9.2010     6.9020     8.8910    23.1390     2.2380 
   97.8750   -15.4240    70.9880     9.5350     7.1550     9.6810    23.1330     2.2370 
   98.0000   -15.3350    72.7420     9.8440     7.4300    11.0330    23.1410     2.2350 
   98.1250   -15.2060    73.4010    10.0220     7.6420    12.3030    23.1410     2.2330 
   98.2500   -15.0720    74.4330    10.0540     7.7460    11.7000    23.1360     2.2310 
   98.3750   -14.9140    73.0640     9.9610     7.7360    10.2730    23.1430     2.2290 
   98.5000   -14.7530    69.8010     9.7750     7.6280     9.4550    23.1480     2.2280 
   98.6250   -14.5620    68.6250     9.4950     7.4230     9.0980    23.1420     2.2280 
   98.7500   -14.3830    69.1310     9.1400     7.1420     8.7580    23.1310     2.2270 
   98.8750   -14.2040    68.8420     8.7410     6.8110     8.5090    23.1320     2.2220 
   99.0000   -14.0490    68.7720     8.3600     6.4790     8.2470    23.1530     2.2130 
   99.1250   -13.9340    69.5010     8.1090     6.2390     7.8870    23.1530     2.2090 
   99.2500   -13.8500    70.3660     8.0580     6.1510     7.5530    23.0930     2.2140 
   99.3750   -13.8110    73.0700     8.2310     6.2420     7.8000    22.9670     2.2190 
   99.5000   -13.7670    76.5650     8.5780     6.4840     8.1540    22.8770     2.2160 
   99.6250   -13.7620    75.4540     8.9770     6.7980     8.3160    22.8690     2.2070 
   99.7500   -13.7540    70.8850     9.2530     7.0480     8.3350    22.8820     2.2020 
   99.8750   -13.7550    67.2820     9.2930     7.1430     8.4270    22.8730     2.2030 
  100.0000   -13.7400    67.0970     9.0700     7.0510     8.5740    22.8690     2.2070 
  100.1250   -13.7290    69.5500     8.6640     6.8090     8.6680    22.8920     2.2130 
  100.2500   -13.7030    72.4750     8.2850     6.5510     8.5440    22.8990     2.2240 
  100.3750   -13.6900    74.6120     8.0740     6.3690     8.1580    22.8910     2.2350 
  100.5000   -13.6900    75.2870     8.0990     6.3210     7.7860    22.8980     2.2360 
  100.6250   -13.7210    74.8710     8.3420     6.4270     7.6990    22.9030     2.2230 
  100.7500   -13.7370    73.0510     8.6270     6.5990     8.0380    22.8830     2.2060 
  100.8750   -13.7630    71.5290     8.8010     6.7390     8.5180    22.8220     2.1930 
  101.0000   -13.7790    72.9490     8.7650     6.7590     8.6550    22.7550     2.1890 
  101.1250   -13.8080    76.5060     8.5090     6.6120     8.3350    22.7200     2.1930 
  101.2500   -13.8270    78.2040     8.1850     6.3790     7.8400    22.6690     2.2030 
  101.3750   -13.8240    77.6010     7.8860     6.1330     7.5520    22.6210     2.2180 
  101.5000   -13.8320    76.6040     7.6510     5.9200     7.4620    22.6150     2.2340 
  101.6250   -13.8190    73.2610     7.4930     5.7690     7.4980    22.6610     2.2460 
  101.7500   -13.8310    69.6810     7.3920     5.6790     7.6460    22.7250     2.2540 
  101.8750   -13.8610    70.1030     7.3620     5.6550     7.6580    22.7620     2.2590 
  102.0000   -13.9340    73.8110     7.4330     5.7060     7.4650    22.7680     2.2600 
  102.1250   -14.0490    75.5190     7.6370     5.8540     7.3360    22.7540     2.2560 
  102.2500   -14.2140    74.1170     7.9170     6.0710     8.0380    22.7400     2.2450 
  102.3750   -14.4100    71.7550     8.2100     6.3280     8.8660    22.7310     2.2300 
  102.5000   -14.6340    69.7590     8.4790     6.5930     9.2400    22.7330     2.2200 
  102.6250   -14.8870    66.8420     8.7400     6.8520     9.2080    22.7550     2.2220 
  102.7500   -15.1430    64.2640     9.0380     7.1100     9.1680    22.8070     2.2290 
  102.8750   -15.4120    62.8620     9.3890     7.3710     9.1190    22.9040     2.2340 
  103.0000   -15.6820    62.9960     9.7570     7.6260     9.1250    23.0140     2.2330 
  103.1250   -15.9180    64.8340    10.0230     7.8270     9.1780    23.0590     2.2270 
  103.2500   -16.1260    67.7270    10.0970     7.9180     9.1640    23.0830     2.2230 
  103.3750   -16.3030    70.7670     9.9610     7.8710     9.1800    23.1120     2.2210 
  103.5000   -16.4670    70.6200     9.6770     7.7080     9.2760    23.1590     2.2210 
  103.6250   -16.5580    67.0190     9.3610     7.4880     9.4140    23.1930     2.2220 
  103.7500   -16.6460    64.1320     9.1390     7.3040     9.5140    23.1880     2.2230 
  103.8750   -16.6890    63.8350     9.0800     7.2190     9.5720    23.1800     2.2250 
  104.0000   -16.7090    65.4540     9.1840     7.2580     9.5910    23.2010     2.2280 
  104.1250   -16.6910    68.9400     9.4000     7.4050     9.5880    23.2150     2.2310 
  104.2500   -16.6660    71.1220     9.6190     7.5850     9.6000    23.2080     2.2320 
  104.3750   -16.6180    69.8910     9.7790     7.7390     9.6970    23.1620     2.2340 
  104.5000   -16.5550    67.0570     9.8430     7.8250     9.8690    23.0620     2.2410 
  104.6250   -16.5060    65.7080     9.7910     7.8150    10.0260    22.9500     2.2470 
  104.7500   -16.4650    66.3940     9.6790     7.7470    10.2380    22.8800     2.2420 
  104.8750   -16.4300    67.4670     9.5540     7.6550    10.5310    22.8280     2.2270 
  105.0000   -16.3880    65.9400     9.4450     7.5650    10.6480    22.7510     2.2090 
  105.1250   -16.3620    62.4330     9.3660     7.4910    10.2630    22.6500     2.1960 
  105.2500   -16.3260    60.6600     9.3040     7.4290     9.9160    22.5330     2.1900 
  105.3750   -16.3230    61.3110     9.2460     7.3740     9.7100    22.4810     2.1930 
  105.5000   -16.2950    61.8210     9.1910     7.3320     9.4810    22.4790     2.1990 
  105.6250   -16.3160    62.8070     9.1620     7.3160     9.2460    22.4980     2.2040 
  105.7500   -16.3330    64.9260     9.1730     7.3300     9.2630    22.5580     2.2070 
  105.8750   -16.3830    66.4710     9.2340     7.3810     9.4530    22.6470     2.2090 
  106.0000   -16.4330    68.0980     9.3520     7.4690     9.7380    22.8130     2.2120 
  106.1250   -16.5180    70.5960     9.5170     7.5940    10.0810    22.9330     2.2170 
  106.2500   -16.6150    71.4250     9.6710     7.7270    10.3020    23.0250     2.2270 
  106.3750   -16.7220    71.1020     9.7680     7.8390    10.3300    23.0700     2.2410 
  106.5000   -16.8220    71.2410     9.7780     7.9060    10.2000    23.0810     2.2590 
  106.6250   -16.9310    69.8620     9.7010     7.9060     9.9420    23.0820     2.2630 
  106.7500   -17.0190    65.8930     9.5870     7.8490     9.8610    23.0870     2.2480 
  106.8750   -17.0940    64.7700     9.4590     7.7440     9.8500    23.0730     2.2270 
  107.0000   -17.1620    67.1790     9.3160     7.5990     9.8580    23.0160     2.2180 
  107.1250   -17.2050    67.7800     9.1580     7.4290     9.7020    22.8900     2.2200 
  107.2500   -17.2400    64.9080     9.0130     7.2630     9.4300    22.7690     2.2190 
  107.3750   -17.2520    63.0340     8.9130     7.1260     9.2910    22.6580     2.2160 
