~V
VERS. 2.00: Ver 2.00
~W
STRT.M 50.0000:
STOP.M 283.0000:
STEP.M 0.1250:
NULL. -999.2500:
UWI. F10256:
~C
DEPT.M :
DEN.GM/CC :
GR.API :
RML.OHMM :
RI. :
RXO.OHMM :
CALI.CM :
SP.MV :
~A
# ...
  185.0000     2.2670    53.3940   206.4180   188.0240   205.7210    25.0840   -18.2970 
  185.1250     2.2790    55.1180   171.3620   155.6650   146.9500    25.1070   -18.0500 
  185.2500     2.2840    55.0060   140.6160   126.4240   114.2140    25.0970   -17.8030 
  185.3750     2.2860    57.0360   111.7230   101.2670    94.2760    25.0680   -17.5760 
  185.5000     2.2880    64.4570    88.5010    80.6030    78.8080    25.0510   -17.3740 
  185.6250     2.2940    72.6600    71.4480    65.2320    55.4570    25.0040   -17.1510 
  185.7500     2.3030    74.4740    59.0710    54.0340    37.6460    24.9440   -16.8950 
  185.8750     2.3160    70.1430    50.6830    46.3860    29.9990    24.9330   -16.6690 
  186.0000     2.3300    66.2550    45.5090    41.5550    28.6030    24.9200   -16.4940 
  186.1250     2.3420    68.4820    43.0420    39.0680    28.4400    24.8290   -16.3500 
  186.2500     2.3510    70.2010    42.1230    37.9280    29.1420    24.7810   -16.2390 
  186.3750     2.3570    67.2780    42.2680    37.7380    31.9700    24.7740   -16.1910 
  186.5000     2.3590    62.0450    43.1600    38.2400    34.5240    24.7430   -16.1560 
  186.6250     2.3560    58.0680    44.6760    39.3450    35.5280    24.7340   -16.1580 
  186.7500     2.3490    55.9130    46.6500    40.8950    35.7980    24.7620   -16.1830 
  186.8750     2.3380    54.7640    49.1820    42.9650    38.4620    24.7630   -16.1930 
  187.0000     2.3240    55.3300    52.5340    45.7990    43.9310    24.7330   -16.2150 
  187.1250     2.3080    58.5630    57.3500    50.0460    48.9550    24.7510   -16.2250 
  187.2500     2.2900    64.4620    63.7950    55.9810    50.1660    24.7620   -16.2230 
  187.3750     2.2720    68.8640    71.8510    63.7720    53.3570    24.7450   -16.2030 
  187.5000     2.2580    66.9220    80.8260    72.9930    64.4660    24.7720   -16.1780 
  187.6250     2.2500    60.9820    88.6600    81.9200    86.8540    24.7900   -16.1070 
  187.7500     2.2460    58.7400    92.8690    87.8630   106.4240    24.7570   -15.9910 
  187.8750     2.2460    59.3900    91.3790    88.3490   103.7910    24.7340   -15.8290 
  188.0000     2.2500    59.3750    83.4240    82.0330    90.8050    24.7530   -15.6380 
  188.1250     2.2620    57.9240    69.9150    69.2010    81.4600    24.7350   -15.4560 
  188.2500     2.2820    58.1390    55.1610    54.4410    68.7300    24.7260   -15.2380 
  188.3750     2.3110    60.4140    41.9800    41.0890    45.2480    24.7430   -14.9870 
  188.5000     2.3430    64.9060    31.8310    30.9150    22.7240    24.7210   -14.7380 
  188.6250     2.3710    69.9060    25.3990    24.5380    13.3670    24.6810   -14.5710 
  188.7500     2.3910    72.8640    21.5660    20.6450    11.4120    24.6740   -14.4780 
  188.8750     2.4000    73.6450    19.7480    18.5720    11.3650    24.6380   -14.4550 
  189.0000     2.4010    73.0480    19.6040    17.9390    11.2350    24.5580   -14.4670 
  189.1250     2.3900    73.0510    21.4350    18.9190    10.8460    24.5160   -14.5680 
  189.2500     2.3670    73.7820    25.3190    21.5480    11.4980    24.5100   -14.7750 
  189.3750     2.3360    72.2970    31.4570    26.2830    13.7700    24.4940   -15.0350 
  189.5000     2.3020    67.8710    40.2630    33.6550    18.6990    24.5290   -15.2920 
  189.6250     2.2720    64.1470    52.0240    44.5410    28.1750    24.5900   -15.5370 
  189.7500     2.2490    63.0680    65.9260    58.2600    42.4920    24.6000   -15.8030 
  189.8750     2.2330    61.9660    82.1750    74.0730    54.8240    24.6070   -16.0630 
  190.0000     2.2210    58.6330   100.4910    90.9070    64.2440    24.6950   -16.3120 
  190.1250     2.2150    55.7320   119.7760   107.5790    82.0330    24.8000   -16.4910 
  190.2500     2.2130    54.9510   138.9940   123.1920   107.5530    24.8700   -16.6240 
  190.3750     2.2150    55.5370   156.8040   136.8400   133.1220    24.9110   -16.7260 
  190.5000     2.2190    55.5210   171.4160   147.3810   141.7860    24.8940   -16.8100 
  190.6250     2.2180    54.9370   180.3280   153.2670   139.1640    24.8510   -16.8840 
  190.7500     2.2100    56.0400   184.2170   155.5900   142.5280    24.8680   -16.9500 
  190.8750     2.1980    56.7380   184.2380   155.6210   149.3020    24.9030   -17.0370 
  191.0000     2.1870    54.4160   181.2790   154.2690   148.8760    24.8730   -17.1330 
  191.1250     2.1860    50.5660   174.5790   150.8910   145.9560    24.8180   -17.2080 
  191.2500     2.1950    50.0370   164.3490   144.5840   148.5940    24.8100   -17.2630 
  191.3750     2.2120    53.2020   150.6230   134.8650   150.1540    24.7880   -17.3330 
  191.5000     2.2320    56.5260   135.1540   122.6180   140.0960    24.7310   -17.4190 
  191.6250     2.2490    56.4350   122.1960   110.1650   117.6710    24.7040   -17.4640 
  191.7500     2.2610    54.8610   109.2690    99.7670    97.1720    24.6880   -17.4310 
  191.8750     2.2670    55.4980   100.2860    92.1370    83.0140    24.6050   -17.3390 
  192.0000     2.2650    59.0260    93.9600    86.6000    78.5050    24.5170   -17.2370 
  192.1250     2.2590    60.5450    87.8460    81.2290    80.4640    24.5100   -17.1360 
  192.2500     2.2540    59.9790    79.6410    73.9690    82.3560    24.5190   -16.9970 
  192.3750     2.2570    59.3160    68.7140    64.1480    81.0680    24.5370   -16.8420 
  192.5000     2.2690    59.8700    56.3070    52.8570    76.8280    24.5400   -16.7060 
  192.6250     2.2880    61.6930    45.6080    43.0060    69.0700    24.4560   -16.6010 
  192.7500     2.3040    63.4040    38.8770    36.5410    54.7210    24.2870   -16.5370 
  192.8750     2.3090    64.1450    36.9930    34.1160    41.0020    24.1790   -16.5210 
  193.0000     2.3030    63.5570    39.9090    35.7640    35.5110    24.1650   -16.5550 
  193.1250     2.2860    62.4230    47.5390    41.8800    46.5440    24.1850   -16.6350 
  193.2500     2.2670    60.5680    57.8530    51.1510    56.3320    24.2860   -16.7550 
  193.3750     2.2500    58.3880    69.0710    62.2340    64.5900    24.4420   -16.8750 
  193.5000     2.2380    55.5740    79.0110    73.0040    75.6240    24.5660   -16.9930 
  193.6250     2.2350    51.1670    84.7740    80.1690    79.2960    24.6230   -17.1040 
  193.7500     2.2390    48.9660    85.8640    82.5420    76.1310    24.6650   -17.1780 
  193.8750     2.2480    52.7150    82.7970    80.4030    72.4140    24.6540   -17.2110 
  194.0000     2.2600    59.2920    76.9370    75.0720    68.5700    24.5870   -17.2040 
  194.1250     2.2700    60.3250    69.8580    68.0670    62.3270    24.5800   -17.1890 
  194.2500     2.2770    58.7380    63.2460    61.2000    55.9590    24.6310   -17.1730 
  194.3750     2.2810    59.7920    57.9990    55.4370    49.4220    24.6880   -17.1700 
  194.5000     2.2830    61.5630    54.5880    51.3110    43.9290    24.7370   -17.1750 
  194.6250     2.2820    59.3630    53.5160    49.3560    42.6980    24.8030   -17.2420 
  194.7500     2.2810    55.7890    54.4770    49.3140    44.3390    24.7890   -17.3810 
  194.8750     2.2790    56.0030    57.5280    51.2410    44.6570    24.7330   -17.5390 
  195.0000     2.2760    59.9760    62.8000    55.2490    45.2370    24.7240   -17.7150 
  195.1250     2.2740    63.7020    70.8380    61.8420    48.2120    24.6850   -17.9110 
  195.2500     2.2690    64.4570    80.8840    70.6480    56.4590    24.6190   -18.1580 
  195.3750     2.2600    62.9860    92.3640    81.3680    66.9960    24.6100   -18.4150 
  195.5000     2.2450    60.8730   104.2780    93.2980    75.5160    24.6680   -18.6390 
  195.6250     2.2250    57.6460   115.2610   105.1050    84.2980    24.7180   -18.8180 
  195.7500     2.2070    54.3060   124.2270   115.2920    92.8810    24.7760   -19.0040 
  195.8750     2.1940    53.5910   132.2060   122.8010   101.0060    24.8410   -19.2070 
  196.0000     2.1900    54.9270   136.8670   127.1540   105.3530    24.8340   -19.3610 
  196.1250     2.1930    54.9230   138.0750   128.1710   107.7490    24.8190   -19.5000 
