~V
VERS. 2.00: Ver 2.00
~W
STRT.M 50.0000:
STOP.M 278.0000:
STEP.M 0.1250:
NULL. -999.2500:
UWI. F10217:
~C
DEPT.M :
SP.MV :
DEN.GM/CC :
GR.API :
RML.OHMM :
RI. :
RXO.OHMM :
CALI.CM :
~A
# ...
  140.0000   -14.4290     2.3530    83.2480     5.3870     5.6040     7.4090    23.7520 
  140.1250   -14.3830     2.3510    89.9700     4.6710     4.8800     5.3520    23.7920 
  140.2500   -14.3430     2.3330    96.1570     4.1040     4.2310     4.4110    23.8350 
  140.3750   -14.2990     2.3130    97.1080     3.7280     3.7330     4.1090    23.8820 
  140.5000   -14.2640     2.3000    94.9250     3.5250     3.3990     4.0760    23.9590 
  140.6250   -14.2650     2.2960    94.0240     3.4840     3.2410     4.2370    24.0640 
  140.7500   -14.2700     2.2960    93.7890     3.5990     3.2330     4.4150    24.1630 
  140.8750   -14.2880     2.2980    91.0280     3.9410     3.4140     4.5090    24.2220 
  141.0000   -14.3250     2.3040    84.3140     4.6080     3.8480     4.6620    24.2220 
  141.1250   -14.3510     2.3230    76.0670     5.7560     4.6600     5.7410    24.1530 
  141.2500   -14.3490     2.3530    68.1460     7.2870     5.8200     8.9540    24.0910 
  141.3750   -14.3570     2.3890    61.0470     8.9920     7.2400    14.1770    24.1140 
  141.5000   -14.3550     2.4230    55.7940    10.5080     8.6800    16.1440    24.2270 
  141.6250   -14.3490     2.4500    52.9100    11.3680     9.7150    15.3720    24.3490 
  141.7500   -14.3340     2.4680    50.6060    11.6510    10.2290    14.5990    24.4040 
  141.8750   -14.2910     2.4820    48.0020    11.6530    10.3690    14.7200    24.4040 
  142.0000   -14.2520     2.4970    45.3290    11.7040    10.4070    14.9640    24.3950 
  142.1250   -14.2200     2.5140    43.3410    12.0100    10.5720    15.1570    24.3900 
  142.2500   -14.1910     2.5310    42.8940    12.4990    10.8850    15.6740    24.3720 
  142.3750   -14.1710     2.5450    43.9570    13.0730    11.2980    16.9150    24.3270 
  142.5000   -14.1660     2.5520    44.7560    13.6620    11.7620    17.9770    24.2930 
  142.6250   -14.1600     2.5510    45.2740    14.2410    12.2450    17.4920    24.3450 
  142.7500   -14.1780     2.5440    46.1030    14.7970    12.7240    17.3240    24.4190 
  142.8750   -14.2240     2.5350    46.0370    15.2830    13.1650    18.4700    24.4780 
  143.0000   -14.2640     2.5270    45.1200    15.6170    13.5110    20.1370    24.4750 
  143.1250   -14.3080     2.5240    45.0930    15.6600    13.6560    20.5550    24.3970 
  143.2500   -14.3770     2.5270    45.8090    15.4000    13.5680    19.3430    24.2670 
  143.3750   -14.4590     2.5320    45.8600    14.8610    13.2360    17.6450    24.1370 
  143.5000   -14.5450     2.5350    46.1480    14.1460    12.7150    16.9490    24.0170 
  143.6250   -14.6380     2.5290    48.9890    13.4270    12.1250    16.3140    23.9240 
  143.7500   -14.7280     2.5170    51.0140    12.8560    11.6130    15.3410    23.8840 
  143.8750   -14.8130     2.5020    52.0770    12.5070    11.2580    13.8850    23.9120 
  144.0000   -14.8990     2.4910    54.4070    12.4010    11.0970    12.8150    24.0330 
  144.1250   -14.9960     2.4920    58.8600    12.5300    11.1460    13.0160    24.2660 
  144.2500   -15.0820     2.4990    62.3740    12.7700    11.3250    13.9670    24.4600 
  144.3750   -15.1490     2.5040    61.9950    13.0120    11.5580    15.1110    24.5500 
  144.5000   -15.1860     2.4980    60.1300    13.1460    11.7490    15.0340    24.5720 
  144.6250   -15.2100     2.4770    61.3920    13.0470    11.7680    14.7450    24.5790 
  144.7500   -15.2040     2.4490    63.8870    12.7260    11.5830    14.5530    24.5840 
  144.8750   -15.1790     2.4260    63.8240    12.2250    11.2040    14.1790    24.5790 
  145.0000   -15.1430     2.4180    60.1100    11.6360    10.6970    13.2440    24.5670 
  145.1250   -15.0790     2.4270    56.6090    11.1110    10.1850    11.6330    24.5550 
  145.2500   -14.9990     2.4400    54.9790    10.7680     9.7930    10.7810    24.5270 
  145.3750   -14.9060     2.4470    55.3010    10.6630     9.5880    10.2650    24.5040 
  145.5000   -14.8250     2.4430    57.4650    10.7880     9.5880    10.2100    24.5030 
  145.6250   -14.7480     2.4330    59.5300    11.0930     9.7830    11.0160    24.5060 
  145.7500   -14.7090     2.4240    58.5030    11.4420    10.0630    11.9880    24.4950 
  145.8750   -14.6940     2.4210    56.4610    11.7680    10.3570    12.3130    24.4590 
  146.0000   -14.6910     2.4240    56.4010    12.0590    10.6320    11.6240    24.4170 
  146.1250   -14.7000     2.4310    56.8190    12.3410    10.8930    11.4140    24.4010 
  146.2500   -14.7250     2.4420    57.1120    12.6230    11.1460    12.3350    24.3850 
  146.3750   -14.7540     2.4550    57.2730    12.8690    11.3690    14.3930    24.3670 
  146.5000   -14.7950     2.4680    56.9900    13.0150    11.5150    17.3280    24.3920 
  146.6250   -14.8600     2.4800    55.2140    12.9770    11.5050    18.9640    24.4660 
  146.7500   -14.9080     2.4880    55.0000    12.7790    11.3500    17.1810    24.4940 
  146.8750   -14.9370     2.4910    59.3940    12.4870    11.1020    14.4210    24.4830 
  147.0000   -14.9660     2.4910    64.6350    12.1920    10.8450    13.0660    24.4440 
  147.1250   -15.0040     2.4900    63.6770    12.0020    10.6790    12.6590    24.3990 
  147.2500   -15.0420     2.4940    59.9680    11.9810    10.6620    12.6800    24.3720 
  147.3750   -15.1030     2.5020    59.5910    12.1810    10.8430    12.7360    24.3630 
  147.5000   -15.1610     2.5130    62.2430    12.6110    11.2420    12.7510    24.3660 
  147.6250   -15.1960     2.5260    59.6710    13.2160    11.8460    13.5940    24.3870 
  147.7500   -15.2430     2.5400    53.4010    13.7770    12.4900    15.1310    24.4340 
  147.8750   -15.3000     2.5580    51.7470    14.0210    12.9490    16.9550    24.4930 
  148.0000   -15.3630     2.5760    55.2590    13.6370    12.9180    18.0520    24.5690 
  148.1250   -15.4170     2.5840    59.0930    12.3310    12.0290    17.4350    24.6390 
  148.2500   -15.4820     2.5680    62.1990    10.4440    10.4990    14.6470    24.6800 
  148.3750   -15.5590     2.5250    67.0050     8.4000     8.6810    11.1660    24.6910 
  148.5000   -15.6250     2.4620    75.1470     6.5970     6.9540     7.7050    24.6410 
  148.6250   -15.6940     2.3980    84.8920     5.3300     5.6250     5.1780    24.4310 
  148.7500   -15.7590     2.3500    92.6170     4.5280     4.7030     4.2090    24.0670 
  148.8750   -15.8110     2.3240    95.4230     4.1070     4.1520     4.0470    23.7560 
  149.0000   -15.8750     2.3140    94.2900     3.9760     3.9130     4.1970    23.6140 
  149.1250   -15.9530     2.3080    92.4200     4.0800     3.9510     4.5590    23.5830 
  149.2500   -16.0310     2.2960    91.6670     4.3090     4.1480     5.0460    23.5690 
  149.3750   -16.0860     2.2790    90.7040     4.6140     4.4460     5.4320    23.5520 
  149.5000   -16.1500     2.2640    89.4730     4.9650     4.8050     5.5640    23.5210 
  149.6250   -16.2030     2.2620    88.8150     5.3400     5.1990     5.6750    23.4430 
  149.7500   -16.2630     2.2730    87.6030     5.6790     5.5710     5.9930    23.3210 
  149.8750   -16.3500     2.2900    84.0100     5.9020     5.8410     6.5650    23.2620 
  150.0000   -16.4310     2.3030    80.0870     5.9220     5.9170     7.3500    23.3510 
  150.1250   -16.5110     2.3010    82.0080     5.6570     5.7020     7.6370    23.5330 
  150.2500   -16.6110     2.2880    84.7200     5.2330     5.2970     6.5360    23.6780 
  150.3750   -16.7190     2.2720    83.9610     4.8200     4.8470     5.4210    23.6610 
  150.5000   -16.8400     2.2600    83.5360     4.5890     4.5120     4.9960    23.5020 
  150.6250   -16.9830     2.2600    87.0190     4.7320     4.4700     5.1340    23.3440 
  150.7500   -17.1200     2.2660    88.4480     5.2680     4.7650     5.7090    23.2630 
  150.8750   -17.2390     2.2730    85.3740     6.1900     5.4170     7.1470    23.1830 
  151.0000   -17.3340     2.2760    83.8740     7.3840     6.3670     9.9290    23.0750 
  151.1250   -17.4190     2.2760    84.9580     8.5540     7.4210    12.3700    22.9940 
