~V
VERS. 2.00: Ver 2.00
~W
STRT.M 52.0000:
STOP.M 254.0000:
STEP.M 0.1250:
NULL. -999.2500:
UWI. F10213:
~C
DEPT.M :
DEN.GM/CC :
GR.API :
RML.OHMM :
RI. :
RXO.OHMM :
CALI.CM :
SP.MV :
~A
# ...
  209.5000     2.2910    70.6940    15.0420    13.6130    16.5360    24.6670   -17.7000 
  209.6250     2.2930    68.1100    16.1570    14.6700    18.4590    24.7220   -17.3570 
  209.7500     2.2950    68.2220    17.1140    15.6660    20.2370    24.8180   -16.9860 
  209.8750     2.2950    68.2470    17.8060    16.4750    20.8280    24.9390   -16.6380 
  210.0000     2.2910    67.2430    18.2140    17.0350    20.2290    25.0200   -16.3390 
  210.1250     2.2810    67.3040    18.3420    17.3130    19.4450    25.0850   -16.0630 
  210.2500     2.2710    70.5540    18.2600    17.3760    19.2310    25.1550   -15.7810 
  210.3750     2.2630    74.7360    17.9500    17.2200    19.6410    25.2420   -15.5070 
  210.5000     2.2570    75.2980    17.3740    16.8170    19.4590    25.3210   -15.2830 
  210.6250     2.2550    71.8120    16.5170    16.1240    17.8540    25.3530   -15.1630 
  210.7500     2.2560    71.1360    15.5380    15.2610    15.9140    25.3290   -15.1340 
  210.8750     2.2590    75.2140    14.5980    14.3620    14.7020    25.2550   -15.1600 
  211.0000     2.2620    79.4640    13.8570    13.5850    14.1390    25.1890   -15.2160 
  211.1250     2.2640    77.8890    13.5020    13.1220    13.9760    25.1720   -15.3400 
  211.2500     2.2670    74.7690    13.5580    13.0270    14.0580    25.1930   -15.5180 
  211.3750     2.2750    73.3370    14.0650    13.3530    14.2990    25.2360   -15.7520 
  211.5000     2.2840    72.8260    15.0340    14.1310    15.1700    25.2910   -16.0220 
  211.6250     2.2910    72.1710    16.4940    15.4230    17.0740    25.3480   -16.3160 
  211.7500     2.2970    70.7780    19.0460    17.0930    19.8500    25.3820   -16.5860 
  211.8750     2.3040    69.3440    21.9220    19.0450    22.6480    25.3320   -16.8330 
  212.0000     2.3090    67.6870    24.2270    21.1660    25.8010    25.2350   -17.0530 
  212.1250     2.3030    64.2990    26.5470    23.3490    28.6870    25.2640   -17.2290 
  212.2500     2.2870    61.4860    28.7710    25.4780    30.5770    25.2810   -17.4100 
  212.3750     2.2670    60.9580    30.8020    27.4610    32.2280    25.2750   -17.5960 
  212.5000     2.2580    62.8830    32.5780    29.2300    34.0900    25.2520   -17.7370 
  212.6250     2.2640    63.7570    34.0970    30.7700    37.3290    25.2920   -17.8220 
  212.7500     2.2760    62.8110    35.5280    32.2250    39.6300    25.3020   -17.9230 
  212.8750     2.2800    60.7020    36.9980    33.7120    38.7480    25.2810   -18.0470 
  213.0000     2.2700    60.1080    38.6030    35.3310    38.3340    25.2400   -18.2010 
  213.1250     2.2520    62.6020    40.4660    37.2230    42.1080    25.2650   -18.3440 
  213.2500     2.2340    64.9860    42.6020    39.4240    44.0860    25.2100   -18.4360 
  213.3750     2.2180    65.2350    44.9210    41.8840    41.2200    24.8850   -18.4860 
  213.5000     2.2040    62.6440    47.0720    44.3150    35.9840    24.2200   -18.5490 
  213.6250     2.1930    60.5010    48.0560    45.8520    34.3510    23.5610   -18.6360 
  213.7500     2.1850    60.9970    47.0030    45.6140    35.6070    23.2190   -18.7040 
  213.8750     2.1820    63.3540    43.4830    43.0170    37.9640    23.4690   -18.7730 
  214.0000     2.1850    63.8180    38.0970    38.3950    37.9210    24.1770   -18.8110 
  214.1250     2.1940    60.5910    32.4560    33.0970    32.6040    24.9570   -18.8310 
  214.2500     2.2080    60.9500    28.0640    28.6660    27.9900    25.2890   -18.8870 
  214.3750     2.2230    65.5530    25.5600    25.7780    24.5880    25.3640   -19.0170 
  214.5000     2.2370    68.9670    25.1490    24.6980    22.7680    25.3190   -19.2140 
  214.6250     2.2510    67.6860    27.1120    25.8130    23.3790    25.0670   -19.4780 
  214.7500     2.2640    65.5930    30.7950    28.7280    26.1400    24.4720   -19.8030 
  214.8750     2.2780    63.2260    35.5150    33.0300    29.5980    23.6230   -20.1640 
  215.0000     2.2960    60.5740    40.0290    37.7170    34.3730    23.0610   -20.5690 
  215.1250     2.3200    59.9950    42.4540    40.9890    40.6730    23.2260   -21.0450 
  215.2500     2.3390    61.5730    42.8270    42.3470    44.1820    23.9620   -21.5670 
  215.3750     2.3340    62.0760    42.5420    42.6790    42.4450    24.7990   -22.0840 
  215.5000     2.3000    60.4800    43.3940    43.5170    38.3920    25.2580   -22.5950 
  215.6250     2.2640    60.2540    47.1500    46.7360    42.0540    25.3750   -23.1310 
  215.7500     2.2530    61.6360    53.4980    52.6230    54.3550    25.3990   -23.6750 
  215.8750     2.2670    60.1890    60.2280    59.5630    75.2690    25.4210   -24.2390 
  216.0000     2.3000    55.2580    61.6630    62.3430    93.6580    25.3560   -24.8530 
  216.1250     2.3580    50.7520    51.0330    53.4280    99.6350    25.1210   -25.6000 
  216.2500     2.4330    48.3970    35.6170    38.5170    86.6320    24.8230   -26.4830 
  216.3750     2.5030    47.4710    22.8730    25.2190    50.1640    24.5950   -27.5540 
  216.5000     2.5270    45.9180    13.8460    16.4740    20.9390    24.4490   -28.8450 
  216.6250     2.4790    42.3560    10.4740    12.0910    11.1680    24.4400   -30.2810 
  216.7500     2.4090    37.9330     9.1500     9.9650    10.6890    24.4900   -31.6950 
  216.8750     2.3520    36.2410     9.0720     9.2360    13.7000    24.5650   -32.9910 
  217.0000     2.3230    38.7090     9.6450     9.3900    16.1250    24.6560   -34.1120 
  217.1250     2.3210    42.0950    10.2800     9.9830    15.4320    24.8860   -34.9390 
  217.2500     2.3300    43.7440    10.5380    10.4420    12.9970    25.0790   -35.4800 
  217.3750     2.3420    45.2610    10.3730    10.5340    11.0610    25.2210   -35.7310 
  217.5000     2.3530    47.4560    10.0070    10.3290    10.4520    25.2880   -35.6630 
  217.6250     2.3670    49.2900     9.7110    10.0400    10.6690    25.3190   -35.4160 
  217.7500     2.3780    50.0260     9.5570     9.8060    10.7670    25.3440   -35.1620 
  217.8750     2.3800    50.3380     9.5160     9.6460    10.7220    25.3520   -34.9680 
  218.0000     2.3750    49.9460     9.5410     9.5360    10.4710    25.3530   -34.8630 
  218.1250     2.3700    46.3950     9.5930     9.4380    10.4150    25.3200   -34.8540 
  218.2500     2.3670    41.4150     9.6420     9.3260    10.4940    25.2670   -34.9520 
  218.3750     2.3660    39.1200     9.6740     9.2030    10.6380    25.1880   -35.1040 
  218.5000     2.3680    39.7060     9.6790     9.0820    10.6220    24.9690   -35.3210 
  218.6250     2.3700    39.8240     9.6600     8.9860    10.3740    24.5040   -35.5210 
  218.7500     2.3670    38.6680     9.6610     8.9360    10.0860    23.9470   -35.6930 
  218.8750     2.3610    38.4680     9.7320     8.9600     9.7140    23.1960   -35.8200 
  219.0000     2.3560    40.1440     9.9100     9.0790     9.2750    22.1470   -35.8640 
  219.1250     2.3570    41.9500    10.1770     9.2890     9.0240    21.0810   -35.7740 
  219.2500     2.3630    43.2240    10.4060     9.4940     9.2200    20.3380   -35.5100 
  219.3750     2.3680    44.4210    10.4510     9.5710     9.6030    19.5660   -35.0770 
  219.5000     2.3680    45.2680    10.1940     9.4030     9.6990    18.7920   -34.4540 
  219.6250     2.3530    47.3360     9.5880     8.9140     9.2230    18.6160   -33.6140 
  219.7500     2.3250    49.9570     8.8330     8.2530     8.4780    19.0130   -32.5900 
  219.8750     2.2970    52.5890     8.1160     7.5710     7.9910    19.8930   -31.4280 
  220.0000     2.2770    53.3520     7.5710     6.9940     7.7000    21.2780   -30.1760 
  220.1250     2.2590    52.6970     7.2730     6.6130     7.4620    22.7570   -28.8830 
  220.2500     2.2420    54.4470     7.1360     6.3970     7.2820    23.7150   -27.6180 
  220.3750     2.2390    58.3630     7.0830     6.3010     7.2560    24.2420   -26.3670 
  220.5000     2.2530    61.4590     7.0320     6.2610     7.2300    24.7010   -25.1590 
  220.6250     2.2710    61.2280     6.9230     6.2040     7.1000    24.9190   -24.0570 
