~V
VERS. 2.00: Ver 2.00
~W
STRT.M 50.0000:
STOP.M 275.0000:
STEP.M 0.1250:
NULL. -999.2500:
UWI. F10202:
~C
DEPT.M :
GR.API :
RML.OHMM :
RI. :
RXO.OHMM :
CALI.CM :
SP.MV :
DEN.GM/CC :
~A
# ...
  117.5000    73.7850     8.7640     7.4100    10.0640    25.2210    -4.9990     2.1610 
  117.6250    68.5480     8.7390     7.4150    10.3540    25.0400    -5.1450     2.1670 
  117.7500    67.2800     8.6320     7.3270    10.3790    24.7830    -5.1270     2.1720 
  117.8750    71.2850     8.4700     7.1590    10.1590    24.6330    -4.9900     2.1720 
  118.0000    78.7120     8.3100     6.9600     9.6120    24.6110    -4.8100     2.1690 
  118.1250    89.5340     8.2280     6.8090     8.9360    24.4900    -4.5870     2.1720 
  118.2500    97.0030     8.2450     6.7500     8.9720    24.2130    -4.4130     2.1820 
  118.3750    96.6650     8.3500     6.7900     9.5090    24.0480    -4.2620     2.1970 
  118.5000    91.3680     8.5000     6.8980     9.8960    24.0100    -4.0160     2.2090 
  118.6250    88.0240     8.6480     7.0300     9.8630    24.0360    -3.7640     2.2100 
  118.7500    86.3630     8.7690     7.1480     9.5760    24.0910    -3.6770     2.2010 
  118.8750    82.1580     8.8700     7.2490     9.3630    24.1390    -3.6540     2.1890 
  119.0000    78.7990     8.9670     7.3480     9.1640    24.1240    -3.5770     2.1810 
  119.1250    80.4490     9.0650     7.4580     9.0950    24.0320    -3.3870     2.1840 
  119.2500    83.2710     9.1460     7.5650     8.9500    23.9650    -3.0980     2.1960 
  119.3750    84.8900     9.1840     7.6430     8.8580    23.9490    -2.7710     2.2090 
  119.5000    87.1180     9.1570     7.6680     8.7870    23.9680    -2.4720     2.2150 
  119.6250    91.8640     9.0620     7.6270     8.9340    23.9930    -2.1380     2.2060 
  119.7500    93.4260     8.9380     7.5510     8.9860    24.0030    -1.8010     2.1880 
  119.8750    88.9880     8.8180     7.4670     8.9700    24.0050    -1.5870     2.1690 
  120.0000    81.7830     8.7270     7.3970     9.1000    24.0050    -1.5810     2.1570 
  120.1250    76.5460     8.6770     7.3520     9.4440    24.0050    -1.7000     2.1560 
  120.2500    77.0770     8.6570     7.3250     9.5860    24.0050    -1.7760     2.1650 
  120.3750    81.3580     8.6670     7.3160     9.5920    24.0050    -1.8570     2.1780 
  120.5000    84.2910     8.7220     7.3360     9.5920    24.0050    -2.0570     2.1910 
  120.6250    82.9030     8.8620     7.4230     9.6290    24.0040    -2.4510     2.2000 
  120.7500    80.9900     9.0870     7.5890    10.0140    24.0030    -3.0270     2.2050 
  120.8750    80.3810     9.3770     7.8350    10.9080    24.0030    -3.7920     2.2060 
  121.0000    79.3200     9.6800     8.1240    12.3850    24.0050    -4.5960     2.2050 
  121.1250    75.6570     9.9060     8.3840    13.9080    24.0170    -5.2520     2.2060 
  121.2500    77.8410    10.0070     8.5500    14.3030    24.0600    -5.7710     2.2120 
  121.3750    87.3190     9.9840     8.6010    13.2690    24.1530    -6.2670     2.2230 
  121.5000    93.6270     9.8880     8.5650    12.2410    24.3160    -6.7320     2.2330 
  121.6250    86.5130     9.8070     8.5110    11.7190    24.6060    -7.1030     2.2280 
  121.7500    76.4750     9.8010     8.5130    11.7220    25.0200    -7.3000     2.1990 
  121.8750    72.3940     9.8830     8.5980    11.9140    25.5170    -7.1760     2.1470 
  122.0000    71.1370    10.0260     8.7480    12.2670    26.0630    -6.7930     2.0860 
  122.1250    66.5750    10.1750     8.9040    12.6950    26.3240    -6.2500     2.0500 
  122.2500    65.0170    10.2750     9.0050    12.3960    25.8630    -5.4750     2.0580 
  122.3750    66.8010    10.3130     9.0310    11.0550    24.9730    -4.3840     2.1160 
  122.5000    69.5260    10.3150     9.0100     9.9360    24.3140    -3.0640     2.2120 
  122.6250    69.4920    10.3610     9.0290     9.4010    24.0420    -1.5560     2.3210 
  122.7500    66.9390    10.5210     9.1670     9.3100    23.9070     0.0580     2.4170 
  122.8750    63.7160    10.8320     9.4610     9.9510    23.8020     1.6220     2.4890 
  123.0000    60.1980    11.2850     9.9030    10.8380    23.7330     3.0640     2.5380 
  123.1250    57.8150    11.8320    10.4410    12.3810    23.6740     4.2450     2.5640 
  123.2500    56.9870    12.3800    10.9730    12.3940    23.6190     5.0230     2.5770 
  123.3750    56.8910    12.8730    11.4390    11.5130    23.5510     5.5270     2.5810 
  123.5000    57.8840    13.2890    11.8220    11.2800    23.4680     5.9080     2.5810 
  123.6250    59.7290    13.6270    12.1300    12.2310    23.3630     6.0960     2.5820 
  123.7500    60.7040    13.9220    12.4030    13.8210    23.2850     6.0330     2.5870 
  123.8750    60.1960    14.1770    12.6480    14.1830    23.2650     5.7370     2.5950 
  124.0000    60.7790    14.3810    12.8490    13.2610    23.2680     5.2550     2.6000 
  124.1250    63.1700    14.4970    12.9610    12.6850    23.2300     4.5900     2.5890 
  124.2500    63.9060    14.5310    12.9850    12.8930    23.1470     3.8240     2.5540 
  124.3750    63.2190    14.5050    12.9470    13.4760    23.0780     2.9620     2.4950 
  124.5000    64.0110    14.4540    12.8880    13.4880    23.0590     2.0260     2.4200 
  124.6250    67.1540    14.4210    12.8530    13.1490    23.0420     1.0310     2.3430 
  124.7500    68.3020    14.4210    12.8550    12.8920    23.0990     0.1620     2.2760 
  124.8750    65.9100    14.4480    12.8870    13.2810    23.3080    -0.5160     2.2250 
  125.0000    63.0900    14.4770    12.9260    14.7460    23.5750    -1.0800     2.1920 
  125.1250    63.3040    14.4610    12.9240    15.4020    23.6870    -1.5980     2.1760 
  125.2500    65.6120    14.3610    12.8390    15.1190    23.6930    -2.1000     2.1690 
  125.3750    66.2960    14.1190    12.6210    14.4410    23.6840    -2.5920     2.1680 
  125.5000    65.9230    13.6300    12.2210    14.2040    23.6830    -3.1310     2.1700 
  125.6250    73.7140    12.7230    11.5910    13.6380    23.6830    -3.6680     2.1730 
  125.7500    83.2910    11.5410    10.8140    12.9990    23.6810    -4.2450     2.1800 
  125.8750    83.5670    10.3640     9.9940    12.0440    23.6690    -4.9090     2.1870 
  126.0000    73.8210     9.4840     9.2580    11.0480    23.6130    -5.6150     2.1940 
  126.1250    66.7060     9.0770     8.7570     9.9960    23.5050    -6.2530     2.1940 
  126.2500    67.6800     8.9940     8.5140     9.7450    23.4080    -6.8150     2.1880 
  126.3750    69.5030     9.1300     8.5190    10.0050    23.3590    -7.3350     2.1770 
  126.5000    69.0790     9.4090     8.7270    10.7120    23.2360    -7.7640     2.1640 
  126.6250    66.9570     9.7650     9.0790    10.8320    23.0390    -8.1990     2.1510 
  126.7500    67.2070    10.1130     9.4750    10.2630    22.8740    -8.7890     2.1410 
  126.8750    69.9760    10.4030     9.8450     9.9990    22.7620    -9.4800     2.1360 
  127.0000    71.2010    10.5890    10.1280    10.2530    22.6350   -10.1380     2.1370 
  127.1250    68.1030    10.5980    10.2340    10.6620    22.5480   -10.8290     2.1440 
  127.2500    65.2860    10.4350    10.1540    10.8190    22.5140   -11.6640     2.1560 
  127.3750    66.6730    10.1260     9.8980    10.6550    22.5040   -12.6220     2.1670 
  127.5000    70.7260     9.7370     9.5190    10.7520    22.4810   -13.7450     2.1730 
  127.6250    73.4150     9.3650     9.1090    11.0310    22.4730   -15.0530     2.1690 
  127.7500    75.1640     9.0770     8.7540    11.0470    22.4650   -16.0220     2.1570 
  127.8750    76.7700     8.8850     8.4880    10.1200    22.4870   -16.1160     2.1430 
  128.0000    76.2850     8.7740     8.3090     9.5140    22.5160   -15.6070     2.1330 
  128.1250    72.4400     8.7280     8.2010     9.3270    22.5220   -14.9780     2.1330 
  128.2500    69.6330     8.7220     8.1360     9.2960    22.4990   -14.2760     2.1410 
  128.3750    70.1220     8.7490     8.1040     9.3940    22.4330   -13.5650     2.1560 
  128.5000    72.3530     8.7940     8.0980     9.5210    22.3540   -12.6770     2.1770 
  128.6250    75.0690     8.8180     8.1060     9.8320    22.0820   -11.1470     2.2030 
