~V
VERS. 2.00: Ver 2.00
~W
STRT.M 50.0000:
STOP.M 315.0000:
STEP.M 0.1250:
NULL. -999.2500:
UWI. F10300:
~C
DEPT.M :
GR.API :
RML.OHMM :
RI. :
RXO.OHMM :
CALI.CM :
DEN.GM/CC :
SP.MV :
~A
# ...
  218.7500    52.2110   153.5810   151.1390   118.0960    24.8920     2.2070   -29.1300 
  218.8750    51.8940   158.3490   155.7600   116.1850    24.9420     2.2140   -29.1590 
  219.0000    53.6860   159.0020   156.0330   108.9610    24.9610     2.2250   -29.1810 
  219.1250    55.4450   158.4670   154.5100   101.2990    24.9720     2.2320   -29.2330 
  219.2500    57.0710   160.4760   154.9360    98.5840    24.9870     2.2320   -29.2790 
  219.3750    57.4780   166.8450   159.2900   102.0030    24.9950     2.2260   -29.2930 
  219.5000    57.2880   177.7450   167.9780   109.3740    25.0040     2.2180   -29.2730 
  219.6250    57.6710   192.3210   180.3330   120.8020    25.0060     2.2120   -29.2210 
  219.7500    57.6740   208.1540   193.9660   126.8370    25.0210     2.2090   -29.2110 
  219.8750    56.5290   224.0080   207.5710   127.9880    25.0290     2.2090   -29.2480 
  220.0000    54.7470   239.1900   220.4240   128.3960    25.0080     2.2120   -29.2840 
  220.1250    54.0820   252.3170   231.4770   129.5730    24.9250     2.2150   -29.2620 
  220.2500    54.2200   261.1280   239.0160   131.3400    24.8130     2.2160   -29.1870 
  220.3750    53.5680   261.5940   239.7890   132.1240    24.7520     2.2150   -29.0980 
  220.5000    52.7210   249.4840   230.2290   131.3800    24.7370     2.2140   -29.0340 
  220.6250    54.4390   221.9410   207.2120   125.5660    24.7260     2.2180   -29.0290 
  220.7500    58.8530   186.3680   176.6380   114.8430    24.6920     2.2280   -29.0120 
  220.8750    62.1330   150.9690   145.2680    98.6710    24.6460     2.2430   -28.9270 
  221.0000    63.2510   122.6640   119.4470    78.0620    24.6070     2.2560   -28.7530 
  221.1250    64.3530   106.6840   104.5110    63.0620    24.5700     2.2610   -28.5530 
  221.2500    65.7860   103.4910    99.4310    58.6590    24.5010     2.2570   -28.3830 
  221.3750    66.4490   109.0580   103.2100    62.0870    24.3940     2.2490   -28.2410 
  221.5000    66.8670   121.6870   114.2170    67.4670    24.2670     2.2420   -28.0570 
  221.6250    66.3270   139.0010   130.2330    76.5690    24.1100     2.2370   -27.8170 
  221.7500    62.5190   156.1810   146.4760    83.4480    23.9760     2.2340   -27.5380 
  221.8750    57.9800   169.5020   159.2450    84.9170    23.9010     2.2320   -27.2720 
  222.0000    57.2200   176.5090   166.0520    83.0410    23.8910     2.2320   -27.0800 
  222.1250    60.4150   176.1220   165.6770    81.6780    23.9170     2.2340   -26.9140 
  222.2500    62.6980   171.6380   161.1140    80.4720    23.9440     2.2390   -26.7620 
  222.3750    61.7270   165.4930   154.6410    80.5100    23.9580     2.2450   -26.5790 
  222.5000    59.2860   159.5030   148.0480    82.0220    23.9680     2.2500   -26.4200 
  222.6250    57.5290   155.0530   142.7170    82.3830    24.0050     2.2510   -26.2540 
  222.7500    56.6970   152.4460   139.0510    81.2010    24.0910     2.2480   -26.0570 
  222.8750    55.5450   151.4880   136.9930    79.8480    24.2100     2.2430   -25.8560 
  223.0000    55.6050   151.2510   135.8480    81.0760    24.3190     2.2380   -25.6510 
  223.1250    58.5590   149.8250   134.0820    84.8400    24.3770     2.2380   -25.4940 
  223.2500    61.2980   145.7360   130.3080    88.5840    24.4070     2.2420   -25.2790 
  223.3750    62.6640   138.4760   123.9200    90.6310    24.4120     2.2510   -25.0080 
  223.5000    63.7970   128.8020   115.3410    89.5640    24.3550     2.2630   -24.7290 
  223.6250    64.3670   118.7790   106.0840    85.8190    24.2010     2.2730   -24.4860 
  223.7500    63.2750   110.7710    98.1940    82.9070    24.0130     2.2780   -24.3050 
  223.8750    62.2700   106.1350    92.9350    82.4100    23.9230     2.2750   -24.1090 
  224.0000    62.3260   105.3540    90.8740    83.0020    23.8390     2.2650   -23.8620 
  224.1250    62.7780   108.6310    92.3820    84.4610    23.5960     2.2520   -23.5160 
  224.2500    63.0320   114.4080    96.2950    87.8250    23.3540     2.2430   -23.1600 
  224.3750    62.7850   121.5860   101.8110    92.2980    23.2890     2.2410   -22.8460 
  224.5000    61.7090   129.0950   108.1030    95.3270    23.3650     2.2450   -22.5370 
  224.6250    59.8980   135.8610   114.3260    96.8010    23.4710     2.2530   -22.2050 
  224.7500    58.2560   141.2860   119.7820    97.8480    23.6170     2.2600   -21.8170 
  224.8750    57.0840   144.8190   123.8630    99.3280    23.8400     2.2650   -21.3790 
  225.0000    57.9270   145.7540   125.8370   101.4400    24.0950     2.2690   -20.9380 
  225.1250    59.2750   142.3520   124.0740   102.3460    24.2500     2.2700   -20.5200 
  225.2500    58.5450   134.0440   117.9310    98.5710    24.3220     2.2700   -20.1350 
  225.3750    56.5370   120.4060   106.8560    90.3020    24.4040     2.2730   -19.7510 
  225.5000    54.0790   102.2910    91.4220    80.4360    24.5200     2.2860   -19.3390 
  225.6250    51.8710    82.1480    73.7000    70.2570    24.4670     2.3130   -18.9110 
  225.7500    52.3480    63.5840    57.1870    55.5270    24.2490     2.3520   -18.4870 
  225.8750    56.5820    48.6390    43.9240    39.0790    24.0740     2.3930   -18.1540 
  226.0000    60.6000    38.1130    34.6510    26.2730    24.0650     2.4260   -17.9340 
  226.1250    59.6790    32.6130    29.6830    20.2660    24.1380     2.4410   -17.8120 
  226.2500    59.2460    31.0530    27.9030    18.5870    24.1360     2.4390   -17.7450 
  226.3750    62.4890    33.1580    29.1130    20.6480    24.1070     2.4270   -17.7240 
  226.5000    65.8530    38.4920    33.1600    27.0210    24.0940     2.4100   -17.7750 
  226.6250    64.7250    46.1420    39.6720    38.5650    24.1060     2.3910   -17.9050 
  226.7500    62.1680    53.5720    46.6000    52.8500    24.1330     2.3720   -18.1540 
  226.8750    59.0410    58.4690    51.8130    65.1210    24.1560     2.3560   -18.4710 
  227.0000    55.4430    59.1850    53.4510    70.9490    24.1640     2.3460   -18.7700 
  227.1250    56.1290    55.4220    50.6620    65.7590    24.1960     2.3420   -19.0170 
  227.2500    62.7250    50.5260    46.2420    48.8650    24.2630     2.3400   -19.2370 
  227.3750    69.5690    47.6020    42.8910    34.1920    24.2970     2.3340   -19.4840 
  227.5000    69.0280    48.9840    42.6620    32.5000    24.2310     2.3210   -19.7770 
  227.6250    63.4320    56.4880    47.3930    43.4780    24.1320     2.3050   -20.0510 
  227.7500    62.1760    68.2630    56.2010    59.8670    24.1000     2.2880   -20.2560 
  227.8750    64.6100    81.7020    67.4840    77.1870    24.1320     2.2740   -20.3910 
  228.0000    66.3880    92.9600    78.2620    88.3010    24.2250     2.2610   -20.5210 
  228.1250    64.1770    96.5900    83.6910    88.9380    24.3150     2.2530   -20.6770 
  228.2500    61.6900    91.8980    82.0970    84.9440    24.3620     2.2510   -20.8320 
  228.3750    61.1470    81.0530    74.6210    77.6360    24.3730     2.2560   -20.9600 
  228.5000    62.2050    68.3760    64.7360    66.7830    24.3570     2.2650   -21.0030 
  228.6250    64.3290    58.2740    56.3520    53.4430    24.3000     2.2720   -21.0360 
  228.7500    65.0700    51.8230    50.8280    43.6660    24.2190     2.2740   -21.0640 
  228.8750    64.1860    48.5330    47.9530    41.3500    24.1650     2.2720   -21.0910 
  229.0000    64.4180    47.1680    46.7820    44.4140    24.1340     2.2710   -21.1130 
  229.1250    67.9650    46.1350    45.9490    47.7160    24.0860     2.2770   -21.1480 
  229.2500    71.6940    44.0870    44.1540    46.3250    24.0090     2.2880   -21.2250 
  229.3750    73.5680    40.5560    40.8540    38.8360    23.8980     2.3040   -21.2980 
  229.5000    74.4210    35.7970    36.2350    30.3960    23.7840     2.3230   -21.3990 
  229.6250    75.0340    30.7140    31.1820    25.5770    23.7240     2.3450   -21.5560 
  229.7500    74.5680    26.3940    26.8050    22.3100    23.6760     2.3650   -21.7900 
  229.8750    75.4590    23.4350    23.6500    19.9320    23.6370     2.3780   -22.1280 
