~V
VERS. 2.00: Ver 2.00
~W
STRT.M 50.0000:
STOP.M 315.0000:
STEP.M 0.1250:
NULL. -999.2500:
UWI. F10300:
~C
DEPT.M :
GR.API :
RML.OHMM :
RI. :
RXO.OHMM :
CALI.CM :
DEN.GM/CC :
SP.MV :
~A
# ...
  173.7500    85.7140     5.1010     4.4760     4.2440    24.6800     2.3820    -1.4620 
  173.8750    83.7830     5.1000     4.5010     4.2160    24.6520     2.3750    -1.3940 
  174.0000    82.8920     5.0460     4.4680     4.1600    24.6330     2.3660    -1.3400 
  174.1250    83.9930     4.9470     4.3840     4.0880    24.6270     2.3560    -1.2990 
  174.2500    86.1510     4.8330     4.2860     4.0120    24.6270     2.3450    -1.2580 
  174.3750    88.3670     4.7120     4.1970     3.9740    24.6270     2.3350    -1.1980 
  174.5000    90.7390     4.5930     4.1340     3.9810    24.6270     2.3290    -1.1630 
  174.6250    91.7640     4.4980     4.1050     4.0110    24.6270     2.3300    -1.1540 
  174.7500    90.5710     4.4400     4.0960     4.0530    24.6370     2.3370    -1.1170 
  174.8750    88.7060     4.4040     4.0910     4.0840    24.6740     2.3480    -1.0800 
  175.0000    88.5340     4.3800     4.0780     4.1120    24.7470     2.3580    -1.0770 
  175.1250    90.6170     4.3760     4.0520     4.1120    24.7820     2.3630    -1.0770 
  175.2500    91.8480     4.3750     4.0220     4.0830    24.7550     2.3630    -1.0740 
  175.3750    89.3040     4.3760     4.0020     4.0600    24.7140     2.3600    -1.0980 
  175.5000    83.9610     4.3760     4.0000     4.1010    24.6970     2.3570    -1.1010 
  175.6250    79.3040     4.3770     4.0210     4.1950    24.6970     2.3540    -1.0940 
  175.7500    78.4790     4.3760     4.0490     4.2920    24.6970     2.3530    -1.1440 
  175.8750    81.7520     4.3690     4.0710     4.3440    24.6970     2.3510    -1.1800 
  176.0000    85.7400     4.3540     4.0750     4.3180    24.7000     2.3490    -1.1620 
  176.1250    86.0590     4.3290     4.0590     4.2090    24.7550     2.3460    -1.1540 
  176.2500    85.4760     4.3020     4.0380     4.1170    24.8470     2.3420    -1.1980 
  176.3750    86.7710     4.2900     4.0260     4.1010    24.8570     2.3400    -1.2290 
  176.5000    88.4830     4.3060     4.0350     4.1640    24.7170     2.3390    -1.2410 
  176.6250    88.4680     4.3540     4.0730     4.2630    24.6110     2.3400    -1.2650 
  176.7500    87.2810     4.4170     4.1280     4.3660    24.5690     2.3420    -1.2810 
  176.8750    87.1950     4.4800     4.1880     4.4570    24.5550     2.3440    -1.3090 
  177.0000    88.5710     4.5320     4.2410     4.5380    24.5490     2.3460    -1.3810 
  177.1250    89.1460     4.5640     4.2770     4.6000    24.5510     2.3480    -1.4560 
  177.2500    88.6410     4.5810     4.2950     4.6340    24.5510     2.3480    -1.4720 
  177.3750    88.0190     4.5860     4.2970     4.6420    24.5440     2.3470    -1.4940 
  177.5000    88.9170     4.5830     4.2860     4.6310    24.5290     2.3450    -1.5580 
  177.6250    89.9840     4.5690     4.2590     4.6100    24.5010     2.3430    -1.6140 
  177.7500    89.4050     4.5410     4.2170     4.5950    24.4890     2.3420    -1.6400 
  177.8750    86.3500     4.5030     4.1670     4.5880    24.4860     2.3440    -1.6610 
  178.0000    82.2590     4.4660     4.1170     4.5850    24.4920     2.3470    -1.6920 
  178.1250    82.1270     4.4570     4.0920     4.5930    24.5100     2.3460    -1.7860 
  178.2500    86.2870     4.5040     4.1150     4.6410    24.5330     2.3390    -1.9110 
  178.3750    91.6610     4.6270     4.2050     4.7610    24.5340     2.3270    -2.0180 
  178.5000    97.4650     4.8330     4.3710     4.9790    24.5060     2.3160    -2.0820 
  178.6250   102.9350     5.1180     4.6160     5.3020    24.4540     2.3120    -2.1740 
  178.7500   104.5160     5.4300     4.9000     5.6840    24.3770     2.3170    -2.3170 
  178.8750   100.6710     5.7250     5.1840     6.0330    24.2700     2.3270    -2.4560 
  179.0000    94.3040     5.9570     5.4230     6.2850    24.1680     2.3380    -2.5640 
  179.1250    89.8390     6.0750     5.5620     6.4140    24.1250     2.3460    -2.6160 
  179.2500    89.3550     6.0850     5.5950     6.3610    24.1140     2.3520    -2.6310 
  179.3750    90.9650     5.9950     5.5260     6.2840    24.1010     2.3580    -2.6090 
  179.5000    89.7940     5.8280     5.3750     6.1790    24.0700     2.3660    -2.6250 
  179.6250    85.0380     5.6160     5.1710     5.9090    24.0260     2.3760    -2.6670 
  179.7500    83.3620     5.4120     4.9700     5.4970    23.9510     2.3850    -2.6760 
  179.8750    85.3340     5.2640     4.8150     5.0250    23.8580     2.3930    -2.6630 
  180.0000    87.6800     5.2100     4.7420     4.7290    23.7880     2.3990    -2.6240 
  180.1250    88.8270     5.2890     4.7900     4.7710    23.8190     2.4030    -2.5950 
  180.2500    90.9270     5.4650     4.9330     4.9700    23.9830     2.4070    -2.6060 
  180.3750    92.8310     5.6960     5.1440     5.2260    24.2590     2.4060    -2.6580 
  180.5000    95.2540     5.9290     5.3760     5.4620    24.4850     2.4000    -2.7160 
  180.6250   101.4250     6.0940     5.5660     5.6440    24.5490     2.3840    -2.7750 
  180.7500   107.2340     6.1600     5.6720     5.7110    24.4840     2.3650    -2.8440 
  180.8750   110.0240     6.1140     5.6730     5.6570    24.3320     2.3450    -2.9080 
  181.0000   109.8840     5.9670     5.5700     5.5150    24.1260     2.3300    -2.9960 
  181.1250   105.7820     5.7430     5.3760     5.2870    24.1030     2.3250    -3.0840 
  181.2500    99.9550     5.4980     5.1440     5.0460    24.3080     2.3270    -3.1420 
  181.3750    95.6340     5.2690     4.9120     4.8470    24.5940     2.3310    -3.1820 
  181.5000    94.7670     5.0900     4.7170     4.7180    24.7990     2.3330    -3.2220 
  181.6250    95.2210     5.0080     4.6040     4.6720    24.9520     2.3250    -3.2660 
  181.7500    95.3740     5.0370     4.5910     4.6650    25.1330     2.3080    -3.3340 
  181.8750    95.3930     5.1860     4.6900     4.7230    25.0230     2.2850    -3.4350 
  182.0000    94.0830     5.4500     4.8990     4.9110    24.4660     2.2640    -3.5630 
  182.1250    91.3800     5.8060     5.2060     5.2620    23.9380     2.2500    -3.7130 
  182.2500    87.3000     6.1700     5.5410     5.6270    23.5790     2.2420    -3.8620 
  182.3750    83.9530     6.4640     5.8340     5.8960    23.3000     2.2400    -3.9700 
  182.5000    83.7020     6.6080     6.0140     5.9850    23.0560     2.2430    -3.9840 
  182.6250    84.8670     6.5230     5.9980     5.8380    22.8880     2.2530    -3.9140 
  182.7500    85.7390     6.2620     5.8160     5.6350    22.7810     2.2670    -3.7760 
  182.8750    86.4800     5.8990     5.5210     5.3590    22.7390     2.2800    -3.6020 
  183.0000    89.1750     5.5330     5.1940     5.0770    22.8590     2.2890    -3.3920 
  183.1250    92.5200     5.2790     4.9310     4.8540    23.3860     2.2940    -3.1310 
  183.2500    93.5930     5.1650     4.7760     4.7880    24.1070     2.2980    -2.8600 
  183.3750    90.8670     5.1770     4.7320     4.9470    24.6090     2.3050    -2.6270 
  183.5000    85.6900     5.2640     4.7700     5.2200    24.7040     2.3150    -2.4390 
  183.6250    83.7470     5.3490     4.8390     5.5100    24.6240     2.3250    -2.3000 
  183.7500    84.6200     5.3690     4.8780     5.6050    24.5780     2.3310    -2.2220 
  183.8750    85.4180     5.3020     4.8530     5.3670    24.5900     2.3330    -2.1720 
  184.0000    88.0330     5.1580     4.7610     4.9900    24.6110     2.3290    -2.1280 
  184.1250    91.9760     4.9700     4.6140     4.6800    24.6310     2.3220    -2.0940 
  184.2500    95.7540     4.7890     4.4570     4.4570    24.6610     2.3150    -2.0630 
  184.3750    97.0730     4.6460     4.3200     4.3250    24.6950     2.3080    -2.0240 
  184.5000    96.7090     4.5610     4.2240     4.2910    24.7250     2.3070    -1.9990 
  184.6250    96.8670     4.5450     4.1860     4.3160    24.7440     2.3120    -2.0020 
  184.7500    95.1060     4.5770     4.1930     4.4010    24.7540     2.3220    -2.0020 
  184.8750    91.7450     4.6400     4.2340     4.5340    24.7570     2.3320    -1.9930 
