~V
VERS. 2.00: Ver 2.00
~W
STRT.M 50.0000:
STOP.M 315.0000:
STEP.M 0.1250:
NULL. -999.2500:
UWI. F10300:
~C
DEPT.M :
GR.API :
RML.OHMM :
RI. :
RXO.OHMM :
CALI.CM :
DEN.GM/CC :
SP.MV :
~A
# ...
  151.2500    98.6360     6.9860     6.1410     8.5520    23.9930     2.3500    -6.6820 
  151.3750    93.6180     9.6500     8.0070    13.4010    23.9980     2.3920    -6.8210 
  151.5000    86.8280    13.1440    10.6350    21.8560    24.0140     2.4620    -6.9940 
  151.6250    79.7060    16.4290    13.4000    31.9900    24.0490     2.5400    -7.2190 
  151.7500    73.1770    17.9100    15.2320    39.6610    24.0820     2.5910    -7.5090 
  151.8750    69.3010    17.2450    15.3160    39.9350    24.1290     2.5940    -7.8720 
  152.0000    70.7810    14.7180    13.5980    30.1600    24.1780     2.5480    -8.2750 
  152.1250    76.8760    11.6200    11.0500    18.2950    24.2020     2.4750    -8.7330 
  152.2500    82.2970     9.2850     8.9440    12.0650    24.2210     2.4060    -9.2640 
  152.3750    83.8430     8.0260     7.6270    10.8150    24.2270     2.3540    -9.8490 
  152.5000    80.5440     7.6440     7.0280    11.7480    24.1430     2.3220   -10.4470 
  152.6250    74.5060     7.8190     6.9860    12.1640    23.9070     2.3020   -10.9850 
  152.7500    73.0980     8.1310     7.1740    10.4370    23.6970     2.2830   -11.4360 
  152.8750    76.5910     8.4030     7.4220     8.8580    23.5850     2.2590   -11.8100 
  153.0000    78.5830     8.5680     7.6230     8.3840    23.5330     2.2320   -12.0830 
  153.1250    74.3870     8.6230     7.7310     8.6870    23.5360     2.2060   -12.1990 
  153.2500    71.0480     8.6080     7.7650     9.0020    23.5430     2.1850   -12.1930 
  153.3750    71.4750     8.5080     7.7220     9.1860    23.5350     2.1720   -12.0990 
  153.5000    71.9630     8.2930     7.5860     9.2020    23.5000     2.1680   -11.8930 
  153.6250    71.3640     7.9690     7.3530     9.1300    23.4650     2.1690   -11.6160 
  153.7500    72.6300     7.6910     7.1210     9.1060    23.4570     2.1690   -11.3010 
  153.8750    74.6190     7.7130     7.0620     9.2700    23.5240     2.1690   -10.9460 
  154.0000    74.5270     8.3550     7.4250     9.9140    23.6680     2.1750   -10.5500 
  154.1250    71.1620    10.0150     8.5790    12.3850    23.7810     2.2050   -10.1290 
  154.2500    68.0990    12.4330    10.4400    17.1880    23.8790     2.2630    -9.6590 
  154.3750    67.0140    15.0520    12.6800    23.4940    24.0090     2.3440    -9.1340 
  154.5000    67.9260    17.0080    14.6480    29.7260    24.2250     2.4270    -8.6400 
  154.6250    69.1890    17.1370    15.2850    31.2540    24.4920     2.4750    -8.1940 
  154.7500    70.9410    15.5240    14.3760    25.4330    24.6110     2.4750    -7.7970 
  154.8750    72.4110    12.9080    12.4050    16.6450    24.5920     2.4380    -7.4550 
  155.0000    73.0170    10.3910    10.3180    10.4560    24.5330     2.3930    -7.2170 
  155.1250    74.6740     8.8970     8.9420     8.3460    24.4840     2.3700    -7.0830 
  155.2500    79.8620     8.3070     8.2760     8.5180    24.4420     2.3770    -7.0580 
  155.3750    84.9910     8.2790     8.1120     9.7370    24.4060     2.4000    -7.1620 
  155.5000    84.1170     8.4330     8.1790    10.9630    24.3110     2.4190    -7.3270 
  155.6250    79.7540     8.4600     8.2130    10.8410    24.0750     2.4110    -7.5650 
  155.7500    78.9010     8.3050     8.1020     8.9460    23.8120     2.3800    -7.8820 
  155.8750    80.5330     8.0600     7.8920     7.7390    23.6130     2.3380    -8.2450 
  156.0000    79.5280     7.8570     7.6900     7.6490    23.5620     2.3020    -8.5590 
  156.1250    75.3820     7.7910     7.6110     8.8840    23.6520     2.2840    -8.8370 
  156.2500    71.8080     7.8430     7.6750    10.7250    23.7480     2.2810    -9.1450 
  156.3750    70.3420     8.0850     7.9070    12.8780    23.8120     2.2910    -9.4210 
  156.5000    71.2320     8.6350     8.3770    15.0280    23.8400     2.3130    -9.6520 
  156.6250    73.5720     9.9480     9.3050    15.7570    23.8580     2.3460    -9.8290 
  156.7500    73.0020    12.0510    10.7960    16.6020    23.8830     2.3870    -9.9630 
  156.8750    69.1950    14.9540    12.9030    19.6470    23.8980     2.4280   -10.0970 
  157.0000    65.4420    18.3400    15.4900    24.3980    23.8840     2.4600   -10.2860 
  157.1250    64.2020    21.1030    18.1600    28.0910    23.8210     2.4700   -10.5190 
  157.2500    64.0860    23.1160    20.3690    27.9930    23.7570     2.4640   -10.7130 
  157.3750    64.7540    24.1670    21.7650    28.0650    23.7670     2.4520   -10.8890 
  157.5000    66.9200    24.3730    22.2890    28.5600    23.8830     2.4440   -11.0980 
  157.6250    71.1210    24.0630    22.1310    27.7170    23.9820     2.4400   -11.3310 
  157.7500    74.8020    23.6570    21.7450    26.0270    23.9300     2.4310   -11.5180 
  157.8750    75.5520    23.2480    21.2890    24.7650    23.9140     2.4120   -11.6420 
  158.0000    72.8700    22.7910    20.7860    24.3480    24.1150     2.3860   -11.7140 
  158.1250    69.8760    22.2130    20.2130    23.6390    24.4080     2.3660   -11.7560 
  158.2500    67.1780    21.5710    19.6210    22.3200    24.4200     2.3630   -11.7590 
  158.3750    63.2420    20.9880    19.1050    21.2680    24.1790     2.3770   -11.7350 
  158.5000    60.6430    20.6310    18.7930    20.7220    23.8880     2.4000   -11.6950 
  158.6250    62.8410    20.7100    18.8630    20.6440    23.7560     2.4240   -11.6340 
  158.7500    67.0950    21.1920    19.2920    20.8130    23.7390     2.4440   -11.5820 
  158.8750    69.9830    21.9740    20.0030    21.4450    23.7820     2.4610   -11.5030 
  159.0000    71.5060    22.8560    20.8350    21.9580    23.8540     2.4740   -11.4320 
  159.1250    71.7670    23.5300    21.5210    22.6620    23.9420     2.4790   -11.3500 
  159.2500    69.8360    23.7900    21.8510    22.8450    24.0440     2.4750   -11.2730 
  159.3750    67.0060    23.5420    21.7180    22.3910    24.1440     2.4660   -11.2200 
  159.5000    66.6850    22.8080    21.1270    21.5630    24.1430     2.4560   -11.1330 
  159.6250    68.3350    21.6920    20.1580    20.3110    23.9220     2.4490   -11.0060 
  159.7500    70.4270    20.5450    19.1130    19.2940    23.6390     2.4410   -10.9010 
  159.8750    72.4390    19.7340    18.2920    18.9350    23.5110     2.4310   -10.8370 
  160.0000    73.7580    19.6750    18.0370    19.4670    23.5550     2.4220   -10.7300 
  160.1250    73.0980    20.9420    18.8560    20.9980    23.6670     2.4220   -10.5800 
  160.2500    70.7970    23.3960    20.7460    24.6860    23.7950     2.4340   -10.4280 
  160.3750    68.7460    26.6250    23.4950    32.0330    23.9100     2.4580   -10.2610 
  160.5000    68.3210    29.8300    26.5240    40.6150    24.0010     2.4850   -10.1190 
  160.6250    69.3460    31.7610    28.7590    47.1200    24.1110     2.5060   -10.0320 
  160.7500    69.3700    31.8890    29.4850    46.8860    24.1630     2.5140    -9.9420 
  160.8750    67.3040    30.2810    28.5460    37.8520    23.9940     2.5110    -9.8380 
  161.0000    66.0890    27.5990    26.4120    27.8240    23.7540     2.5040    -9.7830 
  161.1250    68.5580    24.7720    23.9000    23.0320    23.6320     2.4980    -9.7950 
  161.2500    72.6800    22.4300    21.6840    21.6910    23.5600     2.4940    -9.8200 
  161.3750    75.8170    20.7180    19.9600    20.5510    23.4720     2.4880    -9.8620 
  161.5000    76.0580    19.5890    18.7360    18.9830    23.4060     2.4780    -9.8800 
  161.6250    72.4050    18.9950    18.0110    18.0350    23.3780     2.4660    -9.8420 
  161.7500    68.1180    18.7320    17.6210    17.9120    23.3990     2.4580    -9.7980 
  161.8750    67.3190    18.6870    17.4780    18.0780    23.4470     2.4560    -9.7720 
  162.0000    70.7790    18.7340    17.4790    18.2650    23.4800     2.4580    -9.7210 
  162.1250    73.0950    18.7580    17.5270    18.2150    23.4700     2.4600    -9.6300 
  162.2500    72.3130    18.7410    17.5720    17.9980    23.4160     2.4600    -9.5570 
  162.3750    72.1440    18.7590    17.6500    17.9030    23.3380     2.4610    -9.4790 
