~V
VERS. 2.00: Ver 2.00
~W
STRT.M 50.0000:
STOP.M 315.0000:
STEP.M 0.1250:
NULL. -999.2500:
UWI. F10300:
~C
DEPT.M :
GR.API :
RML.OHMM :
RI. :
RXO.OHMM :
CALI.CM :
DEN.GM/CC :
SP.MV :
~A
# ...
  117.5000    64.1660     9.2980     8.6240    12.4320    23.7920     2.1770   -14.5830 
  117.6250    65.9410     9.1690     8.5310    10.3960    23.8260     2.1670   -14.5600 
  117.7500    66.2240     9.0210     8.4120     9.0270    24.0030     2.1540   -14.4880 
  117.8750    64.1060     8.8910     8.3010     8.5560    24.3970     2.1420   -14.4250 
  118.0000    62.2960     8.8040     8.2260     8.5050    24.7760     2.1370   -14.3990 
  118.1250    61.7110     8.7830     8.2100     8.5310    24.7120     2.1420   -14.3730 
  118.2500    60.4730     8.8140     8.2420     8.5860    24.4080     2.1550   -14.3200 
  118.3750    60.7170     8.8810     8.3090     8.6960    24.2000     2.1710   -14.2710 
  118.5000    61.8390     8.9660     8.3940     8.8580    24.1180     2.1860   -14.2460 
  118.6250    62.0720     9.0450     8.4740     8.9600    24.1280     2.1940   -14.2460 
  118.7500    61.7140     9.1010     8.5330     8.9840    24.3290     2.1970   -14.2280 
  118.8750    60.9870     9.1260     8.5640     8.9350    24.7020     2.1970   -14.2090 
  119.0000    60.9010     9.1200     8.5640     8.8220    24.8760     2.1960   -14.2150 
  119.1250    60.1380     9.0870     8.5360     8.7040    24.6010     2.1950   -14.2500 
  119.2500    59.1910     9.0440     8.4970     8.7070    24.1170     2.1900   -14.2920 
  119.3750    59.7500     9.0070     8.4560     8.8170    23.8110     2.1810   -14.3330 
  119.5000    61.8010     8.9890     8.4260     8.9520    23.7120     2.1680   -14.3740 
  119.6250    62.8320     9.0080     8.4220     9.0220    23.6730     2.1540   -14.4150 
  119.7500    62.2980     9.0640     8.4460     9.0000    23.5970     2.1460   -14.5050 
  119.8750    62.2440     9.1490     8.4970     8.9820    23.5210     2.1460   -14.6180 
  120.0000    61.9850     9.2460     8.5660     9.0550    23.4650     2.1550   -14.7090 
  120.1250    59.8470     9.3260     8.6330     9.2230    23.3930     2.1680   -14.7990 
  120.2500    57.9340     9.3650     8.6780     9.3930    23.2930     2.1790   -14.9380 
  120.3750    57.4050     9.3540     8.6900     9.4950    23.1960     2.1860   -15.0770 
  120.5000    57.5090     9.3000     8.6670     9.5560    23.1740     2.1900   -15.2220 
  120.6250    58.3800     9.2220     8.6160     9.5080    23.2830     2.1920   -15.3600 
  120.7500    60.7720     9.1550     8.5630     9.4200    23.3820     2.1940   -15.4350 
  120.8750    65.4070     9.1170     8.5220     9.4020    23.4240     2.1950   -15.4640 
  121.0000    69.4830     9.1160     8.5020     9.4600    23.4300     2.1930   -15.5080 
  121.1250    68.7690     9.1430     8.5030     9.5760    23.4320     2.1880   -15.5550 
  121.2500    64.1670     9.1750     8.5100     9.7060    23.4390     2.1820   -15.5420 
  121.3750    60.6610     9.1900     8.5090     9.8320    23.4550     2.1770   -15.4770 
  121.5000    60.9520     9.1760     8.4890     9.9000    23.4770     2.1760   -15.3980 
  121.6250    61.2310     9.1270     8.4440     9.9180    23.4890     2.1800   -15.3310 
  121.7500    61.3810     9.0640     8.3860     9.8950    23.4960     2.1860   -15.2970 
  121.8750    64.4440     9.0140     8.3390     9.8480    23.5000     2.1920   -15.2820 
  122.0000    70.9780     9.0130     8.3310     9.8060    23.5130     2.1930   -15.2820 
  122.1250    75.2560     9.1040     8.4060     9.7530    23.5650     2.1890   -15.2830 
  122.2500    73.3520     9.2640     8.5510     9.7230    23.6690     2.1900   -15.2910 
  122.3750    67.5480     9.4410     8.7290     9.7580    23.7900     2.2080   -15.3440 
  122.5000    61.9810     9.5640     8.8780     9.8470    23.8560     2.2470   -15.4280 
  122.6250    60.5090     9.5420     8.9140     9.8850    23.7730     2.2950   -15.5270 
  122.7500    62.3630     9.3830     8.8230     9.7660    23.5750     2.3230   -15.6020 
  122.8750    63.3530     9.1350     8.6340     9.5100    23.3960     2.3160   -15.6580 
  123.0000    59.1960     8.8780     8.4060     9.2700    23.3080     2.2790   -15.7140 
  123.1250    54.5440     8.6980     8.2180     9.1990    23.3000     2.2340   -15.7680 
  123.2500    54.8170     8.6150     8.1070     9.2650    23.3130     2.2020   -15.8060 
  123.3750    59.1480     8.6110     8.0730     9.3900    23.3020     2.1840   -15.8300 
  123.5000    62.3500     8.6510     8.0950     9.5060    23.2790     2.1740   -15.8240 
  123.6250    60.3490     8.6960     8.1440     9.6100    23.2510     2.1690   -15.7630 
  123.7500    57.7840     8.7300     8.1920     9.6990    23.2230     2.1650   -15.7080 
  123.8750    57.8520     8.7530     8.2300     9.7430    23.2110     2.1630   -15.6760 
  124.0000    60.2090     8.7730     8.2590     9.7360    23.2120     2.1640   -15.6100 
  124.1250    61.8330     8.7940     8.2820     9.7200    23.2160     2.1680   -15.5030 
  124.2500    62.9160     8.8180     8.2980     9.7410    23.2170     2.1730   -15.3750 
  124.3750    65.2050     8.8350     8.3040     9.7940    23.2020     2.1770   -15.2100 
  124.5000    66.6430     8.8350     8.2920     9.8660    23.1680     2.1780   -15.0360 
  124.6250    68.0270     8.8080     8.2580     9.9060    23.1140     2.1740   -14.9440 
  124.7500    71.8670     8.7640     8.2120     9.8840    23.1170     2.1660   -14.8860 
  124.8750    74.5770     8.7220     8.1710     9.8320    23.1530     2.1560   -14.7830 
  125.0000    72.1790     8.7030     8.1560     9.7630    23.1920     2.1490   -14.6880 
  125.1250    65.6910     8.7340     8.1860     9.7650    23.1950     2.1450   -14.6800 
  125.2500    62.2180     8.8090     8.2560     9.7860    23.1740     2.1440   -14.7210 
  125.3750    62.5790     8.9110     8.3540     9.8260    23.1560     2.1440   -14.7580 
  125.5000    63.0490     9.0200     8.4590     9.8780    23.1860     2.1430   -14.7970 
  125.6250    61.4670     9.1160     8.5520     9.9920    23.2880     2.1430   -14.8190 
  125.7500    59.6630     9.1940     8.6290    10.0570    23.3900     2.1440   -14.8190 
  125.8750    60.4640     9.2610     8.6910     9.9800    23.4310     2.1490   -14.8230 
  126.0000    62.7620     9.3200     8.7400     9.7610    23.4180     2.1570   -14.8340 
  126.1250    65.2100     9.3650     8.7730     9.5730    23.3740     2.1680   -14.8080 
  126.2500    68.9970     9.3880     8.7850     9.4660    23.3350     2.1790   -14.7510 
  126.3750    73.3390     9.3850     8.7700     9.3780    23.3530     2.1860   -14.6900 
  126.5000    73.4400     9.3610     8.7320     9.2930    23.3640     2.1890   -14.6320 
  126.6250    68.5550     9.3300     8.6790     9.0510    23.3210     2.1840   -14.5420 
  126.7500    65.1780     9.3100     8.6280     8.9430    23.2300     2.1740   -14.4000 
  126.8750    65.7400     9.3050     8.5840     8.9530    23.2060     2.1630   -14.2260 
  127.0000    68.2290     9.3030     8.5460     9.0120    23.3480     2.1550   -14.0210 
  127.1250    68.7210     9.2780     8.4950     9.0100    23.5030     2.1540   -13.7880 
  127.2500    67.5690     9.2140     8.4200     8.8340    23.5760     2.1590   -13.5450 
  127.3750    67.1190     9.1150     8.3220     8.5390    23.6190     2.1680   -13.2660 
  127.5000    70.8480     9.0000     8.2180     8.3350    23.6640     2.1810   -12.9650 
  127.6250    77.1960     8.9090     8.1390     8.2960    23.7130     2.1950   -12.7040 
  127.7500    80.8180     8.8610     8.1050     8.4570    23.7040     2.2080   -12.5040 
  127.8750    80.2040     8.8610     8.1240     8.9660    23.6330     2.2150   -12.3230 
  128.0000    75.9000     8.9000     8.1890     9.5870    23.5770     2.2140   -12.1350 
  128.1250    72.3840     8.9680     8.2920     9.5520    23.5610     2.2040   -11.9730 
  128.2500    72.7790     9.0560     8.4160     9.1640    23.5690     2.1900   -11.7870 
  128.3750    77.4160     9.1600     8.5500     8.9840    23.5990     2.1770   -11.5820 
  128.5000    82.0070     9.2620     8.6740     8.9570    23.6580     2.1590   -11.3410 
  128.6250    79.5310     9.3010     8.7360     8.9030    23.6590     2.1550   -11.0270 
