~V
VERS. 2.00: Ver 2.00
~W
STRT.M 50.0000:
STOP.M 315.0000:
STEP.M 0.1250:
NULL. -999.2500:
UWI. F10300:
~C
DEPT.M :
GR.API :
RML.OHMM :
RI. :
RXO.OHMM :
CALI.CM :
DEN.GM/CC :
SP.MV :
~A
# ...
  241.2500    54.3580    51.8350    49.9550    45.8870    23.4790     2.3370   -25.7280 
  241.3750    55.3230    46.9770    45.0530    39.3360    23.4070     2.3340   -25.8990 
  241.5000    57.5580    44.1720    41.9980    38.7290    23.3980     2.3240   -26.0370 
  241.6250    59.3620    43.1520    40.6600    39.8070    23.4730     2.3140   -26.1480 
  241.7500    60.2370    43.0670    40.2960    38.7390    23.5700     2.3070   -26.2320 
  241.8750    62.0810    43.6580    40.6450    34.3720    23.6410     2.3020   -26.3200 
  242.0000    64.9340    44.9570    41.6720    28.4010    23.7000     2.2960   -26.4020 
  242.1250    66.2520    47.3060    43.6460    26.2870    23.7960     2.2890   -26.4800 
  242.2500    65.6530    50.5270    46.4380    27.1730    23.8830     2.2820   -26.4820 
  242.3750    64.5870    54.1400    49.6770    29.0380    23.9240     2.2780   -26.3780 
  242.5000    62.9930    57.2840    52.6180    29.9950    23.9330     2.2770   -26.1820 
  242.6250    60.9880    58.6380    54.0200    29.2930    23.9310     2.2800   -25.9340 
  242.7500    60.7230    57.9180    53.4830    27.6630    23.9200     2.2840   -25.7000 
  242.8750    63.0970    55.5150    51.2650    25.7740    23.8930     2.2870   -25.5080 
  243.0000    67.1880    52.5090    48.3150    23.6590    23.8660     2.2840   -25.3220 
  243.1250    70.7720    50.5170    46.0720    22.6270    23.8470     2.2760   -25.0970 
  243.2500    72.4360    50.5190    45.4660    22.0960    23.8450     2.2640   -24.8510 
  243.3750    71.7010    52.9650    46.9720    21.6590    23.8580     2.2520   -24.6240 
  243.5000    68.6260    57.7730    50.6540    22.2400    23.8900     2.2430   -24.4360 
  243.6250    63.4760    64.3930    56.2590    24.0770    23.9560     2.2390   -24.3030 
  243.7500    59.1580    71.1350    62.3680    26.4210    24.0460     2.2380   -24.1430 
  243.8750    58.6910    76.5510    67.6070    29.0220    24.1580     2.2400   -23.8730 
  244.0000    62.0460    79.3070    70.6690    31.5410    24.2970     2.2440   -23.5390 
  244.1250    63.9830    78.2430    70.3540    34.1770    24.4330     2.2500   -23.1910 
  244.2500    64.3310    74.4320    67.5630    36.1760    24.5330     2.2550   -22.8610 
  244.3750    65.5150    69.0590    63.3530    36.9080    24.6040     2.2610   -22.5630 
  244.5000    67.4840    63.1090    58.8440    36.2820    24.6390     2.2670   -22.2570 
  244.6250    67.0500    58.0610    55.0600    34.4750    24.6250     2.2710   -21.9180 
  244.7500    65.5310    54.7580    52.4010    32.9730    24.5650     2.2730   -21.5670 
  244.8750    65.2780    53.9160    51.0760    31.9470    24.4870     2.2700   -21.2480 
  245.0000    65.0620    54.6310    51.2020    31.1490    24.4050     2.2640   -20.9260 
  245.1250    63.3680    57.0840    53.0010    29.7950    24.2300     2.2580   -20.5990 
  245.2500    62.0610    60.7160    55.9990    28.2420    23.9390     2.2530   -20.3000 
  245.3750    60.9730    65.0550    59.7890    28.1540    23.7080     2.2480   -20.0010 
  245.5000    58.5360    69.5310    63.8540    31.1090    23.6470     2.2360   -19.6800 
  245.6250    57.3130    73.5590    67.6070    36.8610    23.7520     2.2140   -19.3050 
  245.7500    58.8690    77.1020    70.8840    42.2950    23.9010     2.1920   -18.9140 
  245.8750    61.0710    80.5590    73.9490    45.3960    24.0250     2.1840   -18.5370 
  246.0000    60.8930    84.5680    77.3400    46.2890    24.1660     2.2050   -18.1660 
  246.1250    58.5240    89.8610    81.7750    50.6750    24.3450     2.2630   -17.7600 
  246.2500    56.0480    96.2970    87.2910    62.8610    24.4820     2.3360   -17.2660 
  246.3750    54.3460   103.4610    93.6290    82.9160    24.5450     2.4070   -16.6750 
  246.5000    52.8410   110.7660   100.2980   109.4120    24.5640     2.4600   -16.0660 
  246.6250    50.1340   117.4920   106.6120   129.9480    24.5530     2.4950   -15.4480 
  246.7500    47.5120   122.8890   111.7480   144.3320    24.4930     2.5270   -14.8550 
  246.8750    47.0010   125.5900   114.3410   164.1290    24.4160     2.5620   -14.2340 
  247.0000    47.5990   123.3580   112.3900   187.3420    24.4210     2.6030   -13.5580 
  247.1250    48.0960   112.4070   102.5640   199.7000    24.6100     2.6440   -12.8400 
  247.2500    49.6930    93.5070    85.5820   192.9000    24.7310     2.6700   -12.1350 
  247.3750    52.8730    69.7840    64.1630   160.3750    24.7460     2.6710   -11.4900 
  247.5000    54.7310    46.4430    43.2930   107.3980    24.7140     2.6430   -10.8350 
  247.6250    54.4050    29.2880    28.1560    63.6300    24.6350     2.5990   -10.1390 
  247.7500    54.7370    18.4670    18.4940    30.1380    24.4710     2.5600    -9.3670 
  247.8750    54.5300    12.8350    12.8660    14.1070    24.2680     2.5370    -8.5770 
  248.0000    53.1080     9.9250     9.7750     8.6940    24.1440     2.5280    -7.8560 
  248.1250    53.4800     8.6920     8.2740     7.8870    24.1470     2.5240    -7.2090 
  248.2500    55.7710     8.0620     7.4280     7.9360    24.1540     2.5120    -6.6420 
  248.3750    57.4370     7.6140     6.8730     7.9830    24.0850     2.4910    -6.1610 
  248.5000    58.6120     7.1460     6.4050     7.6340    23.9800     2.4630    -5.7930 
  248.6250    60.3780     6.6330     5.9580     6.8650    23.9700     2.4360    -5.5690 
  248.7500    59.7310     6.1910     5.5820     6.1040    23.9560     2.4170    -5.4390 
  248.8750    55.7330     5.9260     5.3520     5.6600    23.8980     2.4080    -5.3920 
  249.0000    53.0310     5.8870     5.3160     5.5300    23.8560     2.4060    -5.3960 
  249.1250    53.9290     6.0980     5.5090     5.7090    23.9330     2.4020    -5.4750 
  249.2500    53.8050     6.4620     5.8530     6.1430    24.0770     2.3930    -5.5700 
  249.3750    53.6190     6.9040     6.2810     6.7560    24.1800     2.3790    -5.5910 
  249.5000    56.5370     7.3450     6.7150     7.3560    24.2140     2.3660    -5.5300 
  249.6250    61.6890     7.7000     7.0660     7.7230    24.2040     2.3610    -5.4410 
  249.7500    62.6220     7.9440     7.3020     7.8370    24.1790     2.3640    -5.3590 
  249.8750    58.8850     8.0820     7.4230     7.7220    24.1550     2.3720    -5.2670 
  250.0000    56.1430     8.1430     7.4510     7.4940    24.1510     2.3830    -5.0960 
  250.1250    55.9800     8.1460     7.4050     7.4760    24.1740     2.3940    -4.8060 
  250.2500    55.4040     8.1030     7.3070     7.5750    24.2140     2.4060    -4.4220 
  250.3750    55.0440     8.0000     7.1500     7.6940    24.2600     2.4190    -4.0190 
  250.5000    58.7450     7.8240     6.9280     7.7150    24.2990     2.4340    -3.6430 
  250.6250    65.8310     7.5770     6.6500     7.4450    24.3360     2.4460    -3.2570 
  250.7500    69.7800     7.3160     6.3660     6.9200    24.3330     2.4500    -2.8650 
  250.8750    71.1070     7.0940     6.1230     6.4190    24.2970     2.4450    -2.4500 
  251.0000    74.0770     6.9520     5.9580     6.1850    24.2690     2.4330    -2.0680 
  251.1250    77.0540     6.9250     5.9090     6.1630    24.3020     2.4180    -1.7450 
  251.2500    75.7130     6.9860     5.9540     6.1910    24.3520     2.4060    -1.4950 
  251.3750    73.6920     7.1050     6.0720     6.2090    24.4020     2.3980    -1.3360 
  251.5000    76.2550     7.2400     6.2230     6.2180    24.4620     2.3910    -1.2380 
  251.6250    79.7460     7.3240     6.3500     6.2950    24.4900     2.3850    -1.1910 
  251.7500    78.9220     7.3130     6.4020     6.3350    24.4960     2.3800    -1.1590 
  251.8750    77.7500     7.1890     6.3500     6.2760    24.4810     2.3780    -1.1540 
  252.0000    77.9850     6.9730     6.2010     6.1270    24.4420     2.3790    -1.2190 
  252.1250    75.5010     6.7310     5.9910     5.8240    24.3510     2.3810    -1.3900 
  252.2500    73.1600     6.5420     5.7930     5.4500    24.1850     2.3810    -1.6310 
  252.3750    75.2250     6.4430     5.6470     5.1630    24.0080     2.3770    -1.8860 
