~V
VERS. 2.00: Ver 2.00
~W
STRT.M 50.0000:
STOP.M 315.0000:
STEP.M 0.1250:
NULL. -999.2500:
UWI. F10300:
~C
DEPT.M :
GR.API :
RML.OHMM :
RI. :
RXO.OHMM :
CALI.CM :
DEN.GM/CC :
SP.MV :
~A
   50.0000  -999.2500  -999.2500  -999.2500  -999.2500  -999.2500  -999.2500   114.6060 
   50.1250  -999.2500  -999.2500  -999.2500  -999.2500  -999.2500  -999.2500   115.2500 
   50.2500  -999.2500  -999.2500  -999.2500  -999.2500  -999.2500  -999.2500   115.7470 
   50.3750  -999.2500  -999.2500  -999.2500  -999.2500  -999.2500  -999.2500   116.0850 
   50.5000  -999.2500  -999.2500  -999.2500  -999.2500  -999.2500  -999.2500   116.2420 
   50.6250  -999.2500  -999.2500  -999.2500  -999.2500  -999.2500  -999.2500   116.2190 
   50.7500  -999.2500  -999.2500  -999.2500  -999.2500  -999.2500  -999.2500   116.0370 
   50.8750  -999.2500  -999.2500  -999.2500  -999.2500  -999.2500  -999.2500   115.7190 
   51.0000  -999.2500  -999.2500  -999.2500  -999.2500  -999.2500  -999.2500   115.2960 
   51.1250  -999.2500  -999.2500  -999.2500  -999.2500  -999.2500  -999.2500   114.8610 
   51.2500  -999.2500  -999.2500  -999.2500  -999.2500  -999.2500  -999.2500   114.4420 
   51.3750  -999.2500  -999.2500  -999.2500  -999.2500  -999.2500  -999.2500   114.0540 
   51.5000  -999.2500  -999.2500  -999.2500  -999.2500  -999.2500  -999.2500   113.7280 
   51.6250  -999.2500  -999.2500  -999.2500  -999.2500  -999.2500  -999.2500   113.4100 
   51.7500  -999.2500  -999.2500  -999.2500  -999.2500  -999.2500  -999.2500   113.0870 
   51.8750  -999.2500  -999.2500  -999.2500  -999.2500  -999.2500  -999.2500   112.7590 
   52.0000  -999.2500  -999.2500  -999.2500  -999.2500  -999.2500  -999.2500   112.4340 
   52.1250     0.0000     0.0000     0.0000    22.0010  2497.5590  -999.2500   112.1020 
   52.2500     0.0000     0.0000     0.0000    22.0010  2497.5590  -999.2500   111.7690 
   52.3750     0.0000     0.0000     0.0000     5.5000   624.3910  -999.2500   111.4360 
   52.5000     0.0000     0.0000     0.0000     0.0000     0.0000  -999.2500   111.1040 
   52.6250     0.0000     0.0000     0.0000     0.0000     0.0000  -999.2500   110.8700 
   52.7500    18.9650     1.4450     0.1900    -0.1240    12.6830  -999.2500   110.7130 
   52.8750    38.2500     2.9130     0.3800    -0.2350    25.3460  -999.2500   110.6390 
   53.0000    37.8890     3.0010     0.3810    -0.2140    25.3260  -999.2500   110.6710 
   53.1250    36.3950     3.1650     0.3810    -0.1890    25.3200  -999.2500   110.8220 
   53.2500    34.3050     3.3560     0.3800    -0.1610    25.3200  -999.2500   111.0740 
   53.3750    32.3110     3.5280     0.3780    -0.1350    25.3200  -999.2500   111.4490 
   53.5000    31.5640     3.6460     0.3760    -0.1120    25.3170     0.0000   111.9710 
   53.6250    32.8530     3.6930     0.3750    -0.0990    25.3140     0.0000   112.6260 
   53.7500    33.9460     3.7020     0.3730    -0.1000    25.3150     0.0000   113.3720 
   53.8750    35.1350     3.7000     0.3720    -0.0930    25.3170     0.0000   114.1550 
   54.0000    37.9650     3.7060     0.3730    -0.0740    25.3160     0.0000   114.8220 
   54.1250    41.7970     3.7280     0.3750    -0.0480    25.3190     2.0150   115.1120 
   54.2500    43.3690     3.7600     0.3780    -0.0210    25.3200     2.0260   115.0260 
   54.3750    41.9930     3.7960     0.3800     0.0020    25.3200     2.0350   114.6210 
   54.5000    40.0840     3.8240     0.3800     0.0190    25.3200     2.0390   113.9370 
   54.6250    38.8100     3.8330     0.3790     0.0310    25.3200     2.0400   113.0140 
   54.7500    38.2210     3.8110     0.3770     0.0300    25.3200     2.0410   111.9380 
   54.8750    38.4830     3.7460     0.3760     0.0230    25.3200     2.0420   110.7440 
   55.0000    40.0790     3.6130     0.3780     0.0160    25.3200     2.0440   109.4700 
   55.1250    42.4830     3.3700     0.3830     0.0180    25.3200     2.0470   108.2860 
   55.2500    42.7880     3.0280     0.3920     0.0300    25.3200     2.0490   107.2330 
   55.3750    41.7110     2.6320     0.4030     0.0460    25.3200     2.0480   106.2670 
   55.5000    41.7660     2.2520     0.4140     0.0530    25.3200     2.0450   105.3320 
   55.6250    44.4710     1.9740     0.4230     0.0490    25.3200     2.0410   104.3190 
   55.7500    46.4030     1.8120     0.4290     0.0380    25.3200     2.0400   103.1290 
   55.8750    45.6180     1.7530     0.4290     0.0290    25.3190     2.0430   101.7280 
   56.0000    43.9470     1.7620     0.4230     0.0330    25.3160     2.0510   100.1140 
   56.1250    43.3610     1.7780     0.4080     0.0610    25.3190     2.0630    98.0710 
   56.2500    43.0520     1.7260     0.3850     0.1070    25.3200     2.0730    95.6000 
   56.3750    42.6530     1.5520     0.3570     0.1690    25.3200     2.0850    92.6900 
   56.5000    42.2850     1.2360     0.3290     0.2410    25.3200     2.1060    89.3050 
   56.6250    42.2150     0.8370     0.3060     0.3270    25.3200     2.1580    85.3130 
   56.7500    43.0270     0.4900     0.2860     0.4990    25.3160     2.2520    80.8300 
   56.8750    44.5400     0.2590     0.2640     0.9020    25.2960     2.3810    75.8480 
   57.0000    45.6300     0.1620     0.2420     1.8290    25.2070     2.5120    70.3960 
   57.1250    48.0780     0.2890     0.2810     3.3980    24.8750     2.5800    64.5260 
   57.2500    53.8780     0.7420     0.4970     5.7210    24.2090     2.5630    58.2290 
   57.3750    60.8210     1.6560     1.0510     8.1760    23.4490     2.4780    51.5700 
   57.5000    66.2320     3.0820     2.0910    10.0960    22.9900     2.3650    44.7800 
   57.6250    69.9650     4.9170     3.7400    11.3450    22.8980     2.2630    38.1370 
   57.7500    72.4430     6.7240     5.7210    11.7910    22.9660     2.1860    31.7620 
   57.8750    73.0280     8.1630     7.7010    11.8720    23.1140     2.1340    25.7390 
   58.0000    72.6890     9.1410     9.3750    11.8320    23.2370     2.1030    20.2200 
   58.1250    74.3360     9.8260    10.5800    11.7790    23.2260     2.0840    15.4330 
   58.2500    77.4530    10.4660    11.4600    11.6440    23.1150     2.0700    11.4460 
   58.3750    79.7560    11.0720    12.0830    11.4560    22.9870     2.0600     8.2420 
   58.5000    79.0510    11.5780    12.4900    11.2160    22.8890     2.0520     5.6510 
   58.6250    75.5820    11.9400    12.7200    10.9790    22.7950     2.0470     3.5210 
   58.7500    73.2460    12.2590    12.9070    10.8160    22.7650     2.0440     1.7300 
   58.8750    74.2550    12.6570    13.1500    10.7560    22.8170     2.0460     0.2860 
   59.0000    77.9140    13.2030    13.4980    10.8310    22.9430     2.0520    -0.8610 
   59.1250    81.4100    13.8000    13.8720    11.2600    23.0880     2.0570    -1.7670 
   59.2500    82.0650    14.1700    14.0530    12.1420    23.2130     2.0590    -2.5000 
   59.3750    79.9160    14.0620    13.8360    13.1820    23.3060     2.0610    -3.0760 
   59.5000    76.4400    13.3830    13.1380    13.6430    23.4010     2.0700    -3.5580 
   59.6250    74.9380    12.2930    12.0680    12.7070    23.5550     2.0930    -3.8570 
   59.7500    75.8800    11.2500    11.0070    10.2690    23.7410     2.1290    -4.0430 
   59.8750    77.3570    10.5100    10.1780     8.3970    23.8380     2.1680    -4.1880 
   60.0000    78.4520    10.1030     9.6310     7.8960    23.8380     2.2000    -4.3090 
   60.1250    79.5310     9.8560     9.2620     8.2900    23.8180     2.2130    -4.3820 
   60.2500    81.1630     9.4910     8.8520     8.6600    23.8590     2.2150    -4.3480 
   60.3750    84.7130     8.8830     8.2940     8.1660    24.0260     2.2170    -4.2640 
   60.5000    90.8840     8.0730     7.5960     6.7280    24.3290     2.2290    -4.1010 
   60.6250    95.8580     7.2580     6.8930     5.5530    24.6100     2.2510    -3.9040 
   60.7500    94.4180     6.6440     6.3380     5.2300    24.8120     2.2750    -3.7320 
   60.8750    91.4580     6.3040     6.0060     5.4130    24.9060     2.2930    -3.5680 
   61.0000    93.1830     6.2160     5.8930     5.6930    24.9010     2.3030    -3.3930 
   61.1250    97.4900     6.3100     5.9550     5.8040    24.8520     2.3100    -3.2030 
