~V
VERS. 2.00: Ver 2.00
~W
STRT.M 50.0000:
STOP.M 315.0000:
STEP.M 0.1250:
NULL. -999.2500:
UWI. F10300:
~C
DEPT.M :
GR.API :
RML.OHMM :
RI. :
RXO.OHMM :
CALI.CM :
DEN.GM/CC :
SP.MV :
~A
# ...
  308.7500    50.9030    10.5850    10.5740    12.7350    24.4560     2.4720    -8.4180 
  308.8750    50.9030    10.5930    10.5960    12.6130    24.4560     2.4700    -8.3200 
  309.0000    50.9030    10.5930    10.6230    12.7920    24.4560     2.4640    -8.1980 
  309.1250    50.9030    10.5910    10.6420    12.8680    24.4560     2.4550    -8.0830 
  309.2500    50.9030    10.5880    10.6540    12.4000    24.4560     2.4440    -8.0050 
  309.3750    50.9030    10.5880    10.6590    11.9760    24.4560     2.4320    -7.9730 
  309.5000    50.9030    10.5880    10.6610    11.8720    24.4580     2.4230    -7.9590 
  309.6250    50.9030    10.5890    10.6610    12.2560    24.4590     2.4200    -7.9260 
  309.7500    50.9030    10.5900    10.6610    12.4130    24.4570     2.4280    -7.8650 
  309.8750    50.9030    10.5910    10.6600    12.2610    24.4570     2.4440    -7.8260 
  310.0000    50.9030    10.5920    10.6600    12.1460    24.4620     2.4640    -7.8430 
  310.1250    50.9030    10.5910    10.6620    12.1970    24.4700     2.4840    -7.8920 
  310.2500    50.9030    10.5880    10.6650    12.4930    24.4700     2.5000    -7.9190 
  310.3750    50.9030    10.5850    10.6710    12.9630    24.4570     2.5120    -7.8870 
  310.5000    50.9030    10.5810    10.6780    13.5100    24.4480     2.5180    -7.8370 
  310.6250    50.9030    10.5790    10.6840    13.8150    24.4460     2.5120    -7.8440 
  310.7500    50.9030    10.5790    10.6870    13.9910    24.4460     2.4950    -7.9070 
  310.8750    50.9030    10.5810    10.6890    14.3460    24.4420     2.4740    -7.9510 
  311.0000    50.9030    10.5830    10.6890    15.1180    24.4320     2.4590    -7.9580 
  311.1250    50.9030    10.5830    10.6890    15.8070    24.4180     2.4610    -7.9700 
  311.2500    50.9030    10.5830    10.6890    16.6830    24.4600     2.4760    -8.0040 
  311.3750    50.9030    10.5830    10.6890    17.4920    24.5480     2.4960    -8.0600 
  311.5000    50.9030    10.5830    10.6890    17.5880    24.5920     2.5110    -8.1050 
  311.6250    50.9030    10.5830    10.6890    17.1010    24.3690     2.5140    -8.1170 
  311.7500    50.9030    10.5830    10.6890    16.7460    24.1840     2.5100    -8.0980 
  311.8750    50.9030    10.5830    10.6890    16.8730    24.0740     2.5030    -8.0980 
  312.0000    50.9030    10.5830    10.6890    17.5130    23.9940     2.5020    -8.1290 
  312.1250    50.9030    10.5830    10.6890    18.5960    23.9380     2.4860    -8.1480 
  312.2500    50.9030    10.5830    10.6890    20.2200    23.8960     2.4500    -8.1620 
  312.3750    50.9030    10.5830    10.6890    21.4590    23.8690     2.3770    -8.1570 
  312.5000    50.9030    10.5830    10.6890    21.6580    23.8240     2.2640    -8.1650 
  312.6250    50.9030    10.5830    10.6890    19.8320    23.6970     2.1310    -8.2120 
  312.7500    50.9030    10.5830    10.6890    16.5740    23.4970     2.0110    -8.2840 
  312.8750    50.9030    10.5830    10.6890    13.5450    23.1530     1.9220    -8.3230 
  313.0000    50.9030    10.5830    10.6890    11.4300    22.3440     1.8660    -8.3230 
  313.1250    50.9030    10.5830    10.6890     9.7700    20.8930     1.8380    -8.3280 
  313.2500    50.9030    10.5830    10.6890     8.4970    19.4590     1.8310    -8.3170 
  313.3750    50.9030    10.5830    10.6890     7.8790    18.8810     1.8310    -8.3430 
  313.5000    50.9030    10.5830    10.6890     7.7190    18.8050     1.8330    -8.3720 
  313.6250    50.9030    10.5830    10.6890     7.7170    18.8050     1.8350    -8.5790 
  313.7500    50.9030    10.5830    10.6890     7.7160    18.8050     1.8360    -8.9060 
  313.8750    50.9030    10.5830    10.6890     7.7160    18.8050     1.8360    -9.2550 
  314.0000    50.9030    10.5830    10.6890     7.7160    18.8050     1.8350    -9.6170 
  314.1250    50.9030    10.5830    10.6890     7.7160    18.8050     1.8340    -9.9840 
  314.2500    50.9030    10.5830    10.6890     7.7160    18.8050     1.8340   -10.3520 
  314.3750    50.9030    10.5830    10.6890     7.7160    18.8050     1.8350   -10.7380 
  314.5000    50.9030    10.5830    10.6890     7.7160    18.8050     1.8350   -11.1180 
  314.6250    50.9030    10.5830    10.6890     7.7160    18.8050     1.8350   -11.1130 
  314.7500    50.9030    10.5830    10.6890     7.7150    18.8050     1.8290   -11.1090 
  314.8750    50.9030    10.5830    10.6890     7.7150    18.8050     1.8270  -999.2500 
  315.0000    50.9030    10.5830    10.6890     7.7140    18.8050     1.8260  -999.2500 
