~V
VERS. 2.00: Ver 2.00
~W
STRT.M 50.0000:
STOP.M 315.0000:
STEP.M 0.1250:
NULL. -999.2500:
UWI. F10300:
~C
DEPT.M :
GR.API :
RML.OHMM :
RI. :
RXO.OHMM :
CALI.CM :
DEN.GM/CC :
SP.MV :
~A
# ...
  140.0000    65.4830    10.1880     9.3800    17.9750    23.7790     2.2040   -15.9420 
  140.1250    69.1350    10.4900     9.7780    22.5420    23.7750     2.1920   -16.2120 
  140.2500    67.1230    10.4600     9.8770    25.2900    23.7830     2.1820   -16.4700 
  140.3750    62.1730    10.1420     9.6840    22.0470    23.8170     2.1760   -16.7050 
  140.5000    60.3280     9.6600     9.2940    14.7690    23.8820     2.1730   -16.9430 
  140.6250    63.4250     9.1870     8.8510    10.8960    23.9130     2.1750   -17.1520 
  140.7500    65.5150     8.8370     8.4830     9.7290    23.9230     2.1770   -17.3390 
  140.8750    65.2090     8.6390     8.2390     9.5360    23.9230     2.1800   -17.5820 
  141.0000    63.3960     8.5670     8.1140     9.5520    23.9230     2.1820   -17.8340 
  141.1250    60.2590     8.5700     8.0800     9.5260    23.9230     2.1850   -17.9780 
  141.2500    57.9010     8.5800     8.0740     9.3630    23.9260     2.1880   -18.0720 
  141.3750    58.7870     8.5650     8.0610     9.1260    23.9400     2.1900   -18.1370 
  141.5000    61.6430     8.5090     8.0240     8.8860    23.9720     2.1880   -18.1510 
  141.6250    61.3060     8.4120     7.9530     8.7390    23.9860     2.1800   -18.0990 
  141.7500    56.7180     8.3030     7.8700     8.6530    23.9810     2.1700   -18.0350 
  141.8750    52.1900     8.2190     7.8000     8.5560    23.9550     2.1610   -17.9150 
  142.0000    52.8610     8.1980     7.7760     8.4430    23.9320     2.1600   -17.7350 
  142.1250    59.6300     8.2750     7.8310     8.3710    23.8970     2.1680   -17.5750 
  142.2500    64.7680     8.4160     7.9470     8.4630    23.8270     2.1820   -17.4360 
  142.3750    63.5910     8.5700     8.0890     8.6660    23.7470     2.1960   -17.2970 
  142.5000    59.2540     8.6700     8.2040     8.8860    23.7070     2.2060   -17.1610 
  142.6250    57.9260     8.6470     8.2280     9.0980    23.7020     2.2050   -17.0390 
  142.7500    58.6150     8.5120     8.1550     9.1420    23.7020     2.1980   -16.8990 
  142.8750    59.4480     8.3050     8.0080     8.9570    23.7020     2.1860   -16.7580 
  143.0000    59.8260     8.0860     7.8320     8.5630    23.6870     2.1740   -16.6300 
  143.1250    60.7510     7.9150     7.6770     8.1130    23.6060     2.1700   -16.4560 
  143.2500    62.5090     7.8060     7.5640     7.8460    23.4690     2.1740   -16.2360 
  143.3750    64.1700     7.7420     7.4870     7.7670    23.4030     2.1850   -15.9840 
  143.5000    64.7040     7.6880     7.4210     7.7760    23.4850     2.2000   -15.7080 
  143.6250    65.1580     7.5950     7.3270     7.8030    23.5860     2.2110   -15.4320 
  143.7500    67.7310     7.4450     7.1860     7.7020    23.6260     2.2180   -15.1680 
  143.8750    71.6620     7.2390     6.9930     7.4500    23.6390     2.2260   -14.8990 
  144.0000    75.6080     6.9960     6.7600     7.0870    23.6660     2.2370   -14.6460 
  144.1250    79.5360     6.7470     6.5150     6.5570    23.7270     2.2540   -14.4520 
  144.2500    82.4610     6.5280     6.2930     6.2140    23.7650     2.2730   -14.3250 
  144.3750    83.8880     6.3660     6.1190     6.2500    23.7750     2.2860   -14.3220 
  144.5000    84.1010     6.2870     6.0200     6.4080    23.7730     2.2910   -14.4560 
  144.6250    80.9910     6.3420     6.0400     6.5700    23.7740     2.2870   -14.6680 
  144.7500    74.3500     6.5300     6.1790     6.7220    23.7850     2.2770   -14.9200 
  144.8750    69.5370     6.8500     6.4400     7.0420    23.8070     2.2630   -15.3000 
  145.0000    70.8720     7.2750     6.8070     7.6400    23.8160     2.2460   -15.8050 
  145.1250    74.0550     7.7470     7.2410     8.5980    23.7960     2.2310   -16.3310 
  145.2500    72.9870     8.1760     7.6580     9.5000    23.7830     2.2200   -16.8360 
  145.3750    67.4060     8.4940     7.9920     9.9910    23.8030     2.2120   -17.3140 
  145.5000    62.2340     8.6620     8.1940    10.1730    23.8710     2.2060   -17.7270 
  145.6250    61.7800     8.6620     8.2300    10.2310    23.9520     2.2000   -18.0540 
  145.7500    62.9200     8.5680     8.1590    10.1230    23.9860     2.1930   -18.3430 
  145.8750    63.6150     8.4410     8.0330     9.8880    24.0010     2.1880   -18.5460 
  146.0000    64.0430     8.3370     7.9060     9.6540    24.0350     2.1840   -18.6300 
  146.1250    65.2730     8.3070     7.8310     9.5100    24.1170     2.1800   -18.6480 
  146.2500    64.8220     8.3590     7.8270     9.4620    24.1850     2.1740   -18.6540 
  146.3750    63.7640     8.4900     7.8980     9.4610    24.2050     2.1690   -18.6010 
  146.5000    65.6760     8.6800     8.0330     9.4950    24.1780     2.1650   -18.5080 
  146.6250    67.8440     8.8900     8.2050     9.6090    24.1030     2.1640   -18.3950 
  146.7500    65.7180     9.0620     8.3610     9.7840    24.0200     2.1670   -18.2360 
  146.8750    61.9770     9.1530     8.4630     9.9490    23.9430     2.1710   -18.0540 
  147.0000    63.0080     9.1360     8.4810     9.9700    23.8770     2.1760   -17.8670 
  147.1250    68.5890     8.9980     8.3950     9.6100    23.8190     2.1780   -17.6670 
  147.2500    71.9660     8.8010     8.2480     9.1200    23.7830     2.1790   -17.4030 
  147.3750    69.1190     8.6060     8.0850     8.7020    23.7510     2.1790   -17.1340 
  147.5000    63.6310     8.4680     7.9560     8.4440    23.7300     2.1810   -16.8900 
  147.6250    63.8880     8.4420     7.9090     8.5470    23.7260     2.1850   -16.6230 
  147.7500    68.7800     8.5120     7.9420     8.9500    23.7270     2.1910   -16.3310 
  147.8750    72.9300     8.6450     8.0340     9.5730    23.7120     2.1970   -16.0080 
  148.0000    73.4670     8.7920     8.1490    10.2020    23.6780     2.1990   -15.6750 
  148.1250    72.4800     8.8840     8.2340    10.5020    23.6080     2.1970   -15.3480 
  148.2500    71.7030     8.8830     8.2520    10.5110    23.5400     2.1940   -15.0460 
  148.3750    70.5720     8.7780     8.1880    10.3300    23.5010     2.1900   -14.7390 
  148.5000    69.0200     8.5870     8.0530     9.9930    23.4870     2.1880   -14.4480 
  148.6250    68.1010     8.3680     7.8900     9.4580    23.4830     2.1900   -14.1650 
  148.7500    67.4030     8.2010     7.7690     8.9130    23.4810     2.1960   -13.8770 
  148.8750    66.5580     8.1460     7.7400     8.6510    23.4800     2.2020   -13.6160 
  149.0000    65.9090     8.2320     7.8390     8.7000    23.4840     2.2060   -13.3730 
  149.1250    67.2480     8.4770     8.0950     9.2130    23.5030     2.2040   -13.1060 
  149.2500    69.9000     8.8230     8.4670     9.8830    23.5330     2.1960   -12.7930 
  149.3750    71.6880     9.2230     8.9150    10.6040    23.5540     2.1840   -12.4710 
  149.5000    72.1770     9.6140     9.3760    11.0860    23.5610     2.1740   -12.0850 
  149.6250    73.4030     9.8820     9.7290    11.3380    23.5710     2.1710   -11.6410 
  149.7500    75.2370     9.9270     9.8620    11.5040    23.5960     2.1760   -11.2000 
  149.8750    75.3210     9.6620     9.6750    11.3790    23.6210     2.1900   -10.6990 
  150.0000    72.8000     9.0620     9.1300    10.7530    23.6310     2.2130   -10.1010 
  150.1250    73.3170     8.1870     8.2660     9.5060    23.6430     2.2440    -9.4430 
  150.2500    82.2590     7.2680     7.3150     7.9210    23.7180     2.2780    -8.8010 
  150.3750    98.6840     6.4730     6.4470     6.3700    23.8880     2.3110    -8.1860 
  150.5000   113.4890     5.8910     5.7670     5.3980    24.0610     2.3400    -7.6720 
  150.6250   116.3950     5.5330     5.3210     5.4290    24.0640     2.3590    -7.2690 
  150.7500   111.5210     5.2580     5.0210     5.7960    24.0190     2.3680    -6.8990 
  150.8750   105.7950     5.0240     4.8290     6.1100    23.9960     2.3640    -6.6080 
  151.0000   103.1770     4.9550     4.7790     6.2240    23.9930     2.3500    -6.4990 
  151.1250   101.5440     5.4720     5.1300     6.5570    23.9930     2.3400    -6.5660 
