~V
VERS. 2.00: Ver 2.00
~W
STRT.M 50.0000:
STOP.M 315.0000:
STEP.M 0.1250:
NULL. -999.2500:
UWI. F10300:
~C
DEPT.M :
GR.API :
RML.OHMM :
RI. :
RXO.OHMM :
CALI.CM :
DEN.GM/CC :
SP.MV :
~A
# ...
  185.0000    88.9910     4.7180     4.2980     4.6920    24.7570     2.3400    -1.9500 
  185.1250    89.0550     4.8030     4.3810     4.8350    24.7520     2.3460    -1.8930 
  185.2500    90.4110     4.8980     4.4810     4.9550    24.7340     2.3520    -1.8770 
  185.3750    90.0550     5.0160     4.6040     5.1000    24.7080     2.3590    -1.8730 
  185.5000    90.0680     5.1690     4.7580     5.2930    24.6910     2.3670    -1.8950 
  185.6250    90.8290     5.3560     4.9400     5.4950    24.6850     2.3740    -1.8560 
  185.7500    90.2760     5.5400     5.1190     5.6250    24.6730     2.3770    -1.7690 
  185.8750    87.8880     5.6750     5.2590     5.7150    24.6450     2.3760    -1.6820 
  186.0000    85.6640     5.7130     5.3170     5.7540    24.6240     2.3700    -1.6380 
  186.1250    87.5120     5.6110     5.2520     5.7270    24.6180     2.3590    -1.6470 
  186.2500    92.8310     5.4140     5.0930     5.4930    24.6350     2.3470    -1.6440 
  186.3750    98.2960     5.1740     4.8810     5.0330    24.6860     2.3390    -1.6230 
  186.5000    98.5540     4.9530     4.6670     4.6140    24.7670     2.3370    -1.5640 
  186.6250    93.9410     4.8080     4.5040     4.4410    24.8190     2.3430    -1.5520 
  186.7500    92.4420     4.7390     4.4050     4.4200    24.8350     2.3520    -1.5610 
  186.8750    96.5010     4.7300     4.3640     4.4610    24.8190     2.3610    -1.5700 
  187.0000   100.0140     4.7570     4.3660     4.5160    24.7570     2.3690    -1.6010 
  187.1250    98.0560     4.7900     4.3870     4.5480    24.6180     2.3740    -1.6250 
  187.2500    94.0680     4.8060     4.4020     4.5400    24.4770     2.3760    -1.6430 
  187.3750    88.7010     4.7930     4.3980     4.5310    24.3140     2.3750    -1.6660 
  187.5000    82.4920     4.7440     4.3670     4.5140    24.1520     2.3710    -1.7040 
  187.6250    80.1240     4.6600     4.3030     4.4440    24.0260     2.3630    -1.7480 
  187.7500    84.2890     4.5660     4.2260     4.3190    23.9660     2.3530    -1.8230 
  187.8750    89.5170     4.4840     4.1530     4.1870    23.9610     2.3440    -1.9070 
  188.0000    89.4520     4.4370     4.1030     4.0850    24.0330     2.3390    -1.9420 
  188.1250    85.7130     4.4420     4.0940     4.1030    24.2250     2.3370    -1.9420 
  188.2500    83.8480     4.4850     4.1220     4.2070    24.4160     2.3390    -1.9390 
  188.3750    85.6050     4.5500     4.1720     4.3300    24.4340     2.3410    -1.9590 
  188.5000    88.0880     4.6140     4.2290     4.4110    24.2820     2.3430    -2.0090 
  188.6250    87.7190     4.6570     4.2710     4.4140    24.0760     2.3440    -2.0710 
  188.7500    84.9930     4.6750     4.2920     4.3940    23.9720     2.3460    -2.0790 
  188.8750    82.3460     4.6700     4.2920     4.3790    23.9620     2.3470    -2.0500 
  189.0000    83.3280     4.6510     4.2750     4.3690    24.0240     2.3470    -2.0150 
  189.1250    86.5920     4.6280     4.2520     4.3520    24.0860     2.3420    -2.0080 
  189.2500    88.4190     4.6150     4.2330     4.3190    24.1290     2.3320    -2.0270 
  189.3750    90.9790     4.6180     4.2240     4.2860    24.1910     2.3210    -2.0400 
  189.5000    95.9420     4.6390     4.2280     4.2660    24.2710     2.3130    -2.0330 
  189.6250   100.6550     4.6790     4.2460     4.2660    24.2920     2.3110    -1.9750 
  189.7500   103.9760     4.7220     4.2710     4.2850    24.2360     2.3150    -1.9230 
  189.8750   104.7800     4.7530     4.2900     4.3060    24.1960     2.3220    -1.8890 
  190.0000   101.0620     4.7580     4.2920     4.3160    24.2040     2.3280    -1.8980 
  190.1250    94.4330     4.7270     4.2670     4.3050    24.2270     2.3310    -1.9150 
  190.2500    90.3620     4.6710     4.2180     4.2740    24.2210     2.3330    -1.9350 
  190.3750    90.6320     4.6090     4.1600     4.2360    24.1880     2.3350    -1.9680 
  190.5000    93.4870     4.5660     4.1100     4.2020    24.2080     2.3380    -1.9710 
  190.6250    98.7160     4.5740     4.0940     4.1870    24.3130     2.3410    -1.9710 
  190.7500   102.6010     4.6360     4.1200     4.2130    24.4220     2.3450    -1.9920 
  190.8750   101.5830     4.7420     4.1850     4.2960    24.4830     2.3490    -2.0460 
  191.0000    97.2740     4.8710     4.2760     4.4490    24.5060     2.3530    -2.1110 
  191.1250    94.3690     4.9860     4.3700     4.6190    24.4910     2.3580    -2.1780 
  191.2500    93.7460     5.0670     4.4460     4.6880    24.4770     2.3590    -2.2360 
  191.3750    93.8860     5.1080     4.4920     4.7060    24.4560     2.3570    -2.2480 
  191.5000    92.4960     5.1130     4.5060     4.7420    24.4120     2.3510    -2.2880 
  191.6250    90.8430     5.0930     4.4920     4.8030    24.3410     2.3440    -2.3870 
  191.7500    93.5510     5.0650     4.4640     4.8490    24.2300     2.3390    -2.5070 
  191.8750    98.3020     5.0400     4.4300     4.8190    24.1120     2.3360    -2.6000 
  192.0000    97.4520     5.0220     4.3970     4.6890    24.0570     2.3370    -2.6290 
  192.1250    90.0230     5.0100     4.3660     4.5580    24.0800     2.3380    -2.6060 
  192.2500    87.8480     4.9960     4.3320     4.4800    24.1330     2.3380    -2.5860 
  192.3750    95.0720     4.9700     4.2930     4.4510    24.1610     2.3360    -2.6120 
  192.5000   105.3880     4.9300     4.2460     4.4040    24.1510     2.3320    -2.6530 
  192.6250   110.0700     4.8740     4.1920     4.3150    24.1260     2.3270    -2.6580 
  192.7500   110.2160     4.8170     4.1390     4.2360    24.1160     2.3230    -2.6290 
  192.8750   106.3240     4.7710     4.0970     4.1970    24.1140     2.3220    -2.5720 
  193.0000    99.6920     4.7490     4.0750     4.1390    24.1150     2.3220    -2.5190 
  193.1250    96.3240     4.7590     4.0810     4.1030    24.1270     2.3240    -2.4760 
  193.2500    97.1790     4.7910     4.1070     4.0980    24.1550     2.3270    -2.4000 
  193.3750    98.6950     4.8310     4.1440     4.1490    24.1850     2.3320    -2.3280 
  193.5000    96.9340     4.8630     4.1790     4.2430    24.2060     2.3390    -2.2440 
  193.6250    93.6840     4.8620     4.1910     4.3350    24.2070     2.3460    -2.1090 
  193.7500    92.1180     4.8150     4.1700     4.4250    24.2010     2.3500    -1.9380 
  193.8750    92.7640     4.7170     4.1080     4.4790    24.1880     2.3470    -1.7900 
  194.0000    95.8970     4.5760     4.0110     4.3360    24.1790     2.3380    -1.6820 
  194.1250    98.5250     4.4160     3.8930     4.1090    24.1710     2.3270    -1.6000 
  194.2500    97.3700     4.2750     3.7830     3.8110    24.1660     2.3210    -1.5290 
  194.3750    92.7120     4.1730     3.7000     3.6130    24.1590     2.3220    -1.4090 
  194.5000    88.8590     4.1180     3.6510     3.5680    24.1620     2.3280    -1.2610 
  194.6250    90.0420     4.0960     3.6340     3.6470    24.1600     2.3350    -1.1510 
  194.7500    93.8230     4.0770     3.6260     3.6770    24.1640     2.3380    -1.0990 
  194.8750    98.3330     4.0410     3.6140     3.6370    24.1750     2.3370    -1.0790 
  195.0000   100.3280     3.9850     3.5890     3.5400    24.1930     2.3330    -1.0770 
  195.1250    97.1510     3.9160     3.5500     3.4300    24.2230     2.3290    -1.0650 
  195.2500    92.4290     3.8510     3.5090     3.3970    24.2490     2.3240    -1.0310 
  195.3750    90.2600     3.7960     3.4690     3.4480    24.2500     2.3210    -1.0300 
  195.5000    93.8860     3.7470     3.4320     3.5560    24.2170     2.3180    -1.0770 
  195.6250   101.1360     3.6950     3.3940     3.6400    24.1450     2.3160    -1.1700 
  195.7500   105.8760     3.6380     3.3530     3.6790    24.0730     2.3160    -1.2480 
  195.8750   106.2290     3.5800     3.3150     3.7090    24.0400     2.3160    -1.2930 
  196.0000   103.9410     3.5330     3.2850     3.7610    24.0330     2.3150    -1.3020 
  196.1250   103.6530     3.5100     3.2730     3.7940    24.0330     2.3150    -1.3110 
