~V
VERS. 2.00: Ver 2.00
~W
STRT.M 50.0000:
STOP.M 315.0000:
STEP.M 0.1250:
NULL. -999.2500:
UWI. F10300:
~C
DEPT.M :
GR.API :
RML.OHMM :
RI. :
RXO.OHMM :
CALI.CM :
DEN.GM/CC :
SP.MV :
~A
# ...
   83.7500    65.7690     8.6950     7.1820     9.1940    23.3510     2.1480   -11.3470 
   83.8750    62.0960     8.6570     7.1470     9.0870    23.3090     2.1410   -11.3380 
   84.0000    61.3660     8.6240     7.1110     8.9840    23.2910     2.1350   -11.2090 
   84.1250    65.9790     8.5970     7.0780     8.9590    23.2750     2.1320   -11.0600 
   84.2500    69.8910     8.5830     7.0540     8.9800    23.2450     2.1330   -10.9350 
   84.3750    69.6320     8.5940     7.0460     9.0370    23.2330     2.1390   -10.7910 
   84.5000    66.5520     8.6380     7.0600     9.0800    23.2840     2.1470   -10.6600 
   84.6250    64.7150     8.7050     7.0910     9.0900    23.2990     2.1560   -10.5360 
   84.7500    63.3180     8.7660     7.1210     9.1130    23.2480     2.1620   -10.3940 
   84.8750    61.5070     8.7960     7.1350     9.1340    23.1680     2.1660   -10.2890 
   85.0000    61.1540     8.7770     7.1200     9.1120    23.0970     2.1670   -10.2690 
   85.1250    63.8990     8.7080     7.0720     9.0850    23.0420     2.1660   -10.2610 
   85.2500    66.9610     8.6200     7.0130     9.0780    22.9660     2.1610   -10.2050 
   85.3750    68.1200     8.5460     6.9640     9.1210    22.8820     2.1530   -10.1530 
   85.5000    67.8090     8.5210     6.9520     9.2350    22.8180     2.1430   -10.1280 
   85.6250    67.0810     8.5910     7.0140     9.3860    22.7940     2.1340   -10.0910 
   85.7500    66.4040     8.7500     7.1460     9.5570    22.7980     2.1290   -10.0640 
   85.8750    66.4520     8.9710     7.3340     9.7350    22.8220     2.1340   -10.0550 
   86.0000    67.2170     9.2010     7.5400     9.9130    22.8460     2.1490   -10.0180 
   86.1250    66.1010     9.3580     7.7080    10.0660    22.8460     2.1730    -9.9650 
   86.2500    62.4210     9.4050     7.7990    10.1380    22.8210     2.1970    -9.9420 
   86.3750    59.8070     9.3440     7.8050    10.1140    22.7820     2.2100    -9.9410 
   86.5000    61.0950     9.2200     7.7450    10.0710    22.7430     2.2090    -9.9440 
   86.6250    64.5380     9.1140     7.6670    10.0830    22.7460     2.1930    -9.9460 
   86.7500    65.9220     9.0760     7.6160    10.1370    22.7810     2.1720    -9.9290 
   86.8750    64.6220     9.1040     7.6020    10.2410    22.8250     2.1560    -9.8850 
   87.0000    64.0790     9.1490     7.6050    10.3630    22.8500     2.1490    -9.8220 
   87.1250    66.6180     9.1250     7.5730    10.4300    22.8470     2.1530    -9.7370 
   87.2500    70.8160     9.0030     7.4820    10.3100    22.8130     2.1650    -9.6210 
   87.3750    75.7000     8.8220     7.3510     9.9460    22.7490     2.1840    -9.4770 
   87.5000    81.7000     8.6770     7.2370     9.3840    22.6650     2.2070    -9.3030 
   87.6250    86.9560     8.6980     7.2320     9.0350    22.6340     2.2350    -9.1520 
   87.7500    86.3990     8.8860     7.3520     9.4640    22.6190     2.2640    -9.0800 
   87.8750    80.6950     9.1710     7.5640    10.6350    22.5820     2.2930    -9.0860 
   88.0000    74.7420     9.4310     7.7920    12.2040    22.5310     2.3150    -9.1680 
   88.1250    72.6560     9.5160     7.9280    12.8240    22.4910     2.3210    -9.3210 
   88.2500    71.8160     9.4130     7.9310    11.7670    22.4220     2.3070    -9.4920 
   88.3750    68.9130     9.1800     7.8180    10.2000    22.3190     2.2770    -9.6670 
   88.5000    65.4060     8.9150     7.6460     9.4800    22.2700     2.2410    -9.8640 
   88.6250    64.9300     8.7170     7.4880     9.3400    22.3010     2.2090   -10.0440 
   88.7500    66.8150     8.6010     7.3800     9.2280    22.3390     2.1860   -10.1450 
   88.8750    68.2680     8.5460     7.3190     9.1170    22.3480     2.1720   -10.1900 
   89.0000    69.1920     8.5130     7.2810     8.9670    22.3270     2.1630   -10.2120 
   89.1250    71.9010     8.4780     7.2470     8.7910    22.2760     2.1580   -10.2270 
   89.2500    75.3350     8.4390     7.2100     8.6530    22.2340     2.1540   -10.2820 
   89.3750    77.2980     8.4000     7.1730     8.6410    22.2170     2.1520   -10.3910 
   89.5000    76.1270     8.3600     7.1370     8.7500    22.2130     2.1490   -10.5220 
   89.6250    72.1840     8.3070     7.0940     8.8740    22.2010     2.1430   -10.6800 
   89.7500    69.0330     8.2340     7.0400     8.9120    22.1750     2.1340   -10.8850 
   89.8750    68.6060     8.1400     6.9690     8.8250    22.1640     2.1250   -11.0780 
   90.0000    69.7550     8.0330     6.8860     8.6020    22.2120     2.1170   -11.1870 
   90.1250    71.4360     7.9360     6.8020     8.3190    22.4020     2.1130   -11.2770 
   90.2500    73.7540     7.8760     6.7370     8.2060    22.6760     2.1130   -11.3490 
   90.3750    75.6510     7.8740     6.7080     8.3210    22.9290     2.1170   -11.3250 
   90.5000    74.9750     7.9360     6.7260     8.8560    23.0540     2.1250   -11.2420 
   90.6250    71.6330     8.0500     6.7920    10.1800    23.0820     2.1350   -11.1380 
   90.7500    68.2520     8.1700     6.8790    11.6730    23.1170     2.1460   -11.0280 
   90.8750    65.5340     8.2600     6.9610    12.8980    23.2410     2.1550   -10.9000 
   91.0000    63.8270     8.2980     7.0190    13.2250    23.4620     2.1580   -10.7530 
   91.1250    64.6640     8.2830     7.0450    11.1490    23.6680     2.1530   -10.5370 
   91.2500    65.9790     8.2540     7.0580     9.6180    23.7280     2.1390   -10.2620 
   91.3750    66.2710     8.2460     7.0770     9.0990    23.6680     2.1300    -9.9830 
   91.5000    66.7890     8.2770     7.1180     9.0090    23.5440     2.1250    -9.6850 
   91.6250    70.3530     8.3490     7.1860     8.8890    23.4340     2.1240    -9.3110 
   91.7500    73.6680     8.4260     7.2590     8.7380    23.3490     2.1270    -8.8400 
   91.8750    73.7380     8.4730     7.3100     8.6180    23.3090     2.1330    -8.3270 
   92.0000    73.1740     8.4580     7.3110     8.4900    23.2980     2.1440    -7.7990 
   92.1250    75.5520     8.3470     7.2330     8.2530    23.2980     2.1620    -7.2160 
   92.2500    79.2280     8.1520     7.0800     7.9140    23.2940     2.1850    -6.6080 
   92.3750    83.6890     7.8910     6.8660     7.5170    23.2910     2.2110    -6.0100 
   92.5000    86.3930     7.6010     6.6180     7.1990    23.2910     2.2350    -5.4360 
   92.6250    85.9310     7.3460     6.3860     6.9820    23.3190     2.2550    -4.9070 
   92.7500    87.1730     7.1740     6.2130     6.8410    23.3800     2.2730    -4.4380 
   92.8750    92.9540     7.0950     6.1240     6.8530    23.4620     2.2900    -4.0610 
   93.0000    98.8550     7.1100     6.1270     7.1480    23.5590     2.3100    -3.8130 
   93.1250    98.2090     7.2410     6.2320     7.6710    23.6920     2.3290    -3.7390 
   93.2500    94.1860     7.5060     6.4270     8.1990    23.7920     2.3420    -3.7940 
   93.3750    91.1400     7.9340     6.7160     8.6050    23.8400     2.3460    -3.9630 
   93.5000    87.5530     8.5610     7.0910     8.6410    23.8370     2.3400    -4.2400 
   93.6250    82.4210     9.2540     7.5110     9.1050    23.8390     2.3220    -4.6240 
   93.7500    77.9490     9.7950     7.8840    10.0410    23.8480     2.2960    -5.0790 
   93.8750    75.0080     9.9840     8.1340    10.9180    23.7750     2.2630    -5.5060 
   94.0000    73.1150     9.9650     8.2230    11.1510    23.6210     2.2270    -5.8440 
   94.1250    70.7170     9.8180     8.1760    10.1160    23.5280     2.1930    -6.0730 
   94.2500    68.1940     9.7150     8.1150     9.4640    23.4970     2.1690    -6.1860 
   94.3750    66.9920     9.7360     8.1130     9.6160    23.5020     2.1600    -6.1480 
   94.5000    68.8390     9.8450     8.1680    10.8860    23.5620     2.1720    -5.9480 
   94.6250    74.3840     9.8840     8.1900    12.7050    23.7310     2.2040    -5.5890 
   94.7500    78.3960     9.7300     8.0850    14.3130    23.9660     2.2430    -5.0900 
   94.8750    79.8830     9.3650     7.8210    14.6680    24.1810     2.2760    -4.5500 
