~V
VERS. 2.00: Ver 2.00
~W
STRT.M 50.0000:
STOP.M 315.0000:
STEP.M 0.1250:
NULL. -999.2500:
UWI. F10300:
~C
DEPT.M :
GR.API :
RML.OHMM :
RI. :
RXO.OHMM :
CALI.CM :
DEN.GM/CC :
SP.MV :
~A
# ...
  106.2500    64.6850     9.1300     8.2930     9.0500    23.3740     2.1780   -11.0460 
  106.3750    63.7380     9.1310     8.2770     8.9460    23.2950     2.1810   -11.0480 
  106.5000    64.6050     9.1200     8.2470     8.8460    23.2060     2.1900   -11.0490 
  106.6250    65.4180     9.1050     8.2100     8.8610    23.1290     2.2020   -11.0720 
  106.7500    66.5130     9.0920     8.1780     8.9290    23.0840     2.2100   -11.1130 
  106.8750    68.0070     9.0840     8.1530     8.9800    23.0700     2.2080   -11.1410 
  107.0000    68.9570     9.0770     8.1360     8.9970    23.0680     2.1980   -11.1770 
  107.1250    67.7580     9.0670     8.1220     9.0000    23.0680     2.1830   -11.2320 
  107.2500    65.2540     9.0540     8.1120     9.0250    23.0680     2.1690   -11.2840 
  107.3750    63.2050     9.0430     8.1060     9.0700    23.0680     2.1600   -11.3400 
  107.5000    61.5970     9.0440     8.1120     9.0800    23.0610     2.1560   -11.3780 
  107.6250    62.2630     9.0720     8.1410     9.0310    23.0400     2.1570   -11.4010 
  107.7500    65.9040     9.1330     8.1950     8.9700    23.0150     2.1610   -11.4510 
  107.8750    69.1380     9.2200     8.2690     8.9260    23.0170     2.1680   -11.5110 
  108.0000    69.4760     9.3150     8.3530     8.9000    23.0520     2.1750   -11.5370 
  108.1250    68.4780     9.3770     8.4180     8.9080    23.1150     2.1810   -11.5410 
  108.2500    68.9260     9.3710     8.4360     8.8840    23.2250     2.1860   -11.5580 
  108.3750    68.1170     9.2790     8.3890     8.7680    23.3320     2.1880   -11.5750 
  108.5000    64.4060     9.1070     8.2760     8.5910    23.3490     2.1880   -11.5480 
  108.6250    61.7800     8.9140     8.1290     8.4420    23.3010     2.1850   -11.4870 
  108.7500    62.5290     8.8150     8.0310     8.3560    23.3000     2.1810   -11.4080 
  108.8750    63.6800     8.9210     8.0690     8.2990    23.4090     2.1780   -11.3060 
  109.0000    62.3490     9.3070     8.3130     8.2440    23.5610     2.1810   -11.1700 
  109.1250    60.1080     9.9730     8.7970     8.2500    23.6050     2.1930   -11.0160 
  109.2500    59.1690    10.7010     9.3810     8.3190    23.5100     2.2130   -10.8800 
  109.3750    59.8840    11.2670     9.9010     8.3790    23.2410     2.2310   -10.7670 
  109.5000    62.1560    11.4750    10.1900     8.4260    22.8690     2.2390   -10.7120 
  109.6250    64.4730    11.1870    10.0980     8.4370    22.7340     2.2290   -10.7070 
  109.7500    64.4710    10.6060     9.7360     8.3760    22.8480     2.2080   -10.6960 
  109.8750    62.0420     9.9500     9.2600     8.2820    23.0500     2.1880   -10.6900 
  110.0000    59.7170     9.4150     8.8250     8.1990    23.1760     2.1740   -10.7300 
  110.1250    61.7100     9.1350     8.5600     8.1420    23.1580     2.1700   -10.7620 
  110.2500    66.3730     9.0510     8.4490     8.0610    23.0310     2.1700   -10.7390 
  110.3750    68.0700     9.0860     8.4480     7.9520    22.8750     2.1730   -10.6750 
  110.5000    64.7760     9.1570     8.4970     7.8870    22.8650     2.1780   -10.5770 
  110.6250    60.9880     9.1940     8.5350     7.9270    23.0710     2.1870   -10.4420 
  110.7500    60.5930     9.1660     8.5270     8.0180    23.3300     2.1970   -10.3170 
  110.8750    61.9270     9.0660     8.4570     8.1150    23.5180     2.2040   -10.2100 
  111.0000    63.5630     8.9030     8.3260     8.1880    23.6060     2.2100   -10.0820 
  111.1250    67.1480     8.7080     8.1470     8.1380    23.5690     2.2150    -9.9160 
  111.2500    71.4380     8.5270     7.9600     7.9870    23.4140     2.2220    -9.8070 
  111.3750    74.7410     8.3870     7.7880     7.7780    23.2110     2.2290    -9.7770 
  111.5000    77.0080     8.2950     7.6450     7.6280    23.0770     2.2310    -9.7640 
  111.6250    74.7770     8.2380     7.5340     7.6390    23.0050     2.2280    -9.7430 
  111.7500    70.0910     8.1770     7.4370     7.7490    22.9520     2.2220    -9.7670 
  111.8750    68.3860     8.0960     7.3470     7.8670    22.9230     2.2190    -9.8370 
  112.0000    71.1440     8.0110     7.2730     8.0190    22.8930     2.2230    -9.9110 
  112.1250    72.2360     8.0240     7.2820     8.3160    22.8240     2.2320   -10.0040 
  112.2500    68.8740     8.2570     7.4560     8.5470    22.7120     2.2380   -10.1180 
  112.3750    64.5830     8.8180     7.8840     8.6680    22.5400     2.2380   -10.2140 
  112.5000    62.7580     9.7260     8.6070     8.6370    22.3280     2.2260   -10.3010 
  112.6250    64.4890    10.8520     9.5740     8.5340    22.2430     2.2050   -10.4020 
  112.7500    66.7460    11.8490    10.5170     8.4950    22.3970     2.1790   -10.5050 
  112.8750    67.1680    12.4090    11.1670     8.5930    22.7750     2.1560   -10.6410 
  113.0000    67.7850    12.3420    11.3100     8.8500    23.1390     2.1380   -10.8070 
  113.1250    71.4230    11.6180    10.8350     9.1380    23.3430     2.1320   -10.9830 
  113.2500    72.7670    10.6470    10.0570     9.3730    23.4260     2.1350   -11.1490 
  113.3750    69.9040     9.7500     9.2530     9.5310    23.4470     2.1450   -11.3290 
  113.5000    66.2700     9.1320     8.6240     9.5910    23.4470     2.1600   -11.5150 
  113.6250    66.7450     8.8800     8.2850     9.5860    23.4490     2.1750   -11.7100 
  113.7500    69.0660     8.8400     8.1510     9.6000    23.4100     2.1870   -11.8960 
  113.8750    72.0280     8.8910     8.1390     9.6820    23.2820     2.1930   -12.0270 
  114.0000    74.9600     8.9380     8.1690     9.7700    23.1390     2.1910   -12.1250 
  114.1250    74.5510     8.9280     8.1830     9.7920    23.0890     2.1820   -12.2330 
  114.2500    71.9680     8.8750     8.1680     9.7590    23.1110     2.1700   -12.3260 
  114.3750    69.0630     8.8040     8.1360     9.6640    23.1660     2.1600   -12.4100 
  114.5000    66.5080     8.7490     8.1070     9.5680    23.2260     2.1540   -12.5030 
  114.6250    64.3590     8.7470     8.1110     9.4930    23.3050     2.1530   -12.5400 
  114.7500    64.6250     8.8060     8.1580     9.5130    23.3900     2.1550   -12.5330 
  114.8750    67.7200     8.9180     8.2490     9.6200    23.4670     2.1590   -12.5730 
  115.0000    69.7620     9.0600     8.3690     9.7070    23.5190     2.1630   -12.6550 
  115.1250    67.4980     9.1910     8.4900     9.7510    23.5550     2.1670   -12.7060 
  115.2500    64.8730     9.2770     8.5830     9.8040    23.5640     2.1730   -12.7380 
  115.3750    63.5500     9.3010     8.6300     9.8360    23.5410     2.1800   -12.7970 
  115.5000    62.3280     9.2700     8.6260     9.8140    23.4680     2.1900   -12.8750 
  115.6250    61.1190     9.2060     8.5830     9.7590    23.3650     2.1980   -12.9720 
  115.7500    62.8360     9.1480     8.5290     9.6590    23.2770     2.2010   -13.1220 
  115.8750    65.4090     9.1120     8.4830     9.5140    23.1970     2.1980   -13.2710 
  116.0000    65.5740     9.0980     8.4510     9.3590    23.1590     2.1900   -13.3930 
  116.1250    64.2450     9.0880     8.4260     9.2320    23.1710     2.1790   -13.5370 
  116.2500    64.3770     9.0590     8.3920     9.1370    23.2320     2.1690   -13.7290 
  116.3750    64.8070     9.0020     8.3410     9.0570    23.3350     2.1610   -13.9070 
  116.5000    63.8790     8.9300     8.2780     8.9720    23.5000     2.1550   -14.0520 
  116.6250    64.7870     8.8780     8.2270     8.8970    23.6410     2.1530   -14.1990 
  116.7500    67.0800     8.8790     8.2170     8.8410    23.7060     2.1540   -14.3270 
  116.8750    66.9680     8.9500     8.2640     8.9160    23.7210     2.1590   -14.4230 
  117.0000    64.0060     9.0790     8.3650     9.3520    23.7220     2.1670   -14.5040 
  117.1250    63.3880     9.2240     8.4920    10.3830    23.7320     2.1750   -14.5580 
  117.2500    64.5280     9.3270     8.5980    11.5090    23.7570     2.1810   -14.5640 
  117.3750    64.1700     9.3540     8.6470    12.3960    23.7820     2.1820   -14.5660 
