~V
VERS. 2.00: Ver 2.00
~W
STRT.M 50.0000:
STOP.M 315.0000:
STEP.M 0.1250:
NULL. -999.2500:
UWI. F10300:
~C
DEPT.M :
GR.API :
RML.OHMM :
RI. :
RXO.OHMM :
CALI.CM :
DEN.GM/CC :
SP.MV :
~A
# ...
  207.5000    75.2720    35.6480    32.3760    32.4670    24.3490     2.3820   -15.8890 
  207.6250    72.7350    37.3410    33.4250    29.7690    24.2670     2.3730   -16.3050 
  207.7500    69.0080    41.7420    36.5400    32.4380    24.2500     2.3470   -16.6730 
  207.8750    64.7280    49.3860    42.5140    42.2780    24.2550     2.3120   -16.9720 
  208.0000    59.3250    59.6150    51.2200    58.0420    24.2780     2.2810   -17.2250 
  208.1250    56.1400    70.1300    61.1060    75.1820    24.3280     2.2640   -17.5120 
  208.2500    58.7820    77.7300    69.0970    86.6260    24.4440     2.2600   -17.8350 
  208.3750    64.5720    80.2890    72.7840    89.1990    24.5900     2.2650   -18.1360 
  208.5000    67.1690    77.6390    71.4030    84.6870    24.5800     2.2760   -18.3720 
  208.6250    65.0420    71.9400    66.4530    74.6220    24.3360     2.2860   -18.5490 
  208.7500    63.6020    67.0490    61.6530    64.6260    24.0760     2.2910   -18.7290 
  208.8750    64.6790    64.7300    58.8510    59.5030    23.9600     2.2890   -18.9370 
  209.0000    66.0310    65.2600    58.5510    59.8390    23.9110     2.2810   -19.1650 
  209.1250    65.8180    68.0280    60.5080    65.4560    23.8690     2.2730   -19.3820 
  209.2500    67.8900    71.1970    63.2270    72.9720    23.8980     2.2690   -19.6110 
  209.3750    72.6260    73.4800    65.5680    77.5590    23.9740     2.2720   -19.8630 
  209.5000    75.9960    74.1780    66.7490    75.8310    24.0250     2.2800   -20.1050 
  209.6250    74.8680    73.4720    66.6390    69.3690    24.0880     2.2870   -20.3540 
  209.7500    71.3450    72.8550    66.3660    65.2310    24.2530     2.2900   -20.6510 
  209.8750    68.5320    73.5510    66.9970    64.7290    24.4960     2.2870   -20.9850 
  210.0000    68.4430    76.2380    69.2550    68.0790    24.6830     2.2800   -21.3560 
  210.1250    70.2860    80.9780    73.4280    75.0330    24.7410     2.2720   -21.7130 
  210.2500    71.1670    86.4220    78.4840    81.8630    24.7470     2.2660   -22.0390 
  210.3750    69.8700    91.3970    83.4130    84.5420    24.7320     2.2620   -22.3380 
  210.5000    67.5130    95.0300    87.3550    83.1870    24.6890     2.2590   -22.6620 
  210.6250    65.2900    96.9430    89.8150    80.7330    24.5880     2.2540   -23.0590 
  210.7500    64.0990    98.0750    91.5000    78.8720    24.4830     2.2480   -23.4730 
  210.8750    63.8740    99.2420    93.1390    77.2900    24.3760     2.2420   -23.8750 
  211.0000    63.2020   100.8320    95.1680    76.7400    24.2520     2.2390   -24.2180 
  211.1250    63.7850   102.3690    97.2830    77.9810    24.1390     2.2440   -24.5610 
  211.2500    67.2360   102.7320    98.4640    79.3580    24.0610     2.2590   -24.9230 
  211.3750    71.0920   100.9210    97.6920    79.4740    23.9860     2.2810   -25.3160 
  211.5000    71.3920    96.4370    94.3290    77.9890    23.8920     2.3040   -25.7620 
  211.6250    69.8450    89.3460    88.1750    73.4690    23.8100     2.3220   -26.1810 
  211.7500    71.3490    81.3570    80.7700    67.3310    23.7590     2.3310   -26.5490 
  211.8750    73.3160    73.9350    73.5170    61.1430    23.7440     2.3290   -26.9260 
  212.0000    71.8190    68.3350    67.6740    55.8620    23.7420     2.3190   -27.3670 
  212.1250    68.9800    66.0870    64.7050    52.8980    23.7270     2.3010   -27.8900 
  212.2500    68.2230    67.6070    65.1220    53.8190    23.6850     2.2800   -28.4590 
  212.3750    69.0000    73.8730    70.0000    58.3920    23.6230     2.2590   -29.0370 
  212.5000    70.2190    86.3330    80.9300    65.8500    23.5610     2.2400   -29.5880 
  212.6250    69.1000   108.6200   101.5320    75.8510    23.5040     2.2250   -30.1340 
  212.7500    63.2890   141.1720   131.9370    89.3330    23.4650     2.2120   -30.6770 
  212.8750    54.6390   183.7130   171.3060   103.9810    23.4520     2.2000   -31.1890 
  213.0000    48.2760   232.9580   215.8780   113.6850    23.4550     2.1880   -31.6510 
  213.1250    46.8410   281.0000   257.8140   116.1420    23.4730     2.1800   -32.0470 
  213.2500    48.8730   318.7490   289.5920   112.0190    23.5010     2.1780   -32.3770 
  213.3750    52.8660   340.8850   307.2740   106.1210    23.5160     2.1840   -32.6150 
  213.5000    54.6110   347.5590   311.4490   102.6110    23.5210     2.1940   -32.7550 
  213.6250    52.8510   342.7830   305.5840    97.2010    23.5290     2.2060   -32.8730 
  213.7500    52.6640   334.6190   296.7220    91.4220    23.5500     2.2150   -32.9870 
  213.8750    55.4140   326.9500   288.4550    85.1880    23.5830     2.2180   -33.0600 
  214.0000    58.3210   322.0460   282.9810    80.2530    23.6280     2.2150   -33.0600 
  214.1250    58.7440   321.4140   281.8780    78.2690    23.7350     2.2070   -32.9580 
  214.2500    57.6500   323.9690   284.1790    79.9820    23.9270     2.1990   -32.8070 
  214.3750    56.6110   328.5040   288.8130    86.6860    24.1760     2.1920   -32.6880 
  214.5000    56.7040   333.5140   294.3990    97.9120    24.3650     2.1900   -32.6140 
  214.6250    57.8260   337.1380   299.2640   111.1290    24.4080     2.1910   -32.5130 
  214.7500    56.6620   338.2440   302.1930   121.0080    24.3960     2.1950   -32.3390 
  214.8750    54.3050   336.0300   302.3420   126.6070    24.3870     2.2000   -32.1200 
  215.0000    54.0660   329.9770   299.1200   129.7200    24.3850     2.2050   -31.9180 
  215.1250    57.1180   319.2110   291.5640   131.9970    24.3970     2.2070   -31.7750 
  215.2500    59.5890   304.8760   280.5030   133.2460    24.4320     2.2070   -31.6920 
  215.3750    59.1190   288.2070   266.8540   133.1750    24.4800     2.2040   -31.6050 
  215.5000    56.8780   271.0090   252.1200   132.4480    24.5150     2.2000   -31.4970 
  215.6250    55.4100   255.6580   238.3880   130.6230    24.5250     2.1980   -31.3470 
  215.7500    54.9250   243.3540   227.0340   127.5920    24.5220     2.1990   -31.2250 
  215.8750    55.0500   234.5470   218.6920   124.4020    24.5010     2.2030   -31.1670 
  216.0000    54.1980   229.0620   213.3890   122.0620    24.4520     2.2080   -31.1360 
  216.1250    51.8450   226.7240   211.1290   119.8260    24.4060     2.2130   -31.1240 
  216.2500    50.0360   226.3360   210.8710   117.8350    24.3870     2.2160   -31.0600 
  216.3750    50.7600   227.2850   212.0820   116.2540    24.3770     2.2160   -30.9640 
  216.5000    52.9890   229.0320   214.2820   115.3510    24.3620     2.2150   -30.8310 
  216.6250    53.1520   231.0720   217.0430   116.8300    24.3560     2.2150   -30.6610 
  216.7500    51.6260   232.8650   219.7700   119.8950    24.3580     2.2160   -30.5320 
  216.8750    52.6640   234.0880   222.0690   123.3840    24.3500     2.2180   -30.4020 
  217.0000    56.7100   234.5300   223.6590   125.3060    24.3280     2.2210   -30.2810 
  217.1250    59.3870   233.4720   223.9200   125.6210    24.2910     2.2240   -30.0900 
  217.2500    59.0320   229.7660   221.9420   125.0660    24.2130     2.2270   -29.8540 
  217.3750    58.3990   221.4810   216.0200   122.8420    24.1100     2.2310   -29.6260 
  217.5000    59.2500   206.9700   204.4510   119.5580    24.0480     2.2360   -29.4750 
  217.6250    59.4290   185.5680   185.9540   117.9290    24.0330     2.2430   -29.4450 
  217.7500    59.5760   161.5670   163.9480   114.2530    24.0360     2.2510   -29.3800 
  217.8750    61.0360   139.3060   142.3490   104.3040    24.0610     2.2570   -29.2570 
  218.0000    62.7500   122.4940   125.0400    93.7260    24.1320     2.2580   -29.1210 
  218.1250    63.1990   114.5470   115.9230    92.3140    24.2570     2.2540   -29.0380 
  218.2500    63.5170   114.4200   114.5360    96.4440    24.4010     2.2440   -29.0410 
  218.3750    64.1440   120.9910   119.9960   105.2120    24.5810     2.2300   -29.0990 
  218.5000    61.7430   132.0680   130.2510   112.1150    24.7200     2.2160   -29.1510 
  218.6250    56.0710   144.2080   141.9570   116.6440    24.8130     2.2070   -29.1420 
