~V
VERS. 2.00: Ver 2.00
~W
STRT.M 50.0000:
STOP.M 315.0000:
STEP.M 0.1250:
NULL. -999.2500:
UWI. F10300:
~C
DEPT.M :
GR.API :
RML.OHMM :
RI. :
RXO.OHMM :
CALI.CM :
DEN.GM/CC :
SP.MV :
~A
# ...
  275.0000    76.2640    40.7410    37.6620    41.1490    24.3680     2.2440    -9.0300 
  275.1250    77.7330    39.1510    35.7990    36.2670    24.3310     2.2380    -9.0830 
  275.2500    77.9410    38.7220    34.9740    34.5320    24.2650     2.2330    -9.1210 
  275.3750    78.3130    39.4150    35.2270    35.6020    24.1280     2.2280    -9.1870 
  275.5000    76.7380    41.0510    36.4550    37.6740    23.9110     2.2220    -9.3170 
  275.6250    72.0820    43.5520    38.6240    39.2940    23.7150     2.2170    -9.4400 
  275.7500    68.0980    46.6450    41.4410    41.4010    23.6900     2.2110    -9.5090 
  275.8750    67.5820    50.1550    44.7240    45.0540    23.8460     2.2080    -9.5320 
  276.0000    68.8020    53.7310    48.1690    50.3160    24.0640     2.2070    -9.5540 
  276.1250    67.7210    56.5660    51.1160    56.9800    24.2470     2.2090    -9.6400 
  276.2500    65.1800    57.9400    52.9030    63.1610    24.3790     2.2140    -9.7460 
  276.3750    63.5140    57.4240    53.0170    65.8870    24.4860     2.2200    -9.8120 
  276.5000    64.9650    55.1450    51.3460    63.0250    24.5420     2.2260    -9.7980 
  276.6250    66.0050    51.8080    48.1820    57.4650    24.5560     2.2340    -9.7370 
  276.7500    65.2850    48.7020    44.6250    51.9150    24.5560     2.2430    -9.6670 
  276.8750    67.0350    46.4680    41.4130    47.4730    24.5560     2.2520    -9.6190 
  277.0000    71.0940    45.0410    38.9840    44.1590    24.5560     2.2590    -9.5780 
  277.1250    72.0840    43.9930    37.5290    43.0450    24.5560     2.2620    -9.4850 
  277.2500    70.8720    42.9650    36.6490    43.1160    24.5560     2.2600    -9.3670 
  277.3750    72.1490    42.1200    36.0150    43.4280    24.5560     2.2550    -9.2270 
  277.5000    75.4770    41.1180    35.3400    43.3030    24.5560     2.2500    -9.0900 
  277.6250    75.0080    39.7280    34.3950    40.4820    24.5560     2.2480    -9.0160 
  277.7500    70.7430    38.0440    33.2000    37.0210    24.5560     2.2530    -8.9830 
  277.8750    67.6770    36.2250    31.8550    34.8790    24.5560     2.2570    -8.9670 
  278.0000    68.2360    34.4660    30.5060    34.0120    24.5560     2.2570    -8.9370 
  278.1250    71.7950    33.0220    29.3590    33.0800    24.5560     2.2530    -8.8860 
  278.2500    74.0810    32.0260    28.5430    31.8780    24.5560     2.2480    -8.8570 
  278.3750    73.3610    31.6010    28.1690    31.1200    24.5550     2.2450    -8.9200 
  278.5000    70.3320    31.8370    28.3260    31.4280    24.5430     2.2470    -9.0770 
  278.6250    68.4130    32.8880    29.1720    33.1880    24.5150     2.2550    -9.2520 
  278.7500    70.3810    34.5420    30.5670    35.8270    24.4880     2.2630    -9.4000 
  278.8750    72.3460    36.5600    32.3440    38.3330    24.4840     2.2690    -9.5110 
  279.0000    70.2950    38.5810    34.2080    40.6480    24.4850     2.2710    -9.6380 
  279.1250    64.6160    40.0490    35.6790    43.0190    24.4470     2.2720    -9.8350 
  279.2500    60.2940    40.6730    36.4480    44.6910    24.3810     2.2800   -10.0680 
  279.3750    59.8340    40.3980    36.4130    44.7340    24.3380     2.2940   -10.2560 
  279.5000    62.7470    39.5040    35.7690    43.9430    24.3420     2.3100   -10.3760 
  279.6250    68.0500    38.6400    35.0390    42.2960    24.3830     2.3130   -10.4840 
  279.7500    73.0980    38.4930    34.8560    40.8720    24.4260     2.2960   -10.6420 
  279.8750    74.1690    39.4310    35.6040    41.0460    24.4400     2.2660   -10.8630 
  280.0000    71.0280    41.4430    37.3850    44.2930    24.4220     2.2460   -11.1140 
  280.1250    66.3680    44.2140    40.0730    50.6080    24.4110     2.2610   -11.3370 
  280.2500    62.7450    47.0100    43.0600    57.0230    24.4100     2.3050   -11.5320 
  280.3750    60.3150    49.4140    45.8960    61.0570    24.4110     2.3580   -11.7550 
  280.5000    59.8340    51.2100    48.1580    61.6740    24.4080     2.3930   -11.9870 
  280.6250    63.0700    51.9030    49.1650    61.6390    24.4010     2.3880   -12.2160 
  280.7500    65.0560    51.3450    48.5400    61.1960    24.3740     2.3610   -12.4320 
  280.8750    63.5330    49.0770    45.8940    63.4910    24.3170     2.3300   -12.6630 
  281.0000    62.8710    44.9360    41.2650    66.2930    24.2740     2.3030   -12.9140 
  281.1250    68.1950    39.4890    35.4560    52.9410    24.2740     2.2790   -13.1540 
  281.2500    75.6070    33.6170    30.1880    36.8660    24.3170     2.2560   -13.4020 
  281.3750    81.6070    29.7710    26.5560    26.3450    24.3940     2.2340   -13.6790 
  281.5000    84.7110    28.7350    25.1170    24.0780    24.4640     2.2170   -14.0000 
  281.6250    83.2780    31.1590    26.4860    28.7920    24.5190     2.2090   -14.3710 
  281.7500    81.0380    36.1330    30.2250    36.7780    24.5770     2.2070   -14.7330 
  281.8750    78.9600    42.9130    36.0190    46.0040    24.6210     2.2060   -15.0350 
  282.0000    73.7210    50.5430    43.1960    51.8560    24.6430     2.2060   -15.3000 
  282.1250    65.8870    57.8470    50.6470    55.3540    24.6410     2.2050   -15.6020 
  282.2500    61.7680    63.9370    57.1230    60.8970    24.6410     2.2030   -15.9410 
  282.3750    62.4390    68.3140    61.8960    66.6600    24.6390     2.2010   -16.2700 
  282.5000    62.7090    70.7930    64.7030    68.7430    24.6400     2.1980   -16.5820 
  282.6250    60.7640    71.2220    65.3960    67.1960    24.6500     2.1950   -16.8070 
  282.7500    61.1900    70.4140    64.7630    65.4960    24.6770     2.1930   -17.0270 
  282.8750    63.9070    69.1880    63.5410    63.7880    24.7140     2.1910   -17.2830 
  283.0000    66.3240    68.5150    62.6410    62.2040    24.7370     2.1920   -17.5520 
  283.1250    65.1130    69.4700    63.1240    61.2450    24.7030     2.1970   -17.8390 
  283.2500    65.2720    72.0120    65.1250    62.0600    24.6130     2.2120   -18.0770 
  283.3750    69.0510    75.6080    68.3150    64.6710    24.5180     2.2340   -18.2640 
  283.5000    71.5890    79.1560    71.8120    68.4290    24.4600     2.2580   -18.4180 
  283.6250    68.9450    80.8250    74.0090    72.0490    24.4320     2.2710   -18.5690 
  283.7500    66.3720    79.7500    73.8880    73.0990    24.4250     2.2670   -18.7260 
  283.8750    65.2770    75.9090    71.1780    69.6570    24.4170     2.2500   -18.8790 
  284.0000    63.0150    70.2180    66.4890    60.4300    24.4100     2.2330   -19.0100 
  284.1250    60.6400    64.1770    61.0290    50.5090    24.4100     2.2240   -19.0480 
  284.2500    61.8790    59.0450    56.0820    45.5780    24.4180     2.2240   -19.0400 
  284.3750    64.8370    55.3030    52.2030    44.5040    24.4320     2.2240   -19.0230 
  284.5000    65.0420    53.1080    49.6070    44.8230    24.4470     2.2190   -19.0040 
  284.6250    61.1070    52.9560    48.7390    45.0920    24.4350     2.2070   -19.0030 
  284.7500    58.4580    55.1180    49.9090    45.7450    24.4180     2.1950   -18.9670 
  284.8750    58.9480    60.6780    54.2520    48.2550    24.4030     2.1880   -18.8610 
  285.0000    60.5240    71.4820    63.6630    55.8920    24.3770     2.1920   -18.6860 
  285.1250    61.1840    91.4890    81.9730    73.0350    24.3330     2.2100   -18.4600 
  285.2500    59.7850   120.8390   109.1740    98.4860    24.3140     2.2340   -18.2310 
  285.3750    56.3610   157.6350   143.3070   128.9210    24.3190     2.2600   -17.9880 
  285.5000    51.8930   195.8630   178.7380   153.9560    24.3130     2.2790   -17.6910 
  285.6250    52.3320   223.1090   204.5600   164.6980    24.2630     2.2850   -17.2660 
  285.7500    55.7360   231.2570   214.0910   167.5470    24.1830     2.2810   -16.7750 
  285.8750    56.7770   219.3790   206.2750   164.8790    24.1300     2.2740   -16.2790 
  286.0000    55.0820   195.1840   186.4930   154.1530    24.1070     2.2700   -15.8110 
  286.1250    55.3100   170.1620   163.5370   132.2290    24.0840     2.2760   -15.3770 
