~V
VERS. 2.00: Ver 2.00
~W
STRT.M 50.0000:
STOP.M 315.0000:
STEP.M 0.1250:
NULL. -999.2500:
UWI. F10300:
~C
DEPT.M :
GR.API :
RML.OHMM :
RI. :
RXO.OHMM :
CALI.CM :
DEN.GM/CC :
SP.MV :
~A
# ...
   72.5000    63.9290     8.9640     7.3130     9.3030    23.4140     2.2080   -12.9800 
   72.6250    66.0840     8.8300     7.2170     9.2680    23.3500     2.2060   -12.9860 
   72.7500    66.0030     8.6590     7.1040     9.3250    23.3610     2.2040   -12.9770 
   72.8750    62.7130     8.5850     7.0500     9.4950    23.4020     2.2010   -12.9860 
   73.0000    58.6940     8.8030     7.1660     9.8830    23.4220     2.1960   -13.0170 
   73.1250    57.7690     9.5740     7.6270    11.3480    23.4260     2.1890   -13.0380 
   73.2500    58.7870    10.8100     8.4170    15.8720    23.4460     2.1920   -13.0350 
   73.3750    59.1160    12.2620     9.4190    24.2830    23.4670     2.2170   -13.0180 
   73.5000    57.4850    13.5050    10.3830    34.3890    23.4820     2.2730   -12.9610 
   73.6250    56.6860    13.9300    10.8910    42.9410    23.5340     2.3530   -12.8610 
   73.7500    57.2790    13.4390    10.7780    42.4740    23.5690     2.4230   -12.7660 
   73.8750    57.9430    12.2370    10.1020    27.6520    23.5000     2.4510   -12.6250 
   74.0000    57.2440    10.7910     9.1390    13.8790    23.4160     2.4230   -12.3930 
   74.1250    56.2290     9.6750     8.2750     9.8260    23.4030     2.3580   -12.1340 
   74.2500    57.9920     9.1020     7.7220     8.8610    23.4260     2.2950   -11.9260 
   74.3750    61.2620     9.0430     7.5140     8.8610    23.4380     2.2520   -11.6960 
   74.5000    61.7740     9.3240     7.5870     9.0020    23.4400     2.2280   -11.4350 
   74.6250    59.4200     9.6980     7.8110     9.0920    23.4320     2.2160   -11.1360 
   74.7500    59.7340     9.9160     7.9940     9.0660    23.4110     2.2060   -10.7630 
   74.8750    62.9910     9.8420     8.0120     8.8710    23.3850     2.1970   -10.3500 
   75.0000    65.8740     9.4380     7.8050     8.5190    23.3720     2.1930    -9.9580 
   75.1250    66.9330     8.7610     7.3750     8.0120    23.3700     2.1980    -9.5210 
   75.2500    69.4890     8.0540     6.8790     7.4190    23.3680     2.2140    -8.9900 
   75.3750    74.0080     7.5110     6.4530     6.7590    23.3550     2.2380    -8.4590 
   75.5000    78.4280     7.2660     6.1990     6.2550    23.3180     2.2640    -7.9800 
   75.6250    80.3930     7.3760     6.1870     6.1740    23.2620     2.2780    -7.5780 
   75.7500    79.4160     7.6610     6.3290     6.5260    23.2310     2.2770    -7.2780 
   75.8750    77.3460     7.9540     6.5290     6.9690    23.2000     2.2640    -7.0690 
   76.0000    76.8000     8.1160     6.6850     7.2080    23.1470     2.2480    -6.8810 
   76.1250    77.7110     8.0710     6.7200     6.9900    23.0780     2.2410    -6.7710 
   76.2500    78.5130     7.9260     6.6640     6.6070    23.0100     2.2460    -6.7950 
   76.3750    80.7450     7.7860     6.5740     6.3270    22.9530     2.2580    -6.8790 
   76.5000    84.5400     7.7130     6.4980     6.2950    22.9640     2.2700    -6.9660 
   76.6250    85.3700     7.6900     6.4450     6.4720    23.0230     2.2750    -7.0620 
   76.7500    81.7120     7.6430     6.3860     6.6870    23.0540     2.2720    -7.1670 
   76.8750    77.3440     7.5460     6.3090     6.7680    23.0330     2.2650    -7.2720 
   77.0000    77.0900     7.4340     6.2280     6.5520    23.0070     2.2580    -7.3930 
   77.1250    79.4610     7.4000     6.1980     6.1830    23.0680     2.2530    -7.5420 
   77.2500    79.0330     7.4910     6.2510     6.2250    23.1610     2.2460    -7.7010 
   77.3750    74.0670     7.6960     6.3890     6.8790    23.1690     2.2370    -7.8500 
   77.5000    68.6590     7.9560     6.5830     7.7110    23.0830     2.2230    -7.9480 
   77.6250    69.2360     8.2010     6.7920     8.0620    23.0270     2.2100    -7.9830 
   77.7500    72.9840     8.4060     6.9810     8.0650    23.0690     2.1990    -7.9780 
   77.8750    75.1250     8.5850     7.1450     8.0030    23.2170     2.1910    -7.9330 
   78.0000    75.3740     8.7620     7.2870     8.0710    23.4570     2.1840    -7.8500 
   78.1250    75.1630     8.9160     7.3910     8.2580    23.8190     2.1750    -7.6990 
   78.2500    73.1210     8.9750     7.4220     8.4090    24.0330     2.1670    -7.4440 
   78.3750    70.9170     8.8700     7.3400     8.1910    24.0780     2.1710    -7.1300 
   78.5000    72.6510     8.5850     7.1310     7.6050    24.1000     2.1910    -6.8490 
   78.6250    79.8270     8.1900     6.8350     6.9760    24.2160     2.2280    -6.6270 
   78.7500    85.7190     7.8620     6.5670     6.5190    24.3630     2.2670    -6.4400 
   78.8750    87.0330     7.7270     6.4160     6.4160    24.4030     2.2930    -6.3340 
   79.0000    85.7650     7.8380     6.4310     6.6650    24.2170     2.2990    -6.3720 
   79.1250    82.8740     8.1790     6.6300     7.2640    23.7510     2.2860    -6.5390 
   79.2500    78.6020     8.5970     6.9200     8.0080    23.1610     2.2630    -6.7720 
   79.3750    73.3110     8.9720     7.2180     8.5700    22.6970     2.2370    -7.0740 
   79.5000    69.0260     9.2180     7.4500     8.7570    22.4470     2.2110    -7.4160 
   79.6250    66.2130     9.2840     7.5530     8.6900    22.4850     2.1890    -7.7420 
   79.7500    63.4770     9.2410     7.5570     8.6340    22.6440     2.1740    -8.0410 
   79.8750    63.1660     9.1580     7.5040     8.6100    22.8670     2.1660    -8.2900 
   80.0000    66.6100     9.1020     7.4430     8.5970    23.1350     2.1660    -8.4290 
   80.1250    69.4260     9.1210     7.4240     8.6640    23.3910     2.1700    -8.4870 
   80.2500    68.3840     9.2040     7.4540     8.8560    23.5320     2.1760    -8.5540 
   80.3750    65.6200     9.3220     7.5240     9.1100    23.5810     2.1810    -8.6210 
   80.5000    64.8700     9.4470     7.6160     9.3160    23.5960     2.1830    -8.6720 
   80.6250    66.5520     9.5470     7.7060     9.4280    23.6130     2.1820    -8.7260 
   80.7500    68.6870     9.6120     7.7760     9.5080    23.6200     2.1780    -8.8010 
   80.8750    70.7000     9.6410     7.8180     9.5370    23.5750     2.1730    -8.8710 
   81.0000    72.4690     9.6300     7.8260     9.5320    23.4950     2.1710    -8.9470 
   81.1250    73.9300     9.5730     7.7940     9.4670    23.4190     2.1740    -9.0170 
   81.2500    73.9970     9.4770     7.7280     9.3430    23.3890     2.1810    -9.0380 
   81.3750    71.9640     9.3490     7.6360     9.1640    23.3650     2.1900    -9.0410 
   81.5000    69.1210     9.2080     7.5300     8.9170    23.3200     2.1980    -9.0690 
   81.6250    68.7220     9.0810     7.4290     8.6760    23.2970     2.2040    -9.1230 
   81.7500    70.6060     8.9910     7.3520     8.4830    23.2890     2.2080    -9.1750 
   81.8750    71.5830     8.9480     7.3070     8.3820    23.2880     2.2100    -9.2590 
   82.0000    69.4300     8.9450     7.2920     8.3960    23.2850     2.2100    -9.3860 
   82.1250    66.3080     8.9580     7.2960     8.4640    23.2840     2.2060    -9.5230 
   82.2500    65.3920     8.9450     7.2920     8.6000    23.3020     2.2000    -9.6910 
   82.3750    64.5630     8.8860     7.2630     8.7630    23.3430     2.1940    -9.8720 
   82.5000    63.0720     8.7820     7.2050     8.9100    23.3910     2.1930   -10.0320 
   82.6250    64.9680     8.6650     7.1320     8.9110    23.4100     2.2000   -10.1740 
   82.7500    71.1150     8.5820     7.0720     8.7750    23.4440     2.2140   -10.3220 
   82.8750    75.7270     8.5580     7.0450     8.6060    23.4940     2.2290   -10.4700 
   83.0000    75.6970     8.5950     7.0590     8.5900    23.5170     2.2350   -10.6360 
   83.1250    71.4780     8.6700     7.1080     8.8510    23.4710     2.2250   -10.8040 
   83.2500    65.9260     8.7390     7.1630     9.0790    23.4440     2.2070   -10.9600 
   83.3750    62.3820     8.7760     7.2060     9.1860    23.4370     2.1850   -11.1060 
   83.5000    63.4140     8.7720     7.2230     9.2400    23.4310     2.1670   -11.2040 
   83.6250    66.5330     8.7370     7.2100     9.2480    23.4020     2.1560   -11.2830 
