~V
VERS. 2.00: Ver 2.00
~W
STRT.M 50.0000:
STOP.M 315.0000:
STEP.M 0.1250:
NULL. -999.2500:
UWI. F10300:
~C
DEPT.M :
GR.API :
RML.OHMM :
RI. :
RXO.OHMM :
CALI.CM :
DEN.GM/CC :
SP.MV :
~A
# ...
  286.2500    58.2680   151.0760   144.5580   107.9570    24.0350     2.2900   -14.9250 
  286.3750    60.3800   139.0540   131.7030    91.0970    23.9480     2.3060   -14.4320 
  286.5000    60.9040   133.1630   124.7820    84.8370    23.7920     2.3160   -13.9240 
  286.6250    61.1060   132.1650   122.9130    83.6450    23.5920     2.3150   -13.4510 
  286.7500    60.8230   133.3340   123.4290    82.6020    23.4840     2.3010   -13.0050 
  286.8750    59.7760   135.0650   124.7520    85.9410    23.5100     2.2780   -12.5640 
  287.0000    58.0830   136.1260   125.6260    93.5860    23.6010     2.2560   -12.1230 
  287.1250    57.7410   135.8000   125.2520   104.1210    23.7450     2.2600   -11.7100 
  287.2500    58.7510   134.8030   124.1900   112.6980    23.8670     2.3000   -11.2720 
  287.3750    62.1830   134.2670   123.4530   113.8580    23.9460     2.3760   -10.8110 
  287.5000    67.0010   135.5200   124.2540   105.3270    24.0310     2.4710   -10.3410 
  287.6250    68.8080   140.0190   127.9580    90.9660    24.2090     2.5520    -9.9060 
  287.7500    66.2790   146.8160   133.8400    83.6760    24.3990     2.6020    -9.4860 
  287.8750    61.1390   153.6050   139.9810    85.5460    24.4930     2.6210    -9.0530 
  288.0000    58.4660   156.4830   143.0020    96.9160    24.4920     2.6170    -8.5770 
  288.1250    60.1470   148.9950   137.1010   101.0210    24.4650     2.5910    -8.0260 
  288.2500    60.8200   130.1270   120.8420    97.6570    24.4250     2.5460    -7.5050 
  288.3750    56.4070   102.3340    95.7200    89.4520    24.3610     2.4870    -7.0490 
  288.5000    47.2570    71.9770    67.1410    76.9140    24.2700     2.4260    -6.6660 
  288.6250    40.2690    47.0760    43.1490    50.7170    24.2400     2.3780    -6.3270 
  288.7500    37.9970    29.4140    26.5730    27.9310    24.3020     2.3470    -5.9910 
  288.8750    38.0160    17.9970    16.4710    14.0790    24.3660     2.3310    -5.6690 
  289.0000    38.0590    11.0790    10.7310     7.2330    24.3920     2.3270    -5.3960 
  289.1250    41.3900     7.4600     7.8570     5.3110    24.3950     2.3280    -5.2020 
  289.2500    47.5190     6.1770     6.3250     4.7860    24.3950     2.3330    -5.1000 
  289.3750    52.4900     5.6580     5.6040     4.6870    24.3950     2.3410    -5.0430 
  289.5000    52.7770     5.5450     5.3620     4.5890    24.3880     2.3510    -4.9870 
  289.6250    50.6980     5.6170     5.3880     4.4480    24.3660     2.3620    -4.9140 
  289.7500    50.7830     5.7230     5.4800     4.3590    24.3290     2.3710    -4.8550 
  289.8750    53.6230     5.8180     5.5560     4.3620    24.2970     2.3780    -4.8390 
  290.0000    55.4320     5.8550     5.5810     4.4660    24.2810     2.3810    -4.8520 
  290.1250    53.1400     5.8300     5.5450     4.6290    24.2730     2.3830    -4.8860 
  290.2500    51.4810     5.7620     5.4710     4.7440    24.2630     2.3830    -4.8700 
  290.3750    52.7770     5.6840     5.3750     4.7790    24.2570     2.3820    -4.8280 
  290.5000    54.8490     5.5880     5.2690     4.7310    24.2550     2.3780    -4.7670 
  290.6250    55.0400     5.5060     5.1650     4.6050    24.2550     2.3710    -4.6840 
  290.7500    55.2780     5.4340     5.0670     4.5080    24.2550     2.3640    -4.6350 
  290.8750    55.4080     5.3660     4.9790     4.4840    24.2550     2.3630    -4.6090 
  291.0000    54.5760     5.3080     4.9030     4.5080    24.2550     2.3690    -4.6010 
  291.1250    54.6850     5.2630     4.8420     4.5470    24.2530     2.3820    -4.6000 
  291.2500    56.6640     5.2090     4.7990     4.6340    24.2410     2.3950    -4.5710 
  291.3750    58.7030     5.1600     4.7720     4.7240    24.2220     2.4050    -4.5420 
  291.5000    59.7380     5.1250     4.7630     4.8040    24.2390     2.4080    -4.5640 
  291.6250    60.5770     5.1040     4.7680     4.8740    24.3250     2.4040    -4.6510 
  291.7500    61.2700     5.1130     4.7810     4.9420    24.4120     2.3970    -4.7230 
  291.8750    60.1970     5.1410     4.8000     5.0000    24.4780     2.3920    -4.7400 
  292.0000    57.8990     5.1860     4.8220     5.0140    24.5400     2.3900    -4.7050 
  292.1250    55.9810     5.2470     4.8490     5.0060    24.5850     2.3940    -4.6560 
  292.2500    55.0370     5.2880     4.8760     4.9870    24.6060     2.4000    -4.6710 
  292.3750    56.0900     5.3160     4.9000     4.9780    24.6150     2.4080    -4.7270 
  292.5000    60.1710     5.3230     4.9120     4.9890    24.6310     2.4150    -4.7590 
  292.6250    63.2750     5.2910     4.9080     5.0210    24.6240     2.4190    -4.7670 
  292.7500    61.3130     5.2290     4.8900     5.0430    24.5970     2.4200    -4.7590 
  292.8750    57.1220     5.1620     4.8670     5.0550    24.5550     2.4130    -4.7600 
  293.0000    54.7820     5.1500     4.8470     5.0840    24.5200     2.4000    -4.7770 
  293.1250    53.7500     5.1660     4.8380     5.1250    24.4800     2.3830    -4.8080 
  293.2500    53.0350     5.1900     4.8380     5.1370    24.4450     2.3690    -4.8530 
  293.3750    54.1620     5.2110     4.8380     5.1150    24.4080     2.3640    -4.8900 
  293.5000    56.3050     5.2180     4.8320     5.0460    24.3650     2.3660    -4.9360 
  293.6250    57.2040     5.2050     4.8130     4.9150    24.2780     2.3720    -4.9570 
  293.7500    57.5740     5.1780     4.7840     4.7710    24.1570     2.3720    -4.9630 
  293.8750    57.0580     5.1440     4.7490     4.6340    24.0500     2.3670    -4.9690 
  294.0000    55.3000     5.1120     4.7120     4.5150    24.0520     2.3600    -4.9840 
  294.1250    53.8080     5.0870     4.6750     4.4730    24.2050     2.3570    -5.0020 
  294.2500    52.5350     5.0690     4.6430     4.5050    24.3040     2.3590    -4.9810 
  294.3750    50.7900     5.0570     4.6160     4.5090    24.3190     2.3640    -4.9410 
  294.5000    49.6670     5.0530     4.6010     4.5030    24.2990     2.3700    -4.8860 
  294.6250    50.4210     5.0610     4.6010     4.5490    24.3010     2.3760    -4.8310 
  294.7500    51.8910     5.0830     4.6130     4.6390    24.3860     2.3800    -4.7940 
  294.8750    54.1760     5.1170     4.6330     4.7070    24.5160     2.3840    -4.7850 
  295.0000    56.1820     5.1560     4.6530     4.7160    24.6640     2.3860    -4.8000 
  295.1250    55.6650     5.1930     4.6680     4.7120    24.7010     2.3890    -4.8250 
  295.2500    53.9490     5.2190     4.6740     4.6920    24.6900     2.3930    -4.8310 
  295.3750    52.1090     5.2320     4.6720     4.6560    24.6700     2.4010    -4.8090 
  295.5000    49.5730     5.2320     4.6640     4.6560    24.6480     2.4110    -4.7940 
  295.6250    46.7020     5.2250     4.6550     4.7220    24.6190     2.4190    -4.8430 
  295.7500    46.0140     5.2230     4.6520     4.8270    24.5990     2.4220    -4.9250 
  295.8750    46.4760     5.2430     4.6650     4.9570    24.5780     2.4180    -5.0120 
  296.0000    46.6320     5.3050     4.7100     5.1180    24.5220     2.4100    -5.0810 
  296.1250    47.1350     5.4400     4.8080     5.3470    24.4490     2.4000    -5.1200 
  296.2500    47.8880     5.6350     4.9520     5.6050    24.4000     2.3940    -5.1540 
  296.3750    49.4180     5.8650     5.1250     5.8460    24.4190     2.3910    -5.1870 
  296.5000    51.1420     6.0860     5.2970     5.9390    24.4370     2.3920    -5.2020 
  296.6250    50.7870     6.2390     5.4230     5.7770    24.4100     2.3940    -5.1790 
  296.7500    48.3440     6.3040     5.4840     5.5420    24.3780     2.3950    -5.1470 
  296.8750    46.7060     6.2820     5.4760     5.4120    24.3260     2.3950    -5.1150 
  297.0000    47.2420     6.1920     5.4120     5.3010    24.2720     2.3950    -5.0980 
  297.1250    47.8660     6.0600     5.3130     5.1610    24.2590     2.3960    -5.0870 
  297.2500    48.3550     5.9260     5.2100     4.9920    24.2940     2.3980    -5.0520 
  297.3750    49.1460     5.8170     5.1260     4.8080    24.3670     2.4020    -5.0260 
