~V
VERS. 2.00: Ver 2.00
~W
STRT.M 50.0000:
STOP.M 315.0000:
STEP.M 0.1250:
NULL. -999.2500:
UWI. F10300:
~C
DEPT.M :
GR.API :
RML.OHMM :
RI. :
RXO.OHMM :
CALI.CM :
DEN.GM/CC :
SP.MV :
~A
# ...
  252.5000    79.3490     6.4250     5.5600     5.0720    23.8950     2.3700    -2.1350 
  252.6250    79.7220     6.4310     5.5020     5.1170    23.8510     2.3600    -2.3710 
  252.7500    79.5330     6.3940     5.4240     5.1720    23.8060     2.3500    -2.6500 
  252.8750    80.6160     6.2930     5.3060     5.1770    23.7680     2.3420    -2.9980 
  253.0000    82.7150     6.1570     5.1600     5.0780    23.7720     2.3350    -3.3670 
  253.1250    87.0790     6.0770     5.0460     4.9280    23.6930     2.3300    -3.7230 
  253.2500    91.2580     6.1370     5.0280     4.9480    23.3760     2.3280    -4.0380 
  253.3750    90.9570     6.3920     5.1590     5.3100    23.0300     2.3260    -4.3180 
  253.5000    86.8450     6.8690     5.4720     6.0770    22.8630     2.3250    -4.6240 
  253.6250    83.0560     7.6150     6.0250     7.2140    22.8480     2.3220    -4.9950 
  253.7500    79.3920     8.5950     6.7950     8.6070    22.8480     2.3180    -5.3660 
  253.8750    75.8570     9.8030     7.7820    10.2110    22.8560     2.3130    -5.6950 
  254.0000    76.5170    11.2180     8.9710    12.0440    22.8830     2.3100    -5.9790 
  254.1250    78.5620    12.7900    10.3320    14.0440    22.9320     2.3080    -6.2230 
  254.2500    75.3340    14.3720    11.7430    16.1270    22.9800     2.3080    -6.4580 
  254.3750    69.9060    15.8220    13.0860    17.9470    23.0330     2.3070    -6.7020 
  254.5000    69.7250    17.0160    14.2430    18.9530    23.1160     2.3060    -6.9310 
  254.6250    73.4180    17.8340    15.0850    19.4210    23.1840     2.3030    -7.1490 
  254.7500    73.2350    18.3620    15.6540    19.6750    23.2340     2.3000    -7.3640 
  254.8750    72.0430    18.6860    16.0100    19.8280    23.3380     2.2970    -7.5790 
  255.0000    74.4170    18.9090    16.2340    19.9720    23.5710     2.2960    -7.7910 
  255.1250    76.1940    19.1220    16.4060    19.9550    23.9500     2.2950    -7.9680 
  255.2500    73.1580    19.3880    16.5940    20.0660    24.2400     2.2940    -8.1820 
  255.3750    68.6860    19.7180    16.8170    20.1640    24.3400     2.2920    -8.4180 
  255.5000    67.9430    20.0780    17.0610    20.0810    24.3090     2.2910    -8.6330 
  255.6250    71.0790    20.3310    17.2380    20.0600    24.0970     2.2910    -8.8040 
  255.7500    73.8200    20.3280    17.2410    20.2320    23.7600     2.2940    -8.9290 
  255.8750    75.4950    19.9700    16.9860    20.2500    23.6030     2.2970    -9.0310 
  256.0000    75.0250    19.2800    16.4710    19.6900    23.8240     2.3000    -9.1580 
  256.1250    72.5900    18.4950    15.8400    18.4250    24.2630     2.3000    -9.3240 
  256.2500    70.8130    18.0400    15.4020    17.1050    24.4580     2.2970    -9.4600 
  256.3750    70.1450    18.2840    15.4470    16.4490    24.5050     2.2950    -9.5540 
  256.5000    69.5730    19.4650    16.2030    17.3130    24.5010     2.2940    -9.5970 
  256.6250    68.4980    21.7030    17.8850    20.3500    24.4970     2.2910    -9.5910 
  256.7500    68.2970    24.4730    20.1920    24.7750    24.4960     2.2870    -9.5970 
  256.8750    68.1190    27.2320    22.7590    29.3970    24.4960     2.2810    -9.6300 
  257.0000    65.4200    29.4590    25.1330    32.5540    24.5040     2.2780    -9.6270 
  257.1250    63.0750    30.7780    26.8750    33.6150    24.5370     2.2820    -9.5830 
  257.2500    63.8660    31.5710    28.1090    32.9160    24.5900     2.2890    -9.4740 
  257.3750    65.5470    32.2910    29.1390    31.6640    24.6190     2.2960    -9.3250 
  257.5000    64.8150    33.2340    30.2320    30.9520    24.5970     2.2970    -9.2060 
  257.6250    62.1700    34.2590    31.3330    31.8060    24.5290     2.2910    -9.1290 
  257.7500    59.0410    34.7880    32.0100    33.7880    24.4830     2.2830    -9.0680 
  257.8750    55.8600    34.2780    31.7740    34.5680    24.4790     2.2780    -8.9790 
  258.0000    54.2230    32.4620    30.3270    32.5720    24.4760     2.2760    -8.8700 
  258.1250    56.7560    29.3980    27.6300    28.3670    24.4610     2.2770    -8.7640 
  258.2500    60.5840    25.9070    24.4200    24.1470    24.4730     2.2760    -8.7170 
  258.3750    62.7050    22.5950    21.2690    20.5860    24.4770     2.2730    -8.7610 
  258.5000    62.1110    19.8680    18.5870    17.3910    24.4240     2.2720    -8.8750 
  258.6250    60.1970    18.0190    16.6780    14.6010    24.3060     2.2770    -9.0340 
  258.7500    58.5400    16.9380    15.4660    12.7140    24.1790     2.2880    -9.2080 
  258.8750    59.2320    16.6270    14.9550    11.9400    24.0550     2.2990    -9.4000 
  259.0000    62.4750    17.1300    15.1760    11.9880    23.9150     2.3030    -9.6260 
  259.1250    67.0380    18.6550    16.3380    13.0570    23.6770     2.2940    -9.9000 
  259.2500    69.2670    21.0120    18.3390    15.3980    23.4300     2.2770   -10.2300 
  259.3750    66.1560    23.9680    21.0700    19.2570    23.3470     2.2550   -10.5360 
  259.5000    59.6400    27.0800    24.2210    24.4330    23.4670     2.2350   -10.7610 
  259.6250    57.5140    29.6350    27.1980    29.9850    23.7650     2.2200   -10.9030 
  259.7500    61.1490    31.2730    29.4670    34.2370    24.0830     2.2130   -11.0200 
  259.8750    64.8100    32.0690    30.8630    36.0460    24.3390     2.2150   -11.1510 
  260.0000    64.3050    32.5360    31.6580    35.6950    24.5040     2.2250   -11.2850 
  260.1250    63.2600    33.3590    32.3740    34.0590    24.5550     2.2440   -11.3630 
  260.2500    63.9910    34.5250    33.1800    33.1310    24.5660     2.2690   -11.3430 
  260.3750    63.7210    35.3130    33.5880    33.8000    24.5660     2.2990   -11.2550 
  260.5000    61.7650    34.6350    32.7340    36.0140    24.5550     2.3310   -11.1450 
  260.6250    61.4930    31.2710    29.5430    36.3690    24.5190     2.3610   -11.0500 
  260.7500    63.9290    25.9470    24.6260    32.0240    24.4720     2.3840   -10.9610 
  260.8750    68.3700    19.9810    19.1700    23.3790    24.4570     2.3970   -10.8640 
  261.0000    74.2810    14.8170    14.4470    15.1240    24.4870     2.3990   -10.7660 
  261.1250    79.4460    11.6390    11.4080    10.1320    24.5380     2.3860   -10.6930 
  261.2500    83.2490    10.2690     9.8740     8.7110    24.6100     2.3650   -10.6220 
  261.3750    83.6320    10.4550     9.7010     9.3980    24.6860     2.3390   -10.5800 
  261.5000    78.3010    11.8260    10.7010    11.6840    24.7500     2.3160   -10.5760 
  261.6250    71.2120    13.8990    12.6440    15.4920    24.7850     2.3040   -10.6130 
  261.7500    70.2110    15.8450    14.8020    19.7780    24.8140     2.3030   -10.6430 
  261.8750    74.1480    17.0590    16.5240    23.2250    24.8290     2.3120   -10.6190 
  262.0000    74.6990    17.2170    17.2920    24.0590    24.8170     2.3250   -10.5460 
  262.1250    70.6400    16.3400    16.8610    21.6030    24.7920     2.3410   -10.4400 
  262.2500    70.2100    15.1210    15.8500    18.9610    24.7740     2.3540   -10.3780 
  262.3750    73.6540    14.0160    14.7460    17.4240    24.7580     2.3630   -10.3610 
  262.5000    75.0920    13.2540    13.8460    17.0230    24.7360     2.3650   -10.3800 
  262.6250    72.4010    12.8720    13.2590    16.8470    24.7450     2.3620   -10.3930 
  262.7500    69.7090    12.6770    12.8690    15.7480    24.7750     2.3600   -10.3930 
  262.8750    69.2100    12.5600    12.5960    14.7690    24.8270     2.3720   -10.4340 
  263.0000    69.6100    12.4960    12.4120    14.5190    24.9110     2.4060   -10.5140 
  263.1250    71.3140    12.5950    12.4030    15.2990    24.9800     2.4660   -10.6940 
  263.2500    73.6670    12.9740    12.6570    17.6270    25.0190     2.5280   -10.9170 
  263.3750    74.1840    13.7080    13.2430    22.8660    25.0630     2.5660   -11.1540 
  263.5000    72.4910    14.7580    14.1330    32.0400    25.1290     2.5610   -11.3810 
  263.6250    70.1660    15.9180    15.1650    43.9580    25.1480     2.5110   -11.6170 
