~V
VERS. 2.00: Ver 2.00
~W
STRT.M 58.0000:
STOP.M 203.0000:
STEP.M 0.1250:
NULL. -999.2500:
UWI. F10566:
~C
DEPT.M :
GR.API :
RML.OHMM :
RI. :
RXO.OHMM :
CALI.CM :
SP.MV :
DEN.GM/CC :
~A
# ...
   80.5000    73.0880    20.2190    17.2760    13.6920    24.6370    -8.8910     2.1570 
   80.6250    70.9620    19.9280    16.7960    12.9920    24.5480    -8.8640     2.1760 
   80.7500    67.9400    19.9960    16.5790    12.6040    24.3730    -8.8590     2.1790 
   80.8750    64.3830    20.3490    16.6090    12.7390    24.1870    -8.8690     2.1680 
   81.0000    63.1570    20.8540    16.8130    13.3160    24.1630    -8.8740     2.1560 
   81.1250    66.1080    21.3080    17.0680    14.2390    24.3470    -8.8210     2.1610 
   81.2500    68.2430    21.5100    17.2190    14.1730    24.5130    -8.7640     2.1830 
   81.3750    67.7590    21.3240    17.1560    13.6610    24.5480    -8.6940     2.2110 
   81.5000    67.8480    20.7120    16.8320    13.4320    24.4420    -8.6920     2.2330 
   81.6250    70.0480    19.7280    16.2580    13.2740    24.2590    -8.7010     2.2340 
   81.7500    70.9200    18.6480    15.6060    12.8210    24.1570    -8.7060     2.2180 
   81.8750    69.7630    17.6920    15.0280    12.2370    24.1840    -8.7180     2.1890 
   82.0000    68.1800    17.0350    14.6610    11.9350    24.2770    -8.7390     2.1560 
   82.1250    67.5800    16.8460    14.6370    12.3470    24.4040    -8.7710     2.1290 
   82.2500    68.0970    17.0570    14.9060    13.0350    24.5260    -8.7710     2.1130 
   82.3750    68.1400    17.5750    15.4070    13.9070    24.5440    -8.7720     2.1060 
   82.5000    65.8260    18.2190    16.0180    14.8330    24.4750    -8.7220     2.1070 
   82.6250    63.6130    18.6280    16.4820    15.1660    24.4030    -8.6600     2.1160 
   82.7500    64.0660    18.4410    16.5100    14.6990    24.3230    -8.5660     2.1370 
   82.8750    65.9930    17.4110    15.8660    14.0900    24.1740    -8.4520     2.1700 
   83.0000    67.7630    15.5570    14.4930    13.5950    24.0370    -8.3470     2.2100 
   83.1250    73.6840    13.1950    12.5640    12.8750    24.1130    -8.2470     2.2440 
   83.2500    83.8040    10.9160    10.5890    10.8860    24.2690    -8.1560     2.2650 
   83.3750    92.3230     9.0590     8.8890     8.2110    24.3290    -8.1060     2.2750 
   83.5000    95.0930     7.7760     7.6280     6.8780    24.3250    -8.0650     2.2830 
   83.6250    94.2390     7.1530     6.8990     6.7120    24.3150    -8.0100     2.2930 
   83.7500    93.5690     6.9670     6.5510     6.7340    24.2940    -7.9690     2.3020 
   83.8750    93.4830     7.0240     6.4870     6.6640    24.2470    -7.9280     2.3020 
   84.0000    92.8760     7.1110     6.6000     6.7930    24.2060    -7.8920     2.2920 
   84.1250    91.1850     7.2100     6.7800     7.0430    24.1920    -7.8990     2.2750 
   84.2500    90.3080     7.3460     6.9270     7.2060    24.2000    -7.9200     2.2600 
   84.3750    91.1140     7.4730     6.9990     7.3310    24.2220    -7.9130     2.2510 
   84.5000    93.9830     7.5330     6.9980     7.1760    24.2380    -7.9020     2.2470 
   84.6250    96.3540     7.3840     6.9540     6.8150    24.2440    -7.8910     2.2490 
   84.7500    95.9440     7.1860     6.9130     6.6880    24.2440    -7.8620     2.2550 
   84.8750    93.3930     7.0440     6.8990     7.0350    24.2430    -7.8320     2.2620 
   85.0000    92.2840     7.0110     6.9200     8.0740    24.2310    -7.7930     2.2660 
   85.1250    96.1230     7.0850     6.9680     9.1760    24.1940    -7.7140     2.2630 
   85.2500   100.1490     7.2100     7.0110     8.6200    24.1300    -7.6290     2.2540 
   85.3750    98.2250     7.3370     7.0290     7.7990    24.0370    -7.5590     2.2450 
   85.5000    91.4600     7.4190     7.0050     7.7040    23.8930    -7.4740     2.2430 
   85.6250    87.2940     7.4210     6.9240     8.0790    23.7700    -7.4030     2.2490 
   85.7500    87.5520     7.3670     6.8000     7.6750    23.7530    -7.3370     2.2570 
   85.8750    89.2680     7.2770     6.6440     7.3060    23.8150    -7.2850     2.2640 
   86.0000    90.9780     7.1540     6.4580     7.1590    23.8760    -7.2280     2.2720 
   86.1250    92.6540     6.9730     6.2500     7.3260    23.9350    -7.2280     2.2820 
   86.2500    93.1980     6.7770     6.0710     7.4170    24.0080    -7.2290     2.2930 
   86.3750    93.7330     6.6830     6.0110     7.3040    24.0720    -7.2080     2.3030 
   86.5000    94.0120     6.8830     6.1960     6.8620    24.1190    -7.2020     2.3160 
   86.6250    90.6840     7.7070     6.8720     6.8050    24.1410    -7.1680     2.3410 
   86.7500    83.4450     9.1970     8.1000     8.4270    24.1390    -7.1790     2.3790 
   86.8750    75.6090    11.2100     9.8310    13.6220    24.0880    -7.2050     2.4200 
   87.0000    72.1600    13.2130    11.7280    24.3960    24.0350    -7.2030     2.4490 
   87.1250    73.6770    14.1110    12.9520    33.1130    23.9980    -7.1530     2.4490 
   87.2500    75.6380    13.5530    12.9530    26.1650    23.9480    -7.0940     2.4230 
   87.3750    76.8810    11.9530    11.7600    15.1390    23.8510    -7.0280     2.3870 
   87.5000    80.4500     9.9790     9.9450     9.6450    23.7130    -6.9750     2.3530 
   87.6250    90.5620     8.2740     8.2590     7.8220    23.5990    -6.9890     2.3310 
   87.7500   100.7130     6.9440     7.0690     6.7570    23.5430    -7.0120     2.3150 
   87.8750   103.0010     6.2340     6.4080     6.0980    23.5300    -7.0360     2.2990 
   88.0000    97.2520     6.2800     6.1850     5.9900    23.5370    -7.1040     2.2810 
   88.1250    90.2270     6.6540     6.3020     6.5590    23.5690    -7.1850     2.2660 
   88.2500    86.8830     7.2150     6.5970     7.2040    23.6260    -7.2650     2.2580 
   88.3750    85.9070     7.9030     7.0320     7.5300    23.6750    -7.3730     2.2540 
   88.5000    84.1090     8.7470     7.6270     7.5470    23.6970    -7.5080     2.2490 
   88.6250    80.6900     9.8940     8.5080     8.2200    23.7020    -7.6160     2.2350 
   88.7500    76.8580    11.4310     9.7230    10.1180    23.7380    -7.6920     2.2140 
   88.8750    73.3280    13.3680    11.2850    13.2880    23.8750    -7.7470     2.1920 
   89.0000    72.0630    15.5640    13.0930    15.8270    24.1460    -7.8030     2.1730 
   89.1250    73.1860    17.6740    14.9030    17.4630    24.4200    -7.8390     2.1630 
   89.2500    74.8780    19.3660    16.4490    19.7320    24.5880    -7.8950     2.1580 
   89.3750    74.8910    20.4960    17.5890    21.1290    24.6760    -7.9430     2.1550 
   89.5000    72.0170    21.1150    18.3140    19.9390    24.7090    -7.9410     2.1520 
   89.6250    68.8190    21.3560    18.6790    19.7040    24.7050    -7.9090     2.1510 
   89.7500    67.2830    21.4340    18.8680    21.5050    24.6420    -7.8360     2.1540 
   89.8750    67.2270    21.4350    18.9790    21.5440    24.4900    -7.7430     2.1620 
   90.0000    67.6150    21.4590    19.1110    18.6860    24.3320    -7.6310     2.1700 
   90.1250    67.9690    21.6930    19.4230    16.9030    24.2490    -7.5510     2.1720 
   90.2500    68.3950    22.2610    20.0230    17.7050    24.2200    -7.4620     2.1660 
   90.3750    68.0750    23.2380    20.9960    18.7230    24.2470    -7.3800     2.1540 
   90.5000    66.2480    24.6160    22.3720    19.6870    24.3590    -7.3020     2.1420 
   90.6250    64.7450    26.3480    24.1400    21.5740    24.5340    -7.2590     2.1340 
   90.7500    65.8250    28.2250    26.0830    24.5350    24.6970    -7.2020     2.1310 
   90.8750    67.8570    29.9800    27.9460    26.2580    24.7690    -7.1590     2.1320 
   91.0000    67.8000    31.0450    29.2700    26.9020    24.7760    -7.1210     2.1370 
   91.1250    65.6660    30.1260    28.9910    27.3860    24.7680    -7.0700     2.1490 
   91.2500    66.8480    26.8650    26.6740    27.0950    24.7610    -7.0480     2.1700 
   91.3750    72.2420    21.7850    22.5280    25.3510    24.7100    -7.0180     2.1980 
   91.5000    79.0160    16.2160    17.5530    20.3370    24.5560    -6.9840     2.2290 
   91.6250    85.3910    11.7270    13.1390    12.2870    24.2760    -6.9320     2.2630 
