~V
VERS. 2.00: Ver 2.00
~W
STRT.M 59.0000:
STOP.M 201.0000:
STEP.M 0.1250:
NULL. -999.2500:
UWI. F10560:
~C
DEPT.M :
DEN.GM/CC :
SP.MV :
GR.API :
RML.OHMM :
RI. :
RXO.OHMM :
CALI.CM :
~A
   59.0000     2.4750   105.8010    53.5490     4.6150     0.0580    33.5670    25.2000 
   59.1250     2.4770    96.7700    51.5900     3.2610     0.0310   990.0560    25.2000 
   59.2500     2.4790    85.8080    51.9720     2.0050     0.0170    32.8130    25.2000 
   59.3750     2.4820    73.2250    53.2070     1.1760     0.0140     3.3540    25.2000 
   59.5000     2.4440    59.6080    55.0190     0.7870     0.0210     2.4280    25.1330 
   59.6250     2.3260    45.5340    60.5610     0.8140     0.0480     3.1760    25.1330 
   59.7500     2.2110    31.7810    68.9410     1.1700     0.1210     4.4920    25.1330 
   59.8750     2.1500    18.9570    77.4500     1.8920     0.2950     5.4860    25.0830 
   60.0000     2.1520     7.5670    82.6500     3.0050     0.6520     5.8790    25.0670 
   60.1250     2.1920    -1.7730    82.9170     4.4070     1.3260     6.6020    25.0670 
   60.2500     2.2270    -9.0540    82.8200     5.6710     2.2490     6.8480    25.0670 
   60.3750     2.2430   -14.4210    84.7960     6.4650     3.2560     6.8110    25.0670 
   60.5000     2.2430   -18.3750    87.5770     6.7940     4.1720     6.7150    25.0670 
   60.6250     2.2380   -21.2560    88.0900     6.9410     4.9180     7.2590    25.0670 
   60.7500     2.2380   -23.5550    87.1250     7.1380     5.5500     7.7010    25.0670 
   60.8750     2.2420   -25.4690    86.3180     7.3610     6.0690     8.1320    25.0670 
   61.0000     2.2480   -27.1780    85.1040     7.5270     6.4520     8.6050    25.1940 
   61.1250     2.2500   -28.7080    84.4890     7.6460     6.7020     8.2560    25.2200 
   61.2500     2.2400   -30.1180    83.6570     7.8580     6.9470     8.4590    25.2280 
   61.3750     2.2240   -31.4510    80.0970     8.2790     7.3010     9.1930    25.2280 
   61.5000     2.2100   -32.6670    75.3530     8.9530     7.8330    10.1590    25.2260 
   61.6250     2.2060   -33.7700    74.7520     9.8360     8.5470    11.6390    25.2250 
   61.7500     2.2080   -34.7590    76.7540    10.7030     9.2820    13.3360    25.2250 
   61.8750     2.2090   -35.6290    76.6970    11.3620     9.8850    14.1530    25.2200 
   62.0000     2.2040   -36.3930    72.9330    11.7600    10.2770    13.8910    25.2040 
   62.1250     2.2000   -37.0310    70.4180    12.0570    10.5370    13.2930    25.1730 
   62.2500     2.2020   -37.5650    71.3320    12.5150    10.8750    13.4390    25.1610 
   62.3750     2.2070   -37.9950    73.3880    13.2620    11.4270    14.3050    25.1590 
   62.5000     2.2110   -38.3600    74.2420    14.2730    12.2130    16.3810    25.1650 
   62.6250     2.2100   -38.6410    74.3680    15.2800    13.0690    21.0460    25.1840 
   62.7500     2.2100   -38.8950    74.5390    15.8630    13.6550    24.9030    25.2160 
   62.8750     2.2090   -39.1170    73.3530    15.7740    13.7230    21.8620    25.2450 
   63.0000     2.2080   -39.2960    71.4920    15.0870    13.2390    16.4210    25.2850 
   63.1250     2.2030   -39.4290    73.0210    14.1240    12.3850    13.4600    25.3220 
   63.2500     2.2020   -39.5590    75.6480    13.2770    11.5230    12.2770    25.3560 
   63.3750     2.2040   -39.6710    75.8890    12.6880    10.8390    11.7930    25.3750 
   63.5000     2.2070   -39.7560    74.9390    12.3640    10.4100    11.3960    25.3960 
   63.6250     2.2040   -39.8100    74.8480    12.2530    10.2610    11.6410    25.4260 
   63.7500     2.2010   -39.7870    74.3180    12.2090    10.2810    12.3320    25.4400 
   63.8750     2.2080   -39.7050    71.8110    12.1710    10.4050    13.1630    25.4430 
   64.0000     2.2310   -39.5500    68.6940    12.2300    10.6610    13.8090    25.4430 
   64.1250     2.2730   -39.3190    67.3380    12.8330    11.3320    14.2960    25.4390 
   64.2500     2.3330   -39.0480    67.0990    14.4180    12.7400    14.7920    25.3750 
   64.3750     2.4160   -38.7680    66.3890    17.4000    15.2550    16.4990    25.1380 
   64.5000     2.5160   -38.4900    64.1020    21.8920    19.0650    22.2810    24.6790 
   64.6250     2.5920   -38.2990    62.2210    26.6970    23.4090    39.2150    24.3200 
   64.7500     2.6000   -38.2080    62.0190    28.5270    25.6430    56.8870    24.1860 
   64.8750     2.5380   -38.2080    63.4070    25.4600    23.8060    47.0520    24.1670 
   65.0000     2.4430   -38.2970    67.6450    19.4510    18.9540    22.2740    24.1720 
   65.1250     2.3600   -38.4670    76.7790    14.1000    14.0120    12.5240    24.1740 
   65.2500     2.3070   -38.6610    86.3520    10.6000    10.4530     8.1450    24.1770 
   65.3750     2.2820   -38.8690    90.9720     8.7280     8.3060     7.2560    24.1900 
   65.5000     2.2760   -39.0800    90.0800     7.9840     7.2410     7.8150    24.2200 
   65.6250     2.2870   -39.2720    87.9740     7.8880     6.9120     8.2290    24.2330 
   65.7500     2.3040   -39.4420    89.3720     7.8840     6.8020     7.6750    24.2210 
   65.8750     2.3150   -39.5930    93.2730     7.7440     6.6580     6.7390    24.1760 
   66.0000     2.3190   -39.6990    96.7120     7.4310     6.3990     6.3900    24.1170 
   66.1250     2.3200   -39.7250    98.1230     7.0440     6.0890     6.1780    24.0740 
   66.2500     2.3190   -39.7000    97.4390     6.7350     5.8640     5.8650    24.0420 
   66.3750     2.3100   -39.6100    95.6670     6.5830     5.8090     5.7330    24.0290 
   66.5000     2.2920   -39.4750    94.6380     6.6150     5.9520     5.7660    24.0260 
   66.6250     2.2710   -39.2850    95.9990     6.8370     6.2700     5.8380    24.0360 
   66.7500     2.2540   -39.0400    96.5330     7.1510     6.6330     6.2960    24.0840 
   66.8750     2.2500   -38.7860    94.3180     7.4560     6.9300     6.9580    24.1860 
   67.0000     2.2660   -38.5560    91.8780     7.6330     7.0660     7.4600    24.2600 
   67.1250     2.2980   -38.3850    90.0670     7.5860     6.9790     6.8530    24.2260 
   67.2500     2.3310   -38.2730    88.6810     7.4180     6.7700     6.6650    24.1000 
   67.3750     2.3510   -38.2520    89.7890     7.2580     6.5310     6.9050    23.9690 
   67.5000     2.3590   -38.3140    93.4950     7.2000     6.3270     6.7800    23.9000 
   67.6250     2.3570   -38.4070    95.1320     7.2550     6.1780     6.6570    23.8840 
   67.7500     2.3560   -38.5160    95.0160     7.2790     6.0270     6.6970    23.8840 
   67.8750     2.3560   -38.6020    97.4060     7.1430     5.8050     6.7950    23.8840 
   68.0000     2.3500   -38.6640   102.6880     6.8200     5.4840     6.6150    23.8840 
   68.1250     2.3290   -38.6780   107.5200     6.4580     5.1400     6.0750    23.8840 
   68.2500     2.2950   -38.6520   108.3840     6.3010     4.9280     5.7240    23.8870 
   68.3750     2.2550   -38.5770   105.1120     6.5490     4.9850     5.7020    23.8990 
   68.5000     2.2130   -38.4400    99.0580     7.3680     5.4300     6.2960    23.9260 
   68.6250     2.1710   -38.2710    94.4660     8.9720     6.4520     8.3130    23.9450 
   68.7500     2.1370   -38.1080    91.3340    11.1520     7.9900    11.4790    23.9580 
   68.8750     2.1170   -37.9550    86.9120    13.5570     9.8760    13.8140    23.9750 
   69.0000     2.1080   -37.7890    81.3890    15.6130    11.7130    14.6880    24.0080 
   69.1250     2.1070   -37.6200    78.1680    16.5840    12.8690    14.5500    24.0240 
   69.2500     2.1140   -37.4450    77.3820    16.5880    13.2850    14.1560    24.0290 
   69.3750     2.1260   -37.2430    76.4340    16.0680    13.2460    13.9570    24.0320 
   69.5000     2.1310   -37.0220    73.2120    15.5340    13.1420    14.2390    24.0560 
   69.6250     2.1150   -36.7980    70.2720    15.3980    13.2960    14.5270    24.1720 
   69.7500     2.0880   -36.5350    70.6830    15.7380    13.7850    14.9770    24.3920 
   69.8750     2.0690   -36.2480    73.2840    16.5370    14.6010    15.6210    24.6530 
   70.0000     2.0690   -35.9370    74.2580    17.6270    15.6100    15.6470    24.8210 
   70.1250     2.0870   -35.6510    72.4850    18.5140    16.4090    15.7400    24.8680 
