~V
VERS. 2.00: Ver 2.00
~W
STRT.M 58.0000:
STOP.M 197.0000:
STEP.M 0.1250:
NULL. -999.2500:
UWI. F10573:
~C
DEPT.M :
SP.MV :
GR.API :
RML.OHMM :
RI. :
RXO.OHMM :
CALI.CM :
DEN.GM/CC :
~A
# ...
  114.2500   -19.8860    47.3130    47.7880    41.7740    37.8370    23.9290     2.5260 
  114.3750   -19.6680    50.9030    48.2530    42.1220    38.0200    23.7790     2.4970 
  114.5000   -19.4770    52.9180    48.8220    42.6330    37.9180    23.7300     2.4830 
  114.6250   -19.3800    53.0240    49.3430    43.2220    32.2540    23.6660     2.4770 
  114.7500   -19.3100    53.1120    49.7310    43.7620    28.4090    23.4720     2.4670 
  114.8750   -19.2120    52.6080    50.0280    44.2290    27.4160    23.3660     2.4530 
  115.0000   -19.1420    51.9710    50.3650    44.7000    28.0140    23.4620     2.4420 
  115.1250   -19.1770    52.1850    50.8320    45.2590    29.5150    23.5430     2.4440 
  115.2500   -19.2760    51.9850    51.3080    45.8330    30.6810    23.5630     2.4550 
  115.3750   -19.4070    50.8960    51.6400    46.2980    30.1010    23.5540     2.4660 
  115.5000   -19.5450    49.7390    51.7370    46.5670    29.0300    23.5540     2.4700 
  115.6250   -19.6900    48.0860    51.5600    46.5780    29.1790    23.5600     2.4730 
  115.7500   -19.8280    46.6240    51.2310    46.4080    31.3400    23.5480     2.4780 
  115.8750   -19.9670    47.0120    50.8400    46.1270    32.9280    23.5140     2.4850 
  116.0000   -20.1240    48.4770    50.4360    45.7880    35.0530    23.4140     2.4860 
  116.1250   -20.2340    49.0970    50.0830    45.4510    37.2220    23.1860     2.4790 
  116.2500   -20.2830    49.2750    49.9130    45.2500    38.6120    23.0060     2.4720 
  116.3750   -20.3270    49.0010    50.0790    45.3230    37.4930    22.9190     2.4770 
  116.5000   -20.4050    48.8810    50.6440    45.7450    34.5950    22.9410     2.4960 
  116.6250   -20.4780    49.4520    51.5660    46.5060    35.0980    23.1290     2.5170 
  116.7500   -20.5420    49.1620    52.5140    47.3540    40.3610    23.4740     2.5270 
  116.8750   -20.6020    47.3130    53.1140    47.9890    47.8580    23.7510     2.5260 
  117.0000   -20.6190    45.4860    53.0420    48.1140    52.4880    23.7010     2.5190 
  117.1250   -20.6280    44.8710    52.0940    47.4910    46.6510    23.4610     2.5140 
  117.2500   -20.6860    44.4860    50.6650    46.3930    43.2650    23.5800     2.5140 
  117.3750   -20.7620    45.2060    49.1090    45.1080    41.7350    23.9360     2.5170 
  117.5000   -20.8260    48.6700    47.7030    43.9010    39.8880    24.2540     2.5200 
  117.6250   -20.8460    51.7840    46.6010    42.9640    40.8970    24.3590     2.5240 
  117.7500   -20.8690    51.5660    45.7150    42.2510    42.2030    24.3670     2.5280 
  117.8750   -20.9420    48.5660    44.9930    41.6980    41.6900    24.3300     2.5320 
  118.0000   -21.0580    44.7980    44.4590    41.2890    40.0210    24.2660     2.5340 
  118.1250   -21.1830    43.0010    44.2830    41.1370    38.9130    24.2400     2.5360 
  118.2500   -21.2810    44.0830    44.5570    41.3430    41.3280    24.2370     2.5420 
  118.3750   -21.3470    47.3630    45.3480    41.9990    42.5220    24.2340     2.5550 
  118.5000   -21.3820    50.0140    46.5900    43.0930    42.4610    24.2250     2.5810 
  118.6250   -21.4430    50.1460    47.9780    44.4230    45.9010    24.2070     2.6200 
  118.7500   -21.5280    48.6760    48.9480    45.4870    52.5520    24.2050     2.6500 
  118.8750   -21.5630    46.7720    49.0250    45.8310    56.8280    24.2380     2.6540 
  119.0000   -21.5470    45.8170    47.9830    45.1840    57.2690    24.2900     2.6320 
  119.1250   -21.5280    46.8190    45.9080    43.5280    53.3430    24.2660     2.5920 
  119.2500   -21.4850    48.0030    43.5800    41.5240    47.3490    24.1550     2.5510 
  119.3750   -21.4200    47.6610    41.5980    39.7240    42.2180    24.0330     2.5170 
  119.5000   -21.3700    46.5200    40.3060    38.4910    39.3360    24.0370     2.4990 
  119.6250   -21.2930    46.0350    39.7460    37.9420    40.2380    24.0420     2.5040 
  119.7500   -21.1380    47.0840    39.4580    37.6920    43.2610    23.8880     2.5220 
  119.8750   -20.9820    49.0290    39.0900    37.4180    46.5240    23.7230     2.5390 
  120.0000   -20.8810    49.8500    38.4310    36.8820    46.3970    23.7170     2.5380 
  120.1250   -20.7900    49.1600    37.5270    36.0540    40.0980    23.7680     2.5150 
  120.2500   -20.7070    47.4400    36.7370    35.2430    36.3240    23.7270     2.4880 
  120.3750   -20.6570    45.3520    36.3420    34.7270    34.5470    23.6630     2.4710 
  120.5000   -20.6370    43.9030    36.5030    34.6860    34.2930    23.5970     2.4660 
  120.6250   -20.6770    45.2680    37.3490    35.2820    36.5510    23.5530     2.4690 
  120.7500   -20.7620    47.6120    38.6770    36.3670    40.3450    23.6090     2.4690 
  120.8750   -20.8570    48.1100    40.3120    37.8010    41.4430    23.8550     2.4700 
  121.0000   -20.9420    47.9300    42.0910    39.4360    39.1540    24.1230     2.4800 
  121.1250   -21.0570    48.7860    43.8260    41.1280    40.2100    24.2270     2.5090 
  121.2500   -21.2050    48.4730    45.2080    42.5950    43.9110    24.2170     2.5530 
  121.3750   -21.3340    46.3690    45.8660    43.4790    44.9190    24.1500     2.5990 
  121.5000   -21.4310    44.1220    45.5210    43.4710    44.1570    24.0450     2.6310 
  121.6250   -21.4920    42.7880    43.9640    42.3000    42.8260    23.9500     2.6370 
  121.7500   -21.5220    42.8240    41.6450    40.3200    41.2190    23.9600     2.6240 
  121.8750   -21.5660    45.1580    38.9900    37.9010    38.4930    23.9250     2.6040 
  122.0000   -21.5950    48.4800    36.4010    35.4340    35.0070    23.5830     2.5930 
  122.1250   -21.5310    49.9510    34.2080    33.2520    30.8240    22.9610     2.5930 
  122.2500   -21.4240    49.1450    32.4960    31.4700    29.0170    22.6080     2.5840 
  122.3750   -21.3450    47.1330    31.3670    30.1940    29.3630    22.8590     2.5480 
  122.5000   -21.2900    44.9050    30.8990    29.5080    30.7770    23.5380     2.4850 
  122.6250   -21.2280    45.1410    31.2540    29.5730    31.2190    24.1130     2.4150 
  122.7500   -21.1960    47.1410    32.3250    30.3100    30.6250    24.3750     2.3630 
  122.8750   -21.1540    48.7730    34.0550    31.7020    32.0760    24.4140     2.3480 
  123.0000   -21.0890    48.3910    36.2880    33.6340    36.2980    24.3640     2.3770 
  123.1250   -21.0700    47.1470    38.8290    35.9370    40.2080    24.3310     2.4400 
  123.2500   -21.1160    46.2350    41.4360    38.3510    46.6550    24.2730     2.5000 
  123.3750   -21.1800    44.7240    43.9450    40.7170    50.9270    24.1450     2.5470 
  123.5000   -21.2170    43.5610    46.0750    42.7870    47.7600    23.9320     2.5860 
  123.6250   -21.2260    45.2860    47.1590    43.9750    42.7610    23.6760     2.6200 
  123.7500   -21.2540    48.8430    46.7380    43.8250    45.9830    23.5130     2.6390 
  123.8750   -21.3310    49.4660    44.4880    41.9740    50.3990    23.4160     2.6380 
  124.0000   -21.4730    46.8920    40.6110    38.5450    48.5700    23.4860     2.6160 
  124.1250   -21.6430    46.5620    35.9000    34.2440    37.9660    23.8120     2.5770 
  124.2500   -21.7720    49.8100    31.5560    30.2120    29.3840    24.0190     2.5350 
  124.3750   -21.8840    53.4710    28.2280    27.0480    22.7360    23.9500     2.5000 
  124.5000   -22.0290    55.5690    26.2100    25.0260    20.6130    23.7960     2.4810 
  124.6250   -22.2350    55.2150    25.7320    24.3760    23.7550    23.8610     2.4900 
  124.7500   -22.4190    53.0810    26.4300    24.8050    26.9770    24.1190     2.5210 
  124.8750   -22.5400    49.6080    28.1420    26.2000    29.3840    24.3450     2.5620 
  125.0000   -22.6270    46.3300    30.5870    28.3640    31.7560    24.4110     2.6000 
  125.1250   -22.7020    45.0710    33.0590    30.7500    34.1540    24.3990     2.6280 
  125.2500   -22.7640    45.9120    34.4420    32.2850    38.8940    24.3910     2.6530 
  125.3750   -22.7860    48.1910    33.8330    32.0160    42.3010    24.3780     2.6770 
