~V
VERS. 2.00: Ver 2.00
~W
STRT.M 50.0000:
STOP.M 222.0000:
STEP.M 0.1250:
NULL. -999.2500:
UWI. F10580:
~C
DEPT.M :
DEN.GM/CC :
SP.MV :
GR.API :
RML.OHMM :
RI. :
RXO.OHMM :
CALI.CM :
~A
# ...
   83.7500     2.1200   -27.3930    83.8570    10.6440     7.8620     8.1840    24.2360 
   83.8750     2.1110   -27.3970    81.0400    10.7580     7.9980     9.1850    24.2450 
   84.0000     2.1050   -27.3860    81.3370    10.7620     8.0560    10.0420    24.2730 
   84.1250     2.1060   -27.3270    83.8730    10.6370     7.9900     8.0940    24.3000 
   84.2500     2.1120   -27.2700    85.1100    10.4550     7.8510     7.1850    24.3520 
   84.3750     2.1210   -27.1960    83.6480    10.2790     7.6990     6.9660    24.4370 
   84.5000     2.1290   -27.1180    80.2880    10.1580     7.5860     7.0270    24.5390 
   84.6250     2.1260   -27.0230    77.6750    10.1370     7.5540     7.1400    24.5800 
   84.7500     2.1180   -26.9130    78.1360    10.2030     7.5910     7.3110    24.5930 
   84.8750     2.1100   -26.7900    79.8690    10.3330     7.6760     7.5490    24.5950 
   85.0000     2.1090   -26.6780    80.3250    10.4800     7.7790     7.7280    24.5940 
   85.1250     2.1130   -26.5870    79.3860    10.5780     7.8620     7.6970    24.5940 
   85.2500     2.1190   -26.4620    78.5560    10.6020     7.9050     7.7140    24.5960 
   85.3750     2.1270   -26.3320    77.0670    10.5720     7.9160     7.7470    24.6000 
   85.5000     2.1370   -26.2150    76.3310    10.5560     7.9300     7.7480    24.6000 
   85.6250     2.1470   -26.1280    78.1810    10.6480     8.0040     7.6720    24.5970 
   85.7500     2.1530   -26.0280    78.9080    10.8620     8.1520     7.6920    24.5940 
   85.8750     2.1540   -25.9380    77.8270    11.1520     8.3540     7.8140    24.5920 
   86.0000     2.1460   -25.8480    77.3270    11.4190     8.5570     8.0340    24.5920 
   86.1250     2.1290   -25.7780    78.5020    11.5190     8.6710     8.2190    24.5930 
   86.2500     2.1100   -25.7350    80.4240    11.4300     8.6580     8.2030    24.5950 
   86.3750     2.0970   -25.7020    83.1790    11.2080     8.5330     7.9810    24.5950 
   86.5000     2.0980   -25.6470    87.3200    10.9710     8.3590     7.8250    24.5950 
   86.6250     2.1130   -25.5610    88.9350    10.8500     8.2270     7.9270    24.5950 
   86.7500     2.1330   -25.5070    86.0980    10.8610     8.1830     8.1360    24.5990 
   86.8750     2.1460   -25.4520    81.9010    10.9440     8.2150     8.3470    24.6250 
   87.0000     2.1530   -25.3970    80.0920    10.9950     8.2670     8.5790    24.6880 
   87.1250     2.1590   -25.3200    81.3430    10.9010     8.2590     8.4210    24.7410 
   87.2500     2.1670   -25.2500    82.0950    10.6900     8.1730     8.1610    24.7830 
   87.3750     2.1760   -25.1800    80.5530    10.4550     8.0490     7.7900    24.8120 
   87.5000     2.1810   -25.1160    78.1740    10.3250     7.9670     7.4810    24.8290 
   87.6250     2.1770   -25.0730    75.0450    10.4490     8.0370     7.5910    24.8510 
   87.7500     2.1620   -25.0120    71.8060    10.7920     8.2670     7.8340    24.8950 
   87.8750     2.1390   -24.9600    70.4090    11.2430     8.5950     8.3950    24.9400 
   88.0000     2.1210   -24.9020    71.3900    11.6140     8.8850     8.8260    24.9070 
   88.1250     2.1240   -24.8520    72.4650    11.6460     8.9200     9.1470    24.6360 
   88.2500     2.1480   -24.7650    73.3010    11.2920     8.6380     9.0020    24.1480 
   88.3750     2.1790   -24.6690    75.6160    10.6180     8.0860     8.1240    23.7360 
   88.5000     2.1980   -24.5970    79.4140     9.7990     7.4070     6.9340    23.5590 
   88.6250     2.1980   -24.5270    84.1670     9.0820     6.7950     6.1950    23.5270 
   88.7500     2.1890   -24.4780    88.1380     8.6370     6.3800     6.0220    23.4900 
   88.8750     2.1810   -24.4250    88.5650     8.5520     6.2220     5.8980    23.4350 
   89.0000     2.1790   -24.4140    84.6920     8.8520     6.3440     5.8230    23.4020 
   89.1250     2.1760   -24.4430    80.4470     9.5460     6.7750     6.2700    23.3940 
   89.2500     2.1650   -24.5210    78.5800    10.4420     7.4050     7.3560    23.3930 
   89.3750     2.1470   -24.6400    77.9500    11.3600     8.1220     8.2180    23.3910 
   89.5000     2.1270   -24.7800    77.7140    12.1080     8.7820     8.6810    23.3920 
   89.6250     2.1170   -24.9470    76.0600    12.4930     9.2020     8.9330    23.4050 
   89.7500     2.1140   -25.1190    74.2670    12.5720     9.3620     9.1040    23.4930 
   89.8750     2.1100   -25.3050    73.5200    12.4640     9.3180     9.1250    23.7060 
   90.0000     2.1010   -25.4330    72.2540    12.3080     9.1780     9.0010    23.9060 
   90.1250     2.0860   -25.5290    68.0260    12.2030     9.0370     8.8580    23.9790 
   90.2500     2.0750   -25.5950    65.7760    12.1520     8.9410     8.8280    23.9690 
   90.3750     2.0710   -25.6190    68.1970    12.1300     8.8920     8.8310    23.9210 
   90.5000     2.0750   -25.5860    71.7670    12.1140     8.8790     8.8080    23.8660 
   90.6250     2.0830   -25.4900    71.3800    12.0920     8.8890     8.6410    23.8430 
   90.7500     2.0930   -25.3480    70.2150    12.0690     8.9090     8.5360    23.8380 
   90.8750     2.1030   -25.1510    69.3660    12.0510     8.9390     8.4860    23.8380 
   91.0000     2.1100   -24.9450    68.4690    12.0490     8.9870     8.5050    23.8320 
   91.1250     2.1130   -24.6860    68.6720    12.0890     9.0690     8.5280    23.8110 
   91.2500     2.1160   -24.4260    71.0940    12.1890     9.1860     8.5490    23.7840 
   91.3750     2.1230   -24.1440    73.3490    12.3420     9.3240     8.6100    23.7720 
   91.5000     2.1330   -23.8650    72.5520    12.4860     9.4330     8.6700    23.7680 
   91.6250     2.1420   -23.5840    69.6020    12.4230     9.3830     8.6650    23.7300 
   91.7500     2.1500   -23.2910    68.9490    12.0120     9.0830     8.4690    23.5960 
   91.8750     2.1610   -23.0300    71.9720    11.2350     8.5240     8.0470    23.3210 
   92.0000     2.1820   -22.8090    77.6300    10.2520     7.8090     7.4230    22.9970 
   92.1250     2.2090   -22.6640    83.9050     9.3770     7.1450     6.5320    22.7510 
   92.2500     2.2180   -22.5280    88.3130     8.8470     6.7030     5.6110    22.6560 
   92.3750     2.2010   -22.4380    89.6690     8.7620     6.5700     5.2110    22.6330 
   92.5000     2.1720   -22.3690    87.5920     9.1160     6.7680     5.5720    22.6310 
   92.6250     2.1550   -22.3570    82.4220     9.8610     7.2890     6.3310    22.6310 
   92.7500     2.1530   -22.3850    76.4530    10.7750     7.9740     6.9470    22.6580 
   92.8750     2.1580   -22.4120    72.8120    11.6500     8.6720     7.3730    22.8070 
   93.0000     2.1580   -22.4300    72.6350    12.2330     9.1820     7.7700    23.1970 
   93.1250     2.1400   -22.3920    73.8850    12.1950     9.2340     8.1590    23.6790 
   93.2500     2.1070   -22.3480    74.9270    11.5830     8.8330     9.4010    23.9680 
   93.3750     2.0760   -22.2760    77.4730    10.5740     8.0940    10.6100    24.0580 
   93.5000     2.0650   -22.2170    81.9930     9.4620     7.2290    10.1220    24.0690 
   93.6250     2.0790   -22.1660    87.4140     8.6090     6.5100     6.3710    24.0700 
   93.7500     2.0980   -22.1400    90.8690     8.1570     6.0760     5.5760    24.0660 
   93.8750     2.1170   -22.1150    90.3290     8.1310     5.9710     5.5630    24.0160 
   94.0000     2.1420   -22.0760    85.5540     8.4830     6.1820     5.8910    23.8280 
   94.1250     2.1680   -22.0570    81.4130     9.1710     6.7060     6.4320    23.4310 
   94.2500     2.1750   -22.0180    80.7190    10.0230     7.4080     6.8890    23.0690 
   94.3750     2.1570   -21.9850    81.3460    10.9060     8.1710     6.8430    22.8990 
   94.5000     2.1350   -21.9050    80.6260    11.6590     8.8520     6.8660    22.8630 
   94.6250     2.1380   -21.7680    78.6680    12.0250     9.2350     7.4490    22.8630 
   94.7500     2.1580   -21.5850    78.2480    11.9090     9.2240     8.0540    22.8620 
   94.8750     2.1790   -21.3930    81.1190    11.3190     8.8080     8.0200    22.8610 
