~V
VERS. 2.00: Ver 2.00
~W
STRT.M 57.0000:
STOP.M 205.0000:
STEP.M 0.1250:
NULL. -999.2500:
UWI. F10591:
~C
DEPT.M :
SP.MV :
GR.API :
RML.OHMM :
RI. :
RXO.OHMM :
CALI.CM :
DEN.GM/CC :
~A
# ...
  180.7500   -19.5220    56.5810     6.1820     5.1650     5.3420    23.6720     2.3760 
  180.8750   -19.5970    52.3630     6.1470     5.1130     5.2770    23.5970     2.3850 
  181.0000   -19.6720    47.4350     6.1250     5.0640     5.2830    23.5540     2.3900 
  181.1250   -19.7510    45.4850     6.0860     4.9990     5.3740    23.5060     2.3940 
  181.2500   -19.8150    45.5780     6.0140     4.9070     5.3970    23.4720     2.3960 
  181.3750   -19.8700    45.9900     5.9180     4.7900     5.3420    23.4270     2.3910 
  181.5000   -19.8970    45.8790     5.8430     4.6820     5.2270    23.3880     2.3730 
  181.6250   -19.9190    45.1240     5.9310     4.6840     5.0530    23.3940     2.3480 
  181.7500   -19.9370    45.0570     6.3120     4.8970     5.1680    23.4360     2.3370 
  181.8750   -19.9740    46.4700     7.0790     5.4040     5.9300    23.5450     2.3650 
  182.0000   -20.0190    47.1800     8.1940     6.2140     7.6960    23.7220     2.4360 
  182.1250   -20.0880    45.0830     9.3830     7.1870    11.0810    23.9030     2.5180 
  182.2500   -20.1960    43.1490    10.1450     7.9360    15.0340    23.9670     2.5540 
  182.3750   -20.3460    44.3050    10.1380     8.1400    14.6210    23.9230     2.5280 
  182.5000   -20.5320    47.7720     9.4280     7.7560     9.6720    23.8130     2.4610 
  182.6250   -20.7380    52.4610     8.5180     7.0750     7.1830    23.8390     2.3920 
  182.7500   -20.9720    59.9070     7.9100     6.5140     6.9680    23.9060     2.3450 
  182.8750   -21.1960    67.8800     7.7170     6.2140     6.9640    23.9590     2.3220 
  183.0000   -21.4170    72.2980     7.8450     6.1650     7.4340    24.0080     2.3130 
  183.1250   -21.5830    72.3060     8.0790     6.2590     8.2290    24.0310     2.3090 
  183.2500   -21.7320    73.0440     8.1550     6.2990     8.4740    24.0400     2.3020 
  183.3750   -21.8430    74.7300     7.9690     6.1840     6.8140    24.0320     2.2940 
  183.5000   -21.9540    73.2550     7.5940     5.9240     5.7240    24.0110     2.2850 
  183.6250   -22.0490    66.8150     7.2280     5.6330     5.6840    23.9790     2.2780 
  183.7500   -22.1650    60.8590     7.0250     5.4350     5.9980    23.9970     2.2730 
  183.8750   -22.2990    59.3130     7.0340     5.3840     6.1510    24.0420     2.2700 
  184.0000   -22.4550    63.4240     7.2440     5.4940     6.3220    24.0700     2.2680 
  184.1250   -22.6490    69.2420     7.6070     5.7500     6.8600    24.0290     2.2680 
  184.2500   -22.8510    73.8840     8.0160     6.0740     7.5530    23.9330     2.2690 
  184.3750   -23.0450    77.2360     8.4140     6.4140     7.9700    23.8790     2.2730 
  184.5000   -23.2300    79.6280     8.7700     6.7380     7.9420    23.9560     2.2770 
  184.6250   -23.3430    80.6920     9.0490     7.0080     7.9830    24.0400     2.2770 
  184.7500   -23.3610    80.8400     9.2370     7.2050     8.4860    24.0560     2.2730 
  184.8750   -23.2600    83.4280     9.3090     7.3060     8.6830    24.0230     2.2670 
  185.0000   -23.0410    87.3500     9.2430     7.2910     8.1920    24.0210     2.2600 
  185.1250   -22.7040    88.0380     9.0040     7.1280     7.7400    24.0440     2.2520 
  185.2500   -22.2560    85.2410     8.6330     6.8470     7.3960    24.0510     2.2450 
  185.3750   -21.7640    80.5980     8.1760     6.4860     6.9970    23.9960     2.2410 
  185.5000   -21.2100    74.9150     7.6960     6.0960     6.4600    23.8660     2.2440 
  185.6250   -20.6920    68.3050     7.2700     5.7390     5.9800    23.7600     2.2570 
  185.7500   -20.1930    63.9620     6.9370     5.4500     5.5820    23.7260     2.2750 
  185.8750   -19.7810    61.6750     6.7130     5.2450     5.3860    23.7080     2.2900 
  186.0000   -19.4520    60.2980     6.5940     5.1250     5.3770    23.6750     2.3000 
  186.1250   -19.2350    59.6890     6.5650     5.0870     5.4640    23.6610     2.3040 
  186.2500   -19.1160    58.8310     6.5740     5.0890     5.5250    23.6600     2.3060 
  186.3750   -19.0610    56.8540     6.5850     5.0990     5.5450    23.6600     2.3060 
  186.5000   -19.0610    54.9810     6.5610     5.0820     5.5020    23.6530     2.3050 
  186.6250   -19.0810    54.1370     6.4600     5.0040     5.3880    23.6810     2.3070 
  186.7500   -19.1310    52.8870     6.2820     4.8650     5.2510    23.7320     2.3150 
  186.8750   -19.2000    50.6280     6.0520     4.6850     5.0390    23.7310     2.3270 
  187.0000   -19.2630    48.7990     5.8220     4.4950     4.7790    23.6120     2.3360 
  187.1250   -19.3070    48.0510     5.6780     4.3540     4.5860    23.5050     2.3350 
  187.2500   -19.3330    47.8040     5.6740     4.3060     4.6160    23.5830     2.3250 
  187.3750   -19.3360    46.7990     5.8430     4.3850     4.9010    23.8060     2.3150 
  187.5000   -19.3730    44.6170     6.1760     4.6050     5.3160    24.0050     2.3170 
  187.6250   -19.3890    44.4020     6.6140     4.9450     5.7750    24.1260     2.3310 
  187.7500   -19.3660    46.6950     7.0150     5.2980     6.5630    24.1930     2.3470 
  187.8750   -19.3020    49.6040     7.2550     5.5600     7.1660    24.2160     2.3560 
  188.0000   -19.2500    50.7290     7.2660     5.6500     6.1960    24.2380     2.3570 
  188.1250   -19.1990    50.6100     7.0780     5.5460     5.5380    24.2560     2.3550 
  188.2500   -19.1280    50.7560     6.8720     5.3740     5.4050    24.2830     2.3590 
  188.3750   -19.0630    49.4790     6.7550     5.2280     5.5720    24.2710     2.3720 
  188.5000   -18.9820    46.4970     6.7540     5.1530     5.8300    24.2570     2.3900 
  188.6250   -18.9560    42.9610     6.8110     5.1430     6.2300    24.2300     2.3990 
  188.7500   -18.9640    41.2970     6.8140     5.1290     6.6260    24.1990     2.3920 
  188.8750   -19.0260    41.9780     6.7080     5.0650     6.4920    24.1990     2.3690 
  189.0000   -19.1100    44.2490     6.5230     4.9500     5.7210    24.1880     2.3380 
  189.1250   -19.2280    47.0950     6.3920     4.8550     5.3490    24.0300     2.3150 
  189.2500   -19.3940    48.9940     6.4300     4.8670     5.4330    23.8120     2.3090 
  189.3750   -19.5780    49.7470     6.6790     5.0310     6.0810    23.8710     2.3210 
  189.5000   -19.7450    49.9060     7.0950     5.3380     7.4870    24.0880     2.3390 
  189.6250   -19.8380    50.6490     7.5520     5.7200     8.9680    24.2180     2.3480 
  189.7500   -19.8880    53.4450     7.8940     6.0510     9.0080    24.2020     2.3470 
  189.8750   -19.8700    55.8820     8.0400     6.2520     7.9350    24.1940     2.3420 
  190.0000   -19.7940    54.8630     7.9930     6.2940     6.8550    24.2820     2.3400 
  190.1250   -19.6550    51.2510     7.8040     6.1950     6.9380    24.3790     2.3480 
  190.2500   -19.4340    50.4100     7.5420     6.0130     7.2950    24.2180     2.3660 
  190.3750   -19.1710    52.7610     7.2120     5.7640     6.9040    23.9630     2.3850 
  190.5000   -18.8660    53.8510     6.8200     5.4550     6.4480    23.7330     2.3970 
  190.6250   -18.5840    50.7520     6.4020     5.1130     6.1420    23.5800     2.3910 
  190.7500   -18.3750    46.4320     6.0270     4.7860     5.4980    23.4990     2.3710 
  190.8750   -18.1930    42.4400     5.7390     4.5110     4.9570    23.4610     2.3470 
  191.0000   -18.0540    38.4080     5.5510     4.3110     4.7440    23.4110     2.3310 
  191.1250   -17.9780    35.0090     5.4520     4.2010     4.7150    23.4030     2.3290 
  191.2500   -17.9720    33.5550     5.3960     4.1470     4.6730    23.5470     2.3310 
  191.3750   -17.9700    32.8660     5.3700     4.1350     4.6630    23.7960     2.3320 
  191.5000   -17.9990    31.4840     5.3800     4.1620     4.6950    23.8030     2.3370 
  191.6250   -18.0690    31.1890     5.4380     4.2280     4.7310    23.6890     2.3570 
  191.7500   -18.1120    32.8950     5.5270     4.3190     4.8670    23.6210     2.3890 
  191.8750   -18.1780    34.9840     5.6250     4.4150     5.0410    23.6130     2.4180 
