~V
VERS. 2.00: Ver 2.00
~W
STRT.M 60.0000:
STOP.M 190.0000:
STEP.M 0.1250:
NULL. -999.2500:
UWI. F10561:
~C
DEPT.M :
SP.MV :
GR.API :
RML.OHMM :
RI. :
RXO.OHMM :
CALI.CM :
DEN.GM/CC :
~A
# ...
  150.0000   -17.4140    67.9680    56.4040    53.1300    51.4900    24.9970     2.2520 
  150.1250   -17.4570    67.9470    55.7020    51.9770    49.1580    24.9990     2.2500 
  150.2500   -17.4630    66.6330    55.1090    51.3610    46.6230    24.9940     2.2590 
  150.3750   -17.5150    66.3100    54.8510    51.4870    46.7870    24.9750     2.2760 
  150.5000   -17.5610    67.9090    55.1250    52.3950    49.9570    24.9250     2.2910 
  150.6250   -17.5240    68.4370    56.0760    54.0350    55.4580    24.8770     2.2940 
  150.7500   -17.5180    63.7150    57.6650    56.0120    55.7500    24.8370     2.2840 
  150.8750   -17.5580    57.7560    59.6910    58.0490    56.3830    24.8220     2.2700 
  151.0000   -17.5490    56.8640    61.8690    59.9470    61.1710    24.7980     2.2580 
  151.1250   -17.4920    60.9060    63.8850    61.5540    67.5210    24.7280     2.2500 
  151.2500   -17.4970    63.4830    65.6500    62.8680    65.5630    24.6700     2.2400 
  151.3750   -17.4920    63.9100    67.1800    63.8590    59.5300    24.7390     2.2270 
  151.5000   -17.4810    64.4910    68.4380    64.4960    60.1470    24.8860     2.2150 
  151.6250   -17.5360    64.9160    69.2640    64.7150    70.4020    24.8970     2.2180 
  151.7500   -17.5850    64.2550    69.6510    64.6430    73.7520    24.7670     2.2360 
  151.8750   -17.6110    65.3470    69.6660    64.4140    66.8200    24.6040     2.2600 
  152.0000   -17.6520    68.8110    69.5220    64.1910    62.8180    24.5130     2.2770 
  152.1250   -17.7120    68.9590    69.5670    64.1340    64.4840    24.4720     2.2760 
  152.2500   -17.7650    65.3260    69.8940    64.1950    67.0090    24.4230     2.2660 
  152.3750   -17.8230    62.3750    70.2080    64.1290    67.1400    24.3910     2.2580 
  152.5000   -17.9090    62.6870    69.9010    63.5300    68.7390    24.3810     2.2590 
  152.6250   -18.0120    64.7040    68.1230    61.8370    70.0590    24.3810     2.2750 
  152.7500   -18.0640    67.6140    64.9850    59.1460    67.3620    24.3810     2.2990 
  152.8750   -18.1300    70.3920    60.9310    55.7420    61.2260    24.3810     2.3230 
  153.0000   -18.2380    70.9990    56.4130    52.0690    53.0470    24.3810     2.3330 
  153.1250   -18.3370    69.9220    51.9130    48.6100    44.9800    24.3700     2.3240 
  153.2500   -18.4060    69.7370    47.8900    45.5910    42.6040    24.3480     2.3060 
  153.3750   -18.5020    69.9200    44.9950    43.0400    42.9680    24.3230     2.2900 
  153.5000   -18.5860    70.5490    42.9280    40.8700    42.1980    24.3030     2.2880 
  153.6250   -18.5910    71.1290    41.2830    39.0020    42.0720    24.2800     2.3040 
  153.7500   -18.6350    70.5250    39.7960    37.3490    40.7200    24.2730     2.3310 
  153.8750   -18.7070    69.2310    38.4060    35.9290    37.4060    24.2790     2.3610 
  154.0000   -18.7270    69.8890    37.1050    34.7530    36.6170    24.2950     2.3840 
  154.1250   -18.6900    70.7990    35.9590    33.8380    41.1460    24.3330     2.3850 
  154.2500   -18.6560    67.7820    35.0010    33.1230    45.3810    24.4330     2.3630 
  154.3750   -18.5860    63.8240    34.2790    32.6130    42.8010    24.6030     2.3310 
  154.5000   -18.4700    64.3960    33.8490    32.3480    34.7290    24.7200     2.3100 
  154.6250   -18.3590    69.4570    33.8450    32.4310    30.7060    24.7520     2.3290 
  154.7500   -18.2470    71.0080    34.1720    32.7760    32.7060    24.7410     2.3820 
  154.8750   -18.0860    66.7600    34.5170    33.1390    36.3460    24.7150     2.4500 
  155.0000   -17.9210    61.6290    34.1930    32.9650    39.2620    24.6960     2.5140 
  155.1250   -17.8110    60.2730    31.9670    31.1740    38.9450    24.6730     2.5620 
  155.2500   -17.6650    62.5030    27.7750    27.5620    34.3770    24.6170     2.5940 
  155.3750   -17.4770    66.8380    22.3340    22.6170    29.2210    24.5260     2.6120 
  155.5000   -17.3290    71.6430    16.8850    17.4110    24.0290    24.4610     2.6100 
  155.6250   -17.1980    74.6170    12.6900    13.1630    13.7510    24.4400     2.5870 
  155.7500   -17.0300    75.9100     9.8910    10.1740     7.8400    24.4500     2.5510 
  155.8750   -16.9120    75.9060     8.3110     8.3650     6.4020    24.5000     2.5120 
  156.0000   -16.8650    75.4920     7.6440     7.5010     7.2030    24.5780     2.4780 
  156.1250   -16.8080    76.7750     7.6630     7.4140     7.9500    24.5950     2.4550 
  156.2500   -16.8100    80.0650     8.0090     7.7340     8.0460    24.5430     2.4410 
  156.3750   -16.9170    82.9910     8.4820     8.2410     7.9340    24.4450     2.4350 
  156.5000   -17.0660    83.6370     8.8870     8.7420     8.0960    24.3730     2.4340 
  156.6250   -17.2490    84.3000     9.1420     9.0750     8.4840    24.3460     2.4320 
  156.7500   -17.4630    85.4760     9.3170     9.2330     8.7010    24.3920     2.4290 
  156.8750   -17.6490    86.2360     9.3730     9.2550     8.7430    24.5010     2.4260 
  157.0000   -17.8230    87.6990     9.3290     9.2030     8.7680    24.5990     2.4280 
  157.1250   -18.0570    92.6150     9.2220     9.1390     8.6130    24.5920     2.4360 
  157.2500   -18.2530    99.1470     9.1530     9.0940     8.4420    24.5680     2.4440 
  157.3750   -18.4090   104.9400     9.1040     9.0650     8.2870    24.5810     2.4460 
  157.5000   -18.5860   109.2350     9.0370     9.0260     8.2810    24.6100     2.4390 
  157.6250   -18.7910   110.0990     8.9740     8.9350     8.2980    24.6160     2.4260 
  157.7500   -18.9860   107.2220     8.9320     8.7990     8.5190    24.6020     2.4160 
  157.8750   -19.1900   104.6540     8.9660     8.6730     8.8630    24.5660     2.4140 
  158.0000   -19.3980   107.2330     9.1360     8.6700     9.1810    24.5290     2.4170 
  158.1250   -19.5920   114.1000     9.6280     9.0240     8.9080    24.4680     2.4150 
  158.2500   -19.8040   116.1930    10.5250     9.8900     8.5280    24.4320     2.4030 
  158.3750   -20.0250   108.3700    11.9830    11.4610     8.9440    24.4080     2.3840 
  158.5000   -20.2040    94.2030    14.4040    13.9250    10.8770    24.3440     2.3640 
  158.6250   -20.3160    84.0230    18.1320    17.5460    16.1010    24.2400     2.3510 
  158.7500   -20.4690    79.4110    22.7040    21.9670    21.9430    24.2310     2.3450 
  158.8750   -20.6170    76.7110    27.4390    26.6570    27.1290    24.3240     2.3450 
  159.0000   -20.6980    74.9750    31.4840    30.8560    30.5280    24.4210     2.3480 
  159.1250   -20.7390    75.4290    33.8560    33.6070    32.2670    24.4460     2.3500 
  159.2500   -20.7830    76.7760    34.7460    34.9060    30.3860    24.4360     2.3520 
  159.3750   -20.7730    77.5520    34.6930    35.1150    28.3340    24.4080     2.3530 
  159.5000   -20.7530    78.1060    34.4440    34.8850    29.9030    24.3900     2.3550 
  159.6250   -20.7770    78.0080    34.9450    35.1600    28.8330    24.3890     2.3530 
  159.7500   -20.7590    76.5080    36.8670    36.7570    27.0600    24.4090     2.3460 
  159.8750   -20.7130    74.1200    41.1080    40.3930    28.2260    24.4530     2.3360 
  160.0000   -20.7160    70.4110    48.4660    46.5650    35.1450    24.4740     2.3220 
  160.1250   -20.7610    66.8060    59.7610    55.5990    40.7350    24.4570     2.3080 
  160.2500   -20.7650    65.1700    71.6980    65.9550    44.2660    24.4330     2.2970 
  160.3750   -20.7930    63.9560    82.2610    75.6790    50.8010    24.4120     2.2910 
  160.5000   -20.8510    61.7790    89.2000    82.6090    56.1120    24.3850     2.2900 
  160.6250   -20.8980    61.5970    90.6910    84.8100    55.0030    24.3580     2.2960 
  160.7500   -20.9180    63.7070    88.6990    83.5930    51.3040    24.3310     2.3070 
  160.8750   -20.9560    64.8280    85.2060    80.5650    47.4130    24.3200     2.3180 
  161.0000   -20.9790    62.9880    81.8680    77.3380    41.7960    24.3180     2.3260 
  161.1250   -20.9300    61.6430    79.9880    75.2920    38.1050    24.3090     2.3260 
