~V
VERS. 2.00: Ver 2.00
~W
STRT.M 52.0000:
STOP.M 208.0000:
STEP.M 0.1250:
NULL. -999.2500:
UWI. F10572:
~C
DEPT.M :
GR.API :
RML.OHMM :
RI. :
RXO.OHMM :
CALI.CM :
DEN.GM/CC :
SP.MV :
~A
   52.0000  -999.2500  -999.2500  -999.2500  -999.2500  -999.2500  -999.2500    99.8470 
   52.1250  -999.2500  -999.2500  -999.2500  -999.2500  -999.2500  -999.2500    99.1510 
   52.2500  -999.2500  -999.2500  -999.2500  -999.2500  -999.2500  -999.2500    98.4040 
   52.3750  -999.2500  -999.2500  -999.2500  -999.2500  -999.2500  -999.2500    97.6240 
   52.5000  -999.2500  -999.2500  -999.2500  -999.2500  -999.2500  -999.2500    96.8500 
   52.6250  -999.2500  -999.2500  -999.2500  -999.2500  -999.2500  -999.2500    96.0970 
   52.7500  -999.2500  -999.2500  -999.2500  -999.2500  -999.2500  -999.2500    95.4130 
   52.8750  -999.2500  -999.2500  -999.2500  -999.2500  -999.2500  -999.2500    94.8210 
   53.0000  -999.2500  -999.2500  -999.2500  -999.2500  -999.2500     1.9280    94.2870 
   53.1250  -999.2500  -999.2500  -999.2500  -999.2500  -999.2500     1.9280    93.7860 
   53.2500  -999.2500  -999.2500  -999.2500  -999.2500  -999.2500     1.9200    93.3040 
   53.3750  -999.2500  -999.2500  -999.2500  -999.2500  -999.2500     1.9340    92.8540 
   53.5000  -999.2500  -999.2500  -999.2500  -999.2500  -999.2500     1.9680    92.4740 
   53.6250  -999.2500  -999.2500  -999.2500  -999.2500  -999.2500     2.0100    92.1890 
   53.7500  -999.2500  -999.2500  -999.2500  -999.2500  -999.2500     2.0440    91.8970 
   53.8750  -999.2500  -999.2500  -999.2500  -999.2500  -999.2500     2.0590    91.5010 
   54.0000  -999.2500  -999.2500  -999.2500  -999.2500  -999.2500     2.0530    90.9540 
   54.1250  -999.2500  -999.2500  -999.2500  -999.2500  -999.2500     2.0300    90.1670 
   54.2500  -999.2500  -999.2500  -999.2500  -999.2500  -999.2500     2.0000    89.1390 
   54.3750  -999.2500  -999.2500  -999.2500  -999.2500  -999.2500     1.9700    87.8630 
   54.5000  -999.2500  -999.2500  -999.2500  -999.2500  -999.2500     1.9450    86.3460 
   54.6250  -999.2500  -999.2500  -999.2500  -999.2500  -999.2500     1.9250    84.5930 
   54.7500  -999.2500  -999.2500  -999.2500  -999.2500  -999.2500     1.9080    82.7480 
   54.8750  -999.2500  -999.2500  -999.2500  -999.2500  -999.2500     1.8930    80.9400 
   55.0000  -999.2500  -999.2500  -999.2500  -999.2500  -999.2500     1.8860    79.2840 
   55.1250  -999.2500  -999.2500  -999.2500  -999.2500  -999.2500     1.8980    77.9660 
   55.2500    37.8450     0.2150     0.0850     0.0080    25.3320     1.9200    76.9680 
   55.3750    37.8450     0.2150     0.0850     0.0080    25.3320     1.9350    76.2540 
   55.5000    39.1680     0.2270     0.0830     0.0100    25.3230     1.9310    75.7690 
   55.6250    40.7400     0.2240     0.0840     0.0080    25.3230     1.9110    75.4680 
   55.7500    42.0990     0.2110     0.0880     0.0050    25.3280     1.8990    75.1980 
   55.8750    43.3310     0.1940     0.0920     0.0010    25.3270     1.9110    74.8040 
   56.0000    45.4350     0.1810     0.0950     0.0000    25.3230     1.9420    74.1210 
   56.1250    47.4580     0.1750     0.0950     0.0000    25.3210     1.9740    72.9370 
   56.2500    46.3000     0.1740     0.0940     0.0000    25.3100     1.9920    71.2770 
   56.3750    42.5640     0.1740     0.0900     0.0000    25.2940     1.9990    69.1040 
   56.5000    40.0090     0.1650     0.0810     0.0010    25.2710     2.0100    66.3690 
   56.6250    40.1070     0.1300     0.0640     0.0090    25.2670     2.0650    62.9160 
   56.7500    40.5030     0.0800     0.0440     0.0250    25.2770     2.1960    58.8560 
   56.8750    40.0760     0.0370     0.0290     0.0330    25.2930     2.3300    54.2420 
   57.0000    40.0790     0.0120     0.0200     0.0640    25.2960     2.3120    49.0780 
   57.1250    42.0110     0.0040     0.0180     0.3170    25.1950     2.1460    43.1320 
   57.2500    43.7180     0.0110     0.0280     0.5540    24.8760     1.9640    36.4470 
   57.3750    44.0810     0.0440     0.0710     1.0010    24.5580     1.8140    29.1400 
   57.5000    43.5930     0.1330     0.1990     2.1620    24.9690     1.7220    21.5270 
   57.6250    45.5610     0.3860     0.5290     3.3970    26.1540     1.7400    13.9830 
   57.7500    52.2290     0.9220     1.1340     3.5540    26.1270     1.8670     6.6650 
   57.8750    61.6850     1.8060     2.0310     3.6440    24.6800     2.0530    -0.2820 
   58.0000    70.9190     2.8300     3.0840     4.2610    23.6540     2.2050    -6.6470 
   58.1250    76.9090     3.5650     4.0230     4.9000    23.6980     2.2690   -12.0300 
   58.2500    80.1100     4.0330     4.7520     5.1570    23.9940     2.2830   -16.4250 
   58.3750    80.1390     4.3890     5.3050     5.2490    24.1690     2.2680   -19.8900 
   58.5000    76.3870     4.6940     5.7240     5.5050    24.2110     2.2390   -22.6750 
   58.6250    73.4240     4.9410     6.0150     5.6100    24.0660     2.2160   -24.9390 
   58.7500    73.5650     5.1470     6.2400     5.5610    23.7350     2.2190   -26.8400 
   58.8750    75.0420     5.3370     6.4390     5.3920    23.4070     2.2580   -28.4390 
   59.0000    75.6270     5.5300     6.6320     5.3160    23.2710     2.3220   -29.8030 
   59.1250    75.8980     5.7390     6.8180     5.8720    23.3410     2.3730   -30.9390 
   59.2500    76.4600     5.9520     6.9850     7.3700    23.5200     2.3860   -31.9370 
   59.3750    74.8800     6.1350     7.1000     9.0350    23.8060     2.3650   -32.8060 
   59.5000    71.9920     6.2420     7.1360     7.5010    24.0900     2.3320   -33.5690 
   59.6250    71.5830     6.2470     7.0710     7.1410    24.2090     2.3130   -34.2680 
   59.7500    72.4220     6.2000     6.9320     6.8560    24.2310     2.3110   -34.8880 
   59.8750    72.1090     6.1430     6.7570     6.8420    24.2230     2.3180   -35.3840 
   60.0000    71.7370     6.1030     6.5940     6.7020    24.2090     2.3220   -35.7790 
   60.1250    74.8410     6.0760     6.4800     6.3750    24.1820     2.3150   -36.1020 
   60.2500    77.8190     6.0460     6.4050     6.1560    24.1340     2.3020   -36.3620 
   60.3750    77.4610     6.0240     6.3630     5.8200    23.9800     2.2880   -36.5800 
   60.5000    74.5030     6.0360     6.3570     5.8560    23.6190     2.2820   -36.7430 
   60.6250    72.4480     6.0920     6.3860     5.4120    23.1310     2.2860   -36.8060 
   60.7500    71.5280     6.1560     6.4240     4.7470    22.6560     2.2930   -36.8100 
   60.8750    72.0470     6.1900     6.4450     4.4520    22.2440     2.2990   -36.8290 
   61.0000    74.7720     6.1820     6.4330     4.6270    21.9040     2.3010   -36.8710 
   61.1250    78.0070     6.1500     6.3840     4.9950    21.6880     2.2990   -36.9400 
   61.2500    79.2960     6.1370     6.3300     5.1620    21.5900     2.2940   -36.9840 
   61.3750    78.5900     6.1780     6.3050     5.1330    21.5830     2.2920   -36.9690 
   61.5000    76.7640     6.2910     6.3370     5.1540    21.5750     2.2930   -36.9320 
   61.6250    75.0540     6.4820     6.4420     5.4020    21.4960     2.2950   -36.9050 
   61.7500    74.9990     6.6860     6.5730     5.7030    21.3780     2.2950   -36.8870 
   61.8750    76.2180     6.8010     6.6490     6.2080    21.2830     2.2920   -36.8590 
   62.0000    77.0770     6.7260     6.5830     6.4980    21.2540     2.2920   -36.8160 
   62.1250    76.2610     6.4190     6.3170     6.0620    21.2700     2.3050   -36.7200 
   62.2500    75.7450     6.0460     5.9570     5.4250    21.2620     2.3270   -36.6180 
   62.3750    75.9360     5.7700     5.6180     4.9220    21.2600     2.3480   -36.5340 
   62.5000    76.7440     5.6910     5.4040     4.5700    21.3000     2.3590   -36.4260 
   62.6250    78.6640     5.8600     5.4050     4.6400    21.3040     2.3540   -36.2840 
   62.7500    79.2400     6.1900     5.5850     5.1640    21.2420     2.3380   -36.1270 
   62.8750    77.3020     6.6100     5.8860     5.8630    21.2490     2.3190   -35.9880 
   63.0000    73.5280     7.0420     6.2300     6.0740    21.4690     2.3010   -35.8700 
   63.1250    69.2370     7.3960     6.5380     5.7180    21.6740     2.2870   -35.7620 
