~V
VERS. 2.00: Ver 2.00
~W
STRT.M 54.0000:
STOP.M 217.0000:
STEP.M 0.1250:
NULL. -999.2500:
UWI. F10593:
~C
DEPT.M :
SP.MV :
GR.API :
RML.OHMM :
RI. :
RXO.OHMM :
CALI.CM :
DEN.GM/CC :
~A
# ...
   65.2500   -16.7990    74.8240     6.9580     6.6460     6.8650    25.7780     2.2110 
   65.3750   -16.5340    73.4660     7.0840     6.8210     6.9010    25.7360     2.2190 
   65.5000   -16.3040    72.3890     7.4880     7.2370     7.3070    25.6750     2.2150 
   65.6250   -16.2060    71.8770     8.0530     7.9490     7.8240    25.5600     2.2050 
   65.7500   -16.1460    71.4140     8.5990     8.6570     8.3550    25.4010     2.2000 
   65.8750   -16.0390    71.9210     8.8760     9.0810     8.5380    25.2570     2.2060 
   66.0000   -15.9710    74.1380     8.8260     9.1560     8.4050    25.2340     2.2220 
   66.1250   -15.8550    76.5690     8.5210     8.9660     7.8710    25.3040     2.2410 
   66.2500   -15.6060    77.3980     8.1200     8.6050     7.4550    25.3740     2.2580 
   66.3750   -15.3720    76.6150     7.8080     8.2210     7.2270    25.4170     2.2670 
   66.5000   -15.1780    74.1970     7.6470     7.9230     7.2170    25.4430     2.2700 
   66.6250   -14.9460    70.7300     7.6100     7.7360     7.2540    25.4770     2.2710 
   66.7500   -14.7560    68.6830     7.6250     7.6290     7.3940    25.5240     2.2740 
   66.8750   -14.6930    72.6920     7.6030     7.5450     7.4560    25.5900     2.2820 
   67.0000   -14.6650    78.3880     7.5110     7.4360     7.4450    25.6910     2.2940 
   67.1250   -14.7000    80.7040     7.3700     7.2980     7.3100    25.8020     2.3070 
   67.2500   -14.8550    79.0870     7.2310     7.1520     7.1330    25.8720     2.3170 
   67.3750   -15.0490    75.3710     7.1670     7.0460     7.0570    25.8900     2.3160 
   67.5000   -15.2930    71.3850     7.2230     7.0130     7.2000    25.8880     2.3020 
   67.6250   -15.6690    67.3190     7.4440     7.0910     7.5290    25.8640     2.2790 
   67.7500   -16.0760    64.9700     7.8560     7.3150     7.8750    25.7920     2.2530 
   67.8750   -16.4290    64.7020     8.4790     7.7360     8.5460    25.6790     2.2330 
   68.0000   -16.7810    65.6300     9.1860     8.2880     9.1640    25.5660     2.2210 
   68.1250   -17.0500    66.8840     9.7940     8.8470     9.5260    25.4440     2.2160 
   68.2500   -17.1430    67.6980    10.0620     9.2090     9.5860    25.3040     2.2140 
   68.3750   -17.0710    68.8620     9.6940     9.0820     9.8870    25.1870     2.2170 
   68.5000   -16.7880    71.9680     8.8230     8.4820     9.6330    25.1260     2.2270 
   68.6250   -16.2370    76.9640     7.7030     7.5640     8.8800    25.1270     2.2500 
   68.7500   -15.5640    82.1670     6.6390     6.5790     7.1960    25.1690     2.2840 
   68.8750   -14.8920    84.2630     5.9200     5.7950     5.2560    25.2170     2.3170 
   69.0000   -14.2550    83.5680     5.5630     5.2930     4.6730    25.2270     2.3400 
   69.1250   -13.6970    82.4460     5.5090     5.0630     4.9930    25.2090     2.3480 
   69.2500   -13.2260    82.7130     5.6330     5.0340     5.3790    25.1920     2.3440 
   69.3750   -12.8950    83.3910     5.7810     5.1080     5.6890    25.1860     2.3360 
   69.5000   -12.7450    83.9370     5.8370     5.1730     5.6380    25.1860     2.3340 
   69.6250   -12.7700    85.7180     5.7910     5.1880     5.6010    25.1860     2.3390 
   69.7500   -12.8890    89.0610     5.7050     5.1650     5.4160    25.1860     2.3490 
   69.8750   -13.0820    90.1790     5.6890     5.1590     4.9980    25.1860     2.3560 
   70.0000   -13.2750    88.4350     5.7960     5.2090     5.2110    25.1890     2.3550 
   70.1250   -13.5210    85.2230     6.0270     5.3300     5.7780    25.2000     2.3450 
   70.2500   -13.8580    82.3690     6.3410     5.5070     6.3080    25.2250     2.3290 
   70.3750   -14.2210    81.8180     6.6830     5.7150     6.5910    25.2580     2.3110 
   70.5000   -14.6060    81.0230     7.0000     5.9270     6.6390    25.2820     2.2940 
   70.6250   -15.0210    77.0880     7.2690     6.1270     6.7590    25.2970     2.2770 
   70.7500   -15.4720    70.0450     7.4830     6.3100     7.0050    25.3110     2.2590 
   70.8750   -15.9320    64.0140     7.6710     6.4830     7.6630    25.3370     2.2360 
   71.0000   -16.3920    61.7320     7.9330     6.7060     8.7420    25.3690     2.2160 
   71.1250   -16.7620    62.5530     8.4220     7.0850     9.5730    25.4000     2.2180 
   71.2500   -17.0520    63.7720     9.3130     7.7570     9.8440    25.4170     2.2630 
   71.3750   -17.3150    63.3870    10.8150     8.9010    10.7410    25.4220     2.3580 
   71.5000   -17.5500    61.5860    12.7260    10.3910    15.7830    25.4230     2.4630 
   71.6250   -17.8170    60.3980    14.6080    11.9300    28.5500    25.4250     2.5320 
   71.7500   -18.0900    61.1630    15.8000    13.0430    44.1880    25.4360     2.5280 
   71.8750   -18.3410    61.8370    15.5930    13.1510    37.7800    25.4730     2.4410 
   72.0000   -18.5750    60.3960    14.3920    12.4330    22.7190    25.5330     2.3240 
   72.1250   -18.8240    58.0600    12.8570    11.2980    14.3260    25.5730     2.2180 
   72.2500   -19.0800    57.9300    11.5950    10.2030    11.6560    25.5900     2.1510 
   72.3750   -19.2850    60.5780    10.9870     9.5060    11.5130    25.6160     2.1300 
   72.5000   -19.4280    61.6700    10.8790     9.1940    11.6940    25.5950     2.1360 
   72.6250   -19.4380    59.6900    11.0790     9.1760    11.8080    25.5340     2.1540 
   72.7500   -19.3960    56.6500    11.3940     9.3260    11.8460    25.4850     2.1740 
   72.8750   -19.3540    56.4250    11.6660     9.5300    11.8610    25.4430     2.1880 
   73.0000   -19.2730    57.9330    11.8320     9.7040    11.7060    25.3800     2.1950 
   73.1250   -19.1560    59.1950    11.8800     9.8130    11.6590    25.2950     2.1980 
   73.2500   -19.0450    59.7360    11.8200     9.8360    11.6770    25.1860     2.1980 
   73.3750   -18.9610    60.1810    11.6620     9.7610    11.5260    25.0920     2.1980 
   73.5000   -18.8770    61.3460    11.4680     9.6280    10.9310    25.0260     2.1990 
   73.6250   -18.8660    61.7140    11.2910     9.4780    10.1460    24.9940     2.1990 
   73.7500   -18.8770    61.1770    11.1860     9.3580     9.3860    24.9670     2.1980 
   73.8750   -18.8980    60.6980    11.2060     9.3210     9.4850    24.9520     2.1950 
   74.0000   -18.9890    62.1500    11.3240     9.3610     9.9410    24.9280     2.1910 
   74.1250   -19.1120    64.1300    11.4860     9.4520    10.2900    24.8720     2.1870 
   74.2500   -19.1920    63.8750    11.6140     9.5460    10.5730    24.7780     2.1850 
   74.3750   -19.2630    61.2030    11.6100     9.5750    10.4460    24.6940     2.1870 
   74.5000   -19.3640    58.9050    11.4670     9.5190    10.2950    24.6350     2.1900 
   74.6250   -19.4400    58.3040    11.2310     9.3920    10.1010    24.5840     2.1960 
   74.7500   -19.4870    59.5090    10.9890     9.2460     9.8260    24.5050     2.1990 
   74.8750   -19.5150    61.6230    10.8620     9.1640     9.4100    24.4220     2.1960 
   75.0000   -19.5570    62.8920    10.9030     9.1890     9.2890    24.4070     2.1870 
   75.1250   -19.6000    61.7780    11.1120     9.3270     9.8770    24.4060     2.1740 
   75.2500   -19.6210    59.9870    11.4290     9.5450    10.7400    24.3810     2.1630 
   75.3750   -19.6450    60.7130    11.7460     9.7810    11.1610    24.3620     2.1580 
   75.5000   -19.6490    61.7660    11.9620     9.9710    11.1450    24.3590     2.1570 
   75.6250   -19.6420    62.0890    12.0360    10.0860    10.9140    24.3600     2.1580 
   75.7500   -19.6490    62.6500    11.9820    10.1250    10.6420    24.3660     2.1570 
   75.8750   -19.6000    64.1630    11.8600    10.0980    10.5170    24.3650     2.1540 
   76.0000   -19.4840    64.1730    11.7530    10.0430    10.4650    24.3740     2.1520 
   76.1250   -19.3940    62.0940    11.6990     9.9860    10.3910    24.4460     2.1540 
   76.2500   -19.3610    59.5500    11.7070     9.9500    10.3350    24.5840     2.1570 
   76.3750   -19.3030    56.6750    11.7700     9.9540    10.3710    24.6730     2.1610 
