~V
VERS. 2.00: Ver 2.00
~W
STRT.M 54.0000:
STOP.M 217.0000:
STEP.M 0.1250:
NULL. -999.2500:
UWI. F10593:
~C
DEPT.M :
SP.MV :
GR.API :
RML.OHMM :
RI. :
RXO.OHMM :
CALI.CM :
DEN.GM/CC :
~A
# ...
  189.0000   -11.5490    56.9250     7.6820     7.0350     8.3990    23.3130     2.4370 
  189.1250   -11.6650    56.8670     7.4150     6.7940     8.9380    23.3260     2.4380 
  189.2500   -11.7310    56.9880     7.2350     6.5800     8.4550    23.3030     2.4350 
  189.3750   -11.8030    58.5630     7.1280     6.3860     7.5250    23.2720     2.4300 
  189.5000   -11.8400    58.7730     7.1000     6.2380     6.6860    23.2600     2.4290 
  189.6250   -11.8870    56.9900     7.1680     6.1670     6.3560    23.2580     2.4330 
  189.7500   -11.9630    55.4310     7.3130     6.1810     6.5040    23.2580     2.4400 
  189.8750   -12.0030    57.6270     7.4660     6.2540     7.2350    23.2580     2.4420 
  190.0000   -11.9870    61.4840     7.5360     6.3170     7.8880    23.2560     2.4340 
  190.1250   -11.9610    64.0510     7.4770     6.3210     7.7410    23.2490     2.4200 
  190.2500   -11.9000    63.6400     7.2890     6.2470     7.0900    23.2310     2.4050 
  190.3750   -11.8440    60.2080     7.0270     6.1060     6.6130    23.2180     2.4010 
  190.5000   -11.7910    55.4300     6.7840     5.9580     6.4770    23.2140     2.4060 
  190.6250   -11.6750    50.5950     6.6210     5.8500     6.3050    23.2160     2.4170 
  190.7500   -11.5350    47.2140     6.5600     5.8090     5.9420    23.2190     2.4270 
  190.8750   -11.4350    47.4110     6.5880     5.8340     5.8340    23.2220     2.4310 
  191.0000   -11.3630    48.9970     6.6370     5.8750     5.9690    23.2240     2.4280 
  191.1250   -11.3070    50.8980     6.6610     5.8930     6.2100    23.2260     2.4210 
  191.2500   -11.2610    52.1160     6.6360     5.8610     6.4620    23.2340     2.4110 
  191.3750   -11.2610    51.3260     6.5670     5.7710     6.3550    23.2480     2.4030 
  191.5000   -11.3140    51.0970     6.4970     5.6630     5.9230    23.2540     2.3990 
  191.6250   -11.4350    52.8170     6.4710     5.5780     5.6080    23.2560     2.4040 
  191.7500   -11.6330    54.1960     6.5260     5.5560     5.5500    23.2630     2.4180 
  191.8750   -11.8470    53.3710     6.6930     5.6460     5.8200    23.2640     2.4410 
  192.0000   -12.0860    52.6140     6.9470     5.8370     6.2680    23.2630     2.4620 
  192.1250   -12.3560    52.6100     7.2590     6.1100     7.2300    23.2610     2.4730 
  192.2500   -12.6650    51.3670     7.5880     6.4260     8.6330    23.2600     2.4710 
  192.3750   -12.9300    49.9210     7.8820     6.7250     8.8910    23.2620     2.4570 
  192.5000   -13.1840    50.9940     8.1090     6.9590     8.1650    23.2610     2.4410 
  192.6250   -13.4600    53.2220     8.2480     7.0970     7.9370    23.2590     2.4300 
  192.7500   -13.6830    53.9200     8.2990     7.1290     8.0410    23.2580     2.4240 
  192.8750   -13.9460    52.7900     8.2790     7.0610     8.0490    23.2580     2.4190 
  193.0000   -14.2340    52.7880     8.2480     6.9550     7.9200    23.2580     2.4130 
  193.1250   -14.5320    54.5100     8.2590     6.8690     7.6800    23.2580     2.4060 
  193.2500   -14.8970    56.6140     8.3570     6.8560     7.6200    23.2540     2.4010 
  193.3750   -15.3000    57.5090     8.5820     6.9780     7.8100    23.2410     2.4020 
  193.5000   -15.7390    57.5960     8.9160     7.2270     8.2540    23.2210     2.4060 
  193.6250   -16.1570    58.3260     9.3450     7.5970     8.7580    23.2080     2.4110 
  193.7500   -16.5600    60.9420     9.8560     8.0660     9.2740    23.2040     2.4130 
  193.8750   -16.9290    66.0720    10.4140     8.5910     9.4680    23.2040     2.4090 
  194.0000   -17.2450    72.6640    10.9110     9.0690     9.5660    23.2030     2.4000 
  194.1250   -17.4710    78.5830    11.1930     9.3780    10.1420    23.2020     2.3880 
  194.2500   -17.5430    81.8600    11.1240     9.4010    11.1430    23.1990     2.3740 
  194.3750   -17.4180    81.9580    10.6340     9.0340    11.9250    23.1980     2.3650 
  194.5000   -17.0970    81.6210     9.9450     8.4240    11.4660    23.1970     2.3600 
  194.6250   -16.7020    82.4200     9.2550     7.7370    10.2850    23.1970     2.3570 
  194.7500   -16.3010    82.4170     8.7090     7.1410     8.2290    23.1970     2.3520 
  194.8750   -15.8480    82.4840     8.4030     6.7870     7.0590    23.1970     2.3400 
  195.0000   -15.3600    84.1370     8.2720     6.6590     7.1590    23.1970     2.3240 
  195.1250   -14.7720    85.7550     8.2370     6.6940     7.8360    23.1970     2.3100 
  195.2500   -14.0400    85.1200     8.1960     6.7910     8.1190    23.1970     2.3040 
  195.3750   -13.3420    82.1200     8.0360     6.8240     7.8590    23.1940     2.3110 
  195.5000   -12.7380    78.0480     7.7580     6.7480     7.0700    23.1800     2.3280 
  195.6250   -12.1400    72.1870     7.4210     6.5810     6.5210    23.1450     2.3470 
  195.7500   -11.5700    66.3310     7.1050     6.3740     6.2700    23.0820     2.3620 
  195.8750   -11.0750    63.6260     6.8710     6.1770     6.1450    22.9890     2.3650 
  196.0000   -10.6290    63.5870     6.7150     6.0080     6.0820    22.9070     2.3560 
  196.1250   -10.3630    64.1000     6.6220     5.8600     5.9690    22.8660     2.3390 
  196.2500   -10.3770    62.6580     6.5720     5.7270     5.8320    22.8490     2.3240 
  196.3750   -10.5990    59.4450     6.5430     5.6170     5.7700    22.8190     2.3220 
  196.5000   -10.9450    56.4940     6.5230     5.5430     5.6520    22.7590     2.3360 
  196.6250   -11.3700    54.6340     6.5350     5.5200     5.5340    22.7180     2.3630 
  196.7500   -11.7800    52.7130     6.6070     5.5560     5.5300    22.7380     2.3910 
  196.8750   -12.1520    51.9850     6.7360     5.6450     5.7210    22.8280     2.4080 
  197.0000   -12.4960    53.3340     6.8560     5.7500     6.0660    22.9030     2.4100 
  197.1250   -12.7980    54.4340     6.9130     5.8370     6.2850    22.9530     2.4030 
  197.2500   -13.0160    54.4610     6.8850     5.8800     6.2180    22.9930     2.3940 
  197.3750   -13.1530    55.2330     6.8000     5.8660     6.0030    23.0150     2.3920 
  197.5000   -13.2090    55.0050     6.7270     5.8240     6.0280    23.0220     2.3970 
  197.6250   -13.2070    52.2560     6.7080     5.7810     6.2650    23.0220     2.4060 
  197.7500   -13.2260    49.0920     6.7550     5.7640     6.3860    23.0220     2.4170 
  197.8750   -13.2330    48.6020     6.8790     5.7980     6.2630    23.0220     2.4270 
  198.0000   -13.2440    50.0240     7.0520     5.8820     6.3060    23.0220     2.4350 
  198.1250   -13.2860    51.4970     7.2430     6.0050     6.5920    23.0220     2.4390 
  198.2500   -13.3460    52.2610     7.4050     6.1460     7.1700    23.0220     2.4400 
  198.3750   -13.3190    51.2030     7.4850     6.2680     7.7030    23.0220     2.4360 
  198.5000   -13.2190    49.9790     7.4930     6.3530     7.7820    23.0220     2.4320 
  198.6250   -13.1030    51.5430     7.4620     6.4060     7.5210    23.0220     2.4290 
  198.7500   -12.9390    55.3460     7.4340     6.4550     7.3580    23.0220     2.4320 
  198.8750   -12.7440    56.3160     7.4570     6.5410     7.3330    23.0220     2.4420 
  199.0000   -12.5310    54.1230     7.5330     6.6640     7.4230    23.0190     2.4560 
  199.1250   -12.2770    53.1940     7.6390     6.7880     7.5340    23.0070     2.4720 
  199.2500   -11.9840    55.8330     7.7220     6.8530     7.8180    22.9770     2.4810 
  199.3750   -11.6980    58.4040     7.6900     6.7750     8.0200    22.9430     2.4730 
  199.5000   -11.4220    59.7270     7.5170     6.5590     7.9330    22.8990     2.4520 
  199.6250   -11.1150    61.3790     7.2320     6.2450     7.3670    22.8630     2.4230 
  199.7500   -10.7630    63.5200     6.9180     5.9010     6.7650    22.8480     2.3970 
  199.8750   -10.3590    64.7700     6.6830     5.6150     6.3060    22.8480     2.3850 
  200.0000    -9.9590    63.8350     6.5510     5.4230     6.0500    22.8470     2.3870 
  200.1250    -9.5590    60.8840     6.4830     5.3200     5.8270    22.8370     2.3940 
