~V
VERS. 2.00: Ver 2.00
~W
STRT.M 58.0000:
STOP.M 208.0000:
STEP.M 0.1250:
NULL. -999.2500:
UWI. F10592:
~C
DEPT.M :
GR.API :
RML.OHMM :
RI. :
RXO.OHMM :
CALI.CM :
DEN.GM/CC :
SP.MV :
~A
# ...
   69.2500    68.3820     8.8000     7.3540     7.5970    24.8060     2.1550    -8.1440 
   69.3750    65.8920     8.8090     7.3800     7.8990    24.8260     2.1450    -8.0850 
   69.5000    63.1060     8.9070     7.4400     7.9060    24.8170     2.1480    -8.0070 
   69.6250    62.3450     9.1300     7.5530     7.7670    24.7880     2.1640    -7.9120 
   69.7500    63.7890     9.4490     7.7170     7.7940    24.7520     2.1830    -7.8100 
   69.8750    64.5690     9.7680     7.9030     8.0710    24.7350     2.1950    -7.6980 
   70.0000    63.6580     9.9940     8.0700     8.2820    24.7280     2.1950    -7.5770 
   70.1250    62.2200    10.1020     8.1960     8.5970    24.7270     2.1860    -7.4690 
   70.2500    61.5970    10.1200     8.2800     9.3490    24.7270     2.1730    -7.3860 
   70.3750    61.3280    10.1140     8.3400     9.9890    24.7270     2.1640    -7.3450 
   70.5000    61.3650    10.1510     8.4080     9.2880    24.7270     2.1630    -7.3440 
   70.6250    62.5000    10.2580     8.5010     8.6190    24.7310     2.1670    -7.3620 
   70.7500    64.8450    10.4350     8.6220     8.4810    24.7490     2.1760    -7.3760 
   70.8750    66.2800    10.6440     8.7630     8.5230    24.7910     2.1840    -7.3830 
   71.0000    65.8390    10.8240     8.9050     8.4390    24.8350     2.1910    -7.3960 
   71.1250    65.8180    10.9470     9.0400     8.3740    24.8740     2.2000    -7.4040 
   71.2500    67.2800    11.0330     9.1640     8.4180    24.9020     2.2100    -7.4030 
   71.3750    67.4760    11.1400     9.2830     8.7920    24.9280     2.2190    -7.3700 
   71.5000    65.6350    11.2970     9.4120     9.3470    24.9550     2.2200    -7.2970 
   71.6250    63.6640    11.4820     9.5550     9.7120    24.9830     2.2070    -7.2060 
   71.7500    61.7930    11.6410     9.7050    10.2450    25.0270     2.1850    -7.1060 
   71.8750    59.0390    11.7020     9.8270    11.1580    25.0440     2.1650    -7.0050 
   72.0000    58.9150    11.6600     9.8870    11.2010    25.0060     2.1570    -6.9000 
   72.1250    62.9050    11.5270     9.8650    10.0700    24.9130     2.1620    -6.7950 
   72.2500    66.3940    11.3320     9.7670     8.9550    24.8180     2.1730    -6.6940 
   72.3750    64.0290    11.1160     9.6170     8.3880    24.7820     2.1800    -6.5950 
   72.5000    59.7790    10.9350     9.4640     8.2740    24.7740     2.1810    -6.5270 
   72.6250    58.6490    10.8150     9.3340     8.2900    24.7740     2.1800    -6.5000 
   72.7500    61.0550    10.7520     9.2350     8.3300    24.7730     2.1800    -6.4710 
   72.8750    63.0050    10.7130     9.1640     8.3900    24.7720     2.1830    -6.4440 
   73.0000    62.9110    10.6620     9.1090     8.4270    24.7720     2.1850    -6.4500 
   73.1250    62.2340    10.6130     9.0800     8.3520    24.7700     2.1850    -6.4660 
   73.2500    61.8690    10.6040     9.0960     8.2690    24.7670     2.1820    -6.4730 
   73.3750    60.4610    10.6840     9.1930     8.2120    24.7650     2.1750    -6.4870 
   73.5000    59.0140    10.8300     9.3540     8.2210    24.7620     2.1660    -6.4930 
   73.6250    57.8990    10.9850     9.5310     8.3460    24.7610     2.1580    -6.4660 
   73.7500    57.1600    11.0730     9.6530     8.6150    24.7550     2.1550    -6.4510 
   73.8750    59.3470    11.0090     9.6330     8.8330    24.7320     2.1660    -6.4440 
   74.0000    66.3880    10.8190     9.4900     8.7800    24.6940     2.1890    -6.4130 
   74.1250    74.0580    10.5810     9.2840     8.6810    24.6610     2.2180    -6.3810 
   74.2500    77.2670    10.4160     9.1050     8.4350    24.6200     2.2420    -6.3680 
   74.3750    74.0240    10.4640     9.0590     9.0670    24.5350     2.2510    -6.3580 
   74.5000    69.5760    10.7010     9.1510    10.6730    24.4560     2.2470    -6.3480 
   74.6250    67.5050    11.0260     9.3410    10.9740    24.4360     2.2340    -6.3380 
   74.7500    67.7370    11.3040     9.5560    10.1400    24.4870     2.2170    -6.3460 
   74.8750    69.1040    11.4240     9.7200     9.4800    24.5930     2.2030    -6.3780 
   75.0000    71.3630    11.4420     9.8270     9.4050    24.6710     2.1940    -6.4240 
   75.1250    73.1900    11.4510     9.9150     8.9850    24.7290     2.1930    -6.4700 
   75.2500    72.9910    11.5240    10.0260     8.6440    24.8060     2.1990    -6.5200 
   75.3750    68.9790    11.6700    10.1700     8.9360    24.9210     2.2110    -6.5800 
   75.5000    65.0970    11.8050    10.2970     9.8530    25.0300     2.2210    -6.6520 
   75.6250    65.2810    11.8670    10.3620    10.7610    25.1300     2.2280    -6.7340 
   75.7500    69.5290    11.8420    10.3590    10.6870    25.2350     2.2320    -6.8090 
   75.8750    75.1600    11.7970    10.3420     9.5220    25.3410     2.2340    -6.8800 
   76.0000    77.2420    11.8530    10.3980     8.8930    25.4210     2.2350    -6.9330 
   76.1250    75.0500    12.0860    10.5820     8.9560    25.4630     2.2340    -6.9670 
   76.2500    71.4710    12.4920    10.8920     9.5790    25.4850     2.2300    -6.9770 
   76.3750    70.6010    12.9610    11.2640    10.2840    25.5180     2.2250    -6.9820 
   76.5000    70.4980    13.3140    11.5730    10.7280    25.5610     2.2190    -6.9900 
   76.6250    67.7070    13.4250    11.7140    10.8020    25.5930     2.2120    -7.0120 
   76.7500    63.8450    13.2280    11.6110    10.7010    25.6150     2.2040    -7.0280 
   76.8750    63.6960    12.6850    11.2030     9.8070    25.5550     2.1940    -7.0150 
   77.0000    66.6260    11.9330    10.5990     9.1150    25.3520     2.1820    -6.9830 
   77.1250    70.0730    11.1200     9.9200     8.7220    25.0340     2.1730    -6.9380 
   77.2500    73.7590    10.4320     9.3130     7.9750    24.7690     2.1730    -6.8960 
   77.3750    75.9580    10.1080     8.9670     7.3210    24.6080     2.1890    -6.8250 
   77.5000    73.2430    10.1790     8.9340     7.6940    24.5430     2.2120    -6.7080 
   77.6250    68.3370    10.6100     9.2190     8.5420    24.4910     2.2310    -6.5500 
   77.7500    66.5780    11.2950     9.7640     9.4200    24.3240     2.2340    -6.3860 
   77.8750    67.8450    12.0760    10.4610     9.8150    23.9500     2.2220    -6.2510 
   78.0000    67.9250    12.7230    11.0990    10.0990    23.6290     2.2160    -6.1430 
   78.1250    66.7790    13.0200    11.4740    10.3240    23.7080     2.2350    -6.0580 
   78.2500    66.4000    12.7840    11.4010    10.9090    24.1030     2.2810    -5.9730 
   78.3750    69.3330    11.8630    10.7160    12.3660    24.4710     2.3360    -5.9010 
   78.5000    75.7780    10.5320     9.6380    12.2350    24.5980     2.3730    -5.8680 
   78.6250    85.2610     9.1040     8.4220     9.5870    24.6010     2.3800    -5.8810 
   78.7500    92.3550     7.9030     7.3380     6.8100    24.5920     2.3640    -5.9330 
   78.8750    92.8150     7.2460     6.6420     5.8910    24.6350     2.3390    -6.0270 
   79.0000    89.2410     7.1210     6.3400     6.3830    24.7220     2.3160    -6.1480 
   79.1250    82.1600     7.4420     6.3880     7.6880    24.8080     2.2960    -6.3010 
   79.2500    73.4990     8.0300     6.6830     9.8500    24.8470     2.2780    -6.4910 
   79.3750    68.8090     8.6410     7.0840     9.4410    24.8510     2.2650    -6.7190 
   79.5000    69.2790     9.1040     7.4450     8.8380    24.8520     2.2590    -6.9470 
   79.6250    71.0260     9.4160     7.7300     8.3690    24.8610     2.2550    -7.1480 
   79.7500    70.8110     9.6760     7.9760     8.1470    24.8870     2.2480    -7.2990 
   79.8750    69.4940    10.0220     8.2670     8.3860    24.9460     2.2330    -7.3630 
   80.0000    68.5550    10.4860     8.6340     9.4120    24.9970     2.2130    -7.3740 
   80.1250    69.0040    11.0170     9.0450    10.9410    25.0310     2.1960    -7.3580 
   80.2500    70.5450    11.5190     9.4290    11.5710    25.0200     2.1850    -7.3260 
   80.3750    71.4120    11.8900     9.7120    11.3990    24.9890     2.1790    -7.2930 
