~V
VERS. 2.00: Ver 2.00
~W
STRT.M 60.0000:
STOP.M 190.0000:
STEP.M 0.1250:
NULL. -999.2500:
UWI. F10561:
~C
DEPT.M :
SP.MV :
GR.API :
RML.OHMM :
RI. :
RXO.OHMM :
CALI.CM :
DEN.GM/CC :
~A
# ...
   93.7500   -13.0230   105.7610     8.8190     7.8290     5.5520    22.0740     2.3320 
   93.8750   -13.0080    96.0450     9.1470     7.7470     5.8770    21.4220     2.3840 
   94.0000   -12.9530    87.6950     9.7630     7.9880     6.3100    20.7920     2.4040 
   94.1250   -12.8820    88.1970    10.1720     8.2850     6.5730    20.3500     2.3870 
   94.2500   -12.8090    93.7940    10.0470     8.3440     6.7380    20.2850     2.3520 
   94.3750   -12.7630    99.4740     9.3930     8.0520     6.7520    20.5230     2.3160 
   94.5000   -12.7510   101.7680     8.4920     7.4800     6.7300    20.9050     2.2870 
   94.6250   -12.7360   101.9140     7.7380     6.8400     6.6180    21.3150     2.2690 
   94.7500   -12.6720   103.1630     7.3060     6.3400     6.1220    21.7060     2.2560 
   94.8750   -12.5940   103.6530     7.1900     6.0670     5.5810    22.0420     2.2440 
   95.0000   -12.5380   101.0560     7.2970     6.0270     5.5020    22.2890     2.2370 
   95.1250   -12.4890    97.2340     7.5060     6.1850     6.0090    22.3740     2.2410 
   95.2500   -12.4640    97.2930     7.6820     6.3980     6.8780    22.3380     2.2540 
   95.3750   -12.4350   100.6540     7.7490     6.5600     7.1450    22.1450     2.2680 
   95.5000   -12.3540   103.6640     7.6750     6.5980     5.9720    21.7570     2.2730 
   95.6250   -12.2250   103.3740     7.4630     6.4710     5.0800    21.1000     2.2650 
   95.7500   -12.1440   101.3810     7.1870     6.2520     4.7720    20.4930     2.2550 
   95.8750   -12.0720   100.9410     6.9050     5.9980     5.0420    20.1770     2.2530 
   96.0000   -11.9760   102.7580     6.6600     5.7570     5.3000    20.1380     2.2630 
   96.1250   -11.8720   104.9940     6.4950     5.5600     4.9430    20.1730     2.2770 
   96.2500   -11.7440   105.3700     6.4130     5.4170     4.6770    20.1130     2.2850 
   96.3750   -11.6160   103.7900     6.4120     5.3480     4.7080    19.9150     2.2840 
   96.5000   -11.5430   101.5130     6.4840     5.3720     4.8670    19.6500     2.2770 
   96.6250   -11.5180    98.0900     6.6140     5.5030     4.9470    19.3040     2.2720 
   96.7500   -11.4420    94.7430     6.7600     5.6780     5.1410    18.9040     2.2710 
   96.8750   -11.3610    92.2160     6.8850     5.8230     5.7260    18.6140     2.2740 
   97.0000   -11.3170    91.8570     6.9390     5.8650     6.3200    18.5060     2.2800 
   97.1250   -11.2910    94.1540     6.8630     5.7440     6.3740    18.5170     2.2890 
   97.2500   -11.2960    96.4550     6.6770     5.5200     6.0900    18.5720     2.3020 
   97.3750   -11.3230    98.3590     6.4400     5.2760     5.8410    18.6700     2.3160 
   97.5000   -11.3350   101.2920     6.2470     5.1050     5.8370    18.7860     2.3250 
   97.6250   -11.3090   104.8980     6.2240     5.0970     5.9930    19.0350     2.3280 
   97.7500   -11.3260   106.4910     6.3770     5.2300     6.1850    19.4760     2.3240 
   97.8750   -11.3840   104.3720     6.6500     5.4470     6.2990    20.0900     2.3190 
   98.0000   -11.4210   100.6500     6.9270     5.6670     6.4400    20.7510     2.3150 
   98.1250   -11.4220    98.0420     7.0550     5.7970     6.4690    21.5100     2.3140 
   98.2500   -11.3930    95.8510     7.0350     5.8420     6.3090    22.4040     2.3170 
   98.3750   -11.3410    93.2300     6.9970     5.8810     6.3230    23.3670     2.3220 
   98.5000   -11.2440    90.7900     7.1720     6.0670     6.5380    24.0810     2.3270 
   98.6250   -11.1310    89.6030     7.9720     6.7130     6.8670    24.3510     2.3200 
   98.7500   -11.0090    88.1450     9.6540     8.0680     7.8630    24.4150     2.2970 
   98.8750   -10.8320    82.1910    12.5370    10.4700    11.1920    24.4260     2.2610 
   99.0000   -10.6270    73.0410    16.9060    14.2370    20.6110    24.4550     2.2210 
   99.1250   -10.4210    66.4920    23.0400    19.6790    33.7990    24.5830     2.1900 
   99.2500   -10.2120    64.7970    30.0590    26.0060    39.7980    24.8200     2.1730 
   99.3750   -10.0210    66.0980    36.8440    32.2240    39.4870    25.0240     2.1640 
   99.5000    -9.8950    67.2040    42.3270    37.3790    40.9880    25.0410     2.1600 
   99.6250    -9.8000    68.3570    45.9540    40.9160    46.7330    24.8520     2.1560 
   99.7500    -9.6750    68.7880    48.5710    43.4790    52.4170    24.6810     2.1540 
   99.8750    -9.5270    67.8490    50.8180    45.5780    52.6610    24.6230     2.1580 
  100.0000    -9.4000    67.0590    53.1110    47.5540    50.1610    24.6360     2.1640 
  100.1250    -9.2970    67.0980    55.7860    49.6370    50.3620    24.6610     2.1700 
  100.2500    -9.2020    67.3210    58.9270    51.9330    52.7240    24.6740     2.1730 
  100.3750    -9.0850    66.4520    62.3410    54.3830    54.9810    24.6800     2.1750 
  100.5000    -8.9430    66.9230    65.4140    56.6720    56.3420    24.6820     2.1780 
  100.6250    -8.7780    69.0500    66.9130    58.0390    64.2510    24.6830     2.1830 
  100.7500    -8.6070    68.2890    66.4020    58.0720    67.5980    24.6850     2.1850 
  100.8750    -8.4860    66.1540    64.0820    56.7160    62.2350    24.6950     2.1830 
  101.0000    -8.3930    65.1040    60.7880    54.3890    55.1180    24.7210     2.1770 
  101.1250    -8.2800    65.2450    57.7130    51.9080    46.8810    24.8000     2.1670 
  101.2500    -8.1860    65.1580    55.6810    50.1060    42.9170    24.9800     2.1560 
  101.3750    -8.1190    65.4690    55.0480    49.4260    43.0840    25.2140     2.1450 
  101.5000    -8.0700    65.2480    55.8850    50.0030    46.5570    25.4280     2.1370 
  101.6250    -8.0770    63.2950    58.1900    51.8090    51.3990    25.6330     2.1350 
  101.7500    -8.1670    62.0470    61.2470    54.2020    54.5670    25.8540     2.1380 
  101.8750    -8.2670    62.4650    64.4230    56.6930    56.8790    25.9920     2.1380 
  102.0000    -8.3510    62.8090    67.1320    58.8910    57.9770    26.0810     2.1310 
  102.1250    -8.4990    62.1730    68.9490    60.5400    54.8760    26.1580     2.1160 
  102.2500    -8.6530    60.9190    70.1870    61.7930    47.7190    26.2050     2.1030 
  102.3750    -8.7930    59.1650    71.2360    62.8340    43.9450    26.1380     2.1020 
  102.5000    -8.9180    58.1850    72.4110    63.8110    49.8980    25.9350     2.1160 
  102.6250    -9.0400    58.6110    73.7630    64.7300    58.8600    25.6710     2.1410 
  102.7500    -9.1040    58.6860    75.0030    65.4700    62.9720    25.5310     2.1620 
  102.8750    -9.1460    58.8170    75.8590    65.8880    64.8360    25.5100     2.1720 
  103.0000    -9.2170    60.4270    76.1760    65.8960    65.8920    25.5470     2.1700 
  103.1250    -9.2420    63.8200    75.8490    65.4360    65.6640    25.5610     2.1600 
  103.2500    -9.2480    65.5660    74.9920    64.6770    64.1440    25.4930     2.1500 
  103.3750    -9.2770    64.0100    73.7010    63.7290    61.3160    25.3310     2.1430 
  103.5000    -9.3450    61.3840    72.2970    62.6780    59.1880    25.1540     2.1410 
  103.6250    -9.4230    62.8330    71.4470    61.5930    58.9100    25.1120     2.1450 
  103.7500    -9.4800    66.3670    70.8800    60.5670    58.6020    25.2350     2.1500 
  103.8750    -9.5540    68.3040    70.1600    59.6800    59.6390    25.4440     2.1540 
  104.0000    -9.6450    68.7210    68.9240    58.9570    61.1120    25.5890     2.1550 
  104.1250    -9.7380    69.9580    66.5940    58.2140    62.2640    25.6150     2.1520 
  104.2500    -9.8400    70.2840    63.7320    56.8960    61.6440    25.5770     2.1500 
  104.3750    -9.9420    67.2630    59.1800    54.1170    59.8170    25.4990     2.1620 
  104.5000   -10.0230    63.4220    51.8110    48.9330    55.2200    25.3600     2.2000 
  104.6250   -10.1020    62.9690    41.5040    40.7490    48.1150    25.1710     2.2720 
  104.7500   -10.1880    67.5440    30.7620    31.3480    46.2250    25.0090     2.3570 
  104.8750   -10.2550    76.8550    21.5530    22.5750    48.9090    24.8700     2.4270 
