~V
VERS. 2.00: Ver 2.00
~W
STRT.M 58.0000:
STOP.M 199.0000:
STEP.M 0.1250:
NULL. -999.2500:
UWI. F10565:
~C
DEPT.M :
SP.MV :
GR.API :
RML.OHMM :
RI. :
RXO.OHMM :
CALI.CM :
DEN.GM/CC :
~A
# ...
  193.0000    -5.7620    61.2900     6.4530     5.7750     6.5520    23.5080     2.3580 
  193.1250    -5.8320    61.2900     6.4270     5.7880     6.4770    23.5010     2.3590 
  193.2500    -6.0000    61.2900     6.4370     5.7770     6.4470    23.4860     2.3580 
  193.3750    -6.2590    61.2900     6.4700     5.7560     6.4900    23.4640     2.3550 
  193.5000    -6.5610    61.2900     6.5140     5.7470     6.6070    23.4360     2.3500 
  193.6250    -6.8220    61.2900     6.5650     5.7610     6.8790    23.4070     2.3430 
  193.7500    -7.0530    61.2900     6.6210     5.7960     7.3680    23.3880     2.3350 
  193.8750    -7.2830    61.2900     6.6660     5.8280     7.8260    23.3780     2.3260 
  194.0000    -7.5010    61.2900     6.6840     5.8400     8.1130    23.3740     2.3200 
  194.1250    -7.6460    61.2900     6.6760     5.8340     8.1440    23.3750     2.3160 
  194.2500    -7.7420    61.2900     6.6680     5.8280     8.1450    23.3790     2.3150 
  194.3750    -7.7790    61.2900     6.6650     5.8260     8.3000    23.3790     2.3150 
  194.5000    -7.7880    61.2900     6.6650     5.8260     8.6660    23.3640     2.3130 
  194.6250    -7.8250    61.2900     6.6650     5.8260     8.6990    23.3370     2.3090 
  194.7500    -7.8430    61.2900     6.6650     5.8260     8.5000    23.3140     2.3050 
  194.8750    -7.8430    61.2900     6.6650     5.8260     7.9790    23.3060     2.3050 
  195.0000    -7.8550    61.2900     6.6650     5.8260     8.1400    23.3090     2.3100 
  195.1250    -7.8370    61.2900     6.6650     5.8260     8.7880    23.3030     2.3200 
  195.2500    -7.8120    61.2900     6.6650     5.8260     8.0880    23.2040     2.3350 
  195.3750    -7.7880    61.2900     6.6650     5.8260     7.1060    22.8710     2.3480 
  195.5000    -7.7640    61.2900     6.6650     5.8260     6.5130    22.1250     2.3380 
  195.6250    -7.7640    61.2900     6.6650     5.8260     6.5750    20.8840     2.2860 
  195.7500    -7.7640    61.2900     6.6650     5.8260     6.8940    19.2890     2.1850 
  195.8750  -999.2500    61.2900     6.6650     5.8260     7.3160    17.7800     2.0480 
  196.0000  -999.2500    61.2900     6.6650     5.8260     7.2720    16.6370     1.9230 
  196.1250  -999.2500    61.2900     6.6650     5.8260     6.7170    15.9520     1.8410 
  196.2500  -999.2500    61.2900     6.6650     5.8260     5.7920    15.7070     1.8090 
  196.3750  -999.2500    61.2900     6.6650     5.8260     5.1240    15.6810     1.8170 
  196.5000  -999.2500    61.2900     6.6650     5.8260     4.8390    15.7400     1.8330 
  196.6250  -999.2500    61.2900     6.6650     5.8260     4.7470    15.7990     1.8440 
  196.7500  -999.2500    61.2900     6.6650     5.8260     4.7140    15.8220     1.8470 
  196.8750  -999.2500    61.2900     6.6650     5.8260     4.7150    15.8250     1.8460 
  197.0000  -999.2500    61.2900     6.6650     5.8260     4.7150    15.8190     1.8450 
  197.1250  -999.2500    61.2900     6.6650     5.8260     4.7160    15.8090     1.8430 
  197.2500  -999.2500    61.2900     6.6650     5.8260     4.7160    15.7950     1.8420 
  197.3750  -999.2500    61.2900     6.6650     5.8260     4.7160    15.7830     1.8410 
  197.5000  -999.2500    61.2900     6.6650     5.8260     4.7160    15.7850     1.8390 
  197.6250  -999.2500    61.2900     6.6650     5.8260     4.7160    15.7940     1.8370 
  197.7500  -999.2500    61.2900     6.6650     5.8260     4.7160    15.5550     1.8360 
  197.8750  -999.2500    61.2900     6.6650     5.8260     4.7150    14.7980     1.8580 
  198.0000  -999.2500    61.2900     6.6650     5.8260     4.7140    14.7980  -999.2500 
  198.1250  -999.2500    61.2900     6.6650     5.8260     4.7140    14.7980  -999.2500 
  198.2500  -999.2500    61.2900     6.6650     5.8260     4.7140    14.7980  -999.2500 
  198.3750  -999.2500    61.2900     6.6650     5.8260     4.7140    14.7980  -999.2500 
  198.5000  -999.2500    61.2900     6.6650     5.8260     4.7140    14.7980  -999.2500 
  198.6250  -999.2500    61.2900     6.6650     5.8260     4.7140    14.7980  -999.2500 
  198.7500  -999.2500    61.2900     6.6650     5.8260     4.7130    14.7980  -999.2500 
  198.8750  -999.2500    61.2900     6.6650     5.8260     4.7130    14.7980  -999.2500 
  199.0000  -999.2500    61.2900     6.6650     5.8260     4.7140    14.7980  -999.2500 
