~V
VERS. 2.00: Ver 2.00
~W
STRT.M 50.0000:
STOP.M 191.0000:
STEP.M 0.1250:
NULL. -999.2500:
UWI. F10562:
~C
DEPT.M :
DEN.GM/CC :
SP.MV :
GR.API :
RML.OHMM :
RI. :
RXO.OHMM :
CALI.CM :
~A
# ...
   95.0000     2.3110   -22.9000    98.7440     6.5420     5.3950     5.4180    24.3700 
   95.1250     2.3020   -22.6870   100.6020     6.0800     5.1780     5.0220    24.3670 
   95.2500     2.3020   -22.4700   102.0690     5.7780     5.0430     4.9430    24.3470 
   95.3750     2.3040   -22.2760   103.0190     5.7860     5.0680     5.1810    24.2890 
   95.5000     2.3050   -22.1070   101.1740     6.0720     5.2520     5.3770    24.2000 
   95.6250     2.3050   -21.9880    99.1890     6.4640     5.5280     5.5030    24.1590 
   95.7500     2.3100   -21.9050   100.7890     6.7630     5.7830     5.5810    24.1480 
   95.8750     2.3190   -21.8370   101.0710     6.9040     5.9630     5.8540    24.1480 
   96.0000     2.3340   -21.8320    96.9750     6.9020     6.0320     6.0870    24.1360 
   96.1250     2.3480   -21.8170    92.9770     6.7360     5.9270     5.9100    24.0550 
   96.2500     2.3560   -21.7990    94.4550     6.3990     5.6620     5.3700    23.8670 
   96.3750     2.3520   -21.7570   100.7150     5.9140     5.2940     4.8620    23.6290 
   96.5000     2.3410   -21.7220   106.5590     5.3960     4.9290     4.7630    23.4560 
   96.6250     2.3340   -21.6460   108.2050     5.0450     4.7010     4.5990    23.3610 
   96.7500     2.3320   -21.5450   106.0330     4.9340     4.6360     4.4560    23.2740 
   96.8750     2.3290   -21.4450   100.8030     5.0360     4.7080     4.4000    23.2160 
   97.0000     2.3200   -21.3260    95.6140     5.2690     4.8520     4.5330    23.1960 
   97.1250     2.3100   -21.2130    93.9770     5.5150     4.9890     4.7640    23.1960 
   97.2500     2.3040   -21.1120    95.7540     5.6760     5.0740     4.8500    23.1960 
   97.3750     2.3040   -21.0430    98.9740     5.7400     5.1080     4.7670    23.1960 
   97.5000     2.3040   -21.0020   102.8630     5.7790     5.1390     4.8460    23.1960 
   97.6250     2.3010   -20.9760   105.9500     6.0170     5.2860     4.9250    23.1980 
   97.7500     2.2930   -20.9780   104.6040     6.6680     5.6660     5.2330    23.2120 
   97.8750     2.2820   -20.9880   100.4370     7.9960     6.4260     5.8540    23.2600 
   98.0000     2.2670   -20.9960    97.6990    10.3290     7.7780     7.3240    23.3760 
   98.1250     2.2380   -21.0240    93.4460    14.1270    10.1680    11.2720    23.7040 
   98.2500     2.1940   -21.0390    83.9850    18.8970    13.5360    17.3750    24.1560 
   98.3750     2.1500   -21.0450    74.3960    23.5800    17.3660    20.3050    24.5040 
   98.5000     2.1250   -21.0270    73.1780    26.5540    20.4360    18.4490    24.6200 
   98.6250     2.1270   -21.0220    79.9040    26.4090    21.2670    17.6830    24.5780 
   98.7500     2.1410   -20.9930    84.8990    24.7440    20.6510    18.0880    24.5340 
   98.8750     2.1550   -20.9780    85.7160    23.3900    19.8890    18.2810    24.5170 
   99.0000     2.1650   -20.9660    84.8160    23.4930    19.9260    18.5650    24.5150 
   99.1250     2.1690   -20.9530    84.2440    25.4820    21.2450    20.2230    24.5410 
   99.2500     2.1610   -20.9500    83.1360    28.5420    23.4550    23.9050    24.6260 
   99.3750     2.1370   -20.9560    80.4580    31.8730    26.1170    28.6490    24.7580 
   99.5000     2.1100   -20.9780    76.5690    34.4520    28.5400    31.9040    24.8530 
   99.6250     2.0980   -20.9790    74.0170    34.9610    29.6070    31.7920    24.8800 
   99.7500     2.1030   -20.9780    74.6670    33.6610    29.1460    29.5650    24.8830 
   99.8750     2.1140   -20.9530    77.1300    31.5530    27.7210    26.4310    24.8830 
  100.0000     2.1250   -20.9470    78.7160    29.9040    26.2820    23.7340    24.8830 
  100.1250     2.1330   -20.9180    77.9290    29.9240    25.8570    22.5860    24.8830 
  100.2500     2.1400   -20.9040    77.3170    31.9130    26.8910    23.4650    24.8830 
  100.3750     2.1400   -20.9090    78.2290    36.1300    29.8030    27.3010    24.8830 
  100.5000     2.1340   -20.9470    77.4020    42.6190    34.8680    35.2420    24.8830 
  100.6250     2.1230   -21.0170    73.9500    50.9900    41.9480    43.2620    24.8810 
  100.7500     2.1150   -21.0910    70.8100    58.9810    49.0240    46.1250    24.8680 
  100.8750     2.1090   -21.1550    69.0790    64.0970    53.8410    45.2760    24.8380 
  101.0000     2.1020   -21.2100    68.0940    65.0400    55.0640    44.5310    24.8150 
  101.1250     2.0950   -21.2250    67.3660    62.8220    53.2610    43.2040    24.8080 
  101.2500     2.0930   -21.2040    67.6100    60.5250    51.1230    42.6590    24.8040 
  101.3750     2.1050   -21.1410    68.6560    59.5120    50.0180    42.6800    24.7890 
  101.5000     2.1350   -21.0200    69.4260    60.1800    50.3660    42.0370    24.7550 
  101.6250     2.1890   -20.8750    68.8400    62.8470    52.2880    41.4240    24.7270 
  101.7500     2.2710   -20.7090    66.8010    67.3220    55.4770    41.7600    24.6930 
  101.8750     2.3810   -20.5610    64.0500    73.4940    59.8570    47.0420    24.6490 
  102.0000     2.4960   -20.3980    59.7980    80.4170    64.8950    60.1940    24.5960 
  102.1250     2.5480   -20.3030    56.1720    85.2870    68.8550    70.3390    24.5370 
  102.2500     2.5020   -20.2210    56.1030    85.5460    69.8710    71.7120    24.4240 
  102.3750     2.3870   -20.1610    59.9250    80.5880    67.1430    65.8840    24.2320 
  102.5000     2.2600   -20.1290    64.1500    72.5230    61.6910    54.1530    24.0030 
  102.6250     2.1780   -20.1140    67.1600    64.9460    55.9240    48.8830    23.8740 
  102.7500     2.1490   -20.1320    69.7460    59.8080    51.7410    44.6650    23.8130 
  102.8750     2.1690   -20.1640    70.3440    57.3210    49.5720    40.5500    23.7880 
  103.0000     2.2230   -20.2090    69.2930    57.0530    49.0970    37.9950    23.7810 
  103.1250     2.3030   -20.2730    68.6790    58.4810    49.8660    39.7830    23.8110 
  103.2500     2.3870   -20.3490    67.3410    60.3000    51.0090    45.0790    23.8930 
  103.3750     2.4380   -20.4160    63.7410    61.3240    51.7500    49.7420    24.0170 
  103.5000     2.4110   -20.4710    59.9580    60.5510    51.3320    46.3400    24.1570 
  103.6250     2.3040   -20.5410    60.7680    57.6140    49.3070    40.2140    24.4410 
  103.7500     2.1950   -20.6080    63.8250    54.1360    46.7020    38.1010    24.8260 
  103.8750     2.1290   -20.6660    65.6110    51.6640    44.6230    39.2280    25.1830 
  104.0000     2.1080   -20.7460    65.8290    51.0980    43.8390    40.7780    25.3810 
  104.1250     2.1110   -20.7760    67.5270    52.4680    44.6660    42.6490    25.4420 
  104.2500     2.1140   -20.8160    70.6340    54.3690    46.2710    44.7860    25.4700 
  104.3750     2.1120   -20.8690    72.3970    55.6300    47.8750    45.3860    25.5350 
  104.5000     2.1080   -20.9470    69.7250    55.3490    48.7360    47.0660    25.6740 
  104.6250     2.1040   -21.0010    64.0390    52.6440    47.7860    51.1920    25.8160 
  104.7500     2.1050   -21.0660    61.7880    47.7850    44.6750    52.7600    25.8760 
  104.8750     2.1110   -21.1410    64.5160    41.1840    39.4610    51.7940    25.8260 
  105.0000     2.1230   -21.2160    67.9840    33.6100    32.8790    50.1400    25.6510 
  105.1250     2.1450   -21.3060    69.2180    26.0810    26.0840    47.7620    25.4270 
  105.2500     2.1790   -21.3990    71.7120    19.4340    20.0190    37.4470    25.2520 
  105.3750     2.2290   -21.5010    76.5500    14.0680    15.0610    21.1640    25.0660 
  105.5000     2.2880   -21.5820    83.8770    10.1410    11.3190     9.7520    24.8510 
  105.6250     2.3240   -21.6860    92.3060     7.8160     8.9330     6.9470    24.7460 
  105.7500     2.3280   -21.7710    98.5110     6.6270     7.5560     6.3230    24.6940 
  105.8750     2.3180   -21.8430   100.6150     6.2900     7.0020     6.2460    24.6680 
  106.0000     2.3130   -21.8690   100.0570     6.5210     7.0750     6.3550    24.6430 
  106.1250     2.3100   -21.8640    97.6680     7.1100     7.6440     6.9010    24.5990 
