~V
VERS. 2.00: Ver 2.00
~W
STRT.M 50.0000:
STOP.M 198.0000:
STEP.M 0.1250:
NULL. -999.2500:
UWI. F10574:
~C
DEPT.M :
DEN.GM/CC :
SP.MV :
GR.API :
RML.OHMM :
RI. :
RXO.OHMM :
CALI.CM :
~A
# ...
  128.7500     2.4740   -13.3180    55.3350    14.8800    12.7930    12.1970    24.5830 
  128.8750     2.4810   -13.2460    57.5870    15.4360    13.0650    12.3520    24.5830 
  129.0000     2.4870   -13.1840    57.0700    16.2290    13.5400    13.5170    24.5830 
  129.1250     2.4850   -13.1300    55.2230    17.0860    14.1320    14.5620    24.5830 
  129.2500     2.4790   -13.0650    55.1140    17.7790    14.6710    14.2210    24.5830 
  129.3750     2.4730   -12.9710    56.1370    18.1440    15.0070    13.8830    24.5850 
  129.5000     2.4700   -12.8840    55.4790    18.0650    15.0050    13.9710    24.5870 
  129.6250     2.4680   -12.8650    53.3600    17.4740    14.5590    13.8960    24.5850 
  129.7500     2.4640   -12.8780    53.3210    16.6140    13.8470    13.1720    24.5830 
  129.8750     2.4600   -12.8510    54.5500    15.7350    13.0510    11.8350    24.5830 
  130.0000     2.4570   -12.8050    55.8900    15.0830    12.3570    10.4030    24.5830 
  130.1250     2.4520   -12.8110    57.3790    14.9180    11.9830    10.3080    24.5950 
  130.2500     2.4420   -12.8600    58.5110    15.2120    11.9720    11.3070    24.6220 
  130.3750     2.4270   -12.9680    58.4960    15.8630    12.3010    12.5480    24.6560 
  130.5000     2.4120   -13.1100    59.1700    16.7010    12.8780    13.6220    24.6870 
  130.6250     2.4030   -13.2340    62.2880    17.5250    13.5750    14.6390    24.7200 
  130.7500     2.4010   -13.3210    63.9910    18.1900    14.2310    15.3790    24.7340 
  130.8750     2.4010   -13.3710    62.2690    18.6390    14.7640    16.1100    24.7380 
  131.0000     2.4010   -13.4030    58.4860    18.8710    15.1460    16.8510    24.7380 
  131.1250     2.4010   -13.4140    58.3280    18.8650    15.3340    17.2370    24.7380 
  131.2500     2.4010   -13.3820    61.1100    18.6590    15.3260    16.9010    24.7380 
  131.3750     2.3950   -13.2720    63.7810    18.1940    15.0550    16.1410    24.7380 
  131.5000     2.3780   -13.1100    64.2460    17.3410    14.4080    14.9300    24.7390 
  131.6250     2.3490   -12.9560    63.0630    15.8720    13.2040    13.6300    24.7660 
  131.7500     2.3190   -12.8480    62.8000    13.9420    11.5830    12.1840    24.8270 
  131.8750     2.2890   -12.8170    61.5130    11.8290     9.7820    10.0790    25.0300 
  132.0000     2.2650   -12.8360    56.2360     9.8900     8.0960     7.3360    25.6990 
  132.1250     2.2660   -12.8920    47.7810     8.4930     6.8150     5.2370    27.2090 
  132.2500     2.3010   -13.0070    41.8190     7.6420     5.9580     4.6340    28.4880 
  132.3750     2.3550   -13.1580    40.2160     7.2540     5.4880     4.7160    28.7060 
  132.5000     2.4020   -13.3240    40.1470     7.1810     5.3260     4.9980    28.1680 
  132.6250     2.4190   -13.4460    40.3510     7.2620     5.3940     5.3440    27.4330 
  132.7500     2.4150   -13.5310    40.8110     7.3290     5.5440     5.6730    26.6640 
  132.8750     2.4040   -13.5940    40.0470     7.3320     5.6980     5.8460    26.1460 
  133.0000     2.3880   -13.6540    37.3760     7.3060     5.8100     5.7420    25.8910 
  133.1250     2.3630   -13.7080    35.8560     7.3060     5.8600     5.6450    25.4500 
  133.2500     2.3300   -13.7240    36.8790     7.3170     5.8680     5.6810    24.9390 
  133.3750     2.2940   -13.6980    38.0110     7.2890     5.8350     5.5280    24.8820 
  133.5000     2.2590   -13.6600    37.4450     7.1880     5.7550     5.1000    25.2690 
  133.6250     2.2340   -13.6760    35.5690     7.0040     5.6070     4.6780    26.0630 
  133.7500     2.2250   -13.7240    34.8870     6.7920     5.4020     4.4320    27.2270 
  133.8750     2.2340   -13.7390    35.6420     6.5970     5.1650     4.3930    28.1050 
  134.0000     2.2530   -13.7390    35.4070     6.4440     4.9390     4.4400    28.1790 
  134.1250     2.2680   -13.7540    33.2750     6.3570     4.8000     4.4200    27.5340 
  134.2500     2.2770   -13.7880    33.0920     6.3870     4.7930     4.3450    27.1130 
  134.3750     2.2920   -13.8900    36.9340     6.6140     4.9550     4.4450    27.2290 
  134.5000     2.3200   -14.0440    43.5060     7.0810     5.2980     4.8290    27.2540 
  134.6250     2.3520   -14.1950    51.5630     7.7590     5.8070     5.7470    26.5210 
  134.7500     2.3790   -14.3520    60.3160     8.4420     6.3480     7.0960    25.5040 
  134.8750     2.3950   -14.5370    66.3530     8.9220     6.7760     8.1390    24.9510 
  135.0000     2.3970   -14.6910    68.5470     9.0340     6.9570     7.9600    24.8290 
  135.1250     2.3880   -14.7890    69.9370     8.7190     6.8050     7.0440    24.9700 
  135.2500     2.3850   -14.8710    69.6750     8.2330     6.4700     6.0690    25.1870 
  135.3750     2.3960   -14.9260    66.3970     7.7880     6.1000     5.8140    25.2120 
  135.5000     2.4110   -14.9470    63.8970     7.5280     5.8120     6.2160    24.8940 
  135.6250     2.4130   -14.9410    69.5930     7.5360     5.6840     6.5020    24.5640 
  135.7500     2.4020   -14.9570    77.8620     7.7180     5.6870     6.5530    24.4100 
  135.8750     2.3900   -15.0310    82.0890     7.9790     5.7830     6.5730    24.3680 
  136.0000     2.3810   -15.1430    82.5130     8.2300     5.9230     6.5860    24.3610 
  136.1250     2.3770   -15.2710    81.0530     8.4010     6.0590     6.4570    24.3610 
  136.2500     2.3770   -15.4270    78.6720     8.4770     6.1610     6.5900    24.3610 
  136.3750     2.3800   -15.5780    77.3970     8.4540     6.2120     6.9160    24.3620 
  136.5000     2.3810   -15.7470    78.0810     8.3460     6.2140     7.1730    24.3630 
  136.6250     2.3760   -15.9480    77.9830     8.2130     6.1900     7.3550    24.3660 
  136.7500     2.3690   -16.1040    76.7250     8.1430     6.1900     7.4090    24.3700 
  136.8750     2.3650   -16.1820    77.6600     8.2070     6.2570     7.5230    24.3840 
  137.0000     2.3660   -16.2350    79.6670     8.4390     6.4230     7.8650    24.4060 
  137.1250     2.3740   -16.2700    80.0100     8.8440     6.7270     8.3730    24.4250 
  137.2500     2.3920   -16.3020    79.0380     9.3470     7.1320     9.0180    24.4340 
  137.3750     2.4200   -16.3620    78.2620     9.9220     7.6080     9.7490    24.4290 
  137.5000     2.4500   -16.4310    78.3960    10.5850     8.1480    10.7340    24.4070 
  137.6250     2.4680   -16.4980    77.2040    11.4310     8.8050    11.7100    24.3770 
  137.7500     2.4710   -16.5560    73.2440    12.4680     9.6000    12.5430    24.3640 
  137.8750     2.4710   -16.6140    68.3680    13.5910    10.5020    13.2400    24.3610 
  138.0000     2.4790   -16.6870    65.5760    14.5430    11.3720    14.5820    24.3610 
  138.1250     2.4910   -16.7650    65.0960    14.8700    11.8990    16.0160    24.3610 
  138.2500     2.4870   -16.8000    65.0620    14.4970    11.9470    15.7360    24.3610 
  138.3750     2.4590   -16.7800    67.5350    13.6520    11.5840    13.5520    24.3610 
  138.5000     2.4200   -16.7110    72.5510    12.7800    11.0720    11.3600    24.3610 
  138.6250     2.3980   -16.6030    75.0600    12.4250    10.7870    10.3320    24.3640 
  138.7500     2.4000   -16.4920    73.9960    12.7710    10.9370    11.2330    24.3700 
  138.8750     2.4170   -16.3890    72.9910    13.8590    11.6180    13.6650    24.3700 
  139.0000     2.4370   -16.2960    74.3540    15.5740    12.8300    17.1280    24.3690 
  139.1250     2.4400   -16.2050    76.8580    17.6530    14.5070    19.4250    24.3660 
  139.2500     2.4210   -16.1130    77.4310    19.6400    16.3200    20.1830    24.3630 
  139.3750     2.3970   -16.0220    75.9810    21.2350    17.9850    20.2970    24.3620 
  139.5000     2.3890   -15.9360    72.7580    22.2880    19.2710    21.0320    24.3790 
  139.6250     2.3970   -15.8710    69.1170    22.7460    20.0040    22.7760    24.4260 
  139.7500     2.3870   -15.8140    68.5530    22.7990    20.3000    23.6900    24.4800 
  139.8750     2.3440   -15.7390    71.9580    22.5320    20.2400    22.5510    24.5030 
