~V
VERS. 2.00: Ver 2.00
~W
STRT.M 50.0000:
STOP.M 215.0000:
STEP.M 0.1250:
NULL. -999.2500:
UWI. F10588:
~C
DEPT.M :
DEN.GM/CC :
GR.API :
RML.OHMM :
RI. :
RXO.OHMM :
CALI.CM :
SP.MV :
~A
# ...
   61.2500     2.2910    61.9620     9.5340     7.1510     8.6950    24.5180   -27.4690 
   61.3750     2.2800    61.8210     9.0110     6.8690     7.7980    24.7770   -25.9540 
   61.5000     2.2870    65.5260     8.3700     6.4360     7.0030    25.0370   -24.6090 
   61.6250     2.2860    68.0840     7.9660     6.0940     6.5000    25.1900   -23.5870 
   61.7500     2.2590    66.7060     7.9390     5.9900     6.2280    25.1310   -22.8210 
   61.8750     2.2110    63.8520     8.2810     6.1560     6.5400    24.8780   -22.3700 
   62.0000     2.1550    62.6630     8.8680     6.5340     7.4890    24.5390   -22.1910 
   62.1250     2.1180    63.9730     9.4370     6.9630     8.5800    24.2500   -22.1230 
   62.2500     2.1100    64.9080     9.6860     7.2080     8.4980    24.0980   -22.1000 
   62.3750     2.1290    64.0340     9.4680     7.1230     7.4840    23.9930   -22.0720 
   62.5000     2.1610    63.8530     8.8430     6.7160     6.7670    23.9540   -22.0630 
   62.6250     2.1950    66.1640     8.0410     6.1260     6.6050    23.9910   -22.0290 
   62.7500     2.2290    69.5440     7.3580     5.5780     6.3520    24.1320   -21.9980 
   62.8750     2.2580    73.1460     6.9450     5.1940     5.7550    24.2070   -21.9400 
   63.0000     2.2700    76.6230     6.8660     5.0330     5.4330    24.2180   -21.8730 
   63.1250     2.2540    77.3710     7.1740     5.1470     5.9580    24.1790   -21.8220 
   63.2500     2.2280    75.3840     7.7510     5.4630     6.5590    24.0930   -21.7650 
   63.3750     2.2100    72.7250     8.4750     5.9150     7.4120    24.0200   -21.7130 
   63.5000     2.2110    70.5470     9.1620     6.3920     8.2000    24.0290   -21.6770 
   63.6250     2.2250    67.9970     9.5770     6.7390     8.4530    24.0590   -21.6500 
   63.7500     2.2320    65.9840     9.7150     6.9130     8.2600    24.0880   -21.6330 
   63.8750     2.2220    64.3290     9.7030     6.9640     8.0710    24.1140   -21.6300 
   64.0000     2.2040    61.6000     9.7470     7.0020     8.1630    24.1110   -21.6090 
   64.1250     2.1930    57.8010    10.0900     7.1790     8.4480    24.0910   -21.6280 
   64.2500     2.1890    56.5690    10.7860     7.5610     8.9830    24.0720   -21.6480 
   64.3750     2.1830    56.6300    11.8080     8.1630    10.0840    24.0840   -21.7090 
   64.5000     2.1700    55.0050    13.0340     8.9410    11.7190    24.2280   -21.7970 
   64.6250     2.1540    51.9970    14.2320     9.7800    13.2610    24.6750   -21.9010 
   64.7500     2.1420    51.2750    15.1670    10.5130    14.1880    25.2860   -22.0260 
   64.8750     2.1380    53.0620    15.7130    11.0270    14.6410    25.7900   -22.1510 
   65.0000     2.1370    55.5270    15.8660    11.2820    13.9470    26.1960   -22.3090 
   65.1250     2.1330    57.1380    15.7250    11.3030    13.3520    26.3220   -22.4220 
   65.2500     2.1310    57.4640    15.5490    11.2510    13.1240    26.0590   -22.5470 
   65.3750     2.1430    55.8500    15.5230    11.2490    12.9140    25.5560   -22.6490 
   65.5000     2.1710    53.8080    15.7660    11.3960    12.7910    25.0630   -22.7420 
   65.6250     2.1990    53.5230    16.3430    11.7700    12.7960    24.9070   -22.8380 
   65.7500     2.2040    55.0710    17.1130    12.3060    13.1670    25.0860   -22.9150 
   65.8750     2.1810    56.4400    17.9140    12.9140    14.0540    25.5330   -23.0020 
   66.0000     2.1430    56.1820    18.5490    13.4590    15.0220    25.9900   -23.0580 
   66.1250     2.1150    54.8130    18.7710    13.7560    14.9960    26.1990   -23.1100 
   66.2500     2.1100    55.5620    18.5730    13.7560    14.0140    25.9600   -23.1340 
   66.3750     2.1250    58.8940    18.0190    13.4760    13.1530    25.4850   -23.1450 
   66.5000     2.1460    61.8190    17.2460    12.9920    12.9660    25.1940   -23.1190 
   66.6250     2.1650    60.7440    16.4160    12.4130    12.7430    25.0930   -23.0540 
   66.7500     2.1800    59.3500    15.6830    11.8780    12.1230    25.0090   -22.9410 
   66.8750     2.1880    59.4060    15.1530    11.4770    11.4340    24.9320   -22.7910 
   67.0000     2.1790    59.5550    14.9410    11.2940    11.0360    24.9140   -22.6050 
   67.1250     2.1490    58.6470    15.3380    11.5150    11.2390    25.0240   -22.4360 
   67.2500     2.1260    58.9310    16.5320    12.2560    11.7830    25.2580   -22.2600 
   67.3750     2.1470    61.7990    18.7460    13.6970    12.6830    25.4630   -22.0980 
   67.5000     2.2440    65.2100    22.0650    15.9800    14.6560    25.4070   -21.9570 
   67.6250     2.3950    67.3510    26.2560    19.1710    20.7790    25.1630   -21.8400 
   67.7500     2.4920    67.5970    30.0370    22.4960    32.6000    24.8630   -21.7920 
   67.8750     2.4780    65.3720    31.7690    24.6970    42.4810    24.5950   -21.7720 
   68.0000     2.3900    62.7520    30.1620    24.4450    36.9180    24.3540   -21.8220 
   68.1250     2.2920    61.9770    25.2600    21.2880    23.5460    24.1900   -21.9020 
   68.2500     2.2290    63.2100    19.6200    17.1410    16.5720    24.0070   -22.0330 
   68.3750     2.2090    65.7340    14.7940    13.3030    12.0770    23.7730   -22.1910 
   68.5000     2.2220    68.4630    11.3730    10.3600     8.8530    23.5930   -22.3590 
   68.6250     2.2460    70.3740     9.4340     8.5070     7.0680    23.5320   -22.5390 
   68.7500     2.2620    70.5630     8.3850     7.3970     6.5580    23.5290   -22.6880 
   68.8750     2.2640    70.6270     7.9320     6.8430     6.3220    23.5250   -22.8190 
   69.0000     2.2590    72.5820     7.8440     6.6750     6.0550    23.4690   -22.9010 
   69.1250     2.2560    76.0660     7.9280     6.7350     6.5140    23.3120   -22.9120 
   69.2500     2.2600    78.0460     7.9890     6.8220     7.1810    23.2270   -22.8610 
   69.3750     2.2710    78.2440     7.9660     6.8550     6.9610    23.2870   -22.7510 
   69.5000     2.2820    79.4890     7.8740     6.8220     6.1500    23.3950   -22.6070 
   69.6250     2.2870    81.3450     7.7650     6.7450     5.7970    23.4100   -22.4100 
   69.7500     2.2860    80.2650     7.6780     6.6580     6.0330    23.3890   -22.2010 
   69.8750     2.2850    75.8680     7.6310     6.5780     6.6130    23.4680   -21.9870 
   70.0000     2.2840    72.9700     7.6430     6.5260     6.9500    23.6710   -21.7460 
   70.1250     2.2780    75.0930     7.7590     6.5440     6.8670    23.9660   -21.5280 
   70.2500     2.2560    77.1480     8.0090     6.6620     7.0310    24.3060   -21.2940 
   70.3750     2.2190    76.7060     8.4730     6.9280     7.6580    24.5250   -21.0600 
   70.5000     2.1800    73.2120     9.2990     7.4320     8.4850    24.5970   -20.8180 
   70.6250     2.1780    70.2000    10.8300     8.3960    10.0230    24.5970   -20.6110 
   70.7500     2.2430    69.0890    13.2160     9.9350    11.6760    24.6000   -20.4020 
   70.8750     2.3650    68.1530    16.5910    12.1820    13.9800    24.5850   -20.2020 
   71.0000     2.4770    65.5060    20.8660    15.1660    19.5720    24.5100   -20.0480 
   71.1250     2.4850    60.3190    25.4010    18.5970    31.6620    24.3460   -19.9000 
   71.2500     2.4100    55.9800    28.9280    21.5490    36.6030    24.2320   -19.7820 
   71.3750     2.3110    54.0760    30.5320    23.2220    29.5290    24.2320   -19.6730 
   71.5000     2.2300    53.7760    30.1960    23.4190    23.0060    24.3310   -19.6080 
   71.6250     2.1900    53.6650    28.7370    22.5870    21.0120    24.4820   -19.5510 
   71.7500     2.1730    53.2010    27.4260    21.6680    19.9910    24.5650   -19.5370 
   71.8750     2.1650    53.3490    26.7860    21.1120    19.5600    24.6370   -19.5460 
   72.0000     2.1590    54.3540    26.8440    21.0560    19.5570    24.7550   -19.5890 
   72.1250     2.1540    56.2020    27.3260    21.4170    21.0310    24.8210   -19.6770 
   72.2500     2.1540    58.5670    27.7690    21.8660    22.0600    24.8560   -19.8110 
   72.3750     2.1570    59.9270    27.9210    22.1790    22.3730    24.8730   -19.9860 
