~V
VERS. 2.00: Ver 2.00
~W
STRT.M 50.0000:
STOP.M 233.0000:
STEP.M 0.1250:
NULL. -999.2500:
UWI. F10598:
~C
DEPT.M :
DEN.GM/CC :
SP.MV :
GR.API :
RML.OHMM :
RI. :
RXO.OHMM :
CALI.CM :
~A
# ...
  196.2500     2.1690    -9.7470    86.1910    72.8860    64.1530    59.7570    24.1160 
  196.3750     2.1530    -9.6820    82.2240    82.8070    72.9960    75.8050    24.1160 
  196.5000     2.1560    -9.6440    76.2240    95.4800    83.6220   105.3080    24.1160 
  196.6250     2.1690    -9.6450    73.0240   107.6440    93.1830   116.4690    24.1160 
  196.7500     2.1770    -9.6370    72.2380   116.0580    98.8470   106.7620    24.1160 
  196.8750     2.1770    -9.6570    70.3750   119.1430    99.4250    99.3370    24.1160 
  197.0000     2.1740    -9.6800    66.4470   116.7540    95.4290   100.3400    24.1160 
  197.1250     2.1710    -9.7230    63.8810   109.3370    88.0910    97.9070    24.1160 
  197.2500     2.1670    -9.7500    63.8120    99.6350    79.9110    94.1910    24.1160 
  197.3750     2.1630    -9.7960    65.6790    89.6880    72.4800    83.8430    24.1160 
  197.5000     2.1620    -9.8570    69.8050    81.5580    67.0110    68.1590    24.1160 
  197.6250     2.1600    -9.9120    75.5140    78.0670    64.9410    58.0340    24.1160 
  197.7500     2.1580    -9.9610    76.2800    79.8870    66.4190    61.7140    24.1160 
  197.8750     2.1580    -9.9960    71.9930    87.0270    71.5840    77.3540    24.1160 
  198.0000     2.1650   -10.0100    67.5670    98.4690    80.0660    94.5330    24.1160 
  198.1250     2.1770   -10.0050    67.3450   111.9510    90.6670   116.7290    24.1080 
  198.2500     2.1870    -9.9760    69.5240   123.4680   100.1700   123.7600    24.0860 
  198.3750     2.1870    -9.9330    72.2860   130.1690   105.6040   112.3890    24.0570 
  198.5000     2.1790    -9.8690    74.7750   131.1120   105.2500    95.3630    24.0340 
  198.6250     2.1720    -9.8020    75.1090   125.9620    98.6340   107.5680    23.9900 
  198.7500     2.1740    -9.7440    73.5090   116.0840    88.3220   112.7630    23.9030 
  198.8750     2.1890    -9.6770    72.6100   102.3050    76.0060   102.2530    23.8070 
  199.0000     2.2160    -9.6250    73.0610    86.6690    63.5890    86.7690    23.7980 
  199.1250     2.2450    -9.5750    75.5730    72.2720    53.1460    68.9650    23.9310 
  199.2500     2.2630    -9.5460    79.8100    61.0420    45.2910    52.2930    24.1350 
  199.3750     2.2590    -9.5310    83.4590    53.6780    40.1500    44.3560    24.2440 
  199.5000     2.2360    -9.5340    85.0650    50.0910    37.6220    42.7710    24.2690 
  199.6250     2.2000    -9.5670    85.4560    50.3950    38.0030    47.9560    24.2670 
  199.7500     2.1640    -9.6160    86.5230    53.8820    40.8220    51.0440    24.2690 
  199.8750     2.1380    -9.6740    86.5530    60.7620    46.0140    52.9940    24.2680 
  200.0000     2.1300    -9.7170    82.2220    71.2190    53.4340    57.4430    24.2650 
  200.1250     2.1360    -9.7640    75.3120    84.7440    62.5770    73.1770    24.2650 
  200.2500     2.1470    -9.8140    70.9080    97.4060    70.9600    95.4880    24.2670 
  200.3750     2.1650    -9.8510    70.2410   104.0830    75.1370   109.8850    24.2670 
  200.5000     2.1920    -9.8750    72.5920   100.8790    72.3120   107.4970    24.2690 
  200.6250     2.2160    -9.8970    75.6170    88.1480    62.8010    93.1340    24.2730 
  200.7500     2.2220    -9.9550    78.3700    73.3830    52.2090    71.7300    24.2870 
  200.8750     2.2140   -10.0450    80.7770    61.0780    43.8320    53.1810    24.3150 
  201.0000     2.2010   -10.1750    82.1130    53.1230    38.9830    47.3110    24.3360 
  201.1250     2.1950   -10.2950    81.9030    50.3230    38.2900    52.7570    24.3400 
  201.2500     2.1970   -10.4130    80.6570    51.6300    40.9970    56.0450    24.3390 
  201.3750     2.1980   -10.5480    79.6780    57.2130    47.2390    58.3290    24.3400 
  201.5000     2.1930   -10.7060    79.2480    67.5500    57.2470    65.7150    24.3420 
  201.6250     2.1840   -10.8350    77.2690    83.3760    71.2680    96.7320    24.3400 
  201.7500     2.1770   -10.9160    73.7430   101.9670    86.8210   121.4580    24.3390 
  201.8750     2.1770   -10.9560    70.2890   119.3780   100.1810   133.4740    24.3380 
  202.0000     2.1810   -10.9440    66.9070   130.4120   106.3780   136.9540    24.3380 
  202.1250     2.1910   -10.9150    63.9020   129.4820   101.1680   133.4300    24.3380 
  202.2500     2.2040   -10.8760    62.3000   119.8200    89.7810   122.3790    24.3380 
  202.3750     2.2200   -10.7970    64.5180   106.1100    77.3880   110.9100    24.3380 
  202.5000     2.2380   -10.6750    69.9170    92.4260    66.9400    98.6480    24.3380 
  202.6250     2.2490   -10.5580    75.6000    80.7780    59.0160    81.7380    24.3380 
  202.7500     2.2540   -10.4220    77.4820    70.0140    51.7610    67.8100    24.3380 
  202.8750     2.2610   -10.2720    74.8520    58.4010    43.6390    59.1040    24.3380 
  203.0000     2.2780   -10.1260    71.3560    45.2160    34.1650    50.4400    24.3380 
  203.1250     2.3050    -9.9840    71.4430    32.2760    24.5970    39.4770    24.3380 
  203.2500     2.3270    -9.8330    73.2410    21.9480    16.7270    25.5910    24.3380 
  203.3750     2.3390    -9.7140    72.0630    14.8750    11.2570    14.3330    24.3380 
  203.5000     2.3420    -9.6440    67.4380    10.5440     7.9720     8.5530    24.3380 
  203.6250     2.3430    -9.6100    63.6120     8.3120     6.3900     7.0600    24.3380 
  203.7500     2.3470    -9.6530    63.3540     7.1300     5.5980     6.8650    24.3380 
  203.8750     2.3510    -9.7690    65.5530     6.5800     5.2240     7.1300    24.3380 
  204.0000     2.3520    -9.9610    66.2700     6.4060     5.0810     7.4270    24.3380 
  204.1250     2.3410   -10.2520    64.9490     6.5640     5.2000     7.5820    24.3380 
  204.2500     2.3200   -10.6200    68.5000     7.1050     5.6970     7.6400    24.3380 
  204.3750     2.3040   -11.0060    79.1390     8.2330     6.7790     8.6210    24.3380 
  204.5000     2.3080   -11.3710    91.1300    10.1840     8.6130    12.2660    24.3380 
  204.6250     2.3290   -11.6640    97.3280    13.1710    11.1960    22.8800    24.3380 
  204.7500     2.3380   -11.8410   100.6120    16.3880    13.6900    34.7500    24.3380 
  204.8750     2.3210   -11.8990   104.1760    18.3290    14.9250    33.5160    24.3380 
  205.0000     2.2890   -11.8040   106.6800    17.6600    14.0510    24.0800    24.3380 
  205.1250     2.2630   -11.5110   110.3670    14.6400    11.4240    16.3730    24.3380 
  205.2500     2.2480   -11.0930   117.2790    11.3830     8.7570    11.0020    24.3380 
  205.3750     2.2450   -10.6110   122.5400     8.8130     6.7870     8.0010    24.3380 
  205.5000     2.2530   -10.0770   119.8140     7.1120     5.5970     6.7520    24.3380 
  205.6250     2.2710    -9.5350   110.3760     6.2260     5.0580     6.4680    24.3380 
  205.7500     2.2910    -9.0300   100.4690     5.8250     4.8510     6.4540    24.3440 
  205.8750     2.3090    -8.5660    90.0400     5.7520     4.8250     6.4140    24.3610 
  206.0000     2.3240    -8.1790    80.7780     5.8660     4.8820     6.3270    24.3930 
  206.1250     2.3360    -7.9190    78.8650     6.0340     4.9820     6.2570    24.4080 
  206.2500     2.3460    -7.7330    81.5970     6.1500     5.1100     6.2910    24.4130 
  206.3750     2.3550    -7.6020    82.5140     6.1810     5.2550     6.4640    24.4140 
  206.5000     2.3630    -7.5380    79.7550     6.1470     5.3990     6.6330    24.4160 
  206.6250     2.3650    -7.5610    76.1040     6.1250     5.4960     6.7200    24.4160 
  206.7500     2.3640    -7.6320    73.0500     6.1940     5.5360     6.8160    24.4150 
  206.8750     2.3580    -7.7590    71.6380     6.3830     5.5440     6.9090    24.4140 
  207.0000     2.3480    -7.9280    71.3450     6.6470     5.5700     7.0500    24.4120 
  207.1250     2.3350    -8.1180    70.0560     6.8800     5.6100     7.4040    24.4140 
  207.2500     2.3260    -8.3040    68.4760     6.9910     5.6290     7.6950    24.4150 
  207.3750     2.3210    -8.4810    68.9930     6.9420     5.6360     7.4570    24.4160 
