~V
VERS. 2.00: Ver 2.00
~W
STRT.M 55.0000:
STOP.M 318.0000:
STEP.M 0.1250:
NULL. -999.2500:
UWI. F10558:
~C
DEPT.M :
DEN.GM/CC :
GR.API :
RML.OHMM :
RI. :
RXO.OHMM :
CALI.CM :
SP.MV :
~A
# ...
  133.7500     2.2270    98.6370     5.1740     4.6760     6.3420    24.7860   -15.2160 
  133.8750     2.2220    97.0090     5.5630     4.6980     6.3590    24.7790   -15.4090 
  134.0000     2.2250    97.1480     5.8910     4.7010     6.1650    24.7590   -15.6120 
  134.1250     2.2340    99.0470     6.1020     4.6810     6.0360    24.7270   -15.8310 
  134.2500     2.2400   101.8190     6.2010     4.6670     6.1030    24.7130   -16.0390 
  134.3750     2.2400   103.6140     6.1830     4.6850     6.4040    24.7100   -16.2090 
  134.5000     2.2350   102.5840     6.0590     4.7410     6.7890    24.7100   -16.3500 
  134.6250     2.2290    99.7200     5.8510     4.8140     6.9250    24.7390   -16.4500 
  134.7500     2.2260    97.8470     5.6660     4.8620     6.6410    24.8020   -16.5230 
  134.8750     2.2300    98.0310     5.6200     4.8560     6.4190    24.8320   -16.5920 
  135.0000     2.2440   100.5260     5.7300     4.7980     6.1020    24.7690   -16.6910 
  135.1250     2.2580   103.9220     5.8760     4.7200     5.9590    24.5830   -16.7930 
  135.2500     2.2590   101.6930     5.9620     4.6680     5.8360    24.4330   -16.9250 
  135.3750     2.2470    94.1260     6.0120     4.6650     5.8990    24.2700   -17.1040 
  135.5000     2.2330    90.0580     6.1020     4.7120     5.9760    24.0860   -17.3550 
  135.6250     2.2280    94.5540     6.2990     4.7970     5.8690    23.9050   -17.6830 
  135.7500     2.2270    98.2720     6.5600     4.9010     6.0490    23.7020   -18.0570 
  135.8750     2.2210    95.0390     6.8210     5.0310     6.4920    23.5330   -18.4440 
  136.0000     2.2070    88.5600     7.0400     5.1990     7.0870    23.4560   -18.8250 
  136.1250     2.1940    85.3030     7.1990     5.3910     7.7270    23.4470   -19.2320 
  136.2500     2.1870    84.2270     7.2680     5.5640     7.8650    23.4470   -19.6760 
  136.3750     2.1820    84.7180     7.2320     5.6920     7.9550    23.4470   -20.1750 
  136.5000     2.1730    86.3130     7.1610     5.7940     7.9550    23.4470   -20.6980 
  136.6250     2.1610    86.4290     7.1950     5.9500     8.3210    23.4500   -21.2500 
  136.7500     2.1520    83.1700     7.3680     6.1930     8.5540    23.4870   -21.8270 
  136.8750     2.1490    77.9400     7.6380     6.4920     8.5550    23.6210   -22.4130 
  137.0000     2.1470    75.5520     7.9460     6.7790     8.7540    23.9100   -22.9800 
  137.1250     2.1410    76.5850     8.2350     6.9710     9.0520    24.2520   -23.4730 
  137.2500     2.1340    76.1580     8.4680     7.0450     9.2680    24.5120   -23.9040 
  137.3750     2.1320    74.0530     8.6020     6.9960     9.2560    24.6150   -24.2490 
  137.5000     2.1340    72.6790     8.5780     6.8480     9.0420    24.6330   -24.5240 
  137.6250     2.1320    72.7970     8.3520     6.6510     8.9400    24.6330   -24.7100 
  137.7500     2.1220    74.0350     8.0580     6.4870     9.1320    24.6330   -24.8310 
  137.8750     2.1080    76.8430     7.8320     6.4050     9.3240    24.6330   -24.8850 
  138.0000     2.1010    79.9010     7.7520     6.4030     9.2170    24.6330   -24.8950 
  138.1250     2.1040    79.6330     7.8140     6.4380     9.0560    24.6330   -24.8750 
  138.2500     2.1140    78.2430     7.8960     6.4670     9.0010    24.6330   -24.8400 
  138.3750     2.1280    77.1290     7.8880     6.4970     9.0480    24.6330   -24.7950 
  138.5000     2.1430    75.5340     7.7470     6.5540     9.1240    24.6330   -24.7540 
  138.6250     2.1550    75.5650     7.5160     6.6530     9.2840    24.6330   -24.7370 
  138.7500     2.1620    79.1690     7.3230     6.7660     9.5390    24.6330   -24.7720 
  138.8750     2.1640    84.5850     7.2430     6.8580     9.7630    24.6350   -24.8620 
  139.0000     2.1610    85.4690     7.2820     6.8970     9.7880    24.6540   -25.0030 
  139.1250     2.1510    80.4180     7.3710     6.8530     9.3940    24.7040   -25.2060 
  139.2500     2.1400    75.9520     7.4320     6.7460     8.8990    24.7600   -25.4520 
  139.3750     2.1340    74.9270     7.4580     6.6100     8.5600    24.7830   -25.7340 
  139.5000     2.1370    74.4020     7.4750     6.4910     8.5670    24.7860   -26.0220 
  139.6250     2.1380    72.2240     7.5370     6.4350     8.7700    24.7860   -26.2840 
  139.7500     2.1340    73.1290     7.6780     6.4380     8.8470    24.7860   -26.4910 
  139.8750     2.1290    76.9140     7.8760     6.4800     8.8580    24.7860   -26.6670 
  140.0000     2.1280    77.7980     8.0230     6.5340     8.9010    24.7840   -26.8080 
  140.1250     2.1290    72.7480     8.0160     6.5630     9.0020    24.7680   -26.8720 
  140.2500     2.1200    68.6040     7.8900     6.5480     9.0860    24.7220   -26.8260 
  140.3750     2.1030    69.1320     7.6980     6.4910     9.0800    24.6450   -26.6800 
  140.5000     2.0860    70.7450     7.4890     6.4130     8.9030    24.5590   -26.4480 
  140.6250     2.0770    69.4350     7.3150     6.3390     8.9240    24.4940   -26.1270 
  140.7500     2.0750    68.2580     7.1950     6.2910     9.0780    24.4140   -25.7390 
  140.8750     2.0820    70.2620     7.1220     6.2770     9.3000    24.2790   -25.3150 
  141.0000     2.0990    74.6280     7.0960     6.3020     9.4630    24.0660   -24.8420 
  141.1250     2.1200    77.0490     7.1380     6.3790     9.6050    23.8410   -24.3810 
  141.2500     2.1330    76.9410     7.2350     6.5100     9.8130    23.6220   -23.9650 
  141.3750     2.1350    76.6780     7.4010     6.6920    10.3920    23.5360   -23.6140 
  141.5000     2.1330    76.8200     7.6510     6.9010    12.0940    23.5230   -23.3210 
  141.6250     2.1330    76.1610     7.9250     7.0700    14.7730    23.5400   -23.1210 
  141.7500     2.1380    73.6690     8.0780     7.1310    15.5960    23.6010   -23.0000 
  141.8750     2.1470    69.8020     8.0240     7.0400    13.0420    23.7120   -22.9390 
  142.0000     2.1600    66.8560     7.7800     6.8130    10.7300    23.8270   -22.9600 
  142.1250     2.1710    66.7890     7.4470     6.5350     9.8550    23.9310   -23.0350 
  142.2500     2.1770    68.7390     7.1630     6.3130     9.6150    24.0130   -23.1460 
  142.3750     2.1750    71.3990     6.9980     6.1800     9.4410    24.0850   -23.2750 
  142.5000     2.1610    73.8020     6.9500     6.1060     9.3230    24.2330   -23.4290 
  142.6250     2.1320    74.3230     6.9590     6.0210     9.0780    24.4880   -23.5980 
  142.7500     2.1000    72.9000     6.9360     5.8730     8.6510    24.6900   -23.7860 
  142.8750     2.0770    72.6570     6.8550     5.6690     8.1520    24.7690   -23.9830 
  143.0000     2.0710    74.8310     6.7300     5.4610     7.8670    24.7840   -24.1670 
  143.1250     2.0790    77.9910     6.5900     5.3180     7.7320    24.7860   -24.3740 
  143.2500     2.0890    79.9530     6.4530     5.2520     7.6820    24.7860   -24.6000 
  143.3750     2.0940    80.1670     6.3330     5.2530     7.6870    24.7800   -24.8350 
  143.5000     2.0910    79.1910     6.2520     5.2950     7.7590    24.7460   -25.0390 
  143.6250     2.0790    78.9940     6.2560     5.3680     7.9820    24.6470   -25.1820 
  143.7500     2.0600    80.4290     6.3440     5.4650     8.3800    24.5130   -25.2280 
  143.8750     2.0380    81.1070     6.4870     5.5850     8.8130    24.3850   -25.1540 
  144.0000     2.0150    77.8450     6.6200     5.7070     8.9140    24.2940   -24.9340 
  144.1250     2.0080    73.8610     6.6440     5.7810     8.6940    24.2210   -24.5120 
  144.2500     2.0270    73.6460     6.5660     5.7850     8.4310    24.1180   -23.8990 
  144.3750     2.0690    75.6400     6.4360     5.7250     8.3940    24.0150   -23.1090 
  144.5000     2.1170    75.6560     6.3170     5.6290     8.5000    23.9670   -22.1570 
  144.6250     2.1570    73.8150     6.2620     5.5250     8.5590    23.9640   -21.0520 
  144.7500     2.1880    73.9390     6.2100     5.4040     8.4730    23.9720   -19.8920 
  144.8750     2.2090    76.5240     6.0670     5.2310     8.1160    24.0320   -18.7410 
