~V
VERS. 2.00: Ver 2.00
~W
STRT.M 54.0000:
STOP.M 217.0000:
STEP.M 0.1250:
NULL. -999.2500:
UWI. F10593:
~C
DEPT.M :
SP.MV :
GR.API :
RML.OHMM :
RI. :
RXO.OHMM :
CALI.CM :
DEN.GM/CC :
~A
# ...
   76.5000   -19.2840    55.7000    11.8530     9.9900    10.7260    24.7020     2.1640 
   76.6250   -19.2960    57.8460    11.9360    10.0470    11.2770    24.7110     2.1660 
   76.7500   -19.3190    60.5560    12.0080    10.1130    11.8700    24.7140     2.1690 
   76.8750   -19.4310    59.9080    12.0660    10.1760    12.0140    24.7080     2.1730 
   77.0000   -19.5610    57.4200    12.1050    10.2320    11.8180    24.6850     2.1780 
   77.1250   -19.6540    57.3880    12.1150    10.2720    11.6580    24.6590     2.1820 
   77.2500   -19.7190    60.0010    12.0890    10.2850    11.7620    24.6490     2.1820 
   77.3750   -19.7770    61.2070    12.0210    10.2610    11.9840    24.6480     2.1800 
   77.5000   -19.7540    60.3850    11.9380    10.2140    12.1330    24.6500     2.1780 
   77.6250   -19.6940    59.5300    11.8710    10.1610    11.9810    24.6510     2.1790 
   77.7500   -19.6210    60.6360    11.8360    10.1150    11.6110    24.6480     2.1830 
   77.8750   -19.4570    61.8960    11.8030    10.0650    11.4310    24.6420     2.1880 
   78.0000   -19.2840    62.0330    11.7060     9.9730    11.3990    24.6380     2.1940 
   78.1250   -19.1420    62.1250    11.5010     9.8070    11.4620    24.6340     2.2010 
   78.2500   -19.0240    62.1770    11.1960     9.5620    11.4640    24.6080     2.2080 
   78.3750   -18.9290    64.3030    10.8670     9.2770    10.7800    24.5780     2.2110 
   78.5000   -18.9610    67.3960    10.6370     9.0430     9.6790    24.6410     2.2090 
   78.6250   -19.0710    68.5700    10.5870     8.9320     9.3420    24.7980     2.2000 
   78.7500   -19.2350    66.1630    10.7420     8.9860    10.0290    24.9030     2.1910 
   78.8750   -19.4930    60.6820    11.0740     9.2110    10.6430    24.9040     2.1860 
   79.0000   -19.7720    56.8770    11.4510     9.5120    10.9380    24.8410     2.1860 
   79.1250   -20.0660    56.1140    11.7710     9.8040    11.4470    24.7730     2.1890 
   79.2500   -20.4070    56.0340    11.9650    10.0190    11.5000    24.7370     2.1900 
   79.3750   -20.7950    55.2060    12.0070    10.1100    11.3430    24.7340     2.1890 
   79.5000   -21.0740    55.2520    11.9650    10.1120    11.1630    24.7510     2.1850 
   79.6250   -21.2580    57.9790    11.8910    10.0610    11.1490    24.7860     2.1780 
   79.7500   -21.3540    61.0310    11.8220     9.9890    11.2080    24.8430     2.1690 
   79.8750   -21.3300    59.8220    11.7820     9.9170    11.3500    24.8840     2.1590 
   80.0000   -21.2420    56.8030    11.7670     9.8480    11.2610    24.9290     2.1510 
   80.1250   -21.0490    55.9250    11.7590     9.7710    11.0230    24.9830     2.1460 
   80.2500   -20.7720    58.3320    11.7210     9.6710    10.9600    25.0350     2.1440 
   80.3750   -20.4190    62.2200    11.5910     9.5240    11.0040    25.0540     2.1480 
   80.5000   -20.0730    64.7200    11.3620     9.3320    10.9750    25.0580     2.1560 
   80.6250   -19.7590    65.1070    11.0680     9.1130    10.7090    25.0320     2.1720 
   80.7500   -19.4450    64.5690    10.7770     8.9000    10.2080    24.9420     2.1960 
   80.8750   -19.1350    64.1000    10.5840     8.7480     9.4290    24.7560     2.2270 
   81.0000   -18.8630    64.7720    10.5110     8.6840     9.1390    24.6470     2.2540 
   81.1250   -18.6330    66.0210    10.5480     8.7130     9.4950    24.6240     2.2710 
   81.2500   -18.4410    66.1880    10.6520     8.8100     9.9960    24.6460     2.2720 
   81.3750   -18.2890    64.1900    10.7850     8.9360    10.1450    24.6650     2.2600 
   81.5000   -18.1010    62.3640    10.9200     9.0540     9.9230    24.6790     2.2390 
   81.6250   -17.8660    62.4570    11.0430     9.1440     9.6860    24.6780     2.2140 
   81.7500   -17.6410    64.5130    11.1030     9.1750     9.5050    24.6800     2.1860 
   81.8750   -17.3990    65.5140    10.9410     9.0430     9.5070    24.7130     2.1600 
   82.0000   -17.0940    65.8280    10.4440     8.6730     9.6190    24.7720     2.1490 
   82.1250   -16.7940    69.4380     9.5730     8.0310     9.5070    24.7920     2.1620 
   82.2500   -16.4760    77.1270     8.4500     7.1930     8.5240    24.7370     2.2020 
   82.3750   -16.1360    85.8310     7.3700     6.3520     7.1450    24.6290     2.2550 
   82.5000   -15.9150    92.0250     6.6210     5.7160     5.7810    24.5780     2.2990 
   82.6250   -15.7570    92.8580     6.3610     5.4060     5.2650    24.5880     2.3180 
   82.7500   -15.5920    86.7860     6.6500     5.4770     5.5640    24.6400     2.3070 
   82.8750   -15.5160    75.5260     7.5200     5.9790     6.8840    24.7310     2.2730 
   83.0000   -15.4690    67.8870     8.7160     6.7610     8.6690    24.8530     2.2340 
   83.1250   -15.3480    65.8400     9.9720     7.6700     9.7680    24.9660     2.2000 
   83.2500   -15.1850    65.6950    10.9720     8.5020    10.0970    24.9680     2.1770 
   83.3750   -14.9860    66.9650    11.3490     8.9780     9.8650    24.8140     2.1690 
   83.5000   -14.6510    70.7350    11.1310     9.0270     9.5910    24.6160     2.1730 
   83.6250   -14.2630    76.7900    10.4510     8.6750     9.2490    24.4960     2.1890 
   83.7500   -13.9140    83.6380     9.5230     8.0450     8.7210    24.4600     2.2160 
   83.8750   -13.5050    89.6730     8.5930     7.3130     7.6370    24.4440     2.2500 
   84.0000   -13.1070    93.6130     7.8560     6.6660     6.5730    24.4030     2.2810 
   84.1250   -12.7980    93.5880     7.4060     6.2000     6.0390    24.3480     2.3070 
   84.2500   -12.5310    90.1160     7.2500     5.9430     5.8330    24.2860     2.3280 
   84.3750   -12.2680    88.1960     7.3380     5.8870     5.9230    24.2280     2.3450 
   84.5000   -12.0050    89.4500     7.4950     5.9220     6.2300    24.1760     2.3590 
   84.6250   -11.7260    92.3950     7.6040     5.9690     6.6830    24.1350     2.3630 
   84.7500   -11.4010    95.2930     7.6050     5.9770     6.2470    24.1040     2.3550 
   84.8750   -11.1120    95.1280     7.5050     5.9290     5.8300    24.0940     2.3370 
   85.0000   -10.8430    90.7160     7.3840     5.8590     5.6190    24.1220     2.3200 
   85.1250   -10.5330    84.5240     7.2820     5.7930     5.6710    24.2140     2.3100 
   85.2500   -10.2080    81.2340     7.2140     5.7420     5.7600    24.2960     2.3120 
   85.3750    -9.9380    82.5850     7.1770     5.7120     5.7930    24.3690     2.3250 
   85.5000    -9.7800    83.9490     7.1670     5.6990     5.9820    24.3960     2.3400 
   85.6250    -9.6750    84.0950     7.1940     5.7120     6.1550    24.4080     2.3470 
   85.7500    -9.5760    83.6350     7.2690     5.7550     6.1650    24.4320     2.3390 
   85.8750    -9.5080    83.9080     7.3930     5.8290     6.5440    24.5290     2.3130 
   86.0000    -9.4540    85.7040     7.5470     5.9260     6.9360    24.6900     2.2790 
   86.1250    -9.4310    88.1050     7.7340     6.0530     7.1100    24.8460     2.2480 
   86.2500    -9.4500    88.7290     7.9750     6.2260     6.6320    24.9250     2.2350 
   86.3750    -9.4610    87.0880     8.2920     6.4590     6.5750    24.9270     2.2510 
   86.5000    -9.4330    86.3270     8.6200     6.7070     7.0010    24.8870     2.2880 
   86.6250    -9.3780    87.2800     8.8440     6.8910     8.1090    24.8210     2.3320 
   86.7500    -9.3100    88.9860     8.8300     6.9180     9.7410    24.7450     2.3680 
   86.8750    -9.2310    89.5290     8.4600     6.6990     9.0490    24.6960     2.3800 
   87.0000    -9.1480    90.6020     7.8820     6.3130     7.1940    24.6480     2.3710 
   87.1250    -9.0500    95.1400     7.2780     5.8660     6.0970    24.6080     2.3530 
   87.2500    -8.9590   102.3280     6.8120     5.4700     5.8220    24.5850     2.3340 
   87.3750    -8.8870   107.3200     6.5980     5.2190     5.7630    24.5820     2.3230 
   87.5000    -8.8040   108.7230     6.5690     5.0980     5.6630    24.5810     2.3200 
   87.6250    -8.7320   108.7760     6.6460     5.0740     5.6390    24.5810     2.3200 
