~V
VERS. 2.00: Ver 2.00
~W
STRT.M 55.0000:
STOP.M 318.0000:
STEP.M 0.1250:
NULL. -999.2500:
UWI. F10558:
~C
DEPT.M :
DEN.GM/CC :
GR.API :
RML.OHMM :
RI. :
RXO.OHMM :
CALI.CM :
SP.MV :
~A
   55.0000     1.8900    56.4080     4.0590     0.1190     1.0620    25.0880    52.2250 
   55.1250     1.8920    56.3750     4.9470     0.1360     1.0830    25.1000    51.8380 
   55.2500     1.8920    54.7080     5.8390     0.1430     1.1300    25.1020    51.3810 
   55.3750     1.8920    52.9570     6.4920     0.1410     1.1740    25.1020    50.8500 
   55.5000     1.8960    50.9980     6.6260     0.1330     1.2070    25.1100    50.2730 
   55.6250     1.9030    47.6390     5.9300     0.1230     1.2370    25.1540    49.6050 
   55.7500     1.9100    43.5570     4.7910     0.1160     1.2610    25.2770    48.8910 
   55.8750     1.9150    40.2510     3.8470     0.1170     1.3390    25.4810    48.0580 
   56.0000     1.9220    38.6090     3.5350     0.1270     1.4780    25.7040    47.0450 
   56.1250     1.9330    38.8080     3.6700     0.1400     2.2680    25.8140    45.8190 
   56.2500     1.9470    40.4140     3.5500     0.1560     5.7250    25.8450    44.4360 
   56.3750     1.9580    43.7030     2.8920     0.1730    85.6860    25.8480    42.9950 
   56.5000     1.9650    47.9080     1.8800     0.1900  2233.2430    25.8470    41.6080 
   56.6250     1.9630    50.0690     1.0380     0.2060  2233.2440    25.8460    40.3990 
   56.7500     1.9520    48.5130     0.6850     0.2210  2233.2440    25.8450    39.4050 
   56.8750     1.9410    45.4560     0.7880     0.2280  2233.2440    25.8470    38.6620 
   57.0000     1.9460    43.9190     1.0590     0.2250  2233.2440    25.8480    38.2030 
   57.1250     1.9740    44.0580     1.2150     0.2080  2233.2440    25.8480    38.0430 
   57.2500     2.0160    43.3320     1.1910     0.1810  2233.2440    25.8480    38.0870 
   57.3750     2.0690    42.2930     1.0540     0.1450  2233.2440    25.8470    38.2090 
   57.5000     2.1340    42.7270     0.9230     0.1040   184.5240    25.8400    38.1850 
   57.6250     2.2100    43.9230     0.9220     0.0650    19.8620    25.8180    37.6420 
   57.7500     2.2990    44.1530     1.1290     0.0330     5.3120    25.7930    36.2050 
   57.8750     2.4060    45.0440     1.4820     0.0150     2.4260    25.7830    33.6100 
   58.0000     2.5180    48.6750     1.8220     0.0280     1.7330    25.7810    29.7940 
   58.1250     2.5710    54.7500     2.1120     0.1730     1.8420    25.7850    24.8530 
   58.2500     2.5270    61.8290     2.7310     0.6180     2.6010    25.8160    19.3630 
   58.3750     2.4140    71.3130     4.8460     1.8570     4.3870    25.9170    13.5620 
   58.5000     2.2830    83.1120    12.1280     5.3670     5.4890    26.1300     7.6270 
   58.6250     2.1750    92.1690    40.7660    16.0100     5.7760    26.4010     1.9370 
   58.7500     2.1060    94.4520    64.7740    29.7490     6.1920    26.4940    -3.1030 
   58.8750     2.0790    89.7500    42.5810    29.3280     7.3590    26.2890    -7.1630 
   59.0000     2.0900    82.2950    23.2640    19.6120     8.4960    26.0350   -10.1090 
   59.1250     2.1080    78.2720    16.2850    13.2830     8.9740    25.9340   -12.0040 
   59.2500     2.1090    76.9940    13.0160     9.9740     8.8820    25.9170   -13.3130 
   59.3750     2.1020    75.1370    11.2840     8.4200     8.6230    25.8730   -14.2190 
   59.5000     2.1090    71.6980    10.1420     7.7940     8.4030    25.7490   -14.7660 
   59.6250     2.1350    71.0690     9.2440     7.5060     8.4130    25.5230   -14.9410 
   59.7500     2.1620    73.7090     8.4310     7.2930     8.4790    25.4230   -14.8200 
   59.8750     2.1800    77.0670     7.6710     7.1370     8.4150    25.3980   -14.4930 
   60.0000     2.1910    80.0900     6.9650     6.9860     8.1580    25.3980   -14.0450 
   60.1250     2.2070    86.4960     6.4350     6.7400     7.6980    25.3870   -13.4720 
   60.2500     2.2330    99.2390     6.1470     6.3900     7.0540    25.3600   -12.8780 
   60.3750     2.2610   116.6100     6.0040     5.9970     6.5450    25.3330   -12.2800 
   60.5000     2.2830   132.1220     5.8360     5.6530     6.2800    25.3220   -11.6880 
   60.6250     2.2920   138.4820     5.5870     5.4560     6.0940    25.3220   -11.2360 
   60.7500     2.2940   137.6460     5.3530     5.4070     6.0010    25.3220   -10.9550 
   60.8750     2.2920   132.6970     5.2650     5.4850     6.0160    25.3220   -10.8160 
   61.0000     2.2890   127.5100     5.4370     5.6430     6.2020    25.3220   -10.7960 
   61.1250     2.2870   126.7000     5.8180     5.8140     6.2660    25.3220   -10.8860 
   61.2500     2.2870   128.3360     6.1590     5.9390     6.1650    25.3220   -11.0520 
   61.3750     2.2860   127.2280     6.3470     6.0010     6.0880    25.3220   -11.2360 
   61.5000     2.2810   122.7670     6.4150     6.0160     6.3790    25.3220   -11.3990 
   61.6250     2.2740   118.1650     6.4290     6.0160     6.6890    25.3220   -11.5720 
   61.7500     2.2730   115.5200     6.3140     6.0150     6.5030    25.3220   -11.7930 
   61.8750     2.2770   115.9320     6.0550     6.0330     6.3430    25.3220   -12.0870 
   62.0000     2.2770   117.4210     5.8190     6.1290     7.3500    25.3220   -12.4670 
   62.1250     2.2640   116.7200     5.9280     6.3910     9.2900    25.3220   -12.9590 
   62.2500     2.2500   113.2990     6.6230     6.7730     9.6360    25.3220   -13.4760 
   62.3750     2.2440   108.9730     7.8730     7.1780     8.4260    25.3220   -14.0120 
   62.5000     2.2410   104.5640     9.1670     7.4990     7.8960    25.3220   -14.5840 
   62.6250     2.2420    99.3690     9.7120     7.6680     8.3390    25.3220   -15.0980 
   62.7500     2.2470    95.7420     9.4250     7.7400     9.0330    25.3220   -15.5020 
   62.8750     2.2520    92.5510     8.6300     7.7260     9.3720    25.3220   -15.8150 
   63.0000     2.2460    89.9620     7.7470     7.5850     8.5230    25.3220   -16.0420 
   63.1250     2.2260    91.1710     7.1670     7.2640     7.7300    25.3220   -16.1830 
   63.2500     2.2030    94.8590     6.9300     6.8850     7.2890    25.3210   -16.3070 
   63.3750     2.1860    98.5840     6.8790     6.5890     7.1740    25.3200   -16.3750 
   63.5000     2.1750   100.3620     6.8370     6.4610     7.3470    25.3150   -16.3890 
   63.6250     2.1790   100.8670     6.7110     6.5120     7.5410    25.3130   -16.3890 
   63.7500     2.1980   100.5010     6.5270     6.6400     7.5340    25.3140   -16.3880 
   63.8750     2.2280   100.0930     6.4160     6.7820     7.5100    25.3180   -16.3700 
   64.0000     2.2620   102.3080     6.5660     6.9250     7.7980    25.3210   -16.3880 
   64.1250     2.2950   106.5120     7.0490     7.0890     8.1690    25.3200   -16.4490 
   64.2500     2.3180   107.0020     7.5640     7.2560     8.4120    25.3160   -16.4880 
   64.3750     2.3130   101.6040     7.8390     7.3660     8.6470    25.3170   -16.5780 
   64.5000     2.2830    94.2810     7.7320     7.3640     8.3430    25.3200   -16.7530 
   64.6250     2.2570    90.6540     7.3900     7.2530     8.0450    25.3240   -16.9840 
   64.7500     2.2530    90.0050     7.2570     7.1850     7.6060    25.3370   -17.2990 
   64.8750     2.2620    90.6040     7.6700     7.3440     7.5960    25.3680   -17.7200 
   65.0000     2.2670    89.1350     8.8380     7.9250     8.3260    25.3940   -18.1440 
   65.1250     2.2650    82.8890    10.9140     9.1900    11.0890    25.4290   -18.5120 
   65.2500     2.2620    76.2080    13.4630    11.0090    18.0400    25.4930   -18.9040 
   65.3750     2.2500    73.4350    15.7610    12.9660    33.8700    25.5820   -19.3050 
   65.5000     2.2170    75.2520    16.7560    14.2110    57.4110    25.6980   -19.6940 
   65.6250     2.1690    76.4040    15.5590    13.7210    46.6550    25.7910   -20.0840 
   65.7500     2.1400    75.7510    13.3020    12.1090    23.3510    25.8370   -20.4410 
   65.8750     2.1400    76.4240    11.1420    10.3040    12.7860    25.8470   -20.7480 
   66.0000     2.1540    80.3850     9.7070     8.9250    10.1460    25.8480   -21.0050 
   66.1250     2.1530    84.5740     9.1670     8.1930    10.0120    25.8480   -21.2220 
