~V
VERS. 2.00: Ver 2.00
~W
STRT.M 40.0000:
STOP.M 191.0000:
STEP.M 0.1250:
NULL. -999.2500:
UWI. F10585:
~C
DEPT.M :
DEN.GM/CC :
SP.MV :
GR.API :
RML.OHMM :
RI. :
RXO.OHMM :
CALI.CM :
~A
# ...
  163.7500     2.1900   -19.4450    70.4410    36.9760    36.4920    38.6430    24.0480 
  163.8750     2.1820   -19.6880    71.3330    37.2770    36.9280    40.3270    24.0480 
  164.0000     2.1760   -19.8700    71.8000    38.6930    38.3600    42.5450    24.0480 
  164.1250     2.1750   -19.9970    70.4500    41.1690    40.9040    46.0160    24.0480 
  164.2500     2.1700   -20.0420    69.8490    44.2280    44.2520    50.1610    24.0480 
  164.3750     2.1560   -20.0550    70.1490    47.5820    48.0800    53.6940    24.0480 
  164.5000     2.1460   -20.0300    69.2880    51.0610    51.8670    58.6110    24.0480 
  164.6250     2.1520   -19.9700    67.0540    54.5560    54.9280    63.3500    24.0480 
  164.7500     2.1550   -19.8850    66.6070    57.9550    57.1740    66.6290    24.0480 
  164.8750     2.1400   -19.8230    68.0980    61.2200    58.8830    71.5380    24.0480 
  165.0000     2.1220   -19.7760    68.6370    64.4660    60.5560    76.6540    24.0480 
  165.1250     2.1310   -19.7060    65.8050    68.1420    62.8690    79.9090    24.0480 
  165.2500     2.1750   -19.6270    63.0690    72.6240    66.1390    86.4910    24.0480 
  165.3750     2.2520   -19.5340    62.7980    77.8060    70.3260    98.2000    24.0470 
  165.5000     2.3580   -19.4350    64.3380    82.6070    74.4110   105.0570    24.0390 
  165.6250     2.4760   -19.2630    67.2400    83.0720    74.4800   109.2050    24.0160 
  165.7500     2.5630   -19.0700    69.4930    75.6140    67.1340   115.3060    23.9930 
  165.8750     2.5830   -18.7760    68.7250    60.1960    52.5630   117.0670    23.9850 
  166.0000     2.5360   -18.3200    68.7070    42.0060    35.6930   103.2840    23.9850 
  166.1250     2.4590   -17.7620    75.7770    27.6360    22.5930    52.9840    23.9870 
  166.2500     2.4020   -17.1180    84.9740    18.1960    14.2450    24.4290    23.9890 
  166.3750     2.3770   -16.4330    89.7720    12.6890     9.6710    11.4830    23.9930 
  166.5000     2.3730   -15.7390    92.0920     9.8070     7.5330     8.7480    24.0020 
  166.6250     2.3770   -15.0320    96.3430     8.7220     6.9190     9.1390    24.0040 
  166.7500     2.3830   -14.3580    98.6880     8.5470     6.9630     9.4040    23.9940 
  166.8750     2.3880   -13.7840    97.6170     8.9100     7.3070     9.5490    23.9820 
  167.0000     2.3880   -13.3600    97.1240     9.4600     7.6800     9.6990    23.9770 
  167.1250     2.3880   -13.1090   104.4640     9.8440     7.8770     9.8810    23.9770 
  167.2500     2.3890   -12.9980   117.3590     9.9580     7.9100     9.8780    23.9770 
  167.3750     2.3910   -13.0150   129.0260     9.8630     7.8400     9.5890    23.9750 
  167.5000     2.3910   -13.1790   136.1720     9.7090     7.7520     9.4760    23.9610 
  167.6250     2.3880   -13.4860   138.2620     9.7270     7.8020     9.8690    23.9150 
  167.7500     2.3900   -13.8570   136.8030    10.0830     8.1380    10.3350    23.8400 
  167.8750     2.4010   -14.2690   130.8010    10.9000     8.8990    11.1600    23.7420 
  168.0000     2.4060   -14.6690   120.9410    12.2530    10.1470    12.6040    23.6020 
  168.1250     2.3820   -15.0420   111.1990    14.1720    11.8450    16.1070    23.4580 
  168.2500     2.3390   -15.4060   104.9940    16.3080    13.6530    19.1090    23.3420 
  168.3750     2.3030   -15.6960   103.0860    18.2810    15.2980    19.9580    23.2690 
  168.5000     2.2890   -15.8920   102.9420    19.7900    16.6500    19.5960    23.2080 
  168.6250     2.2970   -16.0430   101.6570    20.7790    17.7960    19.8140    23.1510 
  168.7500     2.3100   -16.1520    99.3450    21.6970    19.0630    21.2720    23.0990 
  168.8750     2.3160   -16.2470    96.5330    22.9220    20.6600    23.4810    23.0360 
  169.0000     2.3100   -16.3390    93.3480    24.6190    22.5770    24.7710    22.9330 
  169.1250     2.2950   -16.4150    88.6500    26.5860    24.5380    25.5000    22.8300 
  169.2500     2.2840   -16.4890    84.0160    28.2400    26.0850    27.5110    22.7550 
  169.3750     2.2800   -16.5400    83.0060    29.0750    26.8920    28.5500    22.7290 
  169.5000     2.2820   -16.5900    86.2910    28.9090    26.9070    26.5880    22.7230 
  169.6250     2.2870   -16.6580    88.0220    28.0870    26.4810    23.8990    22.7000 
  169.7500     2.2920   -16.7130    85.6300    27.4830    26.3060    25.3370    22.6520 
  169.8750     2.2950   -16.7590    81.7520    27.6660    26.8390    26.7700    22.6050 
  170.0000     2.3000   -16.8600    78.5310    29.0000    28.4020    28.4610    22.5830 
  170.1250     2.3130   -16.9670    76.0850    31.9110    31.3340    36.0550    22.5830 
  170.2500     2.3330   -17.0650    72.4550    36.0510    35.2180    45.0960    22.5830 
  170.3750     2.3470   -17.2050    68.4110    40.9240    39.4450    47.9370    22.5830 
  170.5000     2.3450   -17.3440    66.9070    45.8300    43.1900    44.1490    22.5870 
  170.6250     2.3260   -17.4710    68.5110    49.8950    45.6790    46.0990    22.6110 
  170.7500     2.3080   -17.5980    70.5200    52.7280    47.1580    51.3220    22.6780 
  170.8750     2.3010   -17.7200    71.7590    54.2030    47.9740    51.1410    22.8050 
  171.0000     2.3040   -17.7910    74.0570    54.4940    48.3360    49.4020    23.0550 
  171.1250     2.3080   -17.8770    74.9410    53.8060    48.0790    58.0310    23.4120 
  171.2500     2.3100   -17.9620    73.9690    52.5900    47.2700    63.1440    23.7470 
  171.3750     2.3180   -18.0440    75.7250    51.2080    46.2490    61.6570    23.9260 
  171.5000     2.3290   -18.1520    79.0890    50.2130    45.6630    56.8670    23.9740 
  171.6250     2.3300   -18.2500    79.2530    50.5140    46.4500    55.2780    23.9700 
  171.7500     2.3130   -18.3790    77.1550    52.5480    48.9280    58.0050    23.9680 
  171.8750     2.2870   -18.5120    75.2350    56.7010    53.4440    60.6110    23.9680 
  172.0000     2.2620   -18.6730    73.1750    63.1960    60.2550    72.3440    23.9680 
  172.1250     2.2440   -18.8320    70.4630    72.2240    69.5880    99.8780    23.9680 
  172.2500     2.2310   -18.9910    69.3020    82.7020    80.3990   108.4430    23.9640 
  172.3750     2.2190   -19.1500    68.6630    93.7480    91.7890   103.8740    23.9350 
  172.5000     2.2110   -19.2900    67.0370   104.3800   102.7100   108.7900    23.8540 
  172.6250     2.2160   -19.4040    65.2640   112.7730   111.2260   118.3070    23.6990 
  172.7500     2.2300   -19.4900    64.2780   117.6130   115.9350   128.0680    23.5850 
  172.8750     2.2370   -19.5800    64.0500   118.1800   115.9960   134.9950    23.6420 
  173.0000     2.2330   -19.6400    64.1540   114.8170   111.9390   131.3360    23.8750 
  173.1250     2.2280   -19.6770    64.2970   108.6150   105.3990   114.3720    24.0040 
  173.2500     2.2320   -19.7140    64.4190   101.8440    98.7710   104.1020    24.0390 
  173.3750     2.2400   -19.7230    65.3890    95.5200    92.8120   105.5170    24.0350 
  173.5000     2.2460   -19.6840    66.6820    89.6800    87.0850   107.2650    24.0210 
  173.6250     2.2470   -19.6390    66.3630    83.7160    80.2520   103.1260    23.9920 
  173.7500     2.2480   -19.5870    65.6280    77.1670    72.0050    89.8810    23.9740 
  173.8750     2.2490   -19.4990    66.3400    70.0420    63.1000    76.4470    23.9680 
  174.0000     2.2530   -19.3920    68.7740    62.8230    54.8730    69.3140    23.9680 
  174.1250     2.2630   -19.2480    71.6910    56.4750    48.6410    63.3180    23.9680 
  174.2500     2.2800   -19.0730    73.7110    51.5000    44.3140    56.8570    23.9680 
  174.3750     2.3010   -18.8880    75.2900    48.0920    41.5750    51.7890    23.9680 
  174.5000     2.3300   -18.7160    76.6030    46.1900    40.0330    49.4470    23.9680 
  174.6250     2.3720   -18.5490    77.6000    45.5270    39.3350    49.2450    23.9680 
  174.7500     2.4180   -18.3450    78.4380    44.7880    38.5420    47.8820    23.9680 
  174.8750     2.4430   -18.1220    79.7710    42.4980    36.5950    44.6560    23.9680 
