~V
VERS. 2.00: Ver 2.00
~W
STRT.M 42.0000:
STOP.M 223.0000:
STEP.M 0.1250:
NULL. -999.2500:
UWI. F10538:
~C
DEPT.M :
DEN.GM/CC :
SP.MV :
GR.API :
RML.OHMM :
RI. :
RXO.OHMM :
CALI.CM :
~A
# ...
   98.2500     2.2020   -37.1130    69.4660     9.8900     8.1570     9.7040    24.6300 
   98.3750     2.1510   -37.0870    72.0910     8.5630     7.1400     8.5560    24.6980 
   98.5000     2.1370   -37.0590    75.3280     7.8330     6.4670     8.5100    24.7020 
   98.6250     2.1420   -37.0300    76.6230     7.6540     6.1830     8.4190    24.7170 
   98.7500     2.1470   -36.9440    74.3640     7.7800     6.1740     8.2050    24.7510 
   98.8750     2.1470   -36.7760    70.3900     7.9310     6.2640     7.9880    24.7540 
   99.0000     2.1470   -36.5690    68.0420     7.9820     6.3270     7.9400    24.6820 
   99.1250     2.1470   -36.3210    67.1800     7.9530     6.3560     7.9660    24.5040 
   99.2500     2.1490   -36.0240    67.8920     7.8880     6.3710     8.0200    24.3370 
   99.3750     2.1530   -35.6610    69.9970     7.8140     6.3900     8.1110    24.2740 
   99.5000     2.1560   -35.2320    72.6910     7.7340     6.4120     8.0450    24.2650 
   99.6250     2.1560   -34.7240    75.3750     7.6360     6.4220     7.8710    24.2610 
   99.7500     2.1520   -34.1400    76.5690     7.5000     6.4000     7.6430    24.2330 
   99.8750     2.1500   -33.4740    77.0140     7.2990     6.3170     7.4230    24.1610 
  100.0000     2.1560   -32.7130    79.8270     7.0330     6.1730     7.2790    24.1140 
  100.1250     2.1740   -31.9060    86.2900     6.6810     5.9570     7.0610    24.1900 
  100.2500     2.2040   -31.0780    95.1370     6.2210     5.6480     6.5740    24.3720 
  100.3750     2.2480   -30.2210   107.4740     5.6560     5.2240     5.6030    24.4990 
  100.5000     2.2960   -29.4010   122.0130     5.1020     4.7580     4.9390    24.5460 
  100.6250     2.3360   -28.6260   133.3980     4.6770     4.3460     4.7490    24.5530 
  100.7500     2.3590   -27.9430   138.6500     4.4580     4.0690     4.7440    24.5510 
  100.8750     2.3670   -27.3650   141.1720     4.4750     3.9820     4.7190    24.5520 
  101.0000     2.3700   -26.9210   142.6800     4.6070     4.0020     4.5810    24.5500 
  101.1250     2.3730   -26.6150   141.6360     4.7440     4.0460     4.3990    24.5340 
  101.2500     2.3760   -26.4130   137.8400     4.8010     4.0410     4.2100    24.5020 
  101.3750     2.3790   -26.3520   134.2920     4.7500     3.9570     4.0770    24.4860 
  101.5000     2.3810   -26.3620   133.4580     4.6740     3.8540     3.9490    24.4810 
  101.6250     2.3830   -26.4910   135.9510     4.6750     3.8020     3.8890    24.4810 
  101.7500     2.3910   -26.7140   137.7560     4.8880     3.8920     3.9460    24.4810 
  101.8750     2.4110   -27.0520   132.7770     5.6500     4.3190     4.3580    24.4810 
  102.0000     2.4440   -27.4750   123.2070     7.3190     5.2840     5.3470    24.4760 
  102.1250     2.4910   -27.9620   112.0820    10.3510     7.1140     7.6960    24.4590 
  102.2500     2.5490   -28.5290   101.8260    14.9770    10.1100    12.6370    24.4220 
  102.3750     2.5980   -29.1150    91.6050    20.5490    14.2070    23.0040    24.3850 
  102.5000     2.6100   -29.7350    80.3250    24.2730    17.5810    32.8170    24.3300 
  102.6250     2.5630   -30.3270    71.0060    23.4680    18.0400    34.2120    24.2660 
  102.7500     2.4600   -30.8930    68.6760    18.6290    15.3960    24.7470    24.2120 
  102.8750     2.3360   -31.3860    74.1710    13.4590    11.9060    14.5130    24.2080 
  103.0000     2.2430   -31.8030    79.4540    10.1660     9.3660     9.8160    24.2460 
  103.1250     2.1970   -32.1600    80.4500     8.6560     7.9470     8.5790    24.2980 
  103.2500     2.1860   -32.4260    76.5910     8.3160     7.3820     8.4340    24.3260 
  103.3750     2.1870   -32.6210    70.2060     8.6230     7.3860     8.3670    24.3310 
  103.5000     2.1860   -32.7630    66.6230     9.0570     7.5840     8.2950    24.3310 
  103.6250     2.1830   -32.8870    66.6780     9.3980     7.7950     8.2460    24.3310 
  103.7500     2.1800   -32.9960    68.0310     9.5730     7.9380     8.1880    24.3310 
  103.8750     2.1730   -33.0880    68.6640     9.6130     8.0040     8.2830    24.3310 
  104.0000     2.1640   -33.1800    69.3780     9.6080     8.0330     8.4000    24.3310 
  104.1250     2.1550   -33.2630    70.5890     9.5910     8.0400     8.4270    24.3310 
  104.2500     2.1520   -33.3580    72.3880     9.5750     8.0350     8.3600    24.3310 
  104.3750     2.1550   -33.4550    72.7480     9.5670     8.0290     8.4670    24.3310 
  104.5000     2.1610   -33.5420    70.1560     9.5780     8.0370     8.6200    24.3310 
  104.6250     2.1670   -33.6300    66.2600     9.6120     8.0620     8.7140    24.3310 
  104.7500     2.1720   -33.7200    64.6590     9.6610     8.0970     8.7010    24.3320 
  104.8750     2.1750   -33.8140    67.0460     9.6980     8.1200     8.6230    24.3770 
  105.0000     2.1740   -33.9130    70.2530     9.7070     8.1200     8.5860    24.4800 
  105.1250     2.1670   -34.0040    71.9820     9.6930     8.1010     8.5940    24.5800 
  105.2500     2.1560   -34.1010    72.0280     9.6740     8.0780     8.5950    24.6230 
  105.3750     2.1480   -34.1870    71.5720     9.6770     8.0660     8.5050    24.6230 
  105.5000     2.1470   -34.2790    72.2420     9.6990     8.0650     8.4620    24.6230 
  105.6250     2.1520   -34.3570    74.5690     9.7160     8.0650     8.4610    24.6230 
  105.7500     2.1580   -34.4200    75.8770     9.7050     8.0520     8.4780    24.6230 
  105.8750     2.1620   -34.4780    72.9870     9.6460     8.0150     8.5650    24.6230 
  106.0000     2.1620   -34.5190    69.2940     9.5620     7.9590     8.6820    24.6230 
  106.1250     2.1560   -34.5310    68.6570     9.4770     7.8970     8.7870    24.6230 
  106.2500     2.1410   -34.5130    70.8020     9.4150     7.8410     8.7800    24.6200 
  106.3750     2.1240   -34.4880    72.6660     9.3890     7.8070     8.7110    24.5840 
  106.5000     2.1140   -34.4530    73.3940     9.3830     7.7930     8.7540    24.5040 
  106.6250     2.1180   -34.4050    72.9110     9.3860     7.7950     8.8490    24.4170 
  106.7500     2.1310   -34.3260    70.2800     9.3850     7.8060     8.9140    24.3560 
  106.8750     2.1460   -34.2110    67.4120     9.3800     7.8190     8.9000    24.3370 
  107.0000     2.1580   -34.0710    66.9430     9.3730     7.8300     8.8770    24.3310 
  107.1250     2.1650   -33.9450    68.3180     9.3650     7.8380     8.9350    24.3310 
  107.2500     2.1670   -33.7970    70.5750     9.3530     7.8430     9.0570    24.3310 
  107.3750     2.1640   -33.6470    72.6730     9.3320     7.8410     9.1600    24.3310 
  107.5000     2.1610   -33.4780    73.9560     9.3010     7.8300     9.2240    24.3310 
  107.6250     2.1610   -33.3090    73.8180     9.2640     7.8070     9.1810    24.3310 
  107.7500     2.1650   -33.1460    73.9760     9.2240     7.7710     9.0580    24.3310 
  107.8750     2.1710   -33.0110    74.2460     9.1830     7.7220     8.9550    24.3310 
  108.0000     2.1730   -32.9000    73.4580     9.1470     7.6710     8.9070    24.3310 
  108.1250     2.1720   -32.8070    72.9760     9.1210     7.6280     8.9460    24.3310 
  108.2500     2.1690   -32.7450    73.2570     9.1040     7.5980     8.9820    24.3310 
  108.3750     2.1690   -32.7070    74.9610     9.0960     7.5800     8.9490    24.3310 
  108.5000     2.1660   -32.6940    76.3020     9.0900     7.5660     8.8940    24.3260 
  108.6250     2.1620   -32.7270    76.8100     9.0880     7.5510     8.7820    24.3090 
  108.7500     2.1580   -32.7840    75.9660     9.0910     7.5370     8.6420    24.2780 
  108.8750     2.1560   -32.8470    71.7390     9.0980     7.5270     8.5610    24.2640 
  109.0000     2.1550   -32.9190    68.6210     9.0980     7.5150     8.5860    24.2590 
  109.1250     2.1550   -32.9820    68.6300     9.0830     7.4940     8.5020    24.2610 
  109.2500     2.1540   -33.0420    70.4920     9.0520     7.4610     8.3670    24.2610 
  109.3750     2.1540   -33.0870    69.3090     9.0160     7.4240     8.2800    24.2580 
