~V
VERS. 2.00: Ver 2.00
~W
STRT.M 58.0000:
STOP.M 214.0000:
STEP.M 0.1250:
NULL. -999.2500:
UWI. F10594:
~C
DEPT.M :
GR.API :
RML.OHMM :
RI. :
RXO.OHMM :
CALI.CM :
DEN.GM/CC :
SP.MV :
~A
# ...
  114.2500    81.1250     8.9520     8.1170     6.6800    23.7710     2.3050   -21.8750 
  114.3750    81.6970     8.8320     7.7800     7.1160    23.8710     2.3010   -21.9380 
  114.5000    85.2060     9.0160     7.8240     7.6920    24.0250     2.3100   -21.9800 
  114.6250    84.2950     9.4400     8.1420     8.0750    24.1750     2.3200   -22.0000 
  114.7500    82.6570    10.2810     8.7660     8.1770    24.2660     2.3080   -22.0070 
  114.8750    83.1350    11.9870     9.9590     8.5080    24.2760     2.2670   -21.9980 
  115.0000    81.4230    15.1360    12.1370    10.7980    24.3170     2.2140   -21.9740 
  115.1250    71.4560    20.6850    16.1350    19.9570    24.5350     2.1850   -21.9300 
  115.2500    59.7760    28.5050    22.0800    38.8640    24.7980     2.2030   -21.8730 
  115.3750    53.8140    37.9080    29.5900    57.5840    24.8940     2.2660   -21.8100 
  115.5000    51.5550    47.0070    37.0920    61.7790    24.7270     2.3370   -21.7500 
  115.6250    48.4210    52.6140    41.7040    50.2470    24.2780     2.3620   -21.6920 
  115.7500    47.1860    54.3910    42.9900    38.4900    23.7970     2.3440   -21.6340 
  115.8750    47.4910    53.6780    42.0770    33.7060    23.4560     2.3170   -21.5770 
  116.0000    47.4720    51.9680    40.2760    34.8070    23.1030     2.3150   -21.5250 
  116.1250    49.2100    49.8640    38.2210    34.8070    22.7470     2.3550   -21.4790 
  116.2500    53.5310    47.5320    36.1110    32.2770    22.5000     2.4080   -21.4350 
  116.3750    55.2690    45.2560    34.1390    28.0020    22.3420     2.4450   -21.3920 
  116.5000    51.0590    43.5650    32.6360    26.1250    22.2700     2.4480   -21.3550 
  116.6250    46.8000    43.1450    32.0800    26.6540    22.2720     2.4230   -21.3280 
  116.7500    46.8410    43.8250    32.4060    28.4130    22.3570     2.3930   -21.3080 
  116.8750    48.7520    45.0570    33.3410    31.9110    22.5600     2.3700   -21.2940 
  117.0000    50.1470    45.8730    34.2980    37.9430    22.8270     2.3590   -21.2830 
  117.1250    51.9860    44.9170    34.2940    39.7350    23.0220     2.3620   -21.2800 
  117.2500    55.1590    42.2000    33.0340    34.6940    23.0900     2.3710   -21.2940 
  117.3750    56.9380    38.5320    30.8750    28.2380    23.0050     2.3740   -21.3300 
  117.5000    55.2360    34.9700    28.5130    25.0530    22.7900     2.3600   -21.3880 
  117.6250    52.9210    32.0990    26.4330    23.2630    22.6410     2.3280   -21.4680 
  117.7500    54.3450    29.4790    24.4690    22.8770    22.6940     2.2940   -21.5660 
  117.8750    58.4530    26.5990    22.2960    24.7530    22.9290     2.2760   -21.6770 
  118.0000    62.5830    23.2860    19.7870    28.0750    23.2020     2.2880   -21.7980 
  118.1250    64.2310    19.9240    17.1930    26.5680    23.2690     2.3370   -21.9200 
  118.2500    64.1230    17.1020    14.9440    17.8530    23.0010     2.3940   -22.0330 
  118.3750    64.0590    15.1570    13.3010    10.6710    22.5160     2.4370   -22.1260 
  118.5000    65.1590    14.2080    12.3980     8.8570    22.1080     2.4680   -22.1870 
  118.6250    67.3130    14.3590    12.3990    10.0670    21.9310     2.4950   -22.2040 
  118.7500    67.6270    15.2930    13.1270    11.7190    22.1150     2.5190   -22.1850 
  118.8750    66.1590    16.7930    14.4510    13.7690    22.5000     2.5290   -22.1300 
  119.0000    63.7060    18.5640    16.1290    18.6100    22.9060     2.5200   -22.0480 
  119.1250    61.5630    20.2190    17.7900    21.3880    23.0850     2.5030   -21.9410 
  119.2500    61.2640    21.5100    19.1400    19.2390    23.1480     2.4960   -21.8250 
  119.3750    62.1510    22.2870    20.0230    15.3220    23.0910     2.5010   -21.7130 
  119.5000    61.1860    22.3400    20.2470    13.8660    22.9350     2.5040   -21.6190 
  119.6250    57.8890    21.2180    19.3700    15.8180    22.8460     2.4880   -21.5550 
  119.7500    56.8140    19.0990    17.5280    15.9850    22.9840     2.4560   -21.5200 
  119.8750    59.8070    16.4210    15.1180    14.5560    23.3060     2.4180   -21.5130 
  120.0000    65.9160    13.8360    12.7290    12.4970    23.5790     2.3760   -21.5370 
  120.1250    72.3760    12.1130    10.9920     9.0210    23.7250     2.3280   -21.5930 
  120.2500    75.8760    11.4850    10.0950     7.6700    23.7050     2.2880   -21.6700 
  120.3750    74.3280    12.0770    10.1390     8.3700    23.6560     2.2800   -21.7530 
  120.5000    70.0380    13.9570    11.1900    10.4610    23.7130     2.3230   -21.8310 
  120.6250    66.4450    17.3850    13.5090    12.9320    23.8530     2.4110   -21.8890 
  120.7500    62.5960    21.9940    16.8980    17.1440    23.9440     2.4940   -21.9260 
  120.8750    57.6580    27.2490    21.0360    26.9260    23.8920     2.5420   -21.9420 
  121.0000    53.1190    32.2020    25.1860    34.7350    23.7630     2.5540   -21.9310 
  121.1250    50.9660    35.5720    28.2050    32.6000    23.6680     2.5500   -21.8770 
  121.2500    50.7320    37.2780    29.8200    28.4300    23.6760     2.5440   -21.7820 
  121.3750    50.5310    37.7820    30.3020    29.2090    23.7610     2.5340   -21.6500 
  121.5000    49.1140    37.8000    30.1930    32.1960    23.9040     2.5200   -21.4860 
  121.6250    48.1720    38.0820    30.0860    31.7900    24.0840     2.5190   -21.2930 
  121.7500    49.8000    38.9590    30.3340    31.7350    24.1400     2.5450   -21.0850 
  121.8750    52.3610    40.4300    31.0120    32.8750    24.0780     2.5930   -20.8680 
  122.0000    52.8280    42.2990    32.0570    34.5430    23.9390     2.6390   -20.6520 
  122.1250    51.7580    44.1500    33.2950    34.3800    23.7960     2.6540   -20.4550 
  122.2500    51.1210    45.4310    34.3480    34.9680    23.7270     2.6350   -20.2780 
  122.3750    49.9370    45.7530    34.8790    37.1570    23.7560     2.5850   -20.1240 
  122.5000    47.9290    45.1310    34.7580    37.7650    23.9260     2.5160   -20.0030 
  122.6250    46.1610    44.1130    34.2200    36.5540    24.1530     2.4540   -19.9290 
  122.7500    45.8340    43.5340    33.8480    37.9290    24.2960     2.4190   -19.9000 
  122.8750    45.9570    43.8060    33.9920    41.0710    24.3480     2.4190   -19.9130 
  123.0000    45.1760    44.9380    34.7550    41.3330    24.3600     2.4450   -19.9640 
  123.1250    44.8710    46.5690    35.9930    40.8150    24.3350     2.4700   -20.0530 
  123.2500    46.1080    47.9390    37.1760    41.2510    24.2840     2.4730   -20.1770 
  123.3750    48.2590    48.5640    37.8980    40.7940    24.2570     2.4620   -20.3350 
  123.5000    49.6190    48.3870    38.0180    39.0970    24.2550     2.4570   -20.5210 
  123.6250    49.9600    47.8050    37.7200    38.5540    24.2380     2.4800   -20.7330 
  123.7500    49.2910    47.4890    37.4880    39.1290    24.1400     2.5210   -20.9610 
  123.8750    47.6630    47.8330    37.6410    37.6000    23.9920     2.5620   -21.1960 
  124.0000    47.5710    48.9730    38.3500    37.6290    23.7630     2.5870   -21.4290 
  124.1250    49.6010    50.7860    39.6080    41.9990    23.6060     2.5820   -21.6500 
  124.2500    50.0300    52.7270    41.0320    43.2780    23.4860     2.5560   -21.8520 
  124.3750    47.4700    54.4370    42.3420    45.1170    23.3230     2.5230   -22.0280 
  124.5000    46.1570    55.7000    43.3620    50.5580    23.1980     2.5070   -22.1740 
  124.6250    49.7280    56.3400    43.9570    51.9230    23.3260     2.5220   -22.2790 
  124.7500    53.4600    56.4680    44.1890    49.9950    23.5690     2.5520   -22.3490 
  124.8750    53.8060    56.1750    44.1060    47.9620    23.6490     2.5690   -22.3850 
  125.0000    50.8200    55.5570    43.7550    47.5340    23.4500     2.5570   -22.3940 
  125.1250    49.1150    54.6850    43.1640    48.2930    23.0730     2.5160   -22.3760 
  125.2500    50.3810    53.7440    42.4790    45.9110    22.8950     2.4720   -22.3420 
  125.3750    52.6280    52.8660    41.8180    43.7170    22.9730     2.4460   -22.2960 
