~V
VERS. 2.00: Ver 2.00
~W
STRT.M 55.0000:
STOP.M 217.0000:
STEP.M 0.1250:
NULL. -999.2500:
UWI. F10537:
~C
DEPT.M :
SP.MV :
DEN.GM/CC :
GR.API :
RML.OHMM :
RI. :
RXO.OHMM :
CALI.CM :
~A
# ...
  167.5000   -10.5830     2.6100    60.7230    22.5050    16.8370    23.1330    24.1330 
  167.6250   -10.4390     2.6460    58.0630    26.6750    20.7820    27.0680    24.1040 
  167.7500   -10.2380     2.6510    57.5190    28.7390    23.2720    30.4880    24.1080 
  167.8750    -9.9910     2.6310    59.3870    28.5730    23.8450    30.0700    24.1640 
  168.0000    -9.6800     2.5920    61.9450    27.1720    23.1050    25.6390    24.2360 
  168.1250    -9.3470     2.5370    64.2480    25.8540    22.0900    22.7100    24.2120 
  168.2500    -8.9900     2.4840    66.6210    25.2360    21.4820    21.5230    24.2400 
  168.3750    -8.6100     2.4540    66.6540    25.3180    21.4010    21.7210    24.2990 
  168.5000    -8.2330     2.4620    63.4660    25.8480    21.7290    21.6380    24.3190 
  168.6250    -7.9010     2.5070    62.8480    26.3970    22.1960    25.3980    24.2850 
  168.7500    -7.5920     2.5440    66.7080    26.5860    22.4710    26.6050    24.2350 
  168.8750    -7.3300     2.5510    68.5230    26.2790    22.4030    22.9590    24.2870 
  169.0000    -7.1290     2.5270    66.0600    25.5330    21.9820    18.6950    24.3160 
  169.1250    -6.9910     2.4920    65.3280    24.4870    21.2700    18.3200    24.2250 
  169.2500    -6.8970     2.4700    68.3960    23.4080    20.4680    19.9410    24.0640 
  169.3750    -6.8440     2.4650    70.5710    22.5260    19.7590    19.0420    23.9890 
  169.5000    -6.8240     2.4710    69.5080    22.0590    19.3380    16.8090    23.9360 
  169.6250    -6.8020     2.4790    66.3690    22.2170    19.4060    15.3260    23.8410 
  169.7500    -6.7870     2.4860    62.4220    22.8400    19.8780    16.3060    23.6440 
  169.8750    -6.7670     2.4880    60.5590    23.6860    20.5930    17.3160    23.4290 
  170.0000    -6.7450     2.4820    62.3780    24.4090    21.2870    17.6090    23.3620 
  170.1250    -6.6900     2.4640    64.3680    24.6590    21.6450    19.8170    23.5070 
  170.2500    -6.6010     2.4440    63.8650    24.5660    21.6950    20.6720    23.7110 
  170.3750    -6.5080     2.4330    65.1150    24.4690    21.6730    20.4400    23.7790 
  170.5000    -6.3540     2.4420    70.0810    24.7060    21.8580    20.7690    23.7040 
  170.6250    -6.2080     2.4800    72.6550    25.4400    22.4390    23.0280    23.5200 
  170.7500    -6.0640     2.5340    70.1420    26.3180    23.1920    26.9330    23.3680 
  170.8750    -5.8610     2.5760    65.6670    26.9020    23.7760    28.8340    23.3640 
  171.0000    -5.6400     2.5860    64.6860    26.8240    23.8530    27.2740    23.3270 
  171.1250    -5.4040     2.5590    68.0420    25.9470    23.2320    24.0450    23.2050 
  171.2500    -5.1700     2.5200    71.5020    24.7760    22.2830    22.5440    23.4100 
  171.3750    -4.9510     2.4890    71.8410    23.7710    21.3890    21.9340    23.7910 
  171.5000    -4.7680     2.4770    69.4000    23.2320    20.8380    21.3100    23.9660 
  171.6250    -4.6010     2.4860    68.5120    23.2980    20.8040    22.2550    23.8590 
  171.7500    -4.4630     2.5020    69.5700    23.7140    21.1150    23.5770    23.8390 
  171.8750    -4.3830     2.5170    70.8820    24.2400    21.5870    25.4080    23.8830 
  172.0000    -4.3340     2.5290    70.9290    24.6480    22.0170    26.3010    23.8940 
  172.1250    -4.3340     2.5360    72.2060    24.7330    22.2130    25.1590    23.8640 
  172.2500    -4.3590     2.5340    75.2820    24.5150    22.1580    24.0030    23.8940 
  172.3750    -4.3700     2.5230    75.3370    24.0390    21.8690    24.2100    23.9320 
  172.5000    -4.4020     2.5040    70.5510    23.3620    21.3770    24.6470    23.9240 
  172.6250    -4.4370     2.4860    66.0730    22.5430    20.7120    24.7620    23.8690 
  172.7500    -4.4570     2.4720    66.4110    21.7100    19.9880    23.4410    23.8210 
  172.8750    -4.4680     2.4640    70.5890    20.9680    19.3080    21.2990    23.9080 
  173.0000    -4.4810     2.4640    72.8150    20.3870    18.7510    19.2860    24.0050 
  173.1250    -4.4540     2.4810    70.8380    19.9740    18.3440    18.5420    24.0530 
  173.2500    -4.4200     2.5120    69.0010    19.6180    17.9980    20.0160    24.0500 
  173.3750    -4.3780     2.5450    69.0510    19.2330    17.6410    22.5760    24.0220 
  173.5000    -4.2740     2.5630    69.1400    18.7760    17.2320    22.2610    24.0030 
  173.6250    -4.1790     2.5570    66.4260    18.2810    16.7830    20.8100    24.0030 
  173.7500    -4.0510     2.5410    64.8050    17.8390    16.3700    18.9690    23.9870 
  173.8750    -3.8960     2.5330    66.5190    17.5070    16.0500    19.0110    23.9520 
  174.0000    -3.7430     2.5450    68.9360    17.2790    15.8330    20.4980    23.9020 
  174.1250    -3.5680     2.5690    69.3460    17.0870    15.6750    20.3340    23.8000 
  174.2500    -3.4010     2.5890    68.2790    16.8560    15.5030    19.6230    23.6590 
  174.3750    -3.2670     2.5970    66.5440    16.5880    15.3020    18.9720    23.6260 
  174.5000    -3.1390     2.5930    65.5750    16.3510    15.1190    18.5580    23.6840 
  174.6250    -3.0340     2.5830    65.6410    16.2540    15.0450    18.2240    23.7430 
  174.7500    -2.9770     2.5750    66.6390    16.2710    15.0750    17.9900    23.7540 
  174.8750    -2.9620     2.5750    66.6110    16.2560    15.0890    18.7560    23.8500 
  175.0000    -2.9810     2.5880    63.2610    15.9760    14.8690    19.9290    23.9180 
  175.1250    -3.0250     2.6100    59.0190    15.1590    14.1410    19.5110    23.9250 
  175.2500    -3.0970     2.6270    57.8840    13.9250    12.9970    17.6220    23.9200 
  175.3750    -3.1780     2.6260    59.7240    12.5190    11.6580    15.0990    23.9610 
  175.5000    -3.2920     2.6060    61.7670    11.2350    10.3950    12.2830    24.0500 
  175.6250    -3.4290     2.5740    61.7240    10.3670     9.4800    10.6160    24.1000 
  175.7500    -3.5760     2.5440    62.0050     9.9330     8.9570    10.5490    24.0640 
  175.8750    -3.7360     2.5220    62.0630     9.8930     8.8090    10.9740    24.0660 
  176.0000    -3.8660     2.5100    58.8960    10.1460     8.9630    10.9900    24.1400 
  176.1250    -3.9900     2.5160    53.6640    10.5580     9.3100    11.2570    24.1550 
  176.2500    -4.0950     2.5360    51.0640    10.9380     9.6610    11.8360    24.1400 
  176.3750    -4.1410     2.5620    51.5720    11.1670     9.8950    12.5520    24.1630 
  176.5000    -4.1770     2.5840    51.9770    11.1880     9.9400    12.1030    24.1820 
  176.6250    -4.1580     2.5930    51.9400    11.0010     9.7770    10.9830    24.1530 
  176.7500    -4.0890     2.5900    54.7230    10.7490     9.5300    10.7620    24.0860 
  176.8750    -4.0110     2.5790    59.3440    10.5620     9.3190    11.0980    24.0790 
  177.0000    -3.9090     2.5650    62.1990    10.5570     9.2560    11.2060    24.1120 
  177.1250    -3.8370     2.5540    61.9900    10.8360     9.4530    10.4280    24.1450 
  177.2500    -3.7930     2.5500    62.0750    11.3320     9.8690    10.9720    24.1260 
  177.3750    -3.7860     2.5580    63.3230    11.9470    10.4280    13.1470    24.0960 
  177.5000    -3.8300     2.5750    63.8370    12.5450    11.0080    14.3210    24.0590 
  177.6250    -3.9460     2.5950    62.1080    12.9380    11.4320    14.5690    24.0380 
  177.7500    -4.1110     2.6060    59.8900    13.0630    11.6110    13.6200    24.0500 
  177.8750    -4.3170     2.6070    57.8790    12.9270    11.5280    13.0760    24.1230 
  178.0000    -4.5690     2.6000    55.3810    12.5900    11.2260    12.8050    24.2020 
  178.1250    -4.8220     2.5870    54.3220    12.1150    10.7540    12.5350    24.2680 
  178.2500    -5.0970     2.5690    55.0050    11.5870    10.2040    12.1570    24.3280 
  178.3750    -5.3900     2.5480    56.0860    11.0590     9.6340    11.6440    24.3820 
  178.5000    -5.6550     2.5290    56.0690    10.6050     9.1100    10.3530    24.3700 
  178.6250    -5.9130     2.5170    55.6410    10.3510     8.7500     8.8940    24.2690 
