~V
VERS. 2.00: Ver 2.00
~W
STRT.M 58.0000:
STOP.M 215.0000:
STEP.M 0.1250:
NULL. -999.2500:
UWI. F10587:
~C
DEPT.M :
DEN.GM/CC :
GR.API :
RML.OHMM :
RI. :
RXO.OHMM :
CALI.CM :
SP.MV :
~A
# ...
  136.7500     2.5060    51.2320    27.4560    22.3810    26.4420    24.1640   -16.4640 
  136.8750     2.5030    49.3220    26.3300    21.6580    22.8160    24.1550   -16.5690 
  137.0000     2.4960    49.2970    24.6470    20.4070    21.1910    24.1940   -16.6340 
  137.1250     2.4880    47.8090    22.8770    18.9910    21.3040    24.2160   -16.6920 
  137.2500     2.4850    45.9490    21.4040    17.7510    20.3940    24.2380   -16.6800 
  137.3750     2.4900    46.5190    20.4280    16.8640    18.4020    24.2490   -16.5990 
  137.5000     2.4960    49.8960    20.0340    16.4130    16.3050    24.2600   -16.4700 
  137.6250     2.4990    53.2320    20.2820    16.4760    16.4310    24.1970   -16.3060 
  137.7500     2.4960    54.5760    20.9130    16.8950    19.0340    24.1500   -16.1280 
  137.8750     2.4900    54.4180    21.6880    17.5170    20.8020    24.1040   -15.9630 
  138.0000     2.4850    52.6560    22.3510    18.1440    20.3590    24.0750   -15.8230 
  138.1250     2.4820    48.8420    22.6580    18.5430    19.3960    24.0410   -15.6520 
  138.2500     2.4820    45.7120    22.6040    18.6450    18.7850    23.9860   -15.5330 
  138.3750     2.4820    45.0940    22.2300    18.4540    18.6230    23.8970   -15.4780 
  138.5000     2.4780    46.8820    21.5890    18.0100    18.3730    23.8010   -15.4320 
  138.6250     2.4660    49.6330    20.6920    17.3160    17.3660    23.7300   -15.4760 
  138.7500     2.4510    51.1380    19.6630    16.4680    15.8140    23.6590   -15.5750 
  138.8750     2.4430    50.7840    18.6510    15.5740    14.5090    23.7020   -15.6980 
  139.0000     2.4490    49.7290    17.8190    14.7680    13.7100    23.9130   -15.9020 
  139.1250     2.4650    49.0460    17.3440    14.2030    13.6570    24.1500   -16.1830 
  139.2500     2.4760    48.4640    17.2030    13.8920    13.6870    24.3150   -16.5150 
  139.3750     2.4720    47.4180    17.3340    13.8110    13.6670    24.3360   -16.9440 
  139.5000     2.4530    48.3560    17.6320    13.8980    13.9830    24.2770   -17.4520 
  139.6250     2.4270    51.9400    18.0210    14.1050    14.6510    24.2470   -18.0250 
  139.7500     2.4070    54.9380    18.5240    14.4240    15.2410    24.2250   -18.6390 
  139.8750     2.3940    56.5080    19.3150    14.9530    15.8290    24.1470   -19.2910 
  140.0000     2.3860    58.6340    20.6380    15.8450    16.3560    24.0890   -19.9610 
  140.1250     2.3800    61.7970    22.8530    17.3570    18.4300    24.1060   -20.6120 
  140.2500     2.3720    63.2310    25.9130    19.4930    22.1550    24.1930   -21.2240 
  140.3750     2.3660    63.8930    29.6620    22.2020    26.4200    24.3230   -21.7540 
  140.5000     2.3620    65.9160    33.5500    25.1670    32.3870    24.4240   -22.1890 
  140.6250     2.3610    66.9170    35.9760    27.3390    33.8340    24.4530   -22.5120 
  140.7500     2.3630    66.2510    35.4720    27.5560    32.3410    24.4460   -22.7560 
  140.8750     2.3650    66.3090    31.6910    25.3210    30.9310    24.4190   -22.8770 
  141.0000     2.3670    68.5300    25.9480    21.3260    28.8670    24.3810   -22.8780 
  141.1250     2.3710    71.3830    20.4100    17.0460    21.6780    24.2950   -22.8230 
  141.2500     2.3790    73.4220    16.2550    13.5670    14.6320    24.1240   -22.6560 
  141.3750     2.3860    76.9500    13.5850    11.1150    10.7280    23.9520   -22.4050 
  141.5000     2.3890    81.0480    12.0830     9.5530     9.9740    23.9800   -22.1210 
  141.6250     2.3860    82.3180    11.3510     8.6860    10.2550    24.1130   -21.6870 
  141.7500     2.3810    81.1310    10.7990     8.1090    10.2140    24.1800   -21.1450 
  141.8750     2.3760    78.3990    10.1400     7.6050     9.5300    24.1210   -20.5570 
  142.0000     2.3740    73.9860     9.3060     7.0610     8.4680    23.9350   -19.8820 
  142.1250     2.3750    65.5020     8.4730     6.5080     7.3090    23.7030   -19.1600 
  142.2500     2.3760    55.7680     7.8550     6.0560     6.5990    23.5770   -18.4930 
  142.3750     2.3780    48.4970     7.5210     5.7690     6.3030    23.5390   -17.8490 
  142.5000     2.3840    43.4710     7.4380     5.6520     6.2810    23.5360   -17.2630 
  142.6250     2.3940    39.8930     7.5200     5.6720     6.4260    23.5370   -16.7920 
  142.7500     2.4080    36.9920     7.6270     5.7360     6.4970    23.5170   -16.4270 
  142.8750     2.4240    35.4120     7.6890     5.7870     6.4540    23.4520   -16.1720 
  143.0000     2.4410    35.7350     7.6850     5.7940     6.4180    23.3700   -16.0120 
  143.1250     2.4530    36.4580     7.6200     5.7460     6.4380    23.3540   -15.9290 
  143.2500     2.4580    36.4070     7.5320     5.6690     6.4250    23.3720   -15.8470 
  143.3750     2.4560    35.7770     7.4380     5.5760     6.3660    23.4190   -15.7460 
  143.5000     2.4480    35.9360     7.3440     5.4760     6.3270    23.4650   -15.6270 
  143.6250     2.4320    38.5330     7.2460     5.3730     6.3260    23.4660   -15.5240 
  143.7500     2.4120    41.0570     7.1410     5.2660     6.3160    23.4640   -15.3710 
  143.8750     2.3930    41.7090     7.0350     5.1610     6.2470    23.4840   -15.1730 
  144.0000     2.3800    41.1790     6.9380     5.0640     6.0490    23.5200   -15.0050 
  144.1250     2.3760    40.6060     6.8720     4.9910     5.7950    23.4970   -14.7940 
  144.2500     2.3770    40.4170     6.8490     4.9500     5.6480    23.4090   -14.5990 
  144.3750     2.3810    41.6380     6.8810     4.9480     5.6240    23.3430   -14.4910 
  144.5000     2.3830    45.4680     6.9660     4.9850     5.7000    23.3480   -14.4010 
  144.6250     2.3840    51.1910     7.0970     5.0560     5.7890    23.4270   -14.3330 
  144.7500     2.3830    54.9310     7.2370     5.1380     5.8840    23.5030   -14.3670 
  144.8750     2.3790    57.1990     7.3550     5.2130     6.0200    23.5660   -14.4420 
  145.0000     2.3730    60.9650     7.4130     5.2570     6.1990    23.6820   -14.4920 
  145.1250     2.3670    65.4700     7.3730     5.2410     6.2870    23.8700   -14.6250 
  145.2500     2.3650    67.3580     7.2590     5.1710     6.3550    24.0610   -14.7850 
  145.3750     2.3680    67.8110     7.1200     5.0700     6.4200    24.1920   -14.9220 
  145.5000     2.3760    69.6500     7.0250     4.9800     6.4430    24.2800   -15.1020 
  145.6250     2.3840    71.0110     7.0540     4.9530     6.3570    24.3510   -15.2810 
  145.7500     2.3860    69.9700     7.2080     5.0030     6.4210    24.3800   -15.4440 
  145.8750     2.3800    68.9720     7.4670     5.1260     6.6740    24.3860   -15.6170 
  146.0000     2.3660    69.4610     7.7820     5.3020     7.1540    24.3840   -15.7980 
  146.1250     2.3540    69.7420     8.0900     5.4990     7.3580    24.3840   -15.9600 
  146.2500     2.3480    68.8310     8.3550     5.6830     7.2890    24.3780   -16.0910 
  146.3750     2.3490    69.0320     8.5730     5.8430     7.2940    24.3620   -16.2040 
  146.5000     2.3520    69.7310     8.7600     5.9840     7.5580    24.3350   -16.2870 
  146.6250     2.3570    70.0980     8.9600     6.1340     7.9560    24.3630   -16.3250 
  146.7500     2.3670    71.3940     9.2420     6.3340     8.2290    24.3780   -16.3230 
  146.8750     2.3940    72.8870     9.6880     6.6310     8.7170    24.3820   -16.3030 
  147.0000     2.4370    74.4940    10.3880     7.0800     9.3100    24.3810   -16.2440 
  147.1250     2.4710    75.3710    11.4320     7.7580    10.4240    24.3460   -16.1110 
  147.2500     2.4700    74.9850    12.6610     8.6000    11.7390    24.2670   -15.9660 
  147.3750     2.4360    73.0860    13.8200     9.4730    12.7530    24.1940   -15.7850 
  147.5000     2.3890    69.3850    14.5960    10.1780    13.8700    24.1710   -15.5300 
  147.6250     2.3500    66.6580    14.6900    10.4780    14.5820    24.1790   -15.3040 
  147.7500     2.3230    65.8690    14.3140    10.4340    12.9300    24.2490   -15.0690 
  147.8750     2.3030    66.5580    13.7660    10.1950    11.5090    24.3320   -14.8060 
