~V
VERS. 2.00: Ver 2.00
~W
STRT.M 50.0000:
STOP.M 233.0000:
STEP.M 0.1250:
NULL. -999.2500:
UWI. F10598:
~C
DEPT.M :
DEN.GM/CC :
SP.MV :
GR.API :
RML.OHMM :
RI. :
RXO.OHMM :
CALI.CM :
~A
# ...
  185.0000     2.2530    -6.3660    77.0080    23.2160    20.9570    24.0300    23.8930 
  185.1250     2.2510    -6.5170    80.4700    24.2010    22.0310    28.3480    23.8930 
  185.2500     2.2460    -6.6740    80.2660    25.6130    23.5650    30.7560    23.8930 
  185.3750     2.2390    -6.8360    79.6450    27.0630    25.0680    29.8390    23.8930 
  185.5000     2.2360    -6.9700    80.9990    28.2060    26.0850    29.5890    23.8930 
  185.6250     2.2410    -7.1380    81.8980    28.8700    26.4710    29.7620    23.8930 
  185.7500     2.2530    -7.2600    84.0100    29.3490    26.7250    30.2020    23.8900 
  185.8750     2.2680    -7.3730    86.5780    29.8930    27.1890    30.5570    23.8760 
  186.0000     2.2830    -7.4830    85.2810    30.5900    27.9120    31.2770    23.8450 
  186.1250     2.2890    -7.6200    79.2070    31.3690    28.7510    33.2980    23.8270 
  186.2500     2.2910    -7.7330    75.9400    32.2420    29.7350    35.9250    23.8180 
  186.3750     2.3020    -7.8090    76.7030    33.5240    31.3170    37.4680    23.8180 
  186.5000     2.3300    -7.8740    77.1860    36.2590    33.6260    37.9790    23.8200 
  186.6250     2.3800    -7.8570    76.3170    40.7340    36.8790    40.5250    23.8090 
  186.7500     2.4430    -7.7970    73.7450    44.5540    39.8500    46.4620    23.7760 
  186.8750     2.5060    -7.7150    68.9690    44.3990    39.9060    57.0960    23.7190 
  187.0000     2.5410    -7.6050    65.6500    38.0680    34.9230    61.6540    23.6810 
  187.1250     2.5130    -7.4630    68.2860    27.4680    26.0590    40.6380    23.6710 
  187.2500     2.4420    -7.2940    70.8570    18.0230    17.8090    18.0830    23.6710 
  187.3750     2.3690    -7.1110    69.8500    11.6720    11.9120     7.9780    23.6710 
  187.5000     2.3270    -6.9460    67.9430     8.1590     8.3280     5.6540    23.6710 
  187.6250     2.3230    -6.8310    68.1470     6.7110     6.5840     5.7070    23.6820 
  187.7500     2.3320    -6.7870    67.6610     6.2090     5.8170     6.0350    23.7250 
  187.8750     2.3430    -6.7520    65.4900     6.2460     5.7070     6.2830    23.8060 
  188.0000     2.3550    -6.7440    62.8200     6.5580     6.0120     6.4400    23.8700 
  188.1250     2.3650    -6.7350    61.5690     6.9790     6.5280     6.6870    23.8910 
  188.2500     2.3730    -6.7720    62.9990     7.3650     7.0300     6.8850    23.8930 
  188.3750     2.3810    -6.8540    66.7810     7.5960     7.3780     7.0850    23.8930 
  188.5000     2.3890    -6.9700    70.3220     7.5690     7.4540     7.2670    23.8930 
  188.6250     2.3890    -7.0660    71.7800     7.1940     7.1550     7.0460    23.8950 
  188.7500     2.3760    -7.1040    74.0800     6.6030     6.6120     6.4400    23.9090 
  188.8750     2.3550    -7.1200    77.1390     5.9490     5.9690     5.7800    23.9470 
  189.0000     2.3330    -7.0980    79.6530     5.3820     5.3810     5.4120    23.9900 
  189.1250     2.3180    -7.0430    81.7620     5.0900     5.0020     5.4910    24.0310 
  189.2500     2.3160    -6.9790    82.3610     5.1550     4.8690     5.6470    24.0500 
  189.3750     2.3270    -6.9110    81.6960     5.6010     4.9920     6.0130    24.0710 
  189.5000     2.3430    -6.8300    85.1230     6.3270     5.3430     6.6490    24.1040 
  189.6250     2.3530    -6.7700    96.5710     7.1210     5.8670     7.2230    24.1200 
  189.7500     2.3560    -6.7260   107.5620     7.7720     6.4180     7.7470    24.1250 
  189.8750     2.3520    -6.7090   114.0540     8.2000     6.8840     8.0870    24.1250 
  190.0000     2.3440    -6.7320   119.4150     8.4190     7.1930     8.2920    24.1250 
  190.1250     2.3360    -6.7860   123.7410     8.4730     7.2990     8.3690    24.1250 
  190.2500     2.3330    -6.8420   122.3550     8.4220     7.2760     8.3980    24.1250 
  190.3750     2.3340    -6.8980   118.0090     8.2880     7.1850     8.4270    24.1250 
  190.5000     2.3400    -6.9400   116.3620     8.1210     7.0850     8.4590    24.1250 
  190.6250     2.3480    -6.9530   118.1530     7.9980     7.0200     8.3960    24.1250 
  190.7500     2.3530    -6.9580   120.9380     7.9690     7.0050     8.3000    24.1250 
  190.8750     2.3530    -6.9580   123.3290     8.0770     7.0670     8.2790    24.1250 
  191.0000     2.3470    -6.9340   124.0680     8.3700     7.2520     8.4590    24.1250 
  191.1250     2.3390    -6.8820   120.2440     8.9190     7.6370     8.8370    24.1250 
  191.2500     2.3340    -6.7870   116.3230     9.6630     8.2130     9.3300    24.1240 
  191.3750     2.3290    -6.6510   115.0270    10.5030     8.9360    10.2520    24.1220 
  191.5000     2.3230    -6.5060   113.0280    11.2670     9.6860    11.8060    24.1230 
  191.6250     2.3150    -6.3750   109.7120    11.7430    10.2680    13.6210    24.1250 
  191.7500     2.3060    -6.2410   109.5660    11.9330    10.6000    14.0010    24.1250 
  191.8750     2.2970    -6.1020   111.5460    11.9140    10.6870    13.2090    24.1250 
  192.0000     2.2900    -5.9510   109.7340    11.8200    10.6050    11.7890    24.1250 
  192.1250     2.2910    -5.8260   102.1250    11.7970    10.4760    12.4910    24.1250 
  192.2500     2.3000    -5.7310    98.7870    11.8850    10.4330    14.4000    24.1250 
  192.3750     2.3150    -5.6780   102.6920    12.1300    10.5870    14.6900    24.1250 
  192.5000     2.3390    -5.6580   108.2970    12.7130    11.0830    13.3730    24.1250 
  192.6250     2.3820    -5.6690   107.2900    14.1590    12.2550    13.5440    24.1250 
  192.7500     2.4290    -5.7370    98.6100    16.7230    14.2960    15.8430    24.1250 
  192.8750     2.4550    -5.8520    87.7750    20.5520    17.4370    20.1760    24.1250 
  193.0000     2.4440    -6.0300    79.0640    25.4860    21.7370    25.2040    24.1250 
  193.1250     2.4000    -6.2480    75.0880    30.7800    26.8290    36.6710    24.1250 
  193.2500     2.3380    -6.4970    77.4030    35.2590    31.5570    48.0960    24.1250 
  193.3750     2.2630    -6.7640    84.0760    38.5920    35.1930    47.3380    24.1250 
  193.5000     2.1940    -7.0370    90.2170    41.4450    37.8870    41.1160    24.1240 
  193.6250     2.1540    -7.3140    89.0900    45.0100    40.5800    43.7360    24.1230 
  193.7500     2.1370    -7.5590    84.1120    49.6190    44.0460    49.9440    24.1230 
  193.8750     2.1320    -7.7870    79.1230    54.8630    48.2920    57.0360    24.1230 
  194.0000     2.1350    -7.9710    75.0670    59.7100    52.6450    66.6410    24.1230 
  194.1250     2.1460    -8.1360    73.3510    62.4660    55.7380    69.8580    24.1200 
  194.2500     2.1580    -8.2850    74.5440    63.1830    57.1150    63.7280    24.1210 
  194.3750     2.1650    -8.4350    78.4510    62.9860    57.2880    57.6190    24.1220 
  194.5000     2.1660    -8.5820    81.0150    63.3620    57.4380    56.5700    24.1200 
  194.6250     2.1620    -8.7300    81.5670    65.8040    59.1590    58.5120    24.1200 
  194.7500     2.1580    -8.8930    82.1180    70.5030    63.0610    63.9480    24.1220 
  194.8750     2.1560    -9.0560    80.6120    77.3100    69.2160    72.9890    24.1190 
  195.0000     2.1560    -9.2470    75.3820    85.5510    77.1110    79.7400    24.1180 
  195.1250     2.1640    -9.4390    70.8130    93.6310    85.3710    94.3980    24.1180 
  195.2500     2.1880    -9.6340    70.5460    98.5520    92.0660   109.1430    24.1200 
  195.3750     2.2250    -9.7980    71.9120    99.7640    93.0490   114.3210    24.1200 
  195.5000     2.2490    -9.9120    72.7410    96.6510    86.8330   111.8220    24.1180 
  195.6250     2.2410    -9.9550    74.8170    88.3700    76.4500    92.1160    24.1180 
  195.7500     2.2250    -9.9670    77.5080    78.6910    66.5200    73.1140    24.1190 
  195.8750     2.2180    -9.9380    79.7820    70.6250    59.5140    63.3720    24.1180 
  196.0000     2.2130    -9.8880    82.5580    66.2430    56.5320    62.1490    24.1170 
  196.1250     2.1940    -9.8130    85.9350    67.2140    58.4310    56.9240    24.1160 
