~V
VERS. 2.00: Ver 2.00
~W
STRT.M 42.0000:
STOP.M 195.0000:
STEP.M 0.1250:
NULL. -999.2500:
UWI. F10590:
~C
DEPT.M :
GR.API :
RML.OHMM :
RI. :
RXO.OHMM :
CALI.CM :
DEN.GM/CC :
SP.MV :
~A
# ...
   75.7500    67.2080    11.1000     9.1300    10.7140    24.7470     2.1580   -20.5340 
   75.8750    68.0250    12.1590     9.9930    12.2550    24.8210     2.1240   -20.6720 
   76.0000    69.4360    12.7760    10.6150    11.5560    24.7410     2.1170   -20.7780 
   76.1250    67.0440    12.7900    10.7850    10.1390    24.6900     2.1340   -20.8350 
   76.2500    64.2590    12.4740    10.6390     9.9300    24.6820     2.1580   -20.8610 
   76.3750    65.7200    12.0570    10.3370    10.1360    24.6930     2.1800   -20.8640 
   76.5000    69.7760    11.7060    10.0200    10.2750    24.7030     2.1970   -20.8580 
   76.6250    70.1420    11.5280     9.7960    10.2060    24.7230     2.2080   -20.8390 
   76.7500    67.6330    11.5280     9.6970     9.8950    24.7680     2.2090   -20.7960 
   76.8750    65.3320    11.7090     9.7460     9.7190    24.8340     2.1930   -20.7450 
   77.0000    64.3910    12.0390     9.9410    10.1520    24.9150     2.1640   -20.6800 
   77.1250    64.9660    12.4350    10.2540    10.9820    24.9440     2.1340   -20.5980 
   77.2500    65.9040    12.7570    10.5780    11.3270    24.9300     2.1170   -20.5030 
   77.3750    66.2910    12.8940    10.8120    11.6760    24.8980     2.1170   -20.3490 
   77.5000    65.8920    12.7680    10.8560    11.7980    24.7880     2.1300   -20.1190 
   77.6250    65.8910    12.2880    10.5830    11.3100    24.5300     2.1520   -19.8390 
   77.7500    69.4370    11.5250    10.0180    10.2980    24.3840     2.1850   -19.5300 
   77.8750    77.0960    10.5540     9.2180     9.3810    24.3620     2.2300   -19.2010 
   78.0000    87.6600     9.5070     8.3050     8.4410    24.3670     2.2830   -18.8730 
   78.1250    96.4880     8.5870     7.4510     7.5130    24.3620     2.3260   -18.5730 
   78.2500    98.7880     7.9350     6.7850     6.1560    24.3540     2.3480   -18.2990 
   78.3750    95.2850     7.6120     6.3610     5.8420    24.3530     2.3470   -18.0950 
   78.5000    89.2780     7.5850     6.1720     6.1960    24.3570     2.3310   -17.9940 
   78.6250    85.9040     7.7470     6.1780     6.5060    24.3570     2.3120   -17.9800 
   78.7500    85.7710     7.9140     6.2500     6.5830    24.3530     2.2940   -18.0090 
   78.8750    87.2680     7.9900     6.3080     6.6820    24.3490     2.2800   -18.0840 
   79.0000    90.2050     7.9530     6.3110     6.6800    24.3490     2.2690   -18.1890 
   79.1250    93.5350     7.8500     6.2610     6.4100    24.3640     2.2650   -18.2910 
   79.2500    96.4180     7.7740     6.2220     6.3530    24.3860     2.2650   -18.4120 
   79.3750    97.2690     7.7930     6.2490     6.5910    24.4210     2.2650   -18.5550 
   79.5000    94.9550     7.9610     6.3860     6.9580    24.4750     2.2560   -18.6710 
   79.6250    90.9330     8.3530     6.6780     6.9460    24.5730     2.2380   -18.7440 
   79.7500    87.0910     8.9020     7.0790     7.3470    24.6770     2.2250   -18.7870 
   79.8750    84.1240     9.4710     7.5000     7.9670    24.7270     2.2350   -18.7890 
   80.0000    82.5530     9.8430     7.8080     8.9970    24.6170     2.2730   -18.7560 
   80.1250    84.7450     9.7390     7.8080    10.2050    24.4600     2.3270   -18.7080 
   80.2500    91.0960     9.1950     7.4930    10.6370    24.3710     2.3680   -18.6220 
   80.3750    96.9030     8.3800     6.9420     8.1320    24.3570     2.3820   -18.5000 
   80.5000    99.1760     7.5450     6.3100     6.1140    24.3800     2.3700   -18.3720 
   80.6250    99.3230     6.9360     5.7730     5.5780    24.3930     2.3510   -18.2480 
   80.7500    99.1860     6.5920     5.4030     5.4810    24.3870     2.3390   -18.1580 
   80.8750    99.2480     6.4840     5.2120     5.4750    24.3620     2.3350   -18.1040 
   81.0000   101.6550     6.5570     5.1780     5.5860    24.3440     2.3320   -18.0540 
   81.1250   105.1720     6.7610     5.2720     5.6220    24.3380     2.3220   -18.0200 
   81.2500   102.6560     7.0130     5.4280     5.6940    24.3380     2.3050   -18.0390 
   81.3750    94.9570     7.2620     5.6080     5.9630    24.3380     2.2840   -18.0620 
   81.5000    89.8060     7.4620     5.7780     6.5310    24.3380     2.2630   -18.0970 
   81.6250    89.7340     7.5770     5.9040     6.9040    24.3380     2.2500   -18.1730 
   81.7500    90.5030     7.6270     5.9800     6.8660    24.3340     2.2500   -18.2250 
   81.8750    90.6240     7.6430     6.0170     6.5840    24.3210     2.2670   -18.2400 
   82.0000    90.9000     7.6570     6.0330     7.1330    24.2950     2.2960   -18.2790 
   82.1250    90.2860     7.7000     6.0510     8.1620    24.2770     2.3230   -18.3370 
   82.2500    89.6540     7.7810     6.0880     8.4630    24.2590     2.3340   -18.3830 
   82.3750    88.6410     7.9070     6.1580     7.5520    24.2330     2.3220   -18.4560 
   82.5000    86.7130     8.0900     6.2800     7.1250    24.1730     2.2940   -18.5290 
   82.6250    86.0720     8.3660     6.4930     7.1170    24.1010     2.2690   -18.5490 
   82.7500    88.8370     8.7410     6.7990     7.3720    23.9940     2.2650   -18.5570 
   82.8750    93.4790     9.1910     7.1770     7.8360    23.8880     2.2920   -18.5830 
   83.0000    94.5140     9.6290     7.5600     8.1550    23.8350     2.3410   -18.6090 
   83.1250    88.9830     9.8700     7.8150     8.8620    23.8680     2.3900   -18.6300 
   83.2500    85.3890     9.8020     7.8520     9.4960    23.9440     2.4160   -18.6210 
   83.3750    88.9430     9.4080     7.6390     9.1450    24.0090     2.4130   -18.5750 
   83.5000    95.5860     8.7950     7.2300     8.0760    24.0200     2.3850   -18.5290 
   83.6250    98.1800     8.1690     6.7510     6.7860    23.9540     2.3480   -18.5030 
   83.7500    97.8560     7.7090     6.3500     6.4050    23.8250     2.3160   -18.4860 
   83.8750    95.8470     7.4780     6.0960     6.2930    23.6470     2.2950   -18.4600 
   84.0000    91.9420     7.4550     5.9980     6.1680    23.4640     2.2820   -18.4370 
   84.1250    90.2030     7.5740     6.0250     6.0630    23.3360     2.2770   -18.4360 
   84.2500    93.7110     7.7170     6.0830     6.1310    23.2300     2.2760   -18.4650 
   84.3750    96.7370     7.8250     6.1170     6.2540    23.1630     2.2770   -18.5070 
   84.5000    94.5450     7.8690     6.1010     6.3110    23.1770     2.2790   -18.5350 
   84.6250    91.3860     7.8350     6.0290     6.7930    23.3350     2.2760   -18.5820 
   84.7500    93.3640     7.7490     5.9310     6.7390    23.6230     2.2730   -18.6780 
   84.8750    98.5990     7.6310     5.8240     6.5840    23.8900     2.2750   -18.8290 
   85.0000   101.7000     7.5140     5.7300     6.5540    24.0170     2.2910   -19.0350 
   85.1250   101.4830     7.4540     5.6870     6.5220    24.0410     2.3230   -19.3020 
   85.2500    98.5800     7.5090     5.7300     6.5950    24.0340     2.3580   -19.6450 
   85.3750    91.6500     7.7410     5.9030     6.7940    24.0370     2.3790   -20.0430 
   85.5000    82.0000     8.1980     6.2340     7.4940    24.0610     2.3750   -20.5000 
   85.6250    72.5990     8.9050     6.7350     8.0680    24.1400     2.3400   -21.0050 
   85.7500    66.8200     9.7160     7.3160     9.1750    24.1830     2.2930   -21.5100 
   85.8750    63.3940    10.4720     7.8910     9.7340    24.1640     2.2490   -22.0100 
   86.0000    61.1310    11.0130     8.3700     9.9850    24.1060     2.2180   -22.4710 
   86.1250    61.5440    11.2240     8.6690    10.0800    24.0190     2.2050   -22.8540 
   86.2500    63.0240    11.2280     8.8140     9.9960    23.9720     2.1970   -23.1540 
   86.3750    63.5300    11.1610     8.8520     9.8090    23.9580     2.1900   -23.4140 
   86.5000    61.9610    11.1330     8.8430     9.7460    23.9860     2.1840   -23.6240 
   86.6250    61.8870    11.2060     8.8490     9.8380    24.0160     2.1830   -23.7430 
   86.7500    65.5070    11.3400     8.8950     9.8940    24.0150     2.1890   -23.8350 
   86.8750    69.8560    11.4740     8.9740     9.8520    24.0010     2.1990   -23.9030 
