~V
VERS. 2.00: Ver 2.00
~W
STRT.M 60.0000:
STOP.M 200.0000:
STEP.M 0.1250:
NULL. -999.2500:
UWI. F10576:
~C
DEPT.M :
GR.API :
RML.OHMM :
RI. :
RXO.OHMM :
CALI.CM :
DEN.GM/CC :
SP.MV :
~A
# ...
  138.7500    51.3330    15.0310    14.1990    12.2930    23.6900     2.5010   -28.1130 
  138.8750    49.3760    14.2470    13.4670    12.2650    23.6850     2.4920   -28.3110 
  139.0000    48.6360    13.5520    12.7420    11.9830    23.6430     2.4850   -28.5580 
  139.1250    51.8770    12.9120    12.0250    10.5310    23.5390     2.4850   -28.8440 
  139.2500    59.2960    12.2850    11.3190     9.5490    23.4400     2.4890   -29.1440 
  139.3750    69.3280    11.6910    10.6540     9.5020    23.3980     2.4870   -29.4540 
  139.5000    78.5370    11.1900    10.0930     9.8480    23.3890     2.4740   -29.7480 
  139.6250    83.4440    10.9130     9.7680     9.7790    23.3800     2.4540   -29.9990 
  139.7500    83.8530    10.9310     9.7450     9.2160    23.3710     2.4410   -30.2030 
  139.8750    81.1870    11.3210    10.0860     8.9190    23.3790     2.4450   -30.3890 
  140.0000    77.5190    12.1160    10.8080     9.4770    23.3910     2.4700   -30.5170 
  140.1250    74.4540    13.2950    11.8990    11.5040    23.4000     2.5090   -30.5690 
  140.2500    73.3360    14.5950    13.1400    13.8090    23.4130     2.5410   -30.5750 
  140.3750    75.3680    15.7750    14.3270    15.1650    23.4380     2.5480   -30.5450 
  140.5000    79.9180    16.6350    15.2550    15.6730    23.4550     2.5230   -30.4750 
  140.6250    82.8580    17.0170    15.7160    15.2200    23.4580     2.4700   -30.3730 
  140.7500    82.7060    17.0150    15.7600    14.9440    23.4610     2.4160   -30.2550 
  140.8750    82.5120    16.6980    15.4600    15.9780    23.4720     2.3790   -30.1280 
  141.0000    84.9450    16.1530    14.9350    16.8670    23.4860     2.3660   -29.9990 
  141.1250    88.4350    15.5110    14.3380    15.3170    23.5130     2.3700   -29.8660 
  141.2500    90.5310    14.9590    13.8400    12.9710    23.5660     2.3730   -29.7550 
  141.3750    92.8810    14.6210    13.5490    11.9560    23.6310     2.3650   -29.6570 
  141.5000    94.5830    14.5520    13.5210    12.6270    23.6800     2.3500   -29.5960 
  141.6250    91.8640    14.7770    13.7970    13.1810    23.6950     2.3390   -29.5460 
  141.7500    87.1410    15.1930    14.2690    13.5040    23.6990     2.3360   -29.5040 
  141.8750    83.4030    15.7250    14.8460    13.7870    23.7020     2.3380   -29.4630 
  142.0000    81.3930    16.2860    15.4200    14.0680    23.7200     2.3390   -29.4370 
  142.1250    79.3120    16.7560    15.8740    15.0770    23.7800     2.3330   -29.3910 
  142.2500    76.8980    17.0680    16.1710    15.9400    23.8480     2.3260   -29.3430 
  142.3750    75.9370    17.2110    16.3180    16.4420    23.8830     2.3200   -29.2850 
  142.5000    77.5620    17.2350    16.3740    16.2360    23.8850     2.3170   -29.2240 
  142.6250    79.9650    17.2620    16.4540    15.6580    23.8830     2.3170   -29.1870 
  142.7500    79.8880    17.4370    16.6790    15.6490    23.8850     2.3170   -29.1630 
  142.8750    77.4210    17.8770    17.1340    16.2450    23.8850     2.3180   -29.1660 
  143.0000    76.0510    18.6650    17.8690    16.7570    23.8800     2.3210   -29.1810 
  143.1250    75.7420    19.8790    18.9290    17.7230    23.8970     2.3240   -29.2070 
  143.2500    74.2180    21.3690    20.2020    18.7960    23.9150     2.3200   -29.2140 
  143.3750    71.8690    22.9960    21.5990    20.4030    23.8800     2.3070   -29.2400 
  143.5000    69.5200    24.6160    23.0210    21.6690    23.7860     2.2860   -29.2780 
  143.6250    67.3770    26.1020    24.3740    21.4550    23.6180     2.2610   -29.3230 
  143.7500    66.2190    27.4450    25.6450    19.7670    23.4210     2.2420   -29.3520 
  143.8750    67.0870    28.6790    26.8660    19.1130    23.1840     2.2310   -29.3580 
  144.0000    69.2390    29.8690    28.0920    19.6780    23.0000     2.2300   -29.3640 
  144.1250    70.1140    31.0720    29.3480    21.0820    22.9300     2.2380   -29.3790 
  144.2500    68.0770    32.2760    30.5830    22.1050    22.9220     2.2510   -29.3910 
  144.3750    65.5240    33.4170    31.7220    22.5050    22.9220     2.2670   -29.4080 
  144.5000    65.0820    34.4310    32.7190    23.5580    22.9210     2.2810   -29.4250 
  144.6250    66.4960    35.3090    33.5840    24.2150    22.9210     2.2860   -29.4370 
  144.7500    66.4910    36.1680    34.4180    25.2360    22.9330     2.2840   -29.4800 
  144.8750    64.6720    37.0700    35.2650    26.4000    23.0040     2.2830   -29.5410 
  145.0000    62.7770    37.9430    36.0730    29.3200    23.1890     2.2940   -29.6080 
  145.1250    60.5420    38.4560    36.6130    34.5660    23.4850     2.3280   -29.6830 
  145.2500    56.7940    38.3560    36.7080    38.3460    23.6890     2.3750   -29.7670 
  145.3750    53.5210    37.5680    36.2790    38.2050    23.7380     2.4150   -29.8690 
  145.5000    52.5470    36.2790    35.4330    37.1980    23.7470     2.4320   -29.9930 
  145.6250    56.8230    35.1720    34.4810    35.7590    23.8640     2.4140   -30.1600 
  145.7500    62.8140    34.7750    33.8110    34.2380    24.0460     2.3770   -30.3220 
  145.8750    65.2280    34.9780    33.6350    31.9830    24.0720     2.3390   -30.4560 
  146.0000    62.4980    35.5070    33.9970    30.3600    24.0150     2.3100   -30.5360 
  146.1250    59.6830    36.3930    34.8320    33.8040    23.9730     2.2930   -30.5660 
  146.2500    60.0700    37.4640    35.7980    38.5130    23.9730     2.2770   -30.5940 
  146.3750    61.8190    38.2850    36.5630    40.2760    23.9710     2.2610   -30.6030 
  146.5000    61.6130    38.4120    36.7680    38.2200    23.9680     2.2460   -30.5720 
  146.6250    59.6990    37.4160    35.9960    38.1120    23.9670     2.2390   -30.5160 
  146.7500    60.1300    35.6280    34.4440    37.8380    23.9650     2.2450   -30.4470 
  146.8750    64.7820    33.5590    32.5120    35.0060    23.9550     2.2600   -30.3790 
  147.0000    72.3280    31.8530    30.7820    29.1120    23.9280     2.2770   -30.3400 
  147.1250    75.0940    31.3150    30.0290    24.8760    23.9040     2.2900   -30.3600 
  147.2500    70.2870    32.1600    30.5240    24.6530    23.9000     2.2950   -30.3590 
  147.3750    63.5170    34.4020    32.3380    29.1490    23.9050     2.2960   -30.3440 
  147.5000    59.9980    37.6820    35.2080    37.1350    23.9090     2.2940   -30.3100 
  147.6250    60.4070    41.1550    38.4790    44.6550    23.8780     2.2930   -30.2720 
  147.7500    61.3600    43.7800    41.2000    47.9020    23.7810     2.2890   -30.2310 
  147.8750    62.5690    45.0390    42.8220    47.1730    23.6660     2.2830   -30.1940 
  148.0000    64.0170    45.0200    43.2700    43.7760    23.6310     2.2760   -30.1570 
  148.1250    63.8320    44.2500    42.8560    42.3490    23.7090     2.2700   -30.1070 
  148.2500    62.4440    43.4860    42.2610    42.4160    23.8420     2.2640   -30.0720 
  148.3750    60.0010    43.0440    41.8200    42.2780    23.9370     2.2580   -30.0370 
  148.5000    56.8480    43.0110    41.6860    42.0300    23.9520     2.2570   -29.9990 
  148.6250    55.2010    43.2720    41.8550    42.5040    23.9090     2.2810   -29.9670 
  148.7500    54.3120    43.3860    42.0060    43.6840    23.8790     2.3400   -29.9650 
  148.8750    52.5970    42.8990    41.7500    45.1920    23.8690     2.4210   -29.9730 
  149.0000    51.8220    41.4570    40.7250    49.5780    23.8670     2.4920   -29.9800 
  149.1250    54.3940    38.8580    38.6400    56.7630    23.8680     2.5060   -29.9990 
  149.2500    57.5450    35.6710    35.9060    47.4190    23.8700     2.4660   -30.0230 
  149.3750    59.8120    32.4790    33.0150    34.1310    23.8720     2.4030   -30.0380 
  149.5000    62.3130    29.8290    30.4770    28.1540    23.8780     2.3590   -30.0540 
  149.6250    66.2450    28.2440    28.8030    27.5720    23.8960     2.3610   -30.0580 
  149.7500    68.2310    27.6410    28.0090    27.9420    23.9270     2.3840   -30.0510 
  149.8750    67.0320    27.8640    28.0240    27.5190    23.9550     2.3980   -30.0610 
