~V
VERS. 2.00: Ver 2.00
~W
STRT.M 40.0000:
STOP.M 191.0000:
STEP.M 0.1250:
NULL. -999.2500:
UWI. F10585:
~C
DEPT.M :
DEN.GM/CC :
SP.MV :
GR.API :
RML.OHMM :
RI. :
RXO.OHMM :
CALI.CM :
~A
# ...
   85.0000     1.9890    -7.6870    88.7180    13.3660    11.3620    14.2010    24.2820 
   85.1250     1.9150    -7.6170    83.5000    16.1800    13.8840    16.2250    24.8350 
   85.2500     1.8750    -7.5630    77.3810    19.1870    16.7960    18.5510    25.6120 
   85.3750     1.9080    -7.5490    74.3000    21.5510    19.3990    21.4680    26.0640 
   85.5000     2.0160    -7.5540    75.3350    22.2440    20.5480    24.1480    25.7710 
   85.6250     2.1480    -7.5410    78.9270    20.3110    19.0370    24.9460    24.8820 
   85.7500     2.2290    -7.5270    83.1540    16.8300    15.8680    22.3620    24.3280 
   85.8750     2.2570    -7.5730    89.1200    13.0690    12.3090    15.0600    24.0710 
   86.0000     2.2760    -7.6350    99.2380     9.9920     9.2730     8.6080    23.9470 
   86.1250     2.2940    -7.6730   109.7620     8.0480     7.2040     6.4010    23.8870 
   86.2500     2.3030    -7.6720   114.5730     6.8690     5.8550     5.8770    23.8500 
   86.3750     2.3040    -7.6340   116.3570     6.2200     5.0600     5.8780    23.8360 
   86.5000     2.3060    -7.6000   118.9190     5.9490     4.7030     5.8560    23.8330 
   86.6250     2.3080    -7.5800   118.9790     6.1270     4.7970     5.8510    23.8330 
   86.7500     2.3000    -7.5390   114.3150     6.8700     5.3280     6.5440    23.8330 
   86.8750     2.2680    -7.4760   108.4920     8.3770     6.4250     8.9080    23.8430 
   87.0000     2.2080    -7.4240   102.0020    10.7390     8.2410    13.8210    23.8800 
   87.1250     2.1400    -7.4090    93.3280    13.8720    10.9640    18.4000    23.9680 
   87.2500     2.0940    -7.4000    86.0310    17.1090    14.1960    22.6260    24.0540 
   87.3750     2.0770    -7.3920    81.2730    19.6830    17.2380    25.8220    24.1290 
   87.5000     2.0800    -7.3830    77.2610    20.8580    19.1010    25.5790    24.1700 
   87.6250     2.0920    -7.4120    77.2590    20.1140    18.8530    21.5080    24.1800 
   87.7500     2.1100    -7.4660    83.7830    18.1850    17.1910    19.2060    24.1580 
   87.8750     2.1400    -7.5010    91.7380    15.7190    14.8870    18.9290    24.0960 
   88.0000     2.1810    -7.5250    96.2400    13.2860    12.5520    16.5150    24.0190 
   88.1250     2.2140    -7.5420    98.2890    11.3980    10.6480    11.1500    23.9410 
   88.2500     2.2280    -7.5830    99.2670    10.1300     9.2670     9.1030    23.9120 
   88.3750     2.2330    -7.6570    98.0420     9.4100     8.3940     8.9720    23.9050 
   88.5000     2.2470    -7.7090    96.9790     9.1190     7.9600     8.9230    23.9040 
   88.6250     2.2650    -7.7060   101.3570     9.1740     7.9130     8.2100    23.8900 
   88.7500     2.2720    -7.7130   108.3470     9.3670     8.0400     7.6950    23.8520 
   88.8750     2.2720    -7.7610   110.7920     9.5320     8.1790     8.1720    23.7920 
   89.0000     2.2750    -7.8020   107.1100     9.5250     8.2010     9.3380    23.7080 
   89.1250     2.2800    -7.7960   102.6650     9.2630     8.0460     9.6030    23.5450 
   89.2500     2.2690    -7.7750   100.2050     8.9240     7.8370     8.9230    23.3480 
   89.3750     2.2430    -7.7640    99.5030     8.7850     7.7480     7.9370    23.2360 
   89.5000     2.2150    -7.7610    99.0790     9.1160     7.9720     7.8970    23.2060 
   89.6250     2.1900    -7.7400    98.6120    10.0970     8.7010     9.1260    23.2100 
   89.7500     2.1700    -7.6910    95.6930    11.4010     9.7990    11.8970    23.2400 
   89.8750     2.1620    -7.6110    90.9470    12.5460    10.9750    16.1490    23.3180 
   90.0000     2.1740    -7.5360    88.5770    13.0190    11.7680    17.9610    23.4250 
   90.1250     2.2040    -7.5150    90.4930    12.5390    11.6940    14.6480    23.4730 
   90.2500     2.2290    -7.4880    94.3790    11.6490    11.0110    10.1750    23.4980 
   90.3750     2.2420    -7.4060    98.0040    10.8000    10.0870     9.0660    23.5270 
   90.5000     2.2460    -7.3300    99.7600    10.1870     9.2030     9.3490    23.5480 
   90.6250     2.2540    -7.3080    99.9980     9.7360     8.4770     9.1810    23.5550 
   90.7500     2.2680    -7.2790   101.1870     9.1990     7.8460     8.3800    23.5560 
   90.8750     2.2760    -7.2230   104.8150     8.5130     7.2740     7.4470    23.5570 
   91.0000     2.2660    -7.1610   107.5450     7.8770     6.8230     6.7890    23.5580 
   91.1250     2.2390    -7.0990   106.5390     7.7530     6.7350     7.0130    23.5330 
   91.2500     2.2070    -7.0400   104.4260     8.4170     7.1840     8.1830    23.4610 
   91.3750     2.1800    -6.9940   102.4050    10.0800     8.3670    11.2530    23.3480 
   91.5000     2.1710    -6.9300    97.6590    12.8220    10.4710    17.5020    23.2620 
   91.6250     2.2080    -6.8300    88.6680    16.4920    13.6790    24.5690    23.2380 
   91.7500     2.2860    -6.7480    80.9970    20.1420    17.3270    27.3930    23.3030 
   91.8750     2.3780    -6.7210    78.1270    22.7950    20.3900    31.1790    23.5070 
   92.0000     2.4180    -6.6880    78.3340    23.7480    21.8560    36.7920    23.8740 
   92.1250     2.3520    -6.5890    77.8580    22.8030    21.2580    35.0160    24.1800 
   92.2500     2.2490    -6.4660    77.3080    21.0150    19.6410    26.0920    24.2980 
   92.3750     2.1730    -6.3520    79.4960    19.0860    17.7510    20.7950    24.3170 
   92.5000     2.1390    -6.2500    83.0820    17.4100    16.0500    17.6630    24.3170 
   92.6250     2.1350    -6.1310    83.1920    16.2630    14.8660    16.3170    24.3170 
   92.7500     2.1350    -5.9910    81.9670    15.7390    14.2690    15.3690    24.3170 
   92.8750     2.1300    -5.8240    83.0740    16.0180    14.3620    15.7430    24.3170 
   93.0000     2.1200    -5.6770    85.1790    17.3270    15.2550    17.3340    24.3170 
   93.1250     2.1120    -5.5860    84.6590    20.1320    17.2810    20.5180    24.3170 
   93.2500     2.1080    -5.5010    82.7410    24.3040    20.4250    26.1350    24.3170 
   93.3750     2.1050    -5.4160    81.1080    29.5630    24.6200    34.6930    24.3170 
   93.5000     2.1000    -5.3550    79.4970    35.1640    29.4240    47.6070    24.3170 
   93.6250     2.0970    -5.3690    78.8670    39.5610    33.7450    53.1900    24.3380 
   93.7500     2.0930    -5.4140    78.4740    41.6960    36.5990    48.5850    24.4060 
   93.8750     2.0870    -5.4540    76.7730    41.4490    37.7060    39.0860    24.5120 
   94.0000     2.0770    -5.4850    75.3970    39.6280    37.4560    35.0010    24.5830 
   94.1250     2.0650    -5.5220    76.9640    37.4590    36.4660    36.9060    24.5990 
   94.2500     2.0540    -5.5960    78.9660    35.9120    35.4420    37.3570    24.5910 
   94.3750     2.0490    -5.6600    79.9440    35.3520    34.7460    35.2940    24.5460 
   94.5000     2.0510    -5.6880    79.5370    35.8500    34.6390    32.9410    24.4180 
   94.6250     2.0530    -5.6670    77.5540    37.4040    35.4550    32.0470    24.2250 
   94.7500     2.0480    -5.6340    75.7670    39.6320    37.1220    33.8770    24.0530 
   94.8750     2.0380    -5.6190    75.4410    42.1910    39.3990    41.1230    23.9450 
   95.0000     2.0380    -5.5920    75.2320    44.4710    41.6670    47.9690    23.9030 
   95.1250     2.0550    -5.5340    73.2170    45.3690    42.8090    47.1110    23.8960 
   95.2500     2.0790    -5.4640    70.4310    44.4870    42.4150    41.6790    23.8950 
   95.3750     2.0950    -5.4130    69.3410    42.1830    40.7790    36.7710    23.8880 
   95.5000     2.1000    -5.3790    71.0750    39.6130    38.8140    34.2960    23.8690 
   95.6250     2.1000    -5.3290    75.8310    38.5010    37.8080    35.4140    23.8440 
   95.7500     2.0970    -5.2640    77.6760    39.6610    38.4110    36.5430    23.8330 
   95.8750     2.0920    -5.1940    74.8430    43.4370    41.0050    39.0430    23.8320 
   96.0000     2.0880    -5.1550    70.4180    49.7550    45.7390    48.0630    23.8320 
   96.1250     2.0870    -5.1680    67.8100    58.1640    52.4890    61.0430    23.8300 
