~V
VERS. 2.00: Ver 2.00
~W
STRT.M 57.0000:
STOP.M 205.0000:
STEP.M 0.1250:
NULL. -999.2500:
UWI. F10591:
~C
DEPT.M :
SP.MV :
GR.API :
RML.OHMM :
RI. :
RXO.OHMM :
CALI.CM :
DEN.GM/CC :
~A
# ...
  124.5000   -13.9590    48.3230    32.6730    28.1800    28.5110    24.9470     2.6140 
  124.6250   -14.0980    48.0660    34.7310    29.4750    29.8270    24.9520     2.6330 
  124.7500   -14.2430    48.0660    37.0120    31.0750    30.8840    24.9580     2.6550 
  124.8750   -14.3920    47.4400    38.6370    32.3770    34.3840    24.9560     2.6740 
  125.0000   -14.5260    46.6530    38.5730    32.5250    39.4910    24.9450     2.6860 
  125.1250   -14.6640    47.1750    35.8810    30.6040    40.5090    24.9250     2.6930 
  125.2500   -14.8070    49.1940    31.5810    27.2940    33.7000    24.9230     2.7000 
  125.3750   -14.8820    50.8380    26.9510    23.5990    24.3210    24.9330     2.7070 
  125.5000   -14.9470    50.9690    23.0940    20.4210    18.5940    24.9480     2.7080 
  125.6250   -14.9800    51.1600    20.7340    18.3720    16.5270    24.9580     2.6860 
  125.7500   -14.9900    51.7520    19.5490    17.2800    15.9590    24.9620     2.6430 
  125.8750   -14.9830    52.0260    19.1730    16.9230    16.2380    24.9560     2.5830 
  126.0000   -14.9600    51.3540    19.1760    16.9910    16.4720    24.9510     2.5180 
  126.1250   -14.9280    50.7770    19.1780    17.1570    17.2830    24.9500     2.4630 
  126.2500   -14.8740    51.6780    19.0360    17.2110    17.9220    24.9520     2.4300 
  126.3750   -14.8480    52.9070    18.8040    17.1430    17.3460    24.9570     2.4210 
  126.5000   -14.8010    52.7750    18.5800    17.0220    16.0750    24.9720     2.4280 
  126.6250   -14.7990    49.2580    18.4020    16.8900    15.6450    24.9520     2.4390 
  126.7500   -14.7830    46.0530    18.1730    16.6990    17.0790    24.8550     2.4430 
  126.8750   -14.7840    45.9490    17.7720    16.3480    18.5070    24.7120     2.4420 
  127.0000   -14.8130    48.1930    17.1700    15.8050    16.6640    24.7790     2.4380 
  127.1250   -14.8420    50.0310    16.5190    15.1800    15.3220    24.8900     2.4360 
  127.2500   -14.8990    49.9280    16.0610    14.6880    14.6750    25.0150     2.4400 
  127.3750   -14.9510    49.4940    15.9370    14.4590    13.9280    25.0500     2.4500 
  127.5000   -15.0210    49.6970    16.1680    14.5280    13.5200    25.0550     2.4660 
  127.6250   -15.1030    50.3140    16.6310    14.8270    15.1020    24.9990     2.4830 
  127.7500   -15.1950    50.4320    17.0190    15.1100    17.1780    24.9550     2.4910 
  127.8750   -15.2910    50.3220    17.1180    15.1930    17.4490    24.9480     2.4810 
  128.0000   -15.3440    51.9260    16.8620    15.0000    15.1890    24.9560     2.4570 
  128.1250   -15.4140    53.9620    16.3730    14.5800    14.4720    24.9620     2.4310 
  128.2500   -15.4450    54.9240    15.9720    14.1750    15.3220    24.9680     2.4170 
  128.3750   -15.4710    55.7030    15.8920    13.9820    16.2240    25.0050     2.4180 
  128.5000   -15.4850    57.2520    16.2460    14.1250    16.0400    25.0710     2.4290 
  128.6250   -15.4330    57.9330    17.0360    14.6620    16.1210    25.1180     2.4360 
  128.7500   -15.3780    55.7770    18.0280    15.4240    17.5390    25.1570     2.4360 
  128.8750   -15.2860    52.5480    19.0610    16.2740    19.8520    25.1810     2.4360 
  129.0000   -15.1670    50.9860    20.0370    17.1080    21.6030    25.1670     2.4430 
  129.1250   -15.0530    51.8340    20.9400    17.8810    20.8010    25.1320     2.4520 
  129.2500   -14.9660    52.8680    21.7900    18.6000    19.2710    25.1430     2.4550 
  129.3750   -14.8510    52.7970    22.5090    19.2100    20.5550    25.1690     2.4470 
  129.5000   -14.7460    52.4400    22.9220    19.5770    25.3950    25.1230     2.4350 
  129.6250   -14.6990    53.5180    22.7480    19.4820    28.9610    25.0210     2.4300 
  129.7500   -14.6420    54.0740    22.1010    18.9930    25.1370    24.9660     2.4340 
  129.8750   -14.6270    52.4660    21.3030    18.3340    19.6050    24.9280     2.4410 
  130.0000   -14.6790    49.6670    20.7810    17.8220    17.0810    24.8530     2.4450 
  130.1250   -14.7050    48.1280    20.8960    17.7590    17.2950    24.8400     2.4410 
  130.2500   -14.7610    47.5240    21.4580    18.0760    18.5820    24.8430     2.4360 
  130.3750   -14.8540    45.3230    22.1160    18.5670    20.4140    24.8490     2.4350 
  130.5000   -14.9660    42.4570    22.4610    18.9330    22.2950    24.8470     2.4390 
  130.6250   -15.0510    44.0610    22.1860    18.8770    21.1990    24.8600     2.4480 
  130.7500   -15.1490    48.9670    21.5820    18.5200    17.9760    24.8980     2.4560 
  130.8750   -15.2190    52.4920    21.0230    18.1130    15.3250    24.9190     2.4580 
  131.0000   -15.2590    53.6520    20.7650    17.8700    14.8010    24.8570     2.4520 
  131.1250   -15.2890    55.0810    20.8440    17.8780    15.3980    24.6800     2.4360 
  131.2500   -15.2740    55.4610    20.9870    17.9760    15.5870    24.5030     2.4190 
  131.3750   -15.2270    53.7430    20.9560    17.9850    15.5390    24.5050     2.4080 
  131.5000   -15.1610    50.6120    20.6070    17.7690    15.9960    24.7110     2.4090 
  131.6250   -15.0680    47.7410    19.9570    17.3020    16.2180    24.8730     2.4240 
  131.7500   -14.9690    47.6360    19.2920    16.7820    16.0370    24.9310     2.4430 
  131.8750   -14.8700    50.9620    18.8380    16.3890    16.0220    24.9280     2.4520 
  132.0000   -14.7700    54.2480    18.7370    16.2440    16.7650    24.9330     2.4470 
  132.1250   -14.6870    52.0070    19.0650    16.4390    16.6160    24.9490     2.4280 
  132.2500   -14.6180    47.8400    19.6340    16.8630    16.8030    24.9530     2.4070 
  132.3750   -14.5770    46.0940    20.2330    17.3760    17.4440    24.9520     2.3950 
  132.5000   -14.5320    45.5630    20.6390    17.8020    18.6170    24.9480     2.3940 
  132.6250   -14.5480    43.7990    20.6330    17.9410    18.8980    24.9410     2.4000 
  132.7500   -14.5690    42.8400    20.2340    17.7560    17.9310    24.9250     2.4080 
  132.8750   -14.6220    45.0150    19.5040    17.2570    16.5480    24.9110     2.4180 
  133.0000   -14.6730    48.9120    18.5760    16.5310    15.4650    24.9180     2.4330 
  133.1250   -14.7610    51.4620    17.6550    15.7350    15.4110    24.9240     2.4520 
  133.2500   -14.8590    52.7140    16.9270    15.0480    14.9840    24.9140     2.4700 
  133.3750   -14.9700    52.6330    16.5050    14.5770    14.0080    24.9050     2.4790 
  133.5000   -15.0880    51.7080    16.4420    14.3780    13.3070    24.9020     2.4780 
  133.6250   -15.1760    51.7810    16.7560    14.4920    13.9970    24.9010     2.4670 
  133.7500   -15.2680    52.7570    17.2730    14.8090    15.4150    24.9010     2.4520 
  133.8750   -15.3370    52.3070    17.8550    15.2400    16.1660    24.9010     2.4390 
  134.0000   -15.4110    49.1490    18.3860    15.6940    16.3240    24.9010     2.4280 
  134.1250   -15.4400    45.5940    18.7740    16.0760    16.1400    24.9010     2.4240 
  134.2500   -15.4480    44.3120    19.0560    16.3670    16.0940    24.9010     2.4250 
  134.3750   -15.4050    46.2500    19.3260    16.6130    16.5510    24.9010     2.4310 
  134.5000   -15.3690    49.6170    19.7180    16.9140    17.5000    24.9020     2.4400 
  134.6250   -15.3150    53.2630    20.4030    17.4190    17.5940    24.9020     2.4490 
  134.7500   -15.2430    56.6200    21.3530    18.1410    17.3370    24.8870     2.4590 
  134.8750   -15.1760    58.1270    22.4350    19.0020    17.9460    24.8450     2.4660 
  135.0000   -15.0820    56.6640    23.3820    19.8110    20.4810    24.8090     2.4690 
  135.1250   -15.0150    53.0980    23.7280    20.2150    24.0320    24.7970     2.4680 
  135.2500   -14.9570    50.5910    23.3340    20.0560    23.6710    24.7900     2.4670 
  135.3750   -14.9080    49.8760    22.3230    19.3750    19.8760    24.7070     2.4670 
  135.5000   -14.8740    49.3520    21.0580    18.4180    17.6680    24.4900     2.4660 
  135.6250   -14.8670    48.1140    20.0190    17.5380    17.0310    24.2840     2.4630 
