~V
VERS. 2.00: Ver 2.00
~W
STRT.M 58.0000:
STOP.M 214.0000:
STEP.M 0.1250:
NULL. -999.2500:
UWI. F10594:
~C
DEPT.M :
GR.API :
RML.OHMM :
RI. :
RXO.OHMM :
CALI.CM :
DEN.GM/CC :
SP.MV :
~A
# ...
  193.0000    63.9930     6.2150     4.8780     6.3580    23.7570     2.4100   -37.2030 
  193.1250    64.2490     6.2720     4.8820     6.3000    23.8010     2.4090   -36.7840 
  193.2500    63.7670     6.3630     4.9530     6.1680    23.7750     2.3980   -36.4480 
  193.3750    61.4400     6.3990     5.0130     6.0140    23.6660     2.3820   -36.1960 
  193.5000    56.3340     6.3540     5.0200     5.7250    23.5640     2.3710   -36.0310 
  193.6250    51.2910     6.2590     4.9720     5.3770    23.5180     2.3710   -35.9590 
  193.7500    48.3170     6.1880     4.9170     5.2130    23.5080     2.3810   -35.9490 
  193.8750    46.7790     6.1860     4.8910     5.2450    23.5440     2.3940   -35.9870 
  194.0000    46.6150     6.2680     4.9140     5.4980    23.6380     2.4020   -36.0620 
  194.1250    47.3800     6.4230     4.9880     5.8610    23.7430     2.3990   -36.1770 
  194.2500    47.7400     6.5850     5.0740     6.0830    23.7990     2.3890   -36.3240 
  194.3750    46.3940     6.7100     5.1380     6.1710    23.8260     2.3800   -36.4890 
  194.5000    45.8700     6.7830     5.1650     6.1270    23.8630     2.3790   -36.6590 
  194.6250    47.5740     6.8330     5.1730     5.9440    23.8680     2.3920   -36.8270 
  194.7500    48.9200     6.9230     5.2120     6.0840    23.8020     2.4090   -36.9890 
  194.8750    48.8290     7.1070     5.3190     6.5030    23.7180     2.4220   -37.1420 
  195.0000    48.8050     7.4140     5.5210     6.7040    23.7420     2.4260   -37.2870 
  195.1250    50.4530     7.8580     5.8350     6.9500    23.8050     2.4240   -37.4190 
  195.2500    52.3990     8.3730     6.2180     7.4880    23.8300     2.4260   -37.5330 
  195.3750    53.8100     8.9010     6.6360     8.1020    23.8370     2.4350   -37.6260 
  195.5000    53.9380     9.3880     7.0480     8.5810    23.8330     2.4500   -37.6910 
  195.6250    54.5480     9.7770     7.4090     8.9440    23.8120     2.4630   -37.7140 
  195.7500    56.0100    10.0470     7.6940     9.3000    23.7780     2.4650   -37.6950 
  195.8750    57.8530    10.1460     7.8580     9.7670    23.7730     2.4500   -37.6270 
  196.0000    58.9630     9.9970     7.8400    10.0390    23.7780     2.4200   -37.5060 
  196.1250    58.0230     9.4950     7.5430     9.9390    23.7640     2.3840   -37.3280 
  196.2500    56.2760     8.7430     7.0260     9.6470    23.6720     2.3590   -37.1150 
  196.3750    55.4110     7.8850     6.3890     8.9480    23.4820     2.3530   -36.8810 
  196.5000    56.6510     7.0970     5.7590     7.1230    23.1940     2.3660   -36.6480 
  196.6250    57.5850     6.5550     5.2790     5.5810    23.0020     2.3830   -36.4430 
  196.7500    55.7270     6.2690     4.9810     4.8500    22.8770     2.3870   -36.2730 
  196.8750    52.4510     6.1980     4.8540     4.7680    22.8380     2.3740   -36.1390 
  197.0000    49.6470     6.2570     4.8550     5.0140    22.8350     2.3570   -36.0430 
  197.1250    50.0890     6.3400     4.9190     5.3830    22.8870     2.3490   -35.9870 
  197.2500    52.2840     6.3660     4.9710     5.7200    23.0420     2.3570   -35.9540 
  197.3750    54.0040     6.3260     4.9870     5.7520    23.2700     2.3740   -35.9370 
  197.5000    53.3220     6.2590     4.9740     5.3680    23.4190     2.3930   -35.9290 
  197.6250    50.9860     6.2380     4.9730     5.2990    23.5170     2.4080   -35.9200 
  197.7500    50.8380     6.2890     5.0120     5.5770    23.6600     2.4170   -35.9040 
  197.8750    52.1590     6.3970     5.0900     5.9440    23.8590     2.4200   -35.8910 
  198.0000    52.8090     6.5080     5.1780     6.2920    24.0940     2.4140   -35.8890 
  198.1250    51.9480     6.5380     5.2150     6.5890    24.1930     2.3960   -35.9180 
  198.2500    50.5590     6.4630     5.1720     6.7130    24.2330     2.3690   -35.9810 
  198.3750    49.5350     6.3200     5.0620     6.3660    24.3020     2.3390   -36.0810 
  198.5000    49.1840     6.1980     4.9400     5.6370    24.4090     2.3160   -36.2180 
  198.6250    51.2040     6.2170     4.8950     5.5060    24.4710     2.3140   -36.3990 
  198.7500    53.8650     6.3910     4.9610     5.9390    24.2550     2.3280   -36.6140 
  198.8750    54.5410     6.6670     5.1120     7.1380    24.0600     2.3460   -36.8570 
  199.0000    52.5260     6.9340     5.2830     9.3320    24.0110     2.3530   -37.1190 
  199.1250    50.3710     7.0760     5.3910    10.5470    24.0720     2.3430   -37.3910 
  199.2500    50.6800     7.1280     5.4420     9.3300    24.1330     2.3280   -37.6710 
  199.3750    51.8530     7.2230     5.5080     7.3830    24.1810     2.3220   -37.9630 
  199.5000    51.0790     7.5380     5.6990     7.2060    24.1680     2.3330   -38.2760 
  199.6250    49.6190     8.2960     6.1790     9.1370    24.0600     2.3750   -38.6240 
  199.7500    49.8160     9.4630     6.9740    11.6010    23.9170     2.4420   -39.0040 
  199.8750    50.7830    10.9110     8.0430    12.7000    23.8930     2.5180   -39.4080 
  200.0000    51.3690    12.3870     9.2450    13.3440    23.9890     2.5700   -39.8200 
  200.1250    52.9630    13.5230    10.3170    13.6180    24.1200     2.5650   -40.2250 
  200.2500    55.0750    14.2240    11.0980    13.6010    24.1960     2.5170   -40.6030 
  200.3750    56.6870    14.6260    11.6140    13.7680    24.2190     2.4540   -40.9310 
  200.5000    58.6920    15.0050    12.0280    15.4230    24.2170     2.4030   -41.1810 
  200.6250    61.7670    15.6700    12.5670    18.6340    24.2110     2.3860   -41.2940 
  200.7500    64.9830    16.6280    13.3030    20.1710    24.2090     2.4010   -41.2550 
  200.8750    67.6650    17.6320    14.1250    20.4820    24.2160     2.4310   -41.0560 
  201.0000    69.1600    18.1330    14.6730    19.6460    24.2250     2.4550   -40.6980 
  201.1250    66.9240    17.2140    14.2240    19.4220    24.2420     2.4520   -40.1550 
  201.2500    63.0200    14.9600    12.6970    19.4860    24.2780     2.4210   -39.4670 
  201.3750    61.0020    12.0430    10.5040    16.7460    24.3880     2.3730   -38.6580 
  201.5000    62.1240     9.3110     8.2800    10.9410    24.6290     2.3240   -37.7620 
  201.6250    63.2600     7.4040     6.5670     6.6420    24.9220     2.2940   -36.8220 
  201.7500    61.5330     6.2340     5.4060     5.2130    24.9940     2.2860   -35.9080 
  201.8750    57.7000     5.6330     4.7240     5.0690    24.8940     2.3000   -35.0670 
  202.0000    53.4010     5.4210     4.4060     5.0810    24.6960     2.3290   -34.3330 
  202.1250    49.6290     5.4490     4.3550     5.0950    24.5020     2.3620   -33.7560 
  202.2500    46.4790     5.5490     4.4120     5.1930    24.3870     2.3870   -33.3240 
  202.3750    44.0630     5.6560     4.5060     5.3560    24.3540     2.4020   -33.0250 
  202.5000    42.8720     5.7620     4.6030     5.3970    24.3930     2.4090   -32.8440 
  202.6250    43.2400     5.8740     4.6960     5.5510    24.5250     2.4100   -32.7700 
  202.7500    43.8840     5.9760     4.7840     5.6910    24.8090     2.4090   -32.7490 
  202.8750    43.3450     6.0480     4.8570     5.8430    25.1540     2.4050   -32.7470 
  203.0000    41.5480     6.0830     4.9050     5.9610    25.3150     2.4010   -32.7390 
  203.1250    40.8440     6.1040     4.9230     6.0210    25.0630     2.4060   -32.7020 
  203.2500    41.9210     6.1440     4.9280     5.9420    24.8570     2.4200   -32.6320 
  203.3750    42.5970     6.2210     4.9380     5.9880    24.6670     2.4380   -32.5330 
  203.5000    41.4420     6.3440     4.9750     6.3390    24.5230     2.4480   -32.4050 
  203.6250    40.9550     6.5140     5.0610     6.7190    24.4820     2.4440   -32.2490 
  203.7500    43.0360     6.7080     5.1820     6.8440    24.4750     2.4360   -32.0790 
  203.8750    44.2600     6.9070     5.3180     7.1570    24.4780     2.4360   -31.9050 
  204.0000    44.2600     7.0880     5.4410     7.8300    24.4670     2.4490   -31.7350 
  204.1250    44.2600     7.2120     5.5190     7.9460    24.4570     2.4660   -31.5700 
