~V
VERS. 2.00: Ver 2.00
~W
STRT.M 54.0000:
STOP.M 217.0000:
STEP.M 0.1250:
NULL. -999.2500:
UWI. F10593:
~C
DEPT.M :
SP.MV :
GR.API :
RML.OHMM :
RI. :
RXO.OHMM :
CALI.CM :
DEN.GM/CC :
~A
# ...
   87.7500    -8.7060   107.0770     6.7640     5.1160     5.7170    24.5810     2.3180 
   87.8750    -8.6850   100.9020     6.9210     5.2210     5.6960    24.5810     2.3130 
   88.0000    -8.6570    95.1280     7.1530     5.3900     5.8730    24.5820     2.3140 
   88.1250    -8.6550    92.8740     7.4890     5.6330     6.0670    24.5850     2.3290 
   88.2500    -8.6500    92.4560     7.9150     5.9350     6.2290    24.5910     2.3570 
   88.3750    -8.6320    91.9990     8.3360     6.2480     7.0430    24.5900     2.3840 
   88.5000    -8.6670    91.4710     8.6140     6.4940     7.9330    24.5920     2.3920 
   88.6250    -8.7390    90.4070     8.6620     6.6090     7.6600    24.6080     2.3760 
   88.7500    -8.8180    88.1430     8.4780     6.5710     7.2800    24.6260     2.3430 
   88.8750    -8.8550    86.0030     8.1510     6.3980     7.0500    24.6360     2.3100 
   89.0000    -8.8640    86.9350     7.8530     6.1980     6.9360    24.6480     2.2910 
   89.1250    -8.8620    89.5420     7.6980     6.0560     6.7350    24.6730     2.2890 
   89.2500    -8.8600    91.8190     7.7540     6.0380     6.7200    24.7000     2.3030 
   89.3750    -8.8760    90.0680     8.0880     6.2070     6.9000    24.7220     2.3210 
   89.5000    -8.8320    85.5920     8.6270     6.5260     7.1770    24.7430     2.3310 
   89.6250    -8.7620    81.9280     9.2690     6.9460     7.9970    24.7580     2.3230 
   89.7500    -8.6920    80.8490     9.8430     7.3690     9.0550    24.7810     2.2980 
   89.8750    -8.6450    81.9480    10.0780     7.6340     9.2330    24.7970     2.2740 
   90.0000    -8.6150    83.5550     9.9120     7.6620     9.0790    24.7890     2.2670 
   90.1250    -8.5640    87.7890     9.4250     7.4640     8.8550    24.7670     2.2830 
   90.2500    -8.4950    95.1810     8.8230     7.1370     8.0180    24.7460     2.3110 
   90.3750    -8.4240    99.4730     8.3800     6.8360     7.0620    24.7410     2.3330 
   90.5000    -8.3410    96.8630     8.2150     6.6650     6.8050    24.7440     2.3380 
   90.6250    -8.2690    90.8070     8.3270     6.6540     7.2760    24.7530     2.3280 
   90.7500    -8.2220    87.2440     8.6220     6.7750     8.2590    24.7720     2.3140 
   90.8750    -8.1250    86.2170     8.9450     6.9650     8.9940    24.7760     2.2990 
   91.0000    -8.0080    84.2530     9.1630     7.1400     8.8180    24.7760     2.2840 
   91.1250    -7.9480    82.5390     9.2600     7.2720     8.3090    24.7670     2.2670 
   91.2500    -7.8710    83.1750     9.2990     7.3780     8.1130    24.7460     2.2520 
   91.3750    -7.7130    85.5560     9.3740     7.5080     8.0330    24.7100     2.2550 
   91.5000    -7.6010    86.4110     9.5020     7.6820     8.3730    24.6770     2.2770 
   91.6250    -7.4780    85.1420     9.6290     7.8700     8.9000    24.6480     2.3100 
   91.7500    -7.3440    84.0240     9.6810     8.0080     9.3080    24.6280     2.3360 
   91.8750    -7.2710    85.6940     9.6170     8.0260     9.4460    24.6150     2.3380 
   92.0000    -7.2180    87.2980     9.5140     7.9570     8.8400    24.5980     2.3230 
   92.1250    -7.1600    86.4610     9.4590     7.8640     8.1850    24.5690     2.3000 
   92.2500    -7.1550    85.1050     9.5020     7.8020     7.4570    24.5230     2.2800 
   92.3750    -7.2580    85.9240     9.6180     7.7880     7.7330    24.4800     2.2690 
   92.5000    -7.3480    88.2060     9.6820     7.7590     8.5900    24.4530     2.2650 
   92.6250    -7.4220    90.9700     9.5780     7.6450     8.5440    24.4200     2.2660 
   92.7500    -7.4570    93.4460     9.2460     7.4060     8.1560    24.3820     2.2690 
   92.8750    -7.4340    94.4870     8.7680     7.0820     7.5460    24.3320     2.2770 
   93.0000    -7.3760    93.4350     8.4200     6.8320     7.2450    24.3110     2.2970 
   93.1250    -7.2760    91.2500     8.4690     6.8240     7.1170    24.3010     2.3350 
   93.2500    -7.0920    87.7320     9.1370     7.2160     7.3210    24.3110     2.3910 
   93.3750    -6.7990    81.1550    10.6840     8.2180     9.0340    24.3520     2.4390 
   93.5000    -6.4950    73.6660    12.9360     9.7650    13.8250    24.4220     2.4540 
   93.6250    -6.2070    66.9090    15.6010    11.7180    21.1470    24.5350     2.4250 
   93.7500    -5.9050    62.0840    18.1570    13.7680    21.0400    24.7040     2.3630 
   93.8750    -5.6300    59.2000    19.8640    15.4110    18.7720    24.8500     2.2910 
   94.0000    -5.3720    58.4390    20.5890    16.4160    17.8210    24.9540     2.2280 
   94.1250    -5.1460    60.0130    20.5510    16.8100    17.7140    25.0660     2.1780 
   94.2500    -5.0210    61.6750    20.1580    16.8060    17.9430    25.1980     2.1390 
   94.3750    -4.9910    62.8490    19.7860    16.6550    18.1680    25.2390     2.1160 
   94.5000    -4.9750    64.2680    19.5810    16.5450    17.5900    25.0960     2.1140 
   94.6250    -4.9330    64.5500    19.5570    16.5380    16.4290    24.8360     2.1320 
   94.7500    -4.9300    62.1720    19.7010    16.6740    16.0470    24.5960     2.1580 
   94.8750    -4.9610    58.7490    20.0030    16.9980    17.2460    24.4930     2.1800 
   95.0000    -5.0320    56.8470    20.3660    17.4600    18.6810    24.4630     2.1910 
   95.1250    -5.1070    56.1680    20.7160    18.0000    19.4270    24.4600     2.1940 
   95.2500    -5.1680    57.2830    21.0270    18.5500    19.6920    24.4600     2.1920 
   95.3750    -5.2490    60.2140    21.3230    19.0550    20.0260    24.4600     2.1900 
   95.5000    -5.4110    62.7450    21.5930    19.4710    20.1100    24.4600     2.1860 
   95.6250    -5.6770    63.6850    21.6360    19.6560    19.7540    24.4600     2.1780 
   95.7500    -5.9760    64.1300    21.0510    19.3370    19.3270    24.4600     2.1670 
   95.8750    -6.3250    67.7170    19.3610    18.0370    19.1430    24.4600     2.1620 
   96.0000    -6.7090    75.0330    16.8370    15.8600    18.5680    24.4580     2.1720 
   96.1250    -7.1200    83.7100    13.8900    13.1770    16.0610    24.4480     2.2020 
   96.2500    -7.5200    90.8520    11.0710    10.5420    11.6440    24.4280     2.2480 
   96.3750    -7.8660    94.2050     9.0760     8.5450     7.5240    24.4240     2.3080 
   96.5000    -8.1300    93.7240     8.0250     7.2960     6.1010    24.4290     2.3730 
   96.6250    -8.3110    91.1520     7.8240     6.7690     6.0470    24.4220     2.4330 
   96.7500    -8.4040    88.2930     8.2830     6.8430     7.1110    24.4110     2.4750 
   96.8750    -8.3760    83.8700     9.1450     7.3770     9.3700    24.4090     2.4820 
   97.0000    -8.2780    79.3070     9.9950     8.0530    11.2280    24.4180     2.4560 
   97.1250    -8.1060    78.8570    10.6230     8.6930    11.0890    24.4430     2.4070 
   97.2500    -7.9200    81.5900    11.0550     9.2560     9.3200    24.4790     2.3500 
   97.3750    -7.7300    79.4190    11.6020     9.9120     8.6390    24.5480     2.2990 
   97.5000    -7.5090    72.8900    12.5700    10.8890     9.2040    24.6270     2.2560 
   97.6250    -7.3040    68.1780    14.0280    12.2820    11.4560    24.6870     2.2230 
   97.7500    -7.1900    67.4240    15.7130    13.9180    15.6800    24.7160     2.2010 
   97.8750    -7.1650    67.7640    16.8890    15.1830    18.7130    24.7360     2.1980 
   98.0000    -7.1830    67.7390    17.0150    15.5240    19.8950    24.7570     2.2120 
   98.1250    -7.2900    69.2890    16.0560    14.8100    18.4280    24.7630     2.2340 
   98.2500    -7.4010    72.4300    14.4830    13.3870    14.5570    24.7550     2.2590 
   98.3750    -7.5340    74.4870    13.0180    11.8800    11.5640    24.7030     2.2790 
   98.5000    -7.7270    75.5860    12.0890    10.7620    11.4450    24.5840     2.2920 
   98.6250    -7.9570    78.1870    11.7950    10.1810    11.4510    24.4430     2.2960 
   98.7500    -8.2010    79.8070    12.0850    10.1370    10.2470    24.3540     2.2890 
   98.8750    -8.4320    75.2730    12.8730    10.6160    10.0060    24.3250     2.2700 
