~V
VERS. 2.00: Ver 2.00
~W
STRT.M 60.0000:
STOP.M 207.0000:
STEP.M 0.1250:
NULL. -999.2500:
UWI. F10577:
~C
DEPT.M :
DEN.GM/CC :
SP.MV :
GR.API :
RML.OHMM :
RI. :
RXO.OHMM :
CALI.CM :
~A
# ...
   71.2500     2.1300   -24.8140    71.2120    14.1730    11.2250    11.4770    23.7950 
   71.3750     2.1020   -24.7340    72.4070    14.3540    11.2260    12.5410    23.7950 
   71.5000     2.0930   -24.6520    73.2270    15.0300    11.5990    13.8180    23.7970 
   71.6250     2.0920   -24.5850    73.1640    16.0860    12.3520    14.2800    23.7910 
   71.7500     2.0950   -24.5540    73.7530    17.1760    13.2650    14.9090    23.7490 
   71.8750     2.1030   -24.5150    75.3220    18.0730    14.1540    16.2970    23.6500 
   72.0000     2.1120   -24.4690    75.6750    18.6730    14.8770    17.7630    23.5520 
   72.1250     2.1170   -24.4510    73.3080    18.9490    15.3220    18.3810    23.5140 
   72.2500     2.1230   -24.4450    69.2260    18.9940    15.5250    17.4580    23.5070 
   72.3750     2.1300   -24.4290    65.8790    18.8140    15.4980    15.3970    23.4990 
   72.5000     2.1360   -24.4380    64.8040    18.4000    15.2680    14.7580    23.4790 
   72.6250     2.1370   -24.4660    66.6980    17.7390    14.8480    15.8290    23.4500 
   72.7500     2.1370   -24.4690    68.7040    16.9360    14.2990    15.9430    23.4380 
   72.8750     2.1360   -24.4490    69.2930    16.0870    13.6660    14.5290    23.4360 
   73.0000     2.1370   -24.4200    68.6040    15.3030    13.0200    13.0570    23.4380 
   73.1250     2.1410   -24.3440    67.2490    14.7300    12.4790    12.6580    23.4420 
   73.2500     2.1460   -24.2250    66.8170    14.4220    12.1220    12.5740    23.4450 
   73.3750     2.1520   -24.0780    69.1360    14.3860    11.9930    12.5100    23.5700 
   73.5000     2.1580   -23.9070    72.8030    14.5070    12.0590    12.4880    23.7770 
   73.6250     2.1650   -23.6950    71.4320    14.4830    12.1370    12.5770    24.0150 
   73.7500     2.1760   -23.4620    66.5750    14.0690    11.9780    12.7110    23.6830 
   73.8750     2.1940   -23.2280    64.6160    13.2250    11.4870    12.6670    23.4760 
   74.0000     2.2180   -22.9490    68.7600    12.1520    10.7620    11.8820    23.4290 
   74.1250     2.2350   -22.6560    76.2810    11.2480    10.0750    10.3170    23.4000 
   74.2500     2.2400   -22.3910    80.4320    10.7730     9.6660     9.0990    23.3170 
   74.3750     2.2390   -22.1390    79.8440    10.7440     9.6160    10.2700    23.1800 
   74.5000     2.2400   -21.9180    75.8330    10.9730     9.8310    12.8860    23.0580 
   74.6250     2.2410   -21.7570    73.4050    11.1030    10.0240    14.4180    22.9800 
   74.7500     2.2410   -21.6400    77.4470    10.8670     9.8860    13.3470    22.9040 
   74.8750     2.2380   -21.5640    86.0110    10.2210     9.3100    10.7670    22.8270 
   75.0000     2.2310   -21.5510    93.4500     9.3410     8.4270     7.9130    22.7670 
   75.1250     2.2180   -21.5740    95.4020     8.5170     7.5320     6.7430    22.8120 
   75.2500     2.2090   -21.6060    94.8900     7.8930     6.8360     6.4320    23.0550 
   75.3750     2.2130   -21.6660    94.4210     7.4460     6.3710     6.2490    23.5190 
   75.5000     2.2300   -21.7280    95.3640     7.1160     6.1010     6.0040    23.9530 
   75.6250     2.2600   -21.7530    96.9630     6.9330     6.0370     6.3660    24.1130 
   75.7500     2.3050   -21.7470    96.7190     7.0180     6.2000     6.8680    24.1460 
   75.8750     2.3650   -21.7090    93.8100     7.5930     6.7020     7.5590    24.1510 
   76.0000     2.4340   -21.6250    91.1130     8.9130     7.7040     9.2100    24.1470 
   76.1250     2.4750   -21.4950    88.4030    11.2810     9.4860    13.7910    24.1440 
   76.2500     2.4630   -21.3200    82.0400    14.3190    11.9220    21.0430    24.1420 
   76.3750     2.3950   -21.1120    73.6740    17.3210    14.5930    27.1500    24.1430 
   76.5000     2.2980   -20.8800    68.7230    19.2690    16.6390    26.5730    24.1510 
   76.6250     2.2170   -20.6390    69.4430    19.2130    16.9810    19.0750    24.1740 
   76.7500     2.1760   -20.4160    73.2660    18.0050    16.1180    13.7790    24.2020 
   76.8750     2.1720   -20.2070    79.9460    16.7320    14.9690    11.8940    24.2230 
   77.0000     2.1840   -20.0130    88.5370    16.2040    14.3130    12.9870    24.2750 
   77.1250     2.2000   -19.8910    90.4070    16.9730    14.7250    16.0320    24.3950 
   77.2500     2.2390   -19.8490    83.8680    18.9750    16.2020    18.4470    24.5040 
   77.3750     2.3230   -19.8470    74.5920    22.2940    18.8320    20.1120    24.5020 
   77.5000     2.4460   -19.8670    68.8000    26.8690    22.6600    23.0510    24.3910 
   77.6250     2.5550   -19.8960    68.8400    31.9180    27.3130    31.0930    24.2720 
   77.7500     2.6000   -19.9130    72.4130    35.2760    30.9640    42.9920    24.2230 
   77.8750     2.5830   -19.9250    77.5560    34.6960    31.3650    49.6600    24.2140 
   78.0000     2.5270   -19.9460    81.6700    29.6530    27.6000    46.8480    24.2140 
   78.1250     2.4300   -19.9550    85.3460    22.4200    21.4040    33.5390    24.2140 
   78.2500     2.3190   -19.9340    89.9530    16.3230    15.8570    17.9960    24.2110 
   78.3750     2.2310   -19.9040    93.6180    12.3170    11.9520    10.2810    24.1950 
   78.5000     2.1820   -19.8730    93.4730    10.1530     9.6240     8.3430    24.1460 
   78.6250     2.1670   -19.8530    89.5390     9.3620     8.5730     8.3980    24.0450 
   78.7500     2.1640   -19.8550    87.1550     9.2370     8.1960     8.3060    23.8730 
   78.8750     2.1640   -19.8880    87.7160     9.4620     8.2080     7.8850    23.6380 
   79.0000     2.1590   -19.9280    89.6560     9.7660     8.3670     7.5150    23.3600 
   79.1250     2.1500   -19.9510    87.4920     9.8710     8.4620     7.9670    23.2550 
   79.2500     2.1460   -19.9740    81.6430     9.7140     8.4320     8.6310    23.3620 
   79.3750     2.1580   -19.9870    77.1410     9.4240     8.3400     8.6840    23.6850 
   79.5000     2.1890   -19.9830    76.6900     9.2660     8.3250     8.3920    24.0970 
   79.6250     2.2360   -19.9830    78.4580     9.5870     8.6080     8.5360    24.3810 
   79.7500     2.2910   -19.9800    78.1850    10.4020     9.2420     9.4310    24.4790 
   79.8750     2.3500   -19.9580    74.8050    11.5630    10.1730    11.6190    24.4950 
   80.0000     2.3870   -19.9280    70.3840    12.7180    11.1760    15.9480    24.5010 
   80.1250     2.3460   -19.8960    68.7490    13.2700    11.7540    18.8820    24.5590 
   80.2500     2.2560   -19.8580    70.5650    13.0290    11.6210    16.0700    24.7710 
   80.3750     2.1730   -19.8200    73.9000    12.1780    10.8440    11.6000    25.1850 
   80.5000     2.1260   -19.7880    77.5070    11.1490     9.7880     9.2880    25.6220 
   80.6250     2.1110   -19.7370    80.8930    10.4080     8.9140     8.8090    25.8340 
   80.7500     2.1060   -19.7020    81.6560    10.1070     8.4370     8.8900    25.8700 
   80.8750     2.1050   -19.6720    78.6450    10.2440     8.3970     9.1370    25.8440 
   81.0000     2.1090   -19.6410    74.7160    10.7170     8.7260     9.6080    25.7870 
   81.1250     2.1110   -19.6120    73.8870    11.3640     9.3010    10.5090    25.6450 
   81.2500     2.1120   -19.5830    74.6620    11.9430     9.8850    11.5090    25.4610 
   81.3750     2.1140   -19.5450    75.0220    12.3000    10.3240    11.7900    25.3320 
   81.5000     2.1210   -19.5190    75.5180    12.3820    10.5320    11.5560    25.2810 
   81.6250     2.1290   -19.5080    79.0010    12.2300    10.4810    11.4330    25.2750 
   81.7500     2.1350   -19.4820    81.8430    11.9940    10.2960    11.2910    25.2740 
   81.8750     2.1380   -19.4560    82.3500    11.7290    10.0660    11.1780    25.2750 
   82.0000     2.1360   -19.4460    81.3850    11.4620     9.8590    10.9860    25.2850 
   82.1250     2.1340   -19.4430    79.9810    11.2580     9.7320    10.6890    25.3090 
   82.2500     2.1330   -19.4240    78.3550    11.1920     9.6950    10.3190    25.3210 
   82.3750     2.1320   -19.4110    77.9510    11.3270     9.7520    10.1020    25.2770 
