~V
VERS. 2.00: Ver 2.00
~W
STRT.M 55.0000:
STOP.M 211.0000:
STEP.M 0.1250:
NULL. -999.2500:
UWI. F10586:
~C
DEPT.M :
GR.API :
RML.OHMM :
RI. :
RXO.OHMM :
CALI.CM :
DEN.GM/CC :
SP.MV :
~A
# ...
  111.2500    75.3000    22.2210    20.5980    18.7420    22.9700     2.1910    -3.1070 
  111.3750    73.9940    22.7700    20.9660    18.2760    22.9350     2.1850    -3.0310 
  111.5000    70.2780    23.5060    21.4640    17.8950    23.0100     2.1800    -2.9120 
  111.6250    67.6610    24.4100    22.1090    17.8110    23.1890     2.1800    -2.7630 
  111.7500    66.5030    25.3890    22.8420    17.9520    23.4590     2.1840    -2.6520 
  111.8750    67.1550    26.3750    23.6120    18.1610    23.7510     2.1900    -2.5410 
  112.0000    66.3420    27.2860    24.3520    18.2540    23.9140     2.1930    -2.4490 
  112.1250    61.3930    27.9970    24.9570    18.1230    23.9490     2.1920    -2.4090 
  112.2500    57.0510    28.4940    25.3890    17.9980    23.9380     2.1900    -2.4070 
  112.3750    57.3220    28.8410    25.6760    18.0430    23.9180     2.1870    -2.4910 
  112.5000    61.6400    29.2240    25.9430    18.1690    23.8850     2.1890    -2.6600 
  112.6250    63.7600    30.0150    26.4750    18.3390    23.8390     2.2020    -2.9440 
  112.7500    61.5220    31.4570    27.4990    19.0370    23.7980     2.2290    -3.2730 
  112.8750    59.1140    33.6900    29.1680    20.8720    23.7590     2.2710    -3.6150 
  113.0000    60.1050    36.6740    31.5050    23.8530    23.7060     2.3190    -3.9910 
  113.1250    62.6580    40.1880    34.3990    27.5570    23.6480     2.3580    -4.4240 
  113.2500    60.9560    43.6570    37.3850    31.3180    23.6740     2.3800    -4.8410 
  113.3750    56.3890    46.5630    40.0170    34.1000    23.8190     2.3880    -5.2120 
  113.5000    52.5780    48.4410    41.8640    35.2450    24.0020     2.3890    -5.5340 
  113.6250    52.2770    48.7450    42.4080    35.4020    23.9960     2.3890    -5.7270 
  113.7500    54.0000    47.6900    41.7650    35.3650    23.8670     2.3840    -5.8530 
  113.8750    56.7490    45.5770    40.1430    34.8380    23.6950     2.3710    -5.9600 
  114.0000    58.9840    42.9510    37.9700    34.4170    23.5290     2.3480    -6.0190 
  114.1250    57.6290    40.6320    35.8950    32.4260    23.5240     2.3160    -5.9850 
  114.2500    55.9550    39.2800    34.5010    29.2590    23.6980     2.2850    -5.9360 
  114.3750    57.6230    39.2330    34.1090    26.9170    24.0280     2.2620    -5.8870 
  114.5000    62.3920    40.4650    34.7710    26.9310    24.3660     2.2510    -5.8540 
  114.6250    64.1330    42.6540    36.3360    29.6650    24.5320     2.2580    -5.8880 
  114.7500    61.2940    44.9320    38.1460    33.5170    24.6140     2.2780    -5.9220 
  114.8750    58.2610    46.6720    39.6850    37.1820    24.6240     2.3060    -5.9530 
  115.0000    57.8170    47.4910    40.5840    39.6670    24.5250     2.3340    -6.0180 
  115.1250    58.9040    47.2950    40.6630    36.3640    24.3650     2.3580    -6.1510 
  115.2500    58.6580    46.6310    40.2990    33.1450    24.2310     2.3790    -6.2730 
  115.3750    56.9250    45.8680    39.7880    31.5560    24.1250     2.4030    -6.3630 
  115.5000    54.7710    45.1400    39.2880    31.3500    24.0460     2.4320    -6.4460 
  115.6250    54.5860    44.2580    38.7070    32.1790    24.0150     2.4600    -6.5070 
  115.7500    56.7540    42.9990    37.8550    33.1160    23.9990     2.4760    -6.5750 
  115.8750    59.0530    41.3220    36.6480    33.0670    23.9800     2.4710    -6.6470 
  116.0000    60.1860    39.3990    35.1710    30.9220    23.9500     2.4440    -6.7070 
  116.1250    60.5830    37.4520    33.5830    28.2360    23.9190     2.4050    -6.7420 
  116.2500    60.8770    35.4210    31.8970    25.5230    23.8830     2.3730    -6.7960 
  116.3750    61.9540    32.9250    29.8450    23.6240    23.8430     2.3650    -6.9060 
  116.5000    63.8670    29.5790    27.1040    22.7160    23.7740     2.3840    -7.0420 
  116.6250    64.5000    25.2790    23.5270    22.3110    23.6020     2.4270    -7.1850 
  116.7500    66.0990    20.7550    19.6760    20.6870    23.3420     2.4720    -7.3140 
  116.8750    72.5490    16.6950    16.1070    17.9190    23.1040     2.4990    -7.4480 
  117.0000    80.8040    13.5820    13.2310    14.1390    23.0100     2.4980    -7.5680 
  117.1250    83.1730    11.7110    11.3330    11.0230    23.0290     2.4710    -7.6710 
  117.2500    82.8980    10.6760    10.1580    10.4710    23.0340     2.4400    -7.7980 
  117.3750    85.3500    10.1460     9.4820    10.1420    23.0010     2.4160    -7.8840 
  117.5000    89.2360     9.7960     9.0560     8.9820    22.9280     2.4050    -7.9230 
  117.6250    89.2860     9.3380     8.6330     7.7570    22.8240     2.4070    -7.9620 
  117.7500    88.4000     8.6840     8.0760     7.3670    22.7560     2.4110    -7.9980 
  117.8750    90.4560     7.8970     7.4010     7.0730    22.7370     2.4100    -8.0040 
  118.0000    94.9320     7.1310     6.7240     6.3930    22.7460     2.4050    -8.0150 
  118.1250    96.9980     6.5910     6.2270     5.5740    22.7740     2.3980    -8.0120 
  118.2500    94.6710     6.3530     5.9890     5.3560    22.8170     2.3950    -7.9640 
  118.3750    90.2100     6.4350     6.0420     5.5000    22.8540     2.3980    -7.9370 
  118.5000    87.9340     6.7830     6.3550     5.8270    22.8350     2.4090    -7.9160 
  118.6250    87.3960     7.2830     6.8540     6.2180    22.7550     2.4250    -7.8630 
  118.7500    89.1080     7.7540     7.3710     6.5240    22.6680     2.4390    -7.8130 
  118.8750    92.6520     8.1060     7.7910     6.6990    22.6220     2.4410    -7.7900 
  119.0000    93.6060     8.2840     8.0420     6.8680    22.6150     2.4300    -7.7720 
  119.1250    90.5570     8.3200     8.0780     7.0660    22.6330     2.4060    -7.7500 
  119.2500    89.5300     8.2710     7.9710     7.0590    22.6630     2.3790    -7.7170 
  119.3750    93.0500     8.1690     7.7840     6.8570    22.6920     2.3570    -7.6830 
  119.5000    95.8380     8.0600     7.5770     6.6260    22.7210     2.3410    -7.6700 
  119.6250    94.5620     7.9300     7.3970     6.4910    22.7400     2.3340    -7.6500 
  119.7500    92.9880     7.8240     7.2580     6.4480    22.7600     2.3320    -7.6300 
  119.8750    92.8910     7.7470     7.1560     6.4900    22.7860     2.3330    -7.5840 
  120.0000    95.6800     7.6830     7.0800     6.5740    22.8100     2.3350    -7.5430 
  120.1250    98.2450     7.6760     7.0130     6.5850    22.8360     2.3390    -7.5590 
  120.2500    96.1030     7.6950     6.9380     6.5500    22.8690     2.3440    -7.5780 
  120.3750    91.0330     7.7170     6.8410     6.5750    22.9060     2.3490    -7.5640 
  120.5000    88.5820     7.6780     6.7200     6.6920    22.9550     2.3540    -7.5290 
  120.6250    90.1890     7.6160     6.6010     6.7860    23.0190     2.3570    -7.5210 
  120.7500    92.0950     7.6720     6.5650     6.7840    23.0430     2.3570    -7.4850 
  120.8750    91.8130     8.0960     6.7570     6.9210    23.0350     2.3540    -7.4600 
  121.0000    87.1170     9.2590     7.4190     7.4160    23.0080     2.3460    -7.4330 
  121.1250    79.9430    11.8390     9.0940     8.5300    22.9830     2.3270    -7.3400 
  121.2500    73.8650    15.8940    12.0000    10.6920    22.9600     2.2910    -7.2320 
  121.3750    68.6270    21.1500    16.1670    14.3340    22.9300     2.2380    -7.1510 
  121.5000    62.6460    26.7510    21.1440    19.4880    22.9090     2.1730    -7.0680 
  121.6250    59.0480    31.0550    25.7250    25.5560    22.9850     2.1110    -6.9470 
  121.7500    60.0850    33.0770    28.6630    29.2920    23.4140     2.0720    -6.8750 
  121.8750    61.3970    32.8470    29.4930    30.0140    24.0120     2.0710    -6.8110 
  122.0000    61.0210    31.5430    28.8830    28.3570    24.3350     2.1200    -6.7460 
  122.1250    61.4270    31.0460    28.3350    25.5450    24.1520     2.2250    -6.7450 
  122.2500    64.2090    32.1400    28.8330    24.8020    23.8040     2.3570    -6.7660 
  122.3750    65.8150    34.5320    30.4140    27.8910    23.5470     2.4840    -6.7570 
