~V
VERS. 2.00: Ver 2.00
~W
STRT.M 60.0000:
STOP.M 207.0000:
STEP.M 0.1250:
NULL. -999.2500:
UWI. F10577:
~C
DEPT.M :
DEN.GM/CC :
SP.MV :
GR.API :
RML.OHMM :
RI. :
RXO.OHMM :
CALI.CM :
~A
# ...
   93.7500     2.2000   -13.8340    83.5590    15.0290    13.0160    12.5620    23.1040 
   93.8750     2.2380   -14.0030    82.1660    14.4980    12.2700    10.9710    22.7830 
   94.0000     2.2520   -14.1480    78.8680    14.8660    12.2020    11.4040    22.8500 
   94.1250     2.2340   -14.2230    74.9850    16.0280    12.8760    13.2010    23.1470 
   94.2500     2.2000   -14.2940    71.9290    17.4570    14.0070    14.3150    23.5600 
   94.3750     2.1730   -14.3620    71.5180    18.7040    15.2910    14.1690    23.9080 
   94.5000     2.1620   -14.3740    72.6590    19.4040    16.3550    14.3690    23.9950 
   94.6250     2.1590   -14.3830    74.6110    19.3880    16.8660    15.2490    23.8580 
   94.7500     2.1530   -14.4440    77.2490    19.0610    16.9880    15.3960    23.8310 
   94.8750     2.1450   -14.5420    79.8360    18.8080    17.0010    15.0070    23.9100 
   95.0000     2.1470   -14.6970    81.2020    18.9290    17.1720    15.0550    23.9320 
   95.1250     2.1610   -14.9370    82.1140    19.7430    17.7370    16.0110    23.7970 
   95.2500     2.1780   -15.2010    86.2470    21.2110    18.7010    17.2950    23.5680 
   95.3750     2.1910   -15.4970    89.5070    23.0530    19.9280    18.2320    23.3960 
   95.5000     2.1980   -15.8390    85.4200    24.5190    20.9320    18.6260    23.2640 
   95.6250     2.1970   -16.2340    77.6120    24.1020    20.5400    18.4130    23.1870 
   95.7500     2.1940   -16.7050    76.9020    21.4420    18.3860    17.9040    23.1590 
   95.8750     2.1990   -17.2040    81.4950    17.3140    15.0820    16.3960    23.1540 
   96.0000     2.2160   -17.6640    86.2280    13.1960    11.7690    12.7190    23.1520 
   96.1250     2.2290   -18.0140    89.8150    10.4730     9.4390     8.1450    23.1490 
   96.2500     2.2220   -18.2680    92.0970     9.2270     8.1770     6.5220    23.1570 
   96.3750     2.1890   -18.4200    90.0360     9.2920     7.9240     7.1070    23.2090 
   96.5000     2.1480   -18.5300    84.6910    10.4770     8.6160    10.1650    23.3670 
   96.6250     2.1240   -18.5900    80.9390    12.7930    10.3840    13.7590    23.6200 
   96.7500     2.1230   -18.5490    79.3000    15.9610    13.0340    15.6530    23.7810 
   96.8750     2.1450   -18.4480    78.9110    19.8020    16.4060    15.5850    23.7370 
   97.0000     2.1800   -18.3590    79.0010    23.9000    20.1140    16.0130    23.4630 
   97.1250     2.1970   -18.2950    76.9050    27.0560    23.1340    19.7330    23.0430 
   97.2500     2.1850   -18.2650    73.7610    27.8380    24.1710    27.4430    22.7440 
   97.3750     2.1650   -18.2710    72.7120    25.3970    22.4070    30.5720    22.5280 
   97.5000     2.1600   -18.2560    77.2050    20.5120    18.4510    23.6670    22.1190 
   97.6250     2.1730   -18.1980    86.1810    15.3770    14.1050    13.7290    21.2950 
   97.7500     2.1830   -18.1240    94.7470    11.5710    10.7050     7.8170    20.2690 
   97.8750     2.1770   -18.0470   100.4450     9.2990     8.4690     6.0480    19.4930 
   98.0000     2.1590   -17.9320   103.3610     8.2310     7.2190     5.9490    18.9070 
   98.1250     2.1470   -17.8240   103.5830     8.0340     6.7880     6.1580    18.4180 
   98.2500     2.1490   -17.7430   102.9890     8.2490     6.8160     6.2700    18.1700 
   98.3750     2.1660   -17.6710   102.8220     8.6700     7.1170     6.3940    18.2110 
   98.5000     2.1890   -17.6090   102.6610     9.1310     7.5150     6.6540    18.5060 
   98.6250     2.2070   -17.5830    99.8150     9.4980     7.8600     6.9840    18.8740 
   98.7500     2.2100   -17.5750    96.0280     9.7670     8.1090     7.1010    19.0280 
   98.8750     2.1910   -17.5670    95.1600     9.9730     8.2680     6.6970    19.0590 
   99.0000     2.1540   -17.5660    95.7300    10.1490     8.3490     6.3650    19.0510 
   99.1250     2.1060   -17.5700    92.2120    10.2870     8.3300     6.2430    19.0350 
   99.2500     2.0560   -17.5570    88.2500    10.3380     8.2080     6.3380    19.0120 
   99.3750     2.0120   -17.5250    89.4870    10.2340     7.9820     6.2790    18.9930 
   99.5000     1.9830   -17.4870    94.2160     9.9570     7.6770     5.9620    18.9570 
   99.6250     1.9690   -17.4190    97.5920     9.5860     7.3620     5.6500    18.8590 
   99.7500     1.9680   -17.3190    99.4420     9.2780     7.1120     5.7430    18.7130 
   99.8750     1.9780   -17.1950   101.1920     9.1030     6.9570     6.2160    18.5280 
  100.0000     1.9930   -17.0530   102.4980     9.0640     6.8950     6.6610    18.3460 
  100.1250     1.9990   -16.8790   104.8270     9.1580     6.9320     6.7990    18.2120 
  100.2500     1.9910   -16.6750   107.3000     9.3580     7.0570     6.6890    18.2020 
  100.3750     1.9750   -16.4610   106.8920     9.6500     7.2720     6.8870    18.3460 
  100.5000     1.9510   -16.2410   103.0440     9.9780     7.5500     7.2720    18.6700 
  100.6250     1.9220   -16.0460    99.2720    10.2140     7.7900     8.1020    19.0700 
  100.7500     1.8940   -15.9090    96.8980    10.2300     7.8710     8.6310    19.5390 
  100.8750     1.8700   -15.8260    95.6010     9.9700     7.7220     7.8710    20.1530 
  101.0000     1.8500   -15.7960    95.1210     9.5100     7.3810     6.6300    20.8800 
  101.1250     1.8410   -15.8050    95.7240     9.0110     6.9820     6.1470    21.4880 
  101.2500     1.8510   -15.8690    98.5660     8.6070     6.6640     6.2220    21.8500 
  101.3750     1.8820   -15.9650   102.9610     8.3480     6.4840     6.5850    22.2050 
  101.5000     1.9270   -16.0770   104.9630     8.2410     6.4450     6.8770    22.6790 
  101.6250     1.9820   -16.1990   103.0710     8.2710     6.5220     6.9010    23.1100 
  101.7500     2.0390   -16.3210   101.6920     8.3520     6.6390     6.6980    23.2720 
  101.8750     2.0910   -16.4200   101.7700     8.4220     6.7430     6.6350    23.2430 
  102.0000     2.1340   -16.4860   100.3470     8.4260     6.7970     6.8220    23.1410 
  102.1250     2.1620   -16.5340    98.2590     8.3260     6.7680     6.7960    22.9730 
  102.2500     2.1750   -16.5560   101.0480     8.1920     6.6850     6.3930    22.7450 
  102.3750     2.1770   -16.5590   107.9500     8.1280     6.6000     5.9260    22.5460 
  102.5000     2.1820   -16.5400   112.8500     8.2050     6.5710     5.7660    22.4460 
  102.6250     2.1970   -16.4980   111.5140     8.4350     6.6480     5.9170    22.4190 
  102.7500     2.2080   -16.4340   106.6460     8.7100     6.7940     6.2720    22.4130 
  102.8750     2.2030   -16.3650   102.7810     8.9320     6.9460     6.5770    22.4100 
  103.0000     2.1910   -16.2960   103.0200     9.0260     7.0230     6.5510    22.4080 
  103.1250     2.1850   -16.2370   107.3470     8.9380     6.9370     6.0010    22.4080 
  103.2500     2.1850   -16.1710   112.1430     8.7340     6.7250     5.5650    22.3970 
  103.3750     2.1920   -16.0870   112.4620     8.5040     6.4710     5.5960    22.3630 
  103.5000     2.2040   -16.0030   108.5190     8.3870     6.2910     5.8150    22.3080 
  103.6250     2.2110   -15.8940   107.0870     8.6610     6.3710     6.2410    22.2730 
  103.7500     2.2010   -15.7590   107.8980     9.5440     6.8420     6.9240    22.2900 
  103.8750     2.1780   -15.5970   106.1000    11.3020     7.8700     8.2690    22.3460 
  104.0000     2.1520   -15.4360    99.0710    14.1870     9.6460    10.5020    22.3890 
  104.1250     2.1330   -15.2720    90.2010    18.5360    12.5290    14.3790    22.4600 
  104.2500     2.1210   -15.1090    84.2350    23.8270    16.3570    19.4620    22.6550 
  104.3750     2.1110   -14.9690    82.0410    29.1140    20.6310    24.0750    23.0020 
  104.5000     2.1030   -14.8440    82.2280    32.9000    24.2470    26.8050    23.3090 
  104.6250     2.1020   -14.7770    82.3740    33.4530    25.5700    26.2750    23.4150 
  104.7500     2.1090   -14.7550    81.8400    31.6510    24.8250    22.9980    23.4330 
  104.8750     2.1200   -14.7570    81.1130    29.0210    23.0250    19.5910    23.4330 
