~V
VERS. 2.00: Ver 2.00
~W
STRT.M 47.0000:
STOP.M 236.0000:
STEP.M 0.1250:
NULL. -999.2500:
UWI. F10597:
~C
DEPT.M :
SP.MV :
DEN.GM/CC :
GR.API :
RML.OHMM :
RI. :
RXO.OHMM :
CALI.CM :
~A
   47.0000  -999.2500  -999.2500    52.2490    11.8590     0.2450     2.1700    23.7010 
   47.1250     0.0000  -999.2500    52.2040    11.0810     0.2620     2.2130    23.7030 
   47.2500     0.0000  -999.2500    52.8430    10.5920     0.2460     2.1700    23.7050 
   47.3750    85.5220  -999.2500    51.7920    10.3110     0.2110     2.1550    23.7060 
   47.5000    86.7200  -999.2500    48.2460    10.1290     0.1810     1.8370    23.7140 
   47.6250    88.1250  -999.2500    45.4320     9.8690     0.1660     1.5450    23.7560 
   47.7500    89.6630     2.6290    45.2160     9.4340     0.1600     1.4500    23.8440 
   47.8750    91.2780     2.6290    48.1660     8.8220     0.1550     1.8250    23.9520 
   48.0000    92.8780     2.5050    51.7620     8.0090     0.1470     2.2450    24.0280 
   48.1250    94.3750     2.3870    51.9610     7.0760     0.1450     2.4430    24.1160 
   48.2500    95.5840     2.3030    48.0970     6.2780     0.1550     2.2830    24.2610 
   48.3750    96.4050     2.2400    44.8610     5.9730     0.1780     2.1900    24.4930 
   48.5000    96.8490     2.1690    45.2790     6.4490     0.1980     2.2940    24.7480 
   48.6250    97.0940     2.0910    45.6960     7.4590     0.2090     2.5300    24.8600 
   48.7500    97.2120     2.0200    44.8170     8.6770     0.2110     2.7780    24.8870 
   48.8750    97.2840     1.9640    43.9950     9.7360     0.2010     2.8540    24.8870 
   49.0000    97.3540     1.9320    45.2710    10.4240     0.1920     2.6380    24.8870 
   49.1250    97.3900     1.9200    46.4150    10.9300     0.1980     2.3660    24.8870 
   49.2500    97.4180     1.9230    46.7640    11.3420     0.2140     2.1170    24.8870 
   49.3750    97.4790     1.9310    47.1730    11.6090     0.2200     1.9710    24.8870 
   49.5000    97.6040     1.9390    48.2290    11.5920     0.2000     1.9050    24.8870 
   49.6250    97.7570     1.9420    48.2550    11.3930     0.1690     1.8120    24.8870 
   49.7500    97.9500     1.9370    46.6680    11.0290     0.1450     1.7500    24.8870 
   49.8750    98.1260     1.9260    44.6020    10.5080     0.1370     1.7920    24.8870 
   50.0000    98.2160     1.9190    44.5640     9.9510     0.1460     1.6590    24.8760 
   50.1250    98.2540     1.9190    46.9810     9.5090     0.1520     1.3780    24.8500 
   50.2500    98.2470     1.9210    49.6760     9.1850     0.1470     1.1940    24.8230 
   50.3750    98.1500     1.9210    50.5520     8.9500     0.1330     1.1530    24.8120 
   50.5000    97.9170     1.9170    49.7450     8.8530     0.1180     1.1240    24.8120 
   50.6250    97.5860     1.9140    49.0620     8.9450     0.1080     1.1160    24.8120 
   50.7500    97.0620     1.9160    48.6860     9.2170     0.1050     1.1080    24.8120 
   50.8750    96.3070     1.9270    47.3360     9.5460     0.1060     1.0760    24.8120 
   51.0000    95.3660     1.9480    45.6960     9.6190     0.1080     1.0740    24.8120 
   51.1250    94.3300     1.9770    45.0740     9.1150     0.1020     1.1280    24.8120 
   51.2500    93.2570     2.0170    44.7420     7.9710     0.0880     1.1930    24.8120 
   51.3750    92.2120     2.0690    44.1480     6.4950     0.0730     1.2090    24.8120 
   51.5000    91.2230     2.1340    44.9160     5.3080     0.0650     1.1730    24.8130 
   51.6250    90.3320     2.1990    49.1400     4.7970     0.0630     1.0960    24.8110 
   51.7500    89.6420     2.2470    54.6410     5.0510     0.0700     1.0520    24.7780 
   51.8750    89.1660     2.2690    58.6710     5.8220     0.0860     1.1360    24.6680 
   52.0000    88.8820     2.2790    59.1870     6.6090     0.1070     1.4690    24.4820 
   52.1250    88.7630     2.2950    58.4070     7.1810     0.1180     1.9130    24.3460 
   52.2500    88.7490     2.3140    59.9400     7.6730     0.1150     2.1180    24.2990 
   52.3750    88.7820     2.3230    63.1110     8.1180     0.1010     1.9860    24.3040 
   52.5000    88.8730     2.3130    62.1540     8.2470     0.0980     1.7390    24.3470 
   52.6250    89.0010     2.2910    56.9620     7.7570     0.1140     1.5470    24.4290 
   52.7500    89.1250     2.2630    53.1470     6.6290     0.1380     1.4730    24.4940 
   52.8750    89.2390     2.2360    54.3940     5.2620     0.1480     1.5260    24.5040 
   53.0000    89.3750     2.2220    56.7040     4.4310     0.1330     1.6830    24.4590 
   53.1250    89.4900     2.2310    56.7530     4.4120     0.1060     1.8120    24.3980 
   53.2500    89.5400     2.2630    54.9300     4.8930     0.0780     1.9000    24.3720 
   53.3750    89.5140     2.3000    53.1110     5.3430     0.0580     1.9920    24.3720 
   53.5000    89.3840     2.3190    52.2020     5.3970     0.0570     1.9790    24.3890 
   53.6250    89.1200     2.3200    51.1380     5.2180     0.0700     1.7520    24.4180 
   53.7500    88.7970     2.3020    49.0290     5.0610     0.0940     1.4300    24.4440 
   53.8750    88.5250     2.2700    47.3200     5.0400     0.1180     1.2700    24.4970 
   54.0000    88.2920     2.2270    48.8680     5.1490     0.1320     1.5060    24.6430 
   54.1250    88.0920     2.1850    52.7420     5.2880     0.1360     2.8920    24.8670 
   54.2500    87.9790     2.1470    57.2020     5.3920     0.1360     8.6640    25.0840 
   54.3750    87.9390     2.1120    62.0610     5.4640     0.1360    27.8020    25.2500 
   54.5000    87.9530     2.0830    66.5750     5.4300     0.1390    45.8080    25.3140 
   54.6250    87.9820     2.0650    69.1550     5.2200     0.1450    60.3890    25.3300 
   54.7500    87.9650     2.0560    70.3870     4.8370     0.1550    55.6380    25.3310 
   54.8750    87.8840     2.0510    71.5530     4.4260     0.1650    46.0310    25.3310 
   55.0000    87.7820     2.0400    71.1870     4.2230     0.1710    27.7470    25.3310 
   55.1250    87.6650     2.0260    68.7740     4.1570     0.1770    13.5190    25.3310 
   55.2500    87.5430     2.0140    66.7010     4.0300     0.1860     6.9520    25.3310 
   55.3750    87.4450     2.0070    67.1710     3.6820     0.1910     5.1170    25.3310 
   55.5000    87.4630     2.0060    68.1460     3.1140     0.1790     6.2210    25.3310 
   55.6250    87.5910     2.0120    68.1030     2.6490     0.1520     9.3240    25.3310 
   55.7500    87.8290     2.0240    68.6810     2.5230     0.1220    10.0700    25.3310 
   55.8750    88.1710     2.0360    69.5980     2.7970     0.1050     7.5650    25.3310 
   56.0000    88.6610     2.0440    68.5810     3.3410     0.1080     6.5220    25.3310 
   56.1250    89.3580     2.0480    65.9980     3.8350     0.1230    10.4420    25.3310 
   56.2500    90.3030     2.0520    63.1610     4.0770     0.1380    55.2830    25.3300 
   56.3750    91.4240     2.0610    60.1800     3.9940     0.1500  1341.8030    25.3220 
   56.5000    92.4480     2.0730    58.2250     3.5430     0.1580  1341.8050    25.3020 
   56.6250    93.2190     2.0840    58.8930     2.8810     0.1580  1341.8050    25.2810 
   56.7500    93.6190     2.0960    58.7210     2.2200     0.1490  1341.8050    25.2700 
   56.8750    93.5910     2.1120    54.3320     1.7620     0.1340  1341.8050    25.2650 
   57.0000    93.0130     2.1310    49.9050     1.6980     0.1290  1341.8050    25.2620 
   57.1250    91.8610     2.1450    48.6860     1.9700     0.1400  1341.8050    25.2610 
   57.2500    90.0400     2.1480    47.7460     2.4590     0.1610  1341.8050    25.2600 
   57.3750    87.5730     2.1380    44.7470     2.9760     0.1790  1341.8050    25.2600 
   57.5000    84.3670     2.1280    42.3800     3.2350     0.1890  1341.8050    25.2590 
   57.6250    80.5050     2.1360    42.0690     3.1480     0.1950  1341.8050    25.2610 
   57.7500    75.8790     2.1730    43.8520     2.7640     0.1980  1341.8050    25.2640 
   57.8750    70.1540     2.2390    47.3750     2.2190     0.1940  1341.8050    25.2650 
   58.0000    62.7300     2.3230    52.2640     1.8500     0.1790  1013.1790    25.2600 
   58.1250    53.8240     2.4040    56.9730     2.1300     0.1910    16.7560    25.2250 
