~V
VERS. 2.00: Ver 2.00
~W
STRT.M 58.0000:
STOP.M 203.0000:
STEP.M 0.1250:
NULL. -999.2500:
UWI. F10566:
~C
DEPT.M :
GR.API :
RML.OHMM :
RI. :
RXO.OHMM :
CALI.CM :
SP.MV :
DEN.GM/CC :
~A
# ...
  170.5000    56.5430     6.8450     6.0320     6.4000    24.4810   -14.5480     2.3610 
  170.6250    62.1290     6.9780     6.1250     6.5070    24.5130   -14.9710     2.3390 
  170.7500    70.2630     7.1570     6.1990     6.9940    24.5670   -15.4270     2.3180 
  170.8750    78.1010     7.3900     6.2800     7.5590    24.5650   -15.8200     2.3090 
  171.0000    84.4320     7.6990     6.4120     7.7480    24.5390   -16.2410     2.3140 
  171.1250    88.5990     8.1650     6.6860     7.6760    24.5150   -16.5870     2.3300 
  171.2500    89.2220     8.8360     7.1550     8.5770    24.5300   -16.8820     2.3460 
  171.3750    86.0300     9.7450     7.8600    10.3060    24.5410   -17.1360     2.3540 
  171.5000    84.2190    10.8610     8.7950    12.3040    24.5260   -17.3490     2.3510 
  171.6250    87.5650    12.0140     9.8520    13.7620    24.4660   -17.4160     2.3390 
  171.7500    92.3530    12.8820    10.7490    15.6440    24.3790   -17.3680     2.3230 
  171.8750    96.0970    13.1730    11.2010    19.2180    24.2750   -17.2030     2.3070 
  172.0000    97.7490    12.6610    11.0160    20.9820    24.2080   -16.9460     2.2930 
  172.1250    97.0760    11.3020    10.1520    17.4170    24.2750   -16.5800     2.2840 
  172.2500    92.6160     9.6300     8.9910    13.4000    24.4110   -16.1770     2.2830 
  172.3750    85.3860     8.2330     7.8300    10.2190    24.4730   -15.6720     2.2890 
  172.5000    80.7790     7.2650     6.8780     7.8060    24.4300   -15.1430     2.2960 
  172.6250    83.3050     6.7560     6.2800     6.9370    24.4200   -14.6870     2.3020 
  172.7500    88.4600     6.5630     5.9640     6.6470    24.4540   -14.2680     2.3060 
  172.8750    91.0300     6.5810     5.8580     6.7520    24.4710   -13.9250     2.3080 
  173.0000    89.7870     6.6950     5.8750     6.8380    24.4360   -13.6230     2.3080 
  173.1250    84.3560     6.7930     5.9240     6.6870    24.3810   -13.3710     2.3050 
  173.2500    77.4780     6.8270     5.9350     6.3830    24.3250   -13.1700     2.3000 
  173.3750    72.1750     6.8020     5.8850     6.3570    24.2540   -12.9620     2.2970 
  173.5000    68.1820     6.7390     5.7830     6.4350    24.1980   -12.7720     2.3030 
  173.6250    63.2690     6.6590     5.6510     6.2270    24.1570   -12.5360     2.3180 
  173.7500    58.7590     6.5830     5.5290     6.0680    24.1380   -12.3960     2.3330 
  173.8750    57.2340     6.5190     5.4390     6.0050    24.1000   -12.2150     2.3390 
  174.0000    59.1790     6.4680     5.3930     6.0310    24.0130   -12.1030     2.3350 
  174.1250    61.5160     6.4190     5.3900     6.0300    23.9580   -11.9870     2.3300 
  174.2500    61.1300     6.3550     5.4030     6.1560    23.9210   -11.8150     2.3340 
  174.3750    58.6710     6.2610     5.4060     6.4520    23.8940   -11.7390     2.3480 
  174.5000    55.5020     6.1360     5.3780     6.7450    23.8780   -11.6910     2.3640 
  174.6250    52.7660     5.9990     5.3040     6.3430    23.9210   -11.6570     2.3700 
  174.7500    50.6920     5.8860     5.2020     5.7610    23.9810   -11.6180     2.3660 
  174.8750    50.2040     5.8170     5.0860     5.5650    23.9920   -11.6130     2.3600 
  175.0000    49.7020     5.7960     4.9670     5.7880    23.9130   -11.5630     2.3570 
  175.1250    46.9230     5.8020     4.8520     6.1010    23.7510   -11.5010     2.3610 
  175.2500    44.1580     5.7970     4.7420     6.0210    23.7030   -11.4850     2.3710 
  175.3750    42.2630     5.7720     4.6490     5.8820    23.8070   -11.4420     2.3830 
  175.5000    39.7210     5.7340     4.5910     6.0120    23.9620   -11.3530     2.3950 
  175.6250    36.9550     5.7020     4.5880     6.2690    24.0380   -11.2430     2.4030 
  175.7500    36.2230     5.6830     4.6220     5.7690    24.0590   -11.1280     2.4060 
  175.8750    36.7200     5.6630     4.6640     5.7080    24.1070   -10.9660     2.4040 
  176.0000    36.2860     5.6170     4.6720     5.7840    24.2180   -10.8030     2.4010 
  176.1250    34.8450     5.5190     4.6090     5.7300    24.2580   -10.6910     2.3960 
  176.2500    34.8790     5.3990     4.4890     5.6450    24.2410   -10.5830     2.3890 
  176.3750    36.4850     5.3030     4.3420     5.4600    24.2110   -10.4900     2.3810 
  176.5000    37.6190     5.2740     4.2100     5.2960    24.1980   -10.4640     2.3730 
  176.6250    37.8130     5.3500     4.1400     5.1950    24.1960   -10.4550     2.3690 
  176.7500    39.2340     5.5060     4.1440     5.1020    24.1980   -10.4830     2.3710 
  176.8750    43.1230     5.7190     4.2250     5.1130    24.2100   -10.5450     2.3780 
  177.0000    48.3670     5.9760     4.3790     5.3120    24.2420   -10.6480     2.3870 
  177.1250    51.3270     6.2670     4.5970     5.6630    24.2870   -10.7530     2.3910 
  177.2500    51.3280     6.5530     4.8370     5.8720    24.3040   -10.9040     2.3850 
  177.3750    51.7650     6.7620     5.0490     6.3850    24.3070   -11.0270     2.3660 
  177.5000    54.0000     6.8200     5.1830     7.0060    24.3070   -11.1880     2.3390 
  177.6250    54.0440     6.6820     5.1950     7.0850    24.3040   -11.4580     2.3110 
  177.7500    51.0000     6.4800     5.1320     6.6730    24.2840   -11.5720     2.2940 
  177.8750    49.6720     6.3680     5.0600     6.2110    24.2410   -11.8310     2.2930 
  178.0000    52.9380     6.4690     5.0480     6.0390    24.2040   -11.9930     2.3040 
  178.1250    56.9610     6.8470     5.1530     6.6500    24.1550   -12.2840     2.3230 
  178.2500    57.3230     7.3640     5.3400     7.6640    24.0690   -12.5340     2.3400 
  178.3750    55.6740     7.8630     5.5570     8.2740    23.9970   -12.7350     2.3520 
  178.5000    54.9670     8.1920     5.7450     8.3550    24.0280   -12.9730     2.3610 
  178.6250    57.6800     8.2440     5.8590     7.5740    24.0940   -13.2500     2.3620 
  178.7500    63.0420     8.1260     5.9240     6.9330    24.0930   -13.5360     2.3530 
  178.8750    70.1190     7.9640     5.9790     6.9940    24.0590   -13.7600     2.3260 
  179.0000    76.3520     7.8680     6.0550     7.7840    24.0720   -14.0720     2.2820 
  179.1250    80.8910     7.8810     6.1510     8.5530    24.1650   -14.1240     2.2290 
  179.2500    85.4610     7.9210     6.2180     8.5020    24.2480   -14.0620     2.1920 
  179.3750    88.6160     7.8900     6.2040     7.9140    24.2420   -14.1520     2.1860 
  179.5000    85.2050     7.7200     6.0760     7.4600    24.1210   -14.2640     2.2160 
  179.6250    75.2630     7.3950     5.8280     7.3840    23.9400   -14.0920     2.2660 
  179.7500    67.3050     7.0180     5.5270     6.9640    23.8290   -13.8840     2.3050 
  179.8750    62.3240     6.6740     5.2270     6.1820    23.7840   -13.7790     2.3160 
  180.0000    57.0650     6.4260     4.9770     5.6960    23.7810   -13.5770     2.2940 
  180.1250    52.6920     6.3110     4.8140     5.5130    23.8300   -13.3580     2.2520 
  180.2500    52.3210     6.2760     4.7250     5.3690    23.9370   -13.3300     2.2140 
  180.3750    54.6610     6.2570     4.6900     5.3580    24.0410   -13.3030     2.1920 
  180.5000    55.5530     6.1940     4.6850     5.4320    24.0720   -13.0370     2.1900 
  180.6250    53.1170     6.0550     4.6940     5.4750    24.0590   -13.0780     2.2070 
  180.7500    50.7370     5.8950     4.7130     5.4040    24.0750   -13.2800     2.2310 
  180.8750    53.5380     5.7970     4.7580     5.4300    24.0810   -13.1790     2.2570 
  181.0000    61.0090     5.8560     4.8550     5.8160    24.0850   -13.1840     2.2780 
  181.1250    66.4350     6.1930     5.0540     6.4260    24.1720   -13.4950     2.2890 
  181.2500    67.7430     6.7740     5.3590     6.6770    24.3670   -13.5680     2.2910 
  181.3750    68.5200     7.5100     5.7500     6.6990    24.5630   -13.5380     2.2880 
  181.5000    70.6460     8.2140     6.1580     7.4910    24.6520   -13.7510     2.2840 
  181.6250    72.1840     8.5720     6.4430     9.5430    24.6540   -13.7190     2.2870 
