~V
VERS. 2.00: Ver 2.00
~W
STRT.M 58.0000:
STOP.M 193.0000:
STEP.M 0.1250:
NULL. -999.2500:
UWI. F10563:
~C
DEPT.M :
GR.API :
RML.OHMM :
RI. :
RXO.OHMM :
CALI.CM :
DEN.GM/CC :
SP.MV :
~A
   58.0000    78.6090     2.7690     2.2920     9.9480    24.6850     2.3430     8.8200 
   58.1250    80.9990     4.0060     3.2120     9.9220    24.6630     2.3200     3.3170 
   58.2500    83.1550     4.6910     4.0220     7.6970    24.6430     2.3040    -1.4560 
   58.3750    84.2250     4.7280     4.5500     6.3690    24.5990     2.2920    -5.5690 
   58.5000    84.4480     4.5240     4.7740     5.8550    24.4970     2.2890    -8.9720 
   58.6250    86.5000     4.4340     4.7960     5.4100    24.3090     2.2990   -11.3600 
   58.7500    89.6390     4.4950     4.8070     4.8590    24.1100     2.3120   -13.0800 
   58.8750    90.5890     4.6800     4.9230     4.6700    23.9020     2.3220   -14.5020 
   59.0000    88.3370     4.9760     5.2150     4.8760    23.7220     2.3200   -15.7470 
   59.1250    83.9990     5.3960     5.7100     5.2300    23.8160     2.3010   -16.7970 
   59.2500    79.9930     5.8890     6.2930     5.7680    24.1750     2.2720   -17.8130 
   59.3750    75.9570     6.3980     6.8430     6.5000    24.5150     2.2410   -18.7290 
   59.5000    72.9580     6.8500     7.2490     7.1840    24.6810     2.2170   -19.5680 
   59.6250    72.9020     7.1670     7.4220     7.1020    24.7040     2.2040   -20.3830 
   59.7500    74.5990     7.3600     7.4310     6.5990    24.7060     2.2010   -21.0600 
   59.8750    77.2360     7.4610     7.3530     6.4670    24.6940     2.2020   -21.6090 
   60.0000    79.5030     7.5240     7.2630     6.6350    24.6610     2.2080   -22.1800 
   60.1250    78.8690     7.6010     7.2030     6.9080    24.6160     2.2150   -22.6780 
   60.2500    76.7010     7.6960     7.1620     7.2870    24.5960     2.2230   -23.1350 
   60.3750    75.8930     7.7910     7.1260     7.4060    24.5900     2.2280   -23.5890 
   60.5000    77.1660     7.8780     7.1110     7.0690    24.5900     2.2280   -23.9260 
   60.6250    77.7230     7.9970     7.1820     6.8050    24.5930     2.2270   -24.1740 
   60.7500    77.5080     8.2060     7.3790     6.8580    24.5930     2.2260   -24.3870 
   60.8750    77.5470     8.5340     7.7060     7.2410    24.5910     2.2260   -24.5160 
   61.0000    77.1010     8.9570     8.1120     7.8940    24.5900     2.2270   -24.6340 
   61.1250    75.0520     9.3930     8.5200     8.7270    24.5910     2.2310   -24.8230 
   61.2500    73.7740     9.7490     8.8790     9.2450    24.5930     2.2380   -24.9790 
   61.3750    73.9400    10.0020     9.1920     9.3920    24.5920     2.2380   -25.0660 
   61.5000    73.7160    10.1890     9.4750     9.3010    24.5640     2.2270   -25.0910 
   61.6250    72.2050    10.3510     9.7140     9.1830    24.4770     2.1990   -25.0910 
   61.7500    70.8360    10.4840     9.8750     9.0140    24.3570     2.1670   -25.1340 
   61.8750    70.7490    10.5480     9.9240     8.9280    24.2870     2.1420   -25.1720 
   62.0000    70.8160    10.5120     9.8620     9.0340    24.2450     2.1310   -25.1040 
   62.1250    69.0420    10.3840     9.7230     9.1250    24.1780     2.1330   -24.9020 
   62.2500    65.8560    10.2270     9.5630     9.1700    24.1100     2.1400   -24.7010 
   62.3750    62.5440    10.0690     9.3940     9.2100    24.1190     2.1490   -24.5360 
   62.5000    61.7040     9.9110     9.2070     9.2870    24.2130     2.1580   -24.4320 
   62.6250    64.8210     9.7430     8.9980     9.3770    24.2550     2.1680   -24.4260 
   62.7500    68.9080     9.5800     8.8020     9.3290    24.0830     2.1780   -24.5150 
   62.8750    70.4410     9.4560     8.6650     8.9910    23.9090     2.1880   -24.6350 
   63.0000    69.0800     9.4220     8.6290     8.5080    23.8480     2.1950   -24.6760 
   63.1250    68.6470     9.5440     8.7130     8.4890    23.9140     2.1960   -24.6470 
   63.2500    68.6400     9.7760     8.8590     8.7910    24.1500     2.1910   -24.6830 
   63.3750    67.5700    10.0360     9.0160     9.0430    24.6000     2.1810   -24.7860 
   63.5000    67.6090    10.2210     9.1480     9.1290    25.0110     2.1710   -24.9140 
   63.6250    71.3740    10.2380     9.2390     9.0040    25.1220     2.1700   -24.9980 
   63.7500    75.3670    10.1320     9.3080     8.8640    25.1090     2.1770   -24.9910 
   63.8750    74.2830     9.9850     9.3600     8.8440    25.0990     2.1900   -24.9470 
   64.0000    69.3700     9.8760     9.3870     8.8580    25.1090     2.2030   -24.9820 
   64.1250    66.0360     9.8490     9.3640     8.8270    25.1300     2.2060   -25.1310 
   64.2500    65.2520     9.8580     9.2910     8.9360    25.1820     2.1960   -25.2260 
   64.3750    65.8070     9.8510     9.1830     8.9510    25.2700     2.1750   -25.2150 
   64.5000    67.3770     9.7900     9.0650     8.6770    25.3510     2.1510   -25.1530 
   64.6250    67.8900     9.6820     8.9640     8.1930    25.2720     2.1410   -25.0410 
   64.7500    66.7060     9.5920     8.8910     7.6300    24.9610     2.1500   -24.8570 
   64.8750    66.2990     9.5760     8.8480     7.4530    24.5270     2.1710   -24.6170 
   65.0000    69.0390     9.6530     8.8320     7.7800    24.3290     2.1880   -24.4200 
   65.1250    70.9280     9.7920     8.8310     8.2620    24.5940     2.1880   -24.2750 
   65.2500    68.8220     9.9060     8.8160     8.4860    25.0880     2.1740   -24.0780 
   65.3750    64.4990     9.9390     8.7690     8.5300    25.5040     2.1560   -23.8040 
   65.5000    59.0180     9.8980     8.7020     8.6680    25.6800     2.1380   -23.4620 
   65.6250    56.1740     9.9530     8.7300     8.8900    25.6810     2.1190   -23.1140 
   65.7500    57.8490    10.3950     9.0580     9.0390    25.6460     2.1000   -22.8390 
   65.8750    61.1670    11.5720     9.9670     8.9680    25.5670     2.0950   -22.6200 
   66.0000    61.6690    13.7980    11.7560     9.0710    25.3940     2.1240   -22.3450 
   66.1250    59.2980    17.2530    14.6820    11.2200    25.0060     2.2080   -21.9240 
   66.2500    58.4600    20.8500    17.9920    18.8860    24.5480     2.3200   -21.4900 
   66.3750    59.8790    22.8660    20.3760    38.7260    24.1990     2.4200   -21.1390 
   66.5000    63.7670    21.8050    20.4420    60.1090    24.0340     2.4760   -20.8740 
   66.6250    72.3390    17.7170    17.6060    31.8120    24.0050     2.4660   -20.6940 
   66.7500    83.2060    13.1750    13.7240    12.7020    24.0230     2.4180   -20.5720 
   66.8750    92.4970     9.5990    10.1890     6.6280    24.0650     2.3590   -20.4770 
   67.0000    95.9830     7.3500     7.6610     5.2890    24.0940     2.3090   -20.3120 
   67.1250    92.6390     6.3060     6.2800     5.1130    24.1060     2.2740   -20.1030 
   67.2500    88.2090     5.9140     5.6070     5.0900    24.1140     2.2510   -20.0100 
   67.3750    86.9350     5.9370     5.4290     5.1400    24.1260     2.2360   -20.0040 
   67.5000    87.6290     6.2390     5.6070     5.1310    24.1320     2.2260   -19.9890 
   67.6250    88.2800     6.8030     6.1210     5.3670    24.1340     2.2150   -19.8790 
   67.7500    87.3080     7.5970     6.9110     5.9810    24.1440     2.1940   -19.6690 
   67.8750    83.5150     8.5980     7.9540     7.0430    24.1970     2.1550   -19.4210 
   68.0000    77.1590     9.6860     9.1420     8.3290    24.3350     2.1040   -19.2320 
   68.1250    71.1580    10.5420    10.1850     9.9790    24.5540     2.0620   -19.1590 
   68.2500    70.6930    10.8890    10.7620    10.7780    24.6620     2.0510   -19.0250 
   68.3750    75.3540    10.6190    10.6910    10.6460    24.5900     2.0760   -18.7760 
   68.5000    81.0890     9.8760    10.0320     9.4150    24.4080     2.1250   -18.4810 
   68.6250    84.2460     8.9820     9.0500     7.6940    24.3630     2.1750   -18.2190 
   68.7500    85.8920     8.2460     8.1190     6.7350    24.4060     2.2090   -18.0510 
   68.8750    87.7840     7.7580     7.3930     6.3340    24.4390     2.2260   -17.9930 
   69.0000    88.3790     7.4780     6.8970     6.4700    24.4370     2.2360   -17.9260 
   69.1250    87.1570     7.3100     6.5830     6.7050    24.4140     2.2450   -17.7150 
