~V
VERS. 2.00: Ver 2.00
~W
STRT.M 57.0000:
STOP.M 205.0000:
STEP.M 0.1250:
NULL. -999.2500:
UWI. F10591:
~C
DEPT.M :
SP.MV :
GR.API :
RML.OHMM :
RI. :
RXO.OHMM :
CALI.CM :
DEN.GM/CC :
~A
# ...
   68.2500   -25.5000    56.5250     9.4040     7.0800     8.3920    25.0030     2.1450 
   68.3750   -25.3880    58.7700     9.4890     7.1210     8.5270    24.9990     2.1560 
   68.5000   -25.2870    60.6110     9.5740     7.1860     8.6360    24.9900     2.1700 
   68.6250   -25.2270    60.0390     9.6140     7.2490     8.7760    24.9630     2.1890 
   68.7500   -25.1830    60.7060     9.6280     7.3050     8.9590    24.9020     2.2030 
   68.8750   -25.1530    62.0630     9.6830     7.3820     9.1450    24.7730     2.2030 
   69.0000   -25.1340    61.0720     9.8650     7.5310     9.3090    24.6280     2.1860 
   69.1250   -25.1390    56.8490    10.2540     7.8190     9.4500    24.5590     2.1710 
   69.2500   -25.1400    54.1520    10.7650     8.2140     9.7550    24.5340     2.1820 
   69.3750   -25.1560    54.4480    11.2620     8.6320    10.6410    24.5320     2.2250 
   69.5000   -25.1950    56.2800    11.5670     8.9380    12.4880    24.5270     2.2800 
   69.6250   -25.2330    58.0780    11.4830     8.9570    14.0270    24.4560     2.2980 
   69.7500   -25.2680    59.5170    11.0890     8.7080    12.9540    24.3500     2.2710 
   69.8750   -25.2760    59.8020    10.5330     8.2830    10.4550    24.3100     2.2250 
   70.0000   -25.2810    58.0680     9.9860     7.8120     9.0330    24.4530     2.1830 
   70.1250   -25.2410    54.8410     9.6050     7.4240     8.8320    24.6120     2.1500 
   70.2500   -25.1950    53.6990     9.4330     7.1800     8.7550    24.5990     2.1150 
   70.3750   -25.1270    55.2220     9.4940     7.1130     8.5960    24.6090     2.0740 
   70.5000   -25.0300    57.6820     9.8180     7.2500     8.4700    24.8070     2.0350 
   70.6250   -24.9280    59.7210    10.5100     7.6730     8.8680    25.0020     2.0160 
   70.7500   -24.8230    60.6180    11.5500     8.3840    10.3940    25.0270     2.0290 
   70.8750   -24.7450    59.9380    12.8840     9.3800    13.3220    24.9990     2.0700 
   71.0000   -24.6580    58.8270    14.3380    10.5740    14.8870    25.0150     2.1200 
   71.1250   -24.6140    58.2670    15.5200    11.7100    16.0350    25.0160     2.1420 
   71.2500   -24.5640    57.0020    16.1120    12.4730    15.7670    24.9680     2.1250 
   71.3750   -24.5180    54.4980    16.0190    12.6990    14.9690    25.0290     2.0810 
   71.5000   -24.4630    53.3960    15.4230    12.4500    14.1910    25.1680     2.0340 
   71.6250   -24.3800    56.8620    14.6480    11.9230    12.7240    24.9270     2.0150 
   71.7500   -24.2830    59.5620    13.9550    11.3610    10.8030    24.1820     2.0300 
   71.8750   -24.1620    59.1000    13.3600    10.8200     9.8680    23.4460     2.0710 
   72.0000   -24.0420    57.4810    12.7410    10.2560     9.8320    23.0720     2.1210 
   72.1250   -23.8910    58.2180    11.9140     9.5590     9.5660    22.9050     2.1630 
   72.2500   -23.7520    61.4920    10.9250     8.7500     8.8960    22.7320     2.1940 
   72.3750   -23.6170    64.6720     9.9660     7.9580     8.2480    22.6570     2.2140 
   72.5000   -23.5110    65.8470     9.2860     7.3570     7.5610    22.7400     2.2240 
   72.6250   -23.4440    66.2540     9.1790     7.1720     7.0910    22.8740     2.2260 
   72.7500   -23.3920    66.6430     9.6570     7.4350     7.5570    22.9770     2.2220 
   72.8750   -23.3440    65.5290    10.6840     8.1570     9.5570    23.0280     2.2120 
   73.0000   -23.3030    61.9640    12.0980     9.2610    13.0590    23.0520     2.1950 
   73.1250   -23.2270    60.6140    13.5300    10.5190    13.9670    23.1050     2.1750 
   73.2500   -23.1480    61.4210    14.5010    11.5150    13.4750    23.3060     2.1590 
   73.3750   -23.0220    60.3440    14.6900    11.9230    12.7210    23.6590     2.1490 
   73.5000   -22.8390    57.7920    14.0190    11.6000    12.6090    24.0010     2.1490 
   73.6250   -22.6180    58.6740    12.5760    10.5430    12.4790    24.1320     2.1590 
   73.7500   -22.3660    62.2790    10.8290     9.1320    11.6420    24.1360     2.1740 
   73.8750   -22.1050    66.7590     9.1180     7.6600     9.9900    24.0700     2.1910 
   74.0000   -21.8510    72.9440     7.7370     6.3870     7.5420    23.9250     2.2090 
   74.1250   -21.7010    79.5370     6.9830     5.5810     5.8230    23.8280     2.2280 
   74.2500   -21.5880    79.7980     6.8600     5.2680     5.0030    23.6410     2.2450 
   74.3750   -21.5850    75.5100     7.3960     5.4670     5.5990    23.3500     2.2560 
   74.5000   -21.6610    73.1760     8.5790     6.1730     7.3130    23.1370     2.2550 
   74.6250   -21.8090    74.0930    10.3360     7.3910     9.8970    23.2230     2.2410 
   74.7500   -22.0030    72.7180    12.1950     8.8390    12.2770    23.4470     2.2190 
   74.8750   -22.2240    69.0920    13.6540    10.1710    13.6810    23.6500     2.1950 
   75.0000   -22.4430    65.4990    14.3270    11.0200    13.9310    23.8030     2.1730 
   75.1250   -22.6130    61.9210    14.1240    11.1510    13.2920    23.9830     2.1570 
   75.2500   -22.7450    59.2890    13.5640    10.8650    12.0570    24.0380     2.1470 
   75.3750   -22.8120    59.4800    12.9570    10.4040    11.1730    23.8570     2.1410 
   75.5000   -22.8330    62.1500    12.4180     9.9050    10.7460    23.4580     2.1400 
   75.6250   -22.8120    64.3780    11.9180     9.3900    10.1610    23.2690     2.1470 
   75.7500   -22.7600    64.7030    11.4140     8.8570     9.6770    23.2920     2.1660 
   75.8750   -22.6760    64.0180    10.9550     8.3560     9.4350    23.4150     2.1970 
   76.0000   -22.5830    64.5760    10.6430     7.9770     8.9550    23.5190     2.2280 
   76.1250   -22.4880    67.2050    10.6510     7.8690     8.6720    23.6270     2.2440 
   76.2500   -22.3880    68.9220    11.0140     8.0560     8.4680    23.8000     2.2380 
   76.3750   -22.2870    67.8680    11.7080     8.5180     9.6440    24.0700     2.2150 
   76.5000   -22.1500    64.7330    12.5800     9.1530    11.4370    24.3050     2.1820 
   76.6250   -21.9790    61.4120    13.3010     9.7410    11.9610    24.4900     2.1490 
   76.7500   -21.7890    57.9690    13.5980    10.0730    11.3630    24.6120     2.1220 
   76.8750   -21.6000    54.6810    13.3960    10.0610    10.8800    24.7070     2.1100 
   77.0000   -21.3930    54.1780    12.8360     9.7560    10.4590    24.7320     2.1160 
   77.1250   -21.1730    57.5290    12.1890     9.3000     9.9820    24.4680     2.1390 
   77.2500   -20.9780    60.5070    11.6530     8.8560     9.6190    24.1920     2.1580 
   77.3750   -20.7730    60.9770    11.2460     8.4780     9.3480    24.1030     2.1620 
   77.5000   -20.6480    61.7220    10.9360     8.1780     9.1560    24.3240     2.1540 
   77.6250   -20.5400    65.2050    10.7200     7.9710     9.0860    24.4620     2.1450 
   77.7500   -20.4680    67.6400    10.6020     7.8560     9.0350    24.4300     2.1490 
   77.8750   -20.4100    65.2980    10.6100     7.8470     8.8180    24.3690     2.1670 
   78.0000   -20.3670    60.5560    10.7490     7.9520     8.5570    24.3840     2.1960 
   78.1250   -20.3250    57.3350    10.9720     8.1490     8.8020    24.3690     2.2190 
   78.2500   -20.2540    55.9110    11.1480     8.3390     9.3580    24.2720     2.2250 
   78.3750   -20.1610    55.9530    11.1470     8.4200    10.2340    24.2580     2.2190 
   78.5000   -20.0070    59.0460    10.8560     8.2970    11.2120    24.4420     2.2130 
   78.6250   -19.8360    66.3680    10.1920     7.8850    10.8150    24.7260     2.2190 
   78.7500   -19.6470    73.0270     9.3250     7.2820     9.1450    24.8170     2.2400 
   78.8750   -19.4490    75.9090     8.4340     6.6040     8.0120    24.7390     2.2680 
   79.0000   -19.2500    75.4380     7.6720     5.9660     6.6940    24.5870     2.2890 
   79.1250   -19.0550    75.9500     7.1700     5.4810     5.6750    24.4860     2.2940 
   79.2500   -18.8630    79.8260     6.8910     5.1650     5.2390    24.4510     2.2960 
   79.3750   -18.7070    84.4820     6.7790     5.0030     5.3110    24.4650     2.3020 
