~V
VERS. 2.00: Ver 2.00
~W
STRT.M 60.0000:
STOP.M 207.0000:
STEP.M 0.1250:
NULL. -999.2500:
UWI. F10577:
~C
DEPT.M :
DEN.GM/CC :
SP.MV :
GR.API :
RML.OHMM :
RI. :
RXO.OHMM :
CALI.CM :
~A
# ...
  150.0000     2.2270   -18.1640    65.7560    43.0170    38.6300    40.4330    24.1870 
  150.1250     2.2280   -18.2510    63.8840    44.0490    39.5430    43.2660    24.1920 
  150.2500     2.2130   -18.3440    64.1150    44.5580    40.0990    44.4210    24.2100 
  150.3750     2.1890   -18.4230    67.7390    44.2780    40.0410    42.5140    24.2370 
  150.5000     2.1680   -18.4940    72.3780    43.2140    39.3330    40.7370    24.2550 
  150.6250     2.1600   -18.5410    73.1500    41.7120    38.2100    39.7620    24.2600 
  150.7500     2.1620   -18.5820    70.5200    40.5520    37.2860    38.2700    24.2570 
  150.8750     2.1730   -18.6000    68.5580    40.3800    37.1040    37.2490    24.2420 
  151.0000     2.2000   -18.6220    68.8100    41.5750    38.0470    37.1150    24.2030 
  151.1250     2.2510   -18.6340    69.1940    44.1860    40.3170    39.7720    24.1580 
  151.2500     2.3150   -18.6280    68.2170    47.1610    43.1480    47.4850    24.1330 
  151.3750     2.3590   -18.6080    64.5510    49.2420    45.4850    59.6710    24.1280 
  151.5000     2.3600   -18.5790    56.9970    49.1930    46.1170    63.2160    24.1310 
  151.6250     2.3430   -18.5620    51.8130    46.2750    44.0850    50.3730    24.1270 
  151.7500     2.3140   -18.5330    55.3670    41.9950    40.5340    37.1720    24.1310 
  151.8750     2.2680   -18.4910    63.8590    37.7430    36.7040    30.3420    24.1490 
  152.0000     2.2140   -18.4260    69.4210    34.4560    33.5480    29.4700    24.1800 
  152.1250     2.1640   -18.3700    71.3100    32.5960    31.6370    30.6880    24.1950 
  152.2500     2.1560   -18.2980    73.6550    31.6870    30.6680    31.4540    24.1930 
  152.3750     2.1600   -18.2360    75.3410    31.3640    30.3410    31.0460    24.1700 
  152.5000     2.1680   -18.1820    74.3940    31.3400    30.3710    30.8180    24.1180 
  152.6250     2.1780   -18.1210    71.0380    31.4640    30.5780    30.6370    24.0830 
  152.7500     2.1890   -18.0790    67.2300    31.6410    30.8330    31.0730    24.0690 
  152.8750     2.1990   -18.0680    63.9270    31.8140    31.0870    31.5250    24.0660 
  153.0000     2.2090   -18.0540    62.2780    31.8970    31.2720    31.7580    24.0670 
  153.1250     2.2190   -18.0430    63.2510    31.7310    31.2500    30.9510    24.0660 
  153.2500     2.2240   -18.0630    65.7510    31.2950    30.9780    30.1570    24.0630 
  153.3750     2.2190   -18.0920    67.6410    30.6780    30.5020    28.7810    24.0580 
  153.5000     2.2090   -18.1330    68.1920    30.0730    29.9750    27.5380    24.0560 
  153.6250     2.1940   -18.1850    69.1500    29.7050    29.6110    28.0540    24.0580 
  153.7500     2.1770   -18.2190    70.5340    29.5730    29.4630    29.2120    24.0590 
  153.8750     2.1620   -18.2200    70.6820    29.5640    29.4690    30.4860    24.0580 
  154.0000     2.1550   -18.2370    68.8960    29.4900    29.4780    31.3440    24.0540 
  154.1250     2.1630   -18.2310    68.4180    29.1270    29.2910    30.7280    24.0370 
  154.2500     2.1770   -18.1950    70.3320    28.4800    28.8750    28.8800    24.0090 
  154.3750     2.1880   -18.1530    72.2110    27.6800    28.3030    27.6740    23.9970 
  154.5000     2.1980   -18.1090    71.6920    26.9350    27.7170    27.4740    23.9920 
  154.6250     2.2080   -18.0500    69.6710    26.5320    27.3040    27.6870    23.9890 
  154.7500     2.2160   -17.9930    69.9440    26.5800    27.1830    27.6360    23.9880 
  154.8750     2.2180   -17.9410    72.3070    27.0370    27.4080    27.7310    23.9880 
  155.0000     2.2170   -17.8890    72.7170    27.6670    27.8980    27.8590    23.9880 
  155.1250     2.2160   -17.8650    69.5560    28.1230    28.4290    28.0080    23.9880 
  155.2500     2.2210   -17.8620    67.3080    28.2600    28.7690    29.6230    23.9870 
  155.3750     2.2350   -17.8500    67.5110    28.1360    28.8320    30.9350    23.9860 
  155.5000     2.2450   -17.8220    70.0910    27.9280    28.6650    29.7250    23.9820 
  155.6250     2.2390   -17.8240    72.9190    27.8690    28.4500    26.3820    23.9830 
  155.7500     2.2290   -17.8410    72.1240    28.0240    28.3800    27.3830    23.9850 
  155.8750     2.2300   -17.8800    66.5940    28.3410    28.5100    29.8860    23.9850 
  156.0000     2.2370   -17.9200    61.7600    28.7590    28.8250    31.5410    23.9880 
  156.1250     2.2340   -17.9890    63.7960    29.2850    29.3160    31.0880    23.9900 
  156.2500     2.2160   -18.0660    68.1760    29.9390    29.9370    30.2220    23.9890 
  156.3750     2.1880   -18.1670    70.7810    30.8130    30.7290    29.7710    23.9880 
  156.5000     2.1610   -18.2860    71.0110    32.0400    31.8110    31.4500    23.9870 
  156.6250     2.1430   -18.4010    70.6760    33.7460    33.3670    34.5920    23.9840 
  156.7500     2.1340   -18.5150    71.4660    35.7260    35.2840    36.8560    23.9810 
  156.8750     2.1300   -18.6250    71.8140    37.7290    37.3570    38.6810    23.9810 
  157.0000     2.1270   -18.7620    70.2440    39.4800    39.2950    40.3780    23.9820 
  157.1250     2.1240   -18.8770    70.2390    40.6880    40.7050    41.8990    23.9710 
  157.2500     2.1220   -18.9850    74.1960    41.4370    41.5420    43.1620    23.9420 
  157.3750     2.1210   -19.0660    76.1660    41.8860    41.9230    44.2660    23.9010 
  157.5000     2.1330   -19.1530    72.0560    42.0830    41.9710    44.7410    23.8490 
  157.6250     2.1600   -19.2350    66.6420    41.6710    41.4850    43.6790    23.8010 
  157.7500     2.2010   -19.3080    63.1350    40.4070    40.2970    42.4410    23.7450 
  157.8750     2.2510   -19.3730    59.7130    38.3690    38.4550    42.8460    23.7110 
  158.0000     2.3070   -19.4150    56.8530    36.1100    36.4010    43.5710    23.7020 
  158.1250     2.3490   -19.4460    59.5510    34.7530    35.0460    36.2850    23.7000 
  158.2500     2.3400   -19.4760    66.2760    35.0490    35.2350    30.0600    23.6990 
  158.3750     2.3230   -19.5210    72.4450    37.2790    37.8550    32.1850    23.6980 
  158.5000     2.3020   -19.5500    74.8710    41.8210    42.9770    46.0330    23.6980 
  158.6250     2.2730   -19.5820    72.3420    48.8250    50.0650    61.8170    23.6980 
  158.7500     2.2350   -19.6170    70.0480    56.3610    56.8960    69.6830    23.6990 
  158.8750     2.2010   -19.6520    69.0480    61.7690    60.8770    70.7910    23.7030 
  159.0000     2.1760   -19.6780    67.6340    62.4960    59.9820    67.4250    23.7090 
  159.1250     2.1650   -19.7300    63.3900    57.5070    53.9540    60.6300    23.7010 
  159.2500     2.1690   -19.7750    61.0270    50.1430    46.2650    50.7180    23.6850 
  159.3750     2.1840   -19.8170    63.9310    42.9280    39.2190    39.3230    23.6560 
  159.5000     2.2070   -19.8420    70.0020    37.3580    34.0340    30.9650    23.6360 
  159.6250     2.2400   -19.8700    73.9630    34.1600    31.2220    28.4200    23.6180 
  159.7500     2.2840   -19.8880    72.9120    32.5690    29.8890    30.1920    23.5980 
  159.8750     2.3270   -19.9020    70.1390    31.8970    29.3190    36.8040    23.5780 
  160.0000     2.3410   -19.8970    69.5170    31.4140    28.8250    46.5770    23.5440 
  160.1250     2.3330   -19.8580    71.5590    30.4450    27.8500    45.1740    23.5050 
  160.2500     2.3210   -19.8180    72.3950    29.0010    26.5030    33.4490    23.5450 
  160.3750     2.3040   -19.7830    71.3200    27.4800    25.1940    25.4540    23.7240 
  160.5000     2.2840   -19.7510    72.8460    26.3360    24.3520    23.7250    23.8550 
  160.6250     2.2660   -19.7050    77.8120    25.9790    24.3080    24.8180    23.8700 
  160.7500     2.2440   -19.6590    81.9390    26.3260    24.8810    25.9860    23.8370 
  160.8750     2.2220   -19.6090    82.0100    27.1880    25.8680    26.2730    23.8050 
  161.0000     2.2120   -19.5680    79.1840    28.2780    27.0730    25.7500    23.7700 
  161.1250     2.2160   -19.5240    76.6000    29.3980    28.5020    25.5590    23.7270 
