~V
VERS. 2.00: Ver 2.00
~W
STRT.M 58.0000:
STOP.M 215.0000:
STEP.M 0.1250:
NULL. -999.2500:
UWI. F10587:
~C
DEPT.M :
DEN.GM/CC :
GR.API :
RML.OHMM :
RI. :
RXO.OHMM :
CALI.CM :
SP.MV :
~A
# ...
  125.5000     2.4540    48.5250    44.8680    38.8180    38.1310    24.6430   -14.1320 
  125.6250     2.4470    47.4410    44.4800    38.3200    37.6170    24.6350   -14.1000 
  125.7500     2.4350    46.3560    44.5400    38.2210    39.2790    24.5960   -14.0530 
  125.8750     2.4280    46.4620    44.9440    38.4660    42.4130    24.5600   -14.0100 
  126.0000     2.4430    48.4610    45.6570    39.0230    43.8610    24.5280   -13.9920 
  126.1250     2.4940    51.5700    46.8970    40.0290    43.8330    24.5260   -13.9500 
  126.2500     2.5620    52.1950    48.8310    41.5820    45.1070    24.5560   -13.9460 
  126.3750     2.6210    49.9150    51.5230    43.7510    48.8100    24.5760   -13.9600 
  126.5000     2.6590    46.6850    54.5960    46.2980    50.1870    24.5790   -13.9610 
  126.6250     2.6720    45.2340    56.7450    48.2770    55.8150    24.5940   -14.0210 
  126.7500     2.6670    44.7710    56.6720    48.6090    60.2160    24.6030   -14.0950 
  126.8750     2.6430    43.2450    53.8400    46.7180    58.5810    24.6190   -14.1660 
  127.0000     2.6000    41.9490    48.9090    42.9330    50.6520    24.6300   -14.2910 
  127.1250     2.5490    43.6910    43.4860    38.3940    41.6600    24.6410   -14.4130 
  127.2500     2.5060    46.5880    39.0510    34.4320    34.5780    24.6620   -14.5130 
  127.3750     2.4810    47.7140    36.1000    31.5890    30.8280    24.6960   -14.6320 
  127.5000     2.4740    46.6230    34.6100    29.9540    30.4220    24.7290   -14.7360 
  127.6250     2.4840    46.5540    34.4820    29.5220    29.6780    24.7330   -14.8170 
  127.7500     2.5040    49.4450    35.2000    29.8760    29.9550    24.6620   -14.8860 
  127.8750     2.5330    52.0310    36.5190    30.8030    30.3730    24.6190   -14.9500 
  128.0000     2.5720    51.0490    38.2080    32.0950    29.9060    24.6040   -14.9740 
  128.1250     2.6170    47.1020    39.9450    33.4930    31.7590    24.5820   -15.0200 
  128.2500     2.6530    44.0350    41.2730    34.6380    34.3340    24.5600   -15.0750 
  128.3750     2.6700    42.4860    41.7580    35.1930    37.3110    24.5560   -15.0890 
  128.5000     2.6650    42.6480    41.0920    34.8770    38.2170    24.5640   -15.1210 
  128.6250     2.6320    45.9550    39.1040    33.4510    33.5570    24.5550   -15.1600 
  128.7500     2.5800    50.7730    36.4000    31.3140    30.5460    24.5550   -15.2090 
  128.8750     2.5210    53.6010    33.5090    28.8720    29.1370    24.5750   -15.2630 
  129.0000     2.4670    53.4650    30.9250    26.5540    26.2770    24.6410   -15.3400 
  129.1250     2.4380    52.7030    29.1690    24.8310    22.8300    24.7430   -15.3950 
  129.2500     2.4390    52.2160    28.3210    23.8270    21.4020    24.8410   -15.4500 
  129.3750     2.4650    50.8790    28.3510    23.5520    21.4870    24.8500   -15.5600 
  129.5000     2.4970    48.6660    29.0450    23.8790    23.0330    24.7500   -15.6520 
  129.6250     2.5120    48.0370    29.9570    24.5260    24.5480    24.6680   -15.7430 
  129.7500     2.5050    49.4700    30.4390    24.9780    25.7810    24.6320   -15.8620 
  129.8750     2.4860    50.5580    30.1320    24.8980    25.8160    24.5710   -15.9540 
  130.0000     2.4760    50.5750    29.1010    24.2500    24.9580    24.5070   -16.0360 
  130.1250     2.4990    50.7480    27.8430    23.3270    23.5890    24.5020   -16.1480 
  130.2500     2.5480    49.8780    27.0030    22.6100    22.0790    24.5120   -16.2410 
  130.3750     2.6060    48.3200    26.9390    22.3970    21.3360    24.4910   -16.3340 
  130.5000     2.6480    48.8600    27.7220    22.8160    21.3300    24.4670   -16.4390 
  130.6250     2.6610    52.1590    29.0470    23.7630    23.6890    24.4470   -16.5430 
  130.7500     2.6490    53.6370    30.1030    24.6670    25.6200    24.4240   -16.6310 
  130.8750     2.6200    51.9380    30.2250    24.9950    27.8780    24.4040   -16.7340 
  131.0000     2.5820    51.1060    29.0920    24.3980    30.5500    24.4000   -16.8480 
  131.1250     2.5450    53.1910    26.8460    22.8370    28.0820    24.4180   -16.9340 
  131.2500     2.5170    54.2330    24.3870    20.9510    22.5760    24.4230   -17.0220 
  131.3750     2.4980    53.8090    22.2960    19.2100    19.3720    24.3600   -17.0830 
  131.5000     2.4850    54.5670    20.8720    17.9010    18.7760    24.2410   -17.1110 
  131.6250     2.4740    58.4670    20.2740    17.2090    18.7150    24.1710   -17.1110 
  131.7500     2.4690    60.3240    20.2520    17.0000    18.0520    24.1530   -17.1110 
  131.8750     2.4730    57.4420    20.6040    17.1510    18.3350    24.1270   -17.0830 
  132.0000     2.4820    52.7330    21.1220    17.5040    19.4750    24.1240   -17.0250 
  132.1250     2.4810    50.0420    21.6530    17.9250    20.1390    24.1550   -16.9700 
  132.2500     2.4640    48.6030    22.1320    18.3290    20.6050    24.2150   -16.8630 
  132.3750     2.4360    47.1920    22.5490    18.6840    20.6840    24.3190   -16.7570 
  132.5000     2.4130    46.7740    22.9480    19.0050    21.0450    24.4190   -16.6770 
  132.6250     2.4190    48.0330    23.4420    19.3640    21.2860    24.5060   -16.5720 
  132.7500     2.4490    48.3380    24.0590    19.8080    21.6230    24.5230   -16.4970 
  132.8750     2.4890    48.1010    24.7170    20.2920    21.6620    24.4980   -16.4730 
  133.0000     2.5180    48.1580    25.2550    20.7060    21.8310    24.4580   -16.4330 
  133.1250     2.5280    48.9160    25.4460    20.8840    24.3840    24.4210   -16.4410 
  133.2500     2.5290    49.5610    25.2740    20.8050    25.3900    24.3980   -16.5060 
  133.3750     2.5290    50.0610    24.8320    20.5220    23.1130    24.3950   -16.5630 
  133.5000     2.5290    50.6480    24.3040    20.1550    21.0560    24.4010   -16.6530 
  133.6250     2.5310    49.5800    23.8960    19.8430    21.3670    24.4130   -16.7580 
  133.7500     2.5360    47.1230    23.7150    19.6740    22.5570    24.4270   -16.8510 
  133.8750     2.5430    45.5670    23.7900    19.6930    23.1220    24.4330   -16.9170 
  134.0000     2.5480    45.1010    24.0210    19.8550    22.9490    24.4120   -16.9760 
  134.1250     2.5400    44.9140    24.1030    19.9540    22.3270    24.3970   -17.0040 
  134.2500     2.5190    44.5980    23.7390    19.7480    22.0690    24.3930   -16.9950 
  134.3750     2.4950    45.1830    22.7710    19.0930    22.8750    24.3760   -16.9900 
  134.5000     2.4790    47.3960    21.2520    17.9950    21.9420    24.3260   -16.9270 
  134.6250     2.4810    50.5400    19.5110    16.6510    18.7330    24.2940   -16.8250 
  134.7500     2.4920    53.4370    18.0660    15.4500    15.6440    24.2980   -16.7020 
  134.8750     2.5040    55.6550    17.2390    14.6470    14.6690    24.2710   -16.5550 
  135.0000     2.5050    56.7290    17.1720    14.3810    14.9870    24.2590   -16.3780 
  135.1250     2.4950    56.4630    17.9390    14.7690    16.0420    24.3310   -16.2090 
  135.2500     2.4860    54.7550    19.1680    15.5970    17.5130    24.3490   -16.0520 
  135.3750     2.4850    54.8180    20.4670    16.6090    18.8100    24.3160   -15.8720 
  135.5000     2.4910    57.1520    21.3980    17.4600    20.2130    24.3010   -15.7490 
  135.6250     2.4970    57.8560    21.5690    17.7830    21.0320    24.2920   -15.6850 
  135.7500     2.4970    56.9110    21.2040    17.6540    21.1420    24.3140   -15.6180 
  135.8750     2.4920    55.8620    20.7180    17.3340    19.5080    24.3090   -15.6150 
  136.0000     2.4880    53.9770    20.6110    17.1810    17.4990    24.3270   -15.6700 
  136.1250     2.4930    52.6650    21.3790    17.5960    17.3060    24.3670   -15.7330 
  136.2500     2.5000    56.2510    22.9010    18.5840    19.1340    24.3300   -15.8530 
  136.3750     2.5040    62.5630    24.8530    19.9790    22.1050    24.2680   -16.0100 
  136.5000     2.5050    63.5920    26.6920    21.4220    26.2870    24.2260   -16.1710 
  136.6250     2.5060    57.0250    27.6290    22.3130    28.9300    24.1970   -16.3220 
