~V
VERS. 2.00: Ver 2.00
~W
STRT.M 52.0000:
STOP.M 224.0000:
STEP.M 0.1250:
NULL. -999.2500:
UWI. F10595:
~C
DEPT.M :
GR.API :
RML.OHMM :
RI. :
RXO.OHMM :
CALI.CM :
DEN.GM/CC :
SP.MV :
~A
# ...
  198.2500    61.8570    13.3090    12.0990    16.3030    22.8890     2.4060    -3.8690 
  198.3750    63.4090    14.3030    13.0030    17.1470    22.8910     2.4040    -3.9060 
  198.5000    62.5640    14.7730    13.4300    17.4480    22.8830     2.4050    -3.9130 
  198.6250    60.2040    14.3980    13.0890    17.0290    22.8520     2.4030    -3.8820 
  198.7500    59.2400    12.9690    11.7900    16.3230    22.8250     2.3930    -3.8040 
  198.8750    58.1060    11.0370    10.0330    14.6210    22.8090     2.3770    -3.6930 
  199.0000    56.6400     9.1150     8.2870    11.0060    22.8250     2.3620    -3.5560 
  199.1250    55.2060     8.2560     6.8800     7.2930    22.8690     2.3590    -3.3980 
  199.2500    52.0640     7.2140     6.0120     6.1790    22.9130     2.3750    -3.2140 
  199.3750    48.5600     6.6730     5.5610     6.1390    22.9590     2.4040    -3.0170 
  199.5000    47.5730     6.5140     5.4280     6.3250    22.9880     2.4330    -2.8230 
  199.6250    49.8510     6.5770     5.4810     6.4160    23.0090     2.4490    -2.6470 
  199.7500    50.4110     6.6620     5.5520     6.5300    23.0330     2.4410    -2.5080 
  199.8750    47.9930     6.6290     5.5240     6.6060    23.0470     2.4170    -2.4050 
  200.0000    46.2130     6.4810     5.4010     6.4230    23.0490     2.3840    -2.3410 
  200.1250    46.1680     6.3240     5.2700     5.8940    23.0450     2.3600    -2.3190 
  200.2500    45.7920     6.3130     5.2610     5.7260    23.0550     2.3620    -2.3520 
  200.3750    44.9130     6.4870     5.4060     6.0780    23.0920     2.3890    -2.4300 
  200.5000    45.4160     6.8100     5.6750     6.7120    23.1480     2.4300    -2.5480 
  200.6250    47.4300     7.1830     5.9860     7.1690    23.1990     2.4650    -2.6980 
  200.7500    49.3650     7.4490     6.2070     7.3690    23.2160     2.4740    -2.8810 
  200.8750    50.7400     7.5440     6.2870     7.1290    23.2090     2.4640    -3.0840 
  201.0000    51.7070     7.4950     6.2460     6.5650    23.2230     2.4520    -3.2970 
  201.1250    52.3460     7.3800     6.1500     6.2610    23.2570     2.4530    -3.5050 
  201.2500    51.9070     7.2760     6.0630     6.4840    23.2680     2.4650    -3.6960 
  201.3750    50.1940     7.2130     6.0110     6.8120    23.2490     2.4730    -3.8650 
  201.5000    46.7010     7.1820     5.9850     6.9950    23.2160     2.4690    -4.0130 
  201.6250    44.0270     7.1620     5.9680     6.9400    23.2050     2.4550    -4.1370 
  201.7500    46.8480     7.1340     5.9450     6.8330    23.2170     2.4430    -4.2290 
  201.8750    51.1600     7.1130     5.9280     7.0210    23.2290     2.4390    -4.2890 
  202.0000    53.4500     7.1300     5.9420     7.4380    23.2210     2.4410    -4.3180 
  202.1250    52.1810     7.2200     6.0170     7.6690    23.2120     2.4420    -4.3260 
  202.2500    48.9020     7.4210     6.1850     7.6400    23.2140     2.4390    -4.3120 
  202.3750    47.1310     7.7010     6.4180     7.9400    23.2070     2.4370    -4.2760 
  202.5000    48.0370     7.9930     6.6610     8.4580    23.1930     2.4380    -4.2060 
  202.6250    49.4870     8.1980     6.8320     8.9880    23.1690     2.4400    -4.0970 
  202.7500    48.8010     8.1700     6.8090     8.9080    23.1360     2.4360    -3.9460 
  202.8750    49.3750     7.9000     6.5840     8.3930    23.1140     2.4230    -3.7730 
  203.0000    54.7540     7.4400     6.2000     7.2810    23.0720     2.4000    -3.5900 
  203.1250    62.0050     6.8950     5.7460     6.2780    23.0230     2.3740    -3.3980 
  203.2500    67.0030     6.3920     5.3270     5.8780    22.9390     2.3570    -3.2040 
  203.3750    70.6690     5.9990     4.9990     5.7440    22.8720     2.3510    -3.0170 
  203.5000    72.4740     5.7410     4.7840     5.6380    22.7670     2.3520    -2.8510 
  203.6250    72.4250     5.6170     4.6810     5.4380    22.6220     2.3540    -2.7200 
  203.7500    69.6060     5.6280     4.6900     5.4230    22.5460     2.3550    -2.6420 
  203.8750    65.4380     5.7250     4.7710     5.7670    22.5680     2.3580    -2.6050 
  204.0000    62.4010     5.8800     4.9000     6.2510    22.6500     2.3660    -2.6020 
  204.1250    60.6960     6.0550     5.0460     6.6550    22.6800     2.3760    -2.6290 
  204.2500    60.3190     6.1840     5.1540     6.7540    22.6170     2.3800    -2.6890 
  204.3750    60.1870     6.2240     5.1860     6.7460    22.5380     2.3760    -2.7810 
  204.5000    60.3170     6.1600     5.1330     6.5500    22.4920     2.3710    -2.9050 
  204.6250    58.5370     6.0240     5.0200     6.2050    22.4470     2.3720    -3.0520 
  204.7500    52.0880     5.8800     4.9000     5.9620    22.3660     2.3840    -3.2100 
  204.8750    46.1480     5.7870     4.8220     5.9260    22.3170     2.3960    -3.3670 
  205.0000    43.6980     5.7590     4.7990     6.1000    22.3790     2.4030    -3.5230 
  205.1250    44.4580     5.7840     4.8200     6.3780    22.5840     2.4020    -3.6760 
  205.2500    46.7430     5.8350     4.8630     6.5910    22.7660     2.3980    -3.8140 
  205.3750    48.2880     5.8870     4.9060     6.9010    22.9060     2.3960    -3.9240 
  205.5000    46.4930     5.9330     4.9440     7.1810    22.9870     2.3950    -3.9930 
  205.6250    42.4960     5.9820     4.9850     6.7440    23.0010     2.3940    -4.0200 
  205.7500    43.7210     6.0500     5.0420     6.5250    22.9570     2.3890    -4.0130 
  205.8750    48.7880     6.1540     5.1290     6.6020    22.9250     2.3840    -3.9940 
  206.0000    51.4230     6.3260     5.2720     6.9450    22.8580     2.3810    -3.9690 
  206.1250    49.1850     6.5920     5.4940     7.3390    22.7740     2.3840    -3.9440 
  206.2500    46.1800     6.9490     5.7910     7.6530    22.7550     2.3960    -3.9270 
  206.3750    46.4770     7.3020     6.0850     7.9560    22.7770     2.4160    -3.9240 
  206.5000    49.2900     7.5400     6.2830     8.4830    22.8150     2.4390    -3.9390 
  206.6250    52.7520     7.5690     6.3070     8.6910    22.8370     2.4540    -3.9670 
  206.7500    54.1940     7.3250     6.1040     7.8160    22.8200     2.4480    -3.9980 
  206.8750    53.1750     6.9240     5.7700     6.9340    22.8020     2.4250    -4.0160 
  207.0000    51.7310     6.4760     5.3960     6.3560    22.7800     2.3930    -4.0080 
  207.1250    52.5670     6.0680     5.0570     6.0020    22.7400     2.3620    -3.9640 
  207.2500    56.6240     5.7730     4.8110     5.8690    22.6940     2.3440    -3.8730 
  207.3750    58.8190     5.5900     4.6580     5.8200    22.6520     2.3410    -3.7450 
  207.5000    56.0870     5.5020     4.5850     5.8790    22.6220     2.3520    -3.5880 
  207.6250    50.1450     5.4870     4.5730     5.9730    22.5870     2.3680    -3.4070 
  207.7500    46.1550     5.5330     4.6110     6.1050    22.5750     2.3780    -3.2120 
  207.8750    44.7840     5.6140     4.6790     6.1530    22.5930     2.3790    -3.0170 
  208.0000    44.5600     5.7140     4.7620     6.1590    22.6420     2.3720    -2.8320 
  208.1250    45.5740     5.8150     4.8460     6.2010    22.6660     2.3650    -2.6670 
  208.2500    47.9560     5.9070     4.9220     6.2770    22.6540     2.3640    -2.5310 
  208.3750    48.9830     5.9910     4.9930     6.3850    22.6070     2.3660    -2.4140 
  208.5000    48.2850     6.0670     5.0550     6.4580    22.5630     2.3650    -2.3120 
  208.6250    49.3350     6.1200     5.1000     6.4390    22.5130     2.3590    -2.2240 
  208.7500    52.9610     6.1100     5.0920     6.3620    22.4460     2.3520    -2.1450 
  208.8750    53.7270     6.0230     5.0190     6.2260    22.3620     2.3500    -2.0730 
  209.0000    51.1310     5.8660     4.8890     5.9840    22.2490     2.3520    -2.0090 
  209.1250    47.3790     5.6780     4.7310     5.6850    22.0990     2.3500    -1.9560 
  209.2500    43.6850     5.5140     4.5950     5.4220    21.9570     2.3410    -1.9320 
  209.3750    39.2130     5.4080     4.5070     5.3360    21.8900     2.3320    -1.9450 
