~V
VERS. 2.00: Ver 2.00
~W
STRT.M 50.0000:
STOP.M 233.0000:
STEP.M 0.1250:
NULL. -999.2500:
UWI. F10598:
~C
DEPT.M :
DEN.GM/CC :
SP.MV :
GR.API :
RML.OHMM :
RI. :
RXO.OHMM :
CALI.CM :
~A
# ...
  106.2500     2.2400   -13.4950   104.3310     7.3560     5.6870     6.7790    24.0050 
  106.3750     2.2440   -13.2640   109.9360     7.2800     5.6540     6.7250    24.0090 
  106.5000     2.2420   -13.0000   109.3450     7.3820     5.7550     7.2050    24.0270 
  106.6250     2.2360   -12.7270   103.3020     7.6880     6.0370     8.1250    24.1180 
  106.7500     2.2280   -12.4450    98.4530     8.0740     6.4060     9.6630    24.2810 
  106.8750     2.2160   -12.1990    96.6490     8.3780     6.7290    11.5480    24.4110 
  107.0000     2.1950   -11.9870    97.1470     8.4130     6.8620    11.1580    24.4520 
  107.1250     2.1730   -11.8700    97.6330     8.0590     6.7000     8.6110    24.4340 
  107.2500     2.1650   -11.7860    97.2470     7.5290     6.3610     7.5290    24.4040 
  107.3750     2.1740   -11.7660    98.3380     7.0650     5.9790     7.1300    24.3840 
  107.5000     2.1890   -11.7920   102.6240     6.8350     5.6790     6.7900    24.3770 
  107.6250     2.1970   -11.8880   108.9590     6.9140     5.5810     6.5050    24.3830 
  107.7500     2.1970   -12.0210   112.5940     7.1780     5.6780     6.8570    24.4220 
  107.8750     2.1920   -12.1350   109.7740     7.5080     5.9360     7.7440    24.5140 
  108.0000     2.1850   -12.2440   102.9210     7.7870     6.2730     8.7200    24.6220 
  108.1250     2.1880   -12.2730    97.3960     7.9070     6.5710     8.6680    24.6670 
  108.2500     2.1990   -12.2890    97.1290     7.8620     6.7450     8.0190    24.6770 
  108.3750     2.2110   -12.2700   101.5810     7.6660     6.7810     7.6080    24.6770 
  108.5000     2.2200   -12.2310   107.5950     7.4000     6.7160     7.4740    24.6770 
  108.6250     2.2230   -12.1460   112.0120     7.2150     6.6140     7.4680    24.6770 
  108.7500     2.2250   -12.0360   111.1400     7.1880     6.5340     7.7880    24.6780 
  108.8750     2.2320   -11.9350   106.1480     7.2960     6.4890     7.9800    24.6900 
  109.0000     2.2410   -11.8160   101.3830     7.4440     6.4600     7.7760    24.7360 
  109.1250     2.2460   -11.7370    99.7740     7.5040     6.4120     7.6800    24.8350 
  109.2500     2.2460   -11.6490   101.9390     7.4610     6.3250     7.7110    24.9340 
  109.3750     2.2460   -11.5780   106.3490     7.3710     6.1960     7.5270    25.0150 
  109.5000     2.2460   -11.5110   109.4530     7.3240     6.0530     7.3630    25.1120 
  109.6250     2.2390   -11.4960   107.4520     7.4280     5.9770     7.3970    25.2210 
  109.7500     2.2250   -11.5230   102.0710     7.7350     6.0530     7.6500    25.3540 
  109.8750     2.2090   -11.6060    96.6710     8.3140     6.3650     8.0300    25.4610 
  110.0000     2.1970   -11.7430    91.3510     9.2410     7.0010     8.8330    25.5580 
  110.1250     2.1830   -11.9430    86.1660    10.6730     8.1500    10.8110    25.6760 
  110.2500     2.1620   -12.1800    83.2410    12.6230     9.8520    14.0760    25.8550 
  110.3750     2.1370   -12.4250    81.9900    15.0840    12.1370    18.1340    26.1100 
  110.5000     2.1180   -12.6890    81.0510    17.8560    14.8760    20.8560    26.3480 
  110.6250     2.1130   -12.9150    76.3380    20.3990    17.6180    23.4130    26.4620 
  110.7500     2.1140   -13.1230    69.2250    22.1910    19.7810    24.9830    26.4920 
  110.8750     2.1140   -13.2980    65.7540    23.0880    21.1110    25.4720    26.4950 
  111.0000     2.1090   -13.4460    69.4370    23.4490    21.7740    23.6180    26.4950 
  111.1250     2.1010   -13.5540    74.5590    24.0550    22.2270    22.0160    26.4950 
  111.2500     2.0910   -13.6380    74.5020    25.4280    22.9640    23.1590    26.4950 
  111.3750     2.0830   -13.7130    70.1380    27.6280    24.2480    26.5450    26.4950 
  111.5000     2.0760   -13.7690    65.2280    30.3850    26.1530    31.3830    26.4950 
  111.6250     2.0690   -13.8340    61.4240    33.1320    28.4950    34.3250    26.4950 
  111.7500     2.0600   -13.8670    59.9100    35.1650    30.6710    34.0410    26.4950 
  111.8750     2.0520   -13.8870    60.4320    36.0970    32.2130    32.5510    26.4950 
  112.0000     2.0480   -13.9040    62.2240    36.0910    32.9340    31.0930    26.4950 
  112.1250     2.0470   -13.9190    64.3580    35.7580    32.9800    31.4880    26.4950 
  112.2500     2.0490   -13.9250    65.9200    35.6930    32.9430    31.1310    26.4950 
  112.3750     2.0540   -13.9360    66.1750    36.0450    33.1610    32.4110    26.4710 
  112.5000     2.0600   -13.9710    66.3080    36.6490    33.6890    34.6880    26.3760 
  112.6250     2.0650   -13.9950    67.7880    37.0450    34.2670    38.2350    26.1500 
  112.7500     2.0650   -14.0660    67.6150    36.9050    34.5050    39.7490    25.9440 
  112.8750     2.0640   -14.1540    65.3240    36.1920    34.1660    39.1180    25.8070 
  113.0000     2.0600   -14.2700    63.8030    35.0800    33.2490    35.9450    25.6850 
  113.1250     2.0560   -14.3750    65.4790    33.8430    32.0760    32.1440    25.5440 
  113.2500     2.0520   -14.5200    67.3880    32.8160    31.1190    31.0370    25.4320 
  113.3750     2.0500   -14.6650    66.2290    32.1970    30.6040    31.8660    25.3280 
  113.5000     2.0510   -14.7950    64.9040    32.0500    30.6220    31.3160    25.2250 
  113.6250     2.0520   -14.9260    68.1640    32.3890    31.2310    30.4300    25.1680 
  113.7500     2.0540   -15.0390    72.1350    32.9710    32.1330    31.5110    25.1480 
  113.8750     2.0590   -15.1470    71.6810    33.4450    33.0240    33.4360    25.1430 
  114.0000     2.0660   -15.2160    66.5710    33.4280    33.6380    34.8080    25.1410 
  114.1250     2.0740   -15.3080    63.5910    32.6580    33.7110    34.5550    25.1410 
  114.2500     2.0800   -15.3500    63.3020    31.4970    33.2270    32.3600    25.1420 
  114.3750     2.0850   -15.3840    64.2720    30.2800    32.2490    29.8190    25.1540 
  114.5000     2.0890   -15.4170    66.4710    29.2010    30.9650    28.7460    25.1880 
  114.6250     2.0920   -15.4510    69.2510    28.2300    29.5810    28.3930    25.2520 
  114.7500     2.0930   -15.4780    71.0370    27.1290    28.2590    27.7160    25.2790 
  114.8750     2.0900   -15.4880    72.0030    25.8220    27.0600    26.2170    25.2740 
  115.0000     2.0830   -15.5150    73.4180    24.5050    25.9760    24.0970    25.1970 
  115.1250     2.0770   -15.4890    74.9330    23.5560    25.0070    23.1890    24.9370 
  115.2500     2.0740   -15.4910    75.1090    23.0440    24.1880    22.4660    24.5400 
  115.3750     2.0750   -15.4830    74.7970    22.8500    23.5790    22.0320    24.1620 
  115.5000     2.0800   -15.4660    75.7630    22.7820    23.1720    22.5920    23.9680 
  115.6250     2.0870   -15.4250    77.3690    22.6740    22.8850    23.1300    23.9250 
  115.7500     2.0950   -15.3840    77.3700    22.5180    22.5860    23.0000    23.9250 
  115.8750     2.1040   -15.3470    74.7410    22.3670    22.2180    22.0790    23.9230 
  116.0000     2.1130   -15.3200    72.9700    22.2260    21.8150    21.2710    23.9220 
  116.1250     2.1220   -15.3370    74.2920    22.0400    21.4910    21.5060    23.9220 
  116.2500     2.1300   -15.3410    76.3590    21.8050    21.3190    22.3920    23.9220 
  116.3750     2.1340   -15.3820    78.1320    21.6360    21.3410    22.3510    23.9230 
  116.5000     2.1360   -15.4170    78.9420    21.7130    21.6110    21.8680    23.9240 
  116.6250     2.1340   -15.4880    76.7290    22.3230    22.2810    22.2020    23.9260 
  116.7500     2.1280   -15.5520    71.7360    23.5510    23.3600    23.6570    23.9240 
  116.8750     2.1160   -15.6200    68.2930    25.3560    24.8130    26.2550    23.9280 
  117.0000     2.0970   -15.6920    69.1520    27.4670    26.4830    29.4680    23.9810 
  117.1250     2.0780   -15.7200    70.0060    29.3260    27.9790    31.8240    24.1230 
  117.2500     2.0650   -15.7530    68.4020    30.4770    28.9130    31.0570    24.2970 
  117.3750     2.0580   -15.7550    66.4260    30.7250    29.0710    28.5500    24.3960 
