~V
VERS. 2.00: Ver 2.00
~W
STRT.M 58.0000:
STOP.M 203.0000:
STEP.M 0.1250:
NULL. -999.2500:
UWI. F10566:
~C
DEPT.M :
GR.API :
RML.OHMM :
RI. :
RXO.OHMM :
CALI.CM :
SP.MV :
DEN.GM/CC :
~A
# ...
  136.7500    60.3910    17.5300    14.6800    14.6850    23.9570    -7.2740     2.3640 
  136.8750    58.9940    17.6480    14.7880    14.5620    23.9840    -7.2440     2.3710 
  137.0000    58.7410    17.7820    14.9230    14.7570    24.0570    -7.1780     2.3690 
  137.1250    58.0230    17.8610    15.0400    15.2940    24.1750    -7.1000     2.3510 
  137.2500    56.0820    17.8570    15.1160    16.1870    24.2620    -7.0170     2.3260 
  137.3750    53.7370    17.7960    15.1600    16.2220    24.3250    -6.9760     2.3070 
  137.5000    52.0390    17.7460    15.2060    15.1580    24.3600    -6.9670     2.3020 
  137.6250    53.5230    17.8080    15.2950    14.6050    24.3090    -6.9350     2.3120 
  137.7500    57.2260    17.9910    15.4290    15.0820    24.1820    -6.9400     2.3270 
  137.8750    60.8350    18.2510    15.5830    15.2340    24.1190    -6.9510     2.3410 
  138.0000    62.1130    18.5210    15.7160    15.2800    24.2600    -6.9850     2.3550 
  138.1250    62.3860    18.7550    15.8010    15.7900    24.5140    -7.0150     2.3720 
  138.2500    62.5960    18.9790    15.8690    16.1500    24.6540    -7.0680     2.3900 
  138.3750    60.6750    19.2380    15.9640    16.7950    24.7150    -7.0790     2.4010 
  138.5000    57.0930    19.5340    16.1050    16.7770    24.7360    -7.1140     2.3990 
  138.6250    56.2860    19.7320    16.2240    18.7190    24.7570    -7.1530     2.3840 
  138.7500    57.4310    19.6360    16.1710    20.1080    24.7960    -7.1910     2.3700 
  138.8750    56.9620    19.0930    15.8110    19.5770    24.8300    -7.2370     2.3660 
  139.0000    54.0730    18.0900    15.1000    17.6040    24.8430    -7.3430     2.3760 
  139.1250    52.1410    16.7670    14.1110    15.5840    24.8430    -7.4890     2.3950 
  139.2500    52.5010    15.4630    13.0930    13.4880    24.8430    -7.6540     2.4100 
  139.3750    53.3830    14.4040    12.2260    11.8310    24.8440    -7.8390     2.4140 
  139.5000    52.3630    13.7260    11.6280    11.4020    24.8470    -7.9560     2.4100 
  139.6250    49.6980    13.5150    11.3920    12.0320    24.8470    -8.1370     2.4010 
  139.7500    48.6860    13.6230    11.4240    12.5910    24.8480    -8.3360     2.3940 
  139.8750    49.9950    13.9280    11.6420    12.8990    24.8480    -8.5010     2.3900 
  140.0000    51.8390    14.2880    11.9450    13.3810    24.8480    -8.6970     2.3900 
  140.1250    52.8620    14.5560    12.2090    14.0780    24.8470    -8.8710     2.3880 
  140.2500    52.7390    14.6650    12.3480    14.1450    24.8470    -9.0320     2.3820 
  140.3750    51.6120    14.5940    12.3320    13.7390    24.8460    -9.1990     2.3720 
  140.5000    50.7680    14.3560    12.1730    13.4590    24.8450    -9.4480     2.3650 
  140.6250    50.8780    13.9670    11.8990    13.1120    24.8450    -9.6380     2.3660 
  140.7500    50.9450    13.5030    11.5780    12.7600    24.8470    -9.8370     2.3730 
  140.8750    50.3760    13.0030    11.2470    12.2200    24.8610   -10.0850     2.3790 
  141.0000    49.0800    12.5000    10.9280    11.8600    24.8950   -10.3000     2.3800 
  141.1250    47.7960    12.0070    10.6410    11.4690    24.9330   -10.5650     2.3740 
  141.2500    47.6100    11.5160    10.3800    11.1520    24.9520   -10.8580     2.3660 
  141.3750    49.7560    11.0140    10.1230    10.6560    24.9550   -11.1580     2.3590 
  141.5000    55.6480    10.4900     9.8340    10.1850    24.9460   -11.4440     2.3520 
  141.6250    64.5410     9.9460     9.4670     9.9490    24.9350   -11.8080     2.3460 
  141.7500    72.6990     9.4160     9.0350     9.7340    24.9460   -12.1810     2.3380 
  141.8750    79.4990     8.9380     8.5780     9.0880    24.9860   -12.5270     2.3280 
  142.0000    84.5970     8.5530     8.1470     8.5370    25.0160   -12.9000     2.3170 
  142.1250    85.3620     8.3040     7.8100     8.0650    25.0260   -13.2410     2.3050 
  142.2500    83.3500     8.1730     7.5810     7.9430    25.0260   -13.5500     2.2980 
  142.3750    83.1830     8.1400     7.4580     7.9830    25.0140   -13.8310     2.3000 
  142.5000    86.1730     8.1690     7.4110     7.8030    24.9580   -14.0720     2.3110 
  142.6250    87.1330     8.2150     7.3960     7.9030    24.8110   -14.2480     2.3240 
  142.7500    85.7570     8.2480     7.3710     7.9890    24.6630   -14.4200     2.3290 
  142.8750    86.1980     8.2890     7.3440     7.9900    24.5780   -14.5840     2.3250 
  143.0000    88.3560     8.4130     7.3650     8.0550    24.5450   -14.6940     2.3130 
  143.1250    85.5340     8.8040     7.5840     8.3660    24.5430   -14.7860     2.3080 
  143.2500    77.7700     9.6240     8.1600     9.0290    24.5380   -14.8910     2.3230 
  143.3750    70.4900    11.0960     9.3170    10.8170    24.4910   -14.9960     2.3580 
  143.5000    67.8590    13.4900    11.3300    11.8580    24.3410   -15.1150     2.4000 
  143.6250    66.8900    17.3350    14.7320    18.2420    24.1550   -15.2530     2.4190 
  143.7500    64.8800    22.6040    19.5210    26.1840    24.1350   -15.3350     2.4020 
  143.8750    62.8130    29.0700    25.5040    36.4190    24.3880   -15.3970     2.3510 
  144.0000    60.8960    35.9710    32.0040    46.0010    24.7560   -15.4630     2.2850 
  144.1250    59.6600    41.8710    37.7560    42.7080    25.1040   -15.5340     2.2300 
  144.2500    59.6020    45.9640    41.9430    38.2550    25.2950   -15.5230     2.1940 
  144.3750    61.1610    48.2260    44.3770    37.3070    25.3070   -15.4700     2.1740 
  144.5000    62.9750    49.1970    45.3930    40.2870    25.2610   -15.5180     2.1630 
  144.6250    63.3490    49.5110    45.4870    42.5110    25.2260   -15.4910     2.1600 
  144.7500    63.1890    49.7400    45.3330    41.9230    25.1900   -15.4680     2.1610 
  144.8750    63.5490    50.1190    45.2710    40.3760    25.1550   -15.4790     2.1610 
  145.0000    64.5550    50.8650    45.5880    39.1720    25.1400   -15.4820     2.1560 
  145.1250    63.8870    52.3500    46.6880    39.9580    25.1370   -15.5410     2.1500 
  145.2500    61.0050    54.5920    48.6080    41.6650    25.1250   -15.6140     2.1530 
  145.3750    58.0030    57.3880    51.2130    45.1410    25.0080   -15.6390     2.1720 
  145.5000    56.7570    60.1870    54.0580    50.5760    24.6010   -15.6100     2.2000 
  145.6250    56.6430    61.9650    56.2920    54.9340    23.8700   -15.6190     2.2200 
  145.7500    55.8120    62.1970    57.3150    58.4290    23.3990   -15.6050     2.2190 
  145.8750    54.5430    60.8840    56.9350    56.4730    23.3740   -15.6190     2.1980 
  146.0000    54.0840    58.5970    55.4590    49.2580    23.6970   -15.6370     2.1690 
  146.1250    55.6340    56.2830    53.5790    44.3720    24.3250   -15.6120     2.1480 
  146.2500    58.4620    54.6690    52.0660    43.2280    24.9220   -15.5270     2.1400 
  146.3750    61.5640    53.9740    51.2410    43.9620    25.1950   -15.6970     2.1450 
  146.5000    63.7100    54.0770    51.1180    44.0440    25.2450   -15.7650     2.1600 
  146.6250    63.1760    54.6840    51.5280    45.3430    25.2290   -15.8480     2.1770 
  146.7500    60.7330    55.3390    52.0880    45.2080    25.2060   -15.9620     2.1910 
  146.8750    58.8170    55.8240    52.6010    43.8720    25.1960   -16.0080     2.1960 
  147.0000    58.5760    56.0500    52.9700    43.5490    25.1950   -16.0860     2.1940 
  147.1250    60.2220    55.9450    53.1220    44.2960    25.1960   -16.0900     2.1870 
  147.2500    63.7240    55.5190    53.0540    47.4590    25.1940   -16.1090     2.1810 
  147.3750    66.8830    54.9720    52.7330    48.9290    25.1890   -16.0720     2.1780 
  147.5000    67.0800    54.5360    52.1380    46.7370    25.1930   -16.0310     2.1780 
  147.6250    65.0020    54.4940    51.2440    43.2740    25.1950   -15.9970     2.1790 
  147.7500    62.1940    53.5630    50.1770    41.8420    25.1970   -16.0130     2.1790 
  147.8750    59.5660    52.2500    49.0510    41.1050    25.1970   -16.0290     2.1760 
