~V
VERS. 2.00: Ver 2.00
~W
STRT.M 55.0000:
STOP.M 318.0000:
STEP.M 0.1250:
NULL. -999.2500:
UWI. F10558:
~C
DEPT.M :
DEN.GM/CC :
GR.API :
RML.OHMM :
RI. :
RXO.OHMM :
CALI.CM :
SP.MV :
~A
# ...
   88.7500     2.1240    75.9730    10.0230     7.3120    10.0900    24.6520   -21.0940 
   88.8750     2.1400    83.3290     9.6590     7.1050     9.8020    24.6520   -20.7260 
   89.0000     2.1550    88.1750     9.1530     6.8810     9.1670    24.6630   -20.3710 
   89.1250     2.1570    86.6680     8.7450     6.7180     8.7880    24.7000   -20.0040 
   89.2500     2.1450    82.7180     8.5600     6.6490     9.0220    24.7560   -19.6380 
   89.3750     2.1300    80.0790     8.5550     6.6600     9.2500    24.7740   -19.2670 
   89.5000     2.1340    80.0980     8.5840     6.6850     9.2410    24.6870   -18.9170 
   89.6250     2.1710    86.4570     8.4530     6.6040     8.7490    24.4400   -18.5920 
   89.7500     2.2150    97.4830     8.1280     6.3840     7.8530    24.1810   -18.2910 
   89.8750     2.2360   107.6740     7.7120     6.0820     7.0770    24.0650   -17.9860 
   90.0000     2.2230   112.5780     7.3690     5.8140     6.9930    24.0290   -17.6710 
   90.1250     2.1980   111.5140     7.2360     5.6880     7.4120    23.9970   -17.3800 
   90.2500     2.1820   107.9330     7.2760     5.6840     7.3780    23.9760   -17.0850 
   90.3750     2.1710   102.1540     7.4120     5.7480     7.3360    23.9500   -16.7810 
   90.5000     2.1630    96.6060     7.5310     5.8100     7.6350    23.9210   -16.4620 
   90.6250     2.1710    95.9450     7.5040     5.7940     7.6240    23.9090   -16.1350 
   90.7500     2.1990   100.5310     7.3400     5.6950     7.0810    23.9060   -15.8330 
   90.8750     2.2320   107.6260     7.1210     5.5400     6.4350    23.9060   -15.5900 
   91.0000     2.2500   113.4340     6.9630     5.3790     6.1380    23.9060   -15.4180 
   91.1250     2.2510   115.7860     7.0150     5.3040     6.3840    23.9060   -15.3300 
   91.2500     2.2530   115.0410     7.2960     5.3720     6.8470    23.9150   -15.3470 
   91.3750     2.2560   110.9080     7.7570     5.6000     6.9740    23.9480   -15.4960 
   91.5000     2.2570   104.6510     8.3200     5.9730     7.0590    24.0150   -15.7520 
   91.6250     2.2460   100.3970     8.9190     6.4960     8.7240    24.0540   -16.1180 
   91.7500     2.2190    97.4280     9.4970     7.1190    12.6640    24.0810   -16.5270 
   91.8750     2.1770    92.9310     9.9660     7.7390    17.3990    24.1070   -16.9400 
   92.0000     2.1300    87.4320    10.1590     8.1770    18.8950    24.1220   -17.3320 
   92.1250     2.1030    85.1500     9.8310     8.2110    15.5840    24.1260   -17.6630 
   92.2500     2.0980    85.5140     9.1100     7.9320    11.5690    24.1300   -17.9090 
   92.3750     2.1070    83.1670     8.2600     7.5340     9.3510    24.1510   -18.0120 
   92.5000     2.1180    75.3630     7.5510     7.2040     8.9920    24.2030   -17.9660 
   92.6250     2.1260    68.4590     7.1520     7.0120     9.2790    24.2540   -17.7310 
   92.7500     2.1370    69.4290     6.9490     6.8480     9.4580    24.2750   -17.3470 
   92.8750     2.1610    80.5460     6.7670     6.5880     9.3450    24.2790   -16.8570 
   93.0000     2.2020    96.9410     6.4300     6.1520     8.5490    24.2790   -16.3240 
   93.1250     2.2540   110.9640     5.8570     5.5320     7.0470    24.2790   -15.7970 
   93.2500     2.2980   119.6500     5.2170     4.8780     5.8040    24.2790   -15.3380 
   93.3750     2.3210   122.6370     4.6990     4.3210     5.3570    24.2720   -14.9930 
   93.5000     2.3270   120.9620     4.4490     3.9550     5.3240    24.2520   -14.7970 
   93.6250     2.3280   115.9100     4.5710     3.8500     5.3020    24.2200   -14.7980 
   93.7500     2.3290   113.5320     4.9460     3.9460     5.3140    24.2050   -14.9980 
   93.8750     2.3290   117.6090     5.4610     4.2040     5.3630    24.1880   -15.3860 
   94.0000     2.3280   123.3240     6.0550     4.6050     5.5970    24.1310   -15.9190 
   94.1250     2.3230   122.3200     6.7910     5.2000     6.5390    24.0070   -16.5860 
   94.2500     2.3030   115.9530     7.7110     5.9540     7.9970    23.9170   -17.3140 
   94.3750     2.2620   107.3150     8.7450     6.7820     8.6530    23.9870   -18.0550 
   94.5000     2.2100    96.8780     9.6750     7.5320     8.8630    24.2870   -18.7690 
   94.6250     2.1760    85.0780    10.1910     8.0280     8.8150    24.6800   -19.4280 
   94.7500     2.1650    76.4040    10.3750     8.3310     8.9280    24.9290   -20.0170 
   94.8750     2.1720    73.8070    10.4790     8.5940     9.1420    24.9910   -20.5320 
   95.0000     2.2000    74.9250    10.7630     8.9760    10.0920    24.8880   -20.9840 
   95.1250     2.2600    75.2800    11.2870     9.5420    13.8500    24.5300   -21.3990 
   95.2500     2.3200    73.7030    11.7010    10.0620    19.8880    24.0680   -21.7980 
   95.3750     2.3260    73.0080    11.6040    10.2140    20.4780    23.7750   -22.2020 
   95.5000     2.2630    73.7910    10.7980     9.7810    13.7040    23.7000   -22.6130 
   95.6250     2.1800    73.3710     9.4860     8.8520    10.6150    23.8230   -23.0200 
   95.7500     2.1200    73.2760     8.2610     7.9110     9.9350    24.0700   -23.4060 
   95.8750     2.0870    74.1600     7.4290     7.2240     9.6320    24.2900   -23.7550 
   96.0000     2.0810    73.7670     7.0780     6.8550     9.3890    24.3170   -24.0700 
   96.1250     2.0900    72.8970     7.1580     6.7400     9.1520    24.3530   -24.2930 
   96.2500     2.0940    74.0950     7.4100     6.7100     8.8480    24.5550   -24.4420 
   96.3750     2.0880    75.7790     7.6880     6.7090     8.7050    24.8810   -24.5230 
   96.5000     2.0810    73.6560     7.9160     6.7350     8.8160    25.1050   -24.5580 
   96.6250     2.0840    69.4460     8.0710     6.7840     8.8600    25.0930   -24.5410 
   96.7500     2.0900    69.0060     8.2000     6.8290     8.8460    25.0240   -24.4810 
   96.8750     2.0910    72.7930     8.3630     6.8590     8.8200    24.9660   -24.3850 
   97.0000     2.0830    76.4870     8.5910     6.8790     8.8210    24.9420   -24.2340 
   97.1250     2.0690    76.2850     8.8450     6.8990     8.8360    24.9440   -24.0670 
   97.2500     2.0600    76.5530     9.0310     6.9230     8.8610    24.9450   -23.8730 
   97.3750     2.0580    76.9410     9.0940     6.9400     8.7580    24.9410   -23.6470 
   97.5000     2.0640    73.8210     9.0360     6.9340     8.6720    24.9100   -23.4030 
   97.6250     2.0750    68.0490     8.9080     6.9020     8.7210    24.6940   -23.1580 
   97.7500     2.0850    66.9060     8.7880     6.8620     8.7780    24.2290   -22.9320 
   97.8750     2.0900    70.3770     8.6970     6.8270     8.7040    23.7090   -22.7480 
   98.0000     2.0930    72.0970     8.6160     6.7950     8.5820    23.3950   -22.6090 
   98.1250     2.0980    71.3260     8.4900     6.7600     8.6080    23.3230   -22.4850 
   98.2500     2.1080    72.4990     8.3280     6.7270     8.6720    23.3130   -22.3610 
   98.3750     2.1190    76.7420     8.1550     6.7070     8.7560    23.3130   -22.2370 
   98.5000     2.1260    80.3550     7.9980     6.7080     8.7260    23.3130   -22.0950 
   98.6250     2.1320    78.3380     7.8930     6.7210     8.6500    23.3130   -21.9290 
   98.7500     2.1340    72.7830     7.8250     6.7120     8.4730    23.3130   -21.7350 
   98.8750     2.1270    68.7590     7.7340     6.6580     8.2010    23.3150   -21.5040 
   99.0000     2.1140    70.1630     7.5690     6.5590     7.8860    23.3250   -21.2580 
   99.1250     2.1020    77.1460     7.3220     6.4290     7.8200    23.3510   -21.0440 
   99.2500     2.0950    82.9640     7.0610     6.2930     7.8020    23.3800   -20.8850 
   99.3750     2.0920    85.9750     6.8470     6.1590     7.7710    23.4140   -20.7910 
   99.5000     2.0920    88.0820     6.7170     6.0340     7.6740    23.4910   -20.7690 
   99.6250     2.0970    91.6060     6.7020     5.9340     7.5990    23.6380   -20.8160 
   99.7500     2.1000    93.6960     6.7890     5.8760     7.4600    23.8320   -20.9120 
   99.8750     2.0960    91.6340     6.9790     5.8770     7.5290    23.9830   -21.0260 
