~V
VERS. 2.00: Ver 2.00
~W
STRT.M 52.0000:
STOP.M 208.0000:
STEP.M 0.1250:
NULL. -999.2500:
UWI. F10572:
~C
DEPT.M :
GR.API :
RML.OHMM :
RI. :
RXO.OHMM :
CALI.CM :
DEN.GM/CC :
SP.MV :
~A
# ...
  108.2500    57.2140    36.7970    30.6550    27.8440    22.7670     2.1480   -13.8150 
  108.3750    56.0480    38.3610    31.6190    27.9050    22.5740     2.1430   -13.6900 
  108.5000    55.6570    41.6840    34.0590    29.8210    22.4570     2.1360   -13.5070 
  108.6250    56.4550    46.5620    37.8930    34.6860    22.3850     2.1300   -13.3090 
  108.7500    57.6990    51.7790    42.1580    39.0200    22.3000     2.1290   -13.1070 
  108.8750    58.0320    56.0240    45.8180    38.9560    22.2290     2.1290   -12.9060 
  109.0000    56.1500    58.0080    47.8250    33.9230    22.1830     2.1320   -12.7070 
  109.1250    52.9950    56.7610    47.2750    30.0770    22.1170     2.1370   -12.5140 
  109.2500    52.6840    53.5370    44.9830    27.5770    22.0260     2.1470   -12.3530 
  109.3750    56.1410    49.5390    41.8480    25.7250    21.9550     2.1560   -12.2390 
  109.5000    60.7680    45.7340    38.6970    24.0820    21.9290     2.1600   -12.1340 
  109.6250    62.8800    42.8840    36.2200    21.7240    21.9480     2.1540   -12.0070 
  109.7500    62.5880    41.0730    34.5690    19.2090    22.0070     2.1440   -11.9200 
  109.8750    60.7140    40.1830    33.6890    17.0220    22.0940     2.1380   -11.9060 
  110.0000    58.5560    39.8810    33.3340    16.5640    22.1870     2.1410   -11.9200 
  110.1250    56.6800    39.5970    33.0870    18.2700    22.2720     2.1530   -11.9110 
  110.2500    56.2610    38.6880    32.4300    20.5220    22.3350     2.1630   -11.9050 
  110.3750    56.9830    36.9030    31.1030    20.0690    22.3860     2.1660   -11.9400 
  110.5000    57.5120    34.5430    29.2570    17.9890    22.4240     2.1600   -12.0610 
  110.6250    58.6500    32.4150    27.4690    17.6260    22.4270     2.1500   -12.2820 
  110.7500    60.8380    31.2050    26.3060    17.4910    22.3680     2.1420   -12.5340 
  110.8750    62.1150    31.3400    26.1380    16.2020    22.2570     2.1350   -12.7810 
  111.0000    61.6380    33.0290    27.2050    17.3740    22.1400     2.1300   -13.0370 
  111.1250    61.1550    36.4080    29.7780    22.3260    22.1230     2.1300   -13.3620 
  111.2500    60.4480    40.8250    33.4320    24.7110    22.1520     2.1330   -13.7510 
  111.3750    59.1120    45.7290    37.7720    25.3070    22.2290     2.1310   -14.1630 
  111.5000    57.0610    50.4640    42.2320    30.8770    22.3190     2.1230   -14.5510 
  111.6250    54.7320    54.2610    46.0440    36.4750    22.4540     2.1190   -14.9380 
  111.7500    53.6820    56.9120    48.8720    39.4520    22.6010     2.1320   -15.3530 
  111.8750    54.7010    57.9040    50.3570    38.6250    22.7760     2.1600   -15.7730 
  112.0000    56.4720    55.9780    49.6100    38.8050    22.9110     2.1930   -16.2110 
  112.1250    55.2160    49.0430    44.6890    43.8100    22.9530     2.2150   -16.6760 
  112.2500    53.2740    38.7220    36.4150    48.2490    22.8660     2.2250   -17.1330 
  112.3750    55.2520    27.8500    27.0330    42.9480    22.6020     2.2360   -17.5660 
  112.5000    62.4140    18.9240    18.9340    24.4730    22.3310     2.2680   -17.9690 
  112.6250    73.8120    13.3110    13.6010    12.7770    22.3840     2.3280   -18.2630 
  112.7500    82.4200    10.0560    10.3650     8.2570    22.5630     2.3890   -18.4720 
  112.8750    82.8820     8.4230     8.6290     7.1080    22.6950     2.4260   -18.6720 
  113.0000    77.9290     7.8100     7.8930     7.4380    22.7420     2.4290   -18.8660 
  113.1250    74.6850     7.8590     7.8770     7.4700    22.7710     2.4010   -18.9620 
  113.2500    75.8120     8.1740     8.2070     7.4760    22.8210     2.3670   -18.9670 
  113.3750    78.4530     8.5910     8.6950     7.3230    22.8760     2.3410   -18.9440 
  113.5000    81.0010     9.0830     9.2550     7.8970    22.8900     2.3270   -18.9510 
  113.6250    83.4340     9.8270     9.9890     9.4290    22.8360     2.3130   -19.0250 
  113.7500    84.4950    10.9540    11.0300    10.7910    22.7470     2.2890   -19.1070 
  113.8750    83.3400    12.4490    12.4140    11.5780    22.7040     2.2580   -19.1570 
  114.0000    78.9360    14.0430    13.9380    12.3800    22.7340     2.2330   -19.2020 
  114.1250    73.8390    15.0400    14.9410    16.4770    22.8030     2.2310   -19.3210 
  114.2500    72.0250    14.9870    14.8980    19.4630    22.8240     2.2520   -19.4920 
  114.3750    75.0290    13.9890    13.8610    16.5540    22.7510     2.2900   -19.6620 
  114.5000    80.1920    12.7220    12.4730    10.7800    22.5360     2.3330   -19.8240 
  114.6250    81.1970    12.2320    11.6250     8.9510    22.3870     2.3820   -20.0070 
  114.7500    78.6080    13.1430    11.8070     9.4130    22.3860     2.4410   -20.2300 
  114.8750    74.0560    15.9540    13.4280    13.1020    22.4690     2.5090   -20.4620 
  115.0000    67.4900    21.1090    16.9610    22.8240    22.5340     2.5770   -20.6660 
  115.1250    59.1320    29.3740    23.3070    34.2690    22.5930     2.6250   -20.8280 
  115.2500    52.0900    40.0410    32.0370    44.9630    22.6710     2.6520   -20.9620 
  115.3750    47.9880    51.9230    42.1200    54.0520    22.8100     2.6640   -21.0780 
  115.5000    45.2130    63.0750    51.7290    62.7340    22.9920     2.6640   -21.1430 
  115.6250    44.7650    71.0480    58.7150    66.3210    23.1860     2.6490   -21.1060 
  115.7500    46.8860    75.4200    62.7800    73.9910    23.2570     2.6260   -21.0140 
  115.8750    49.4900    76.2630    63.9730    74.7260    23.3310     2.5980   -20.9370 
  116.0000    51.3790    74.1090    62.6210    68.9660    23.4910     2.5680   -20.8680 
  116.1250    52.3490    70.0080    59.3740    55.8160    23.5920     2.5310   -20.7660 
  116.2500    53.5700    65.9170    55.8240    47.9700    23.5770     2.4870   -20.6480 
  116.3750    54.5100    63.0330    53.0360    44.2340    23.6510     2.4410   -20.5260 
  116.5000    54.4460    62.0450    51.7120    46.6400    23.8060     2.4040   -20.4280 
  116.6250    52.1230    63.3570    52.3390    51.8860    23.8290     2.3990   -20.3830 
  116.7500    48.7510    66.1000    54.3000    53.4720    23.7250     2.4250   -20.3770 
  116.8750    45.7700    69.4710    56.9900    54.5860    23.6600     2.4610   -20.3930 
  117.0000    43.7070    72.6090    59.7310    58.0440    23.6540     2.4860   -20.4410 
  117.1250    44.0550    74.6460    61.7820    59.2370    23.8630     2.4880   -20.5350 
  117.2500    45.5100    75.5870    62.9760    57.2680    23.9680     2.4840   -20.6480 
  117.3750    46.0280    75.7310    63.4450    60.1200    23.9560     2.4850   -20.7980 
  117.5000    45.3310    75.4560    63.4580    65.5020    23.9190     2.5000   -20.9840 
  117.6250    45.3670    75.0310    63.2580    68.0160    23.9450     2.5230   -21.1560 
  117.7500    47.8070    74.6580    63.0630    66.5210    24.0040     2.5470   -21.2980 
  117.8750    52.0030    74.4440    62.9740    65.0210    24.1090     2.5730   -21.3810 
  118.0000    53.8750    74.4190    63.0310    65.0620    24.1860     2.6030   -21.4230 
  118.1250    50.5290    74.4350    63.1480    64.3150    24.2060     2.6280   -21.4510 
  118.2500    46.0010    74.0810    63.0360    67.1000    24.2180     2.6300   -21.4600 
  118.3750    44.1450    72.8990    62.3440    73.4940    24.2070     2.6030   -21.4460 
  118.5000    45.2550    70.6840    60.8550    78.6720    24.1570     2.5520   -21.4110 
  118.6250    46.0530    67.7150    58.6600    69.6440    24.0710     2.5020   -21.3790 
  118.7500    47.0520    64.9080    56.4240    52.5430    23.9680     2.4740   -21.3470 
  118.8750    49.1310    62.9350    54.6960    44.8410    23.9000     2.4750   -21.3380 
  119.0000    50.9500    62.1610    53.8390    47.2030    23.9010     2.4930   -21.3130 
  119.1250    49.3010    62.6460    54.0260    52.5790    23.9800     2.5090   -21.2260 
  119.2500    46.0760    63.6340    54.7230    55.2380    23.9710     2.5100   -21.1270 
  119.3750    45.5350    64.5510    55.4550    56.0270    23.9300     2.5000   -21.0190 
