~V
VERS. 2.00: Ver 2.00
~W
STRT.M 40.0000:
STOP.M 191.0000:
STEP.M 0.1250:
NULL. -999.2500:
UWI. F10585:
~C
DEPT.M :
DEN.GM/CC :
SP.MV :
GR.API :
RML.OHMM :
RI. :
RXO.OHMM :
CALI.CM :
~A
# ...
  175.0000     2.4260   -17.9060    81.2330    37.6410    32.6260    43.0840    23.9680 
  175.1250     2.3740   -17.6850    83.6080    30.5760    26.6370    34.9190    23.9820 
  175.2500     2.3200   -17.4280    87.6180    23.5580    20.4340    22.2630    24.0420 
  175.3750     2.2820   -17.1290    92.3610    17.8880    15.2960    12.9540    24.1500 
  175.5000     2.2590   -16.7780    96.7420    13.9430    11.7750     9.4000    24.2240 
  175.6250     2.2520   -16.3820    98.6570    11.6980     9.9220     9.1670    24.2460 
  175.7500     2.2540   -15.9550    97.9000    10.4750     8.9870     9.9880    24.2500 
  175.8750     2.2590   -15.5100    94.7510     9.9280     8.5620    10.7110    24.2670 
  176.0000     2.2600   -15.0340    91.7740     9.7260     8.3670    10.9560    24.2980 
  176.1250     2.2570   -14.5220    90.4100     9.5530     8.2470    10.2940    24.3130 
  176.2500     2.2630   -14.0280    87.9690     9.2520     8.1320     9.6120    24.3170 
  176.3750     2.2810   -13.6020    83.8850     8.8590     8.0060     9.1960    24.3170 
  176.5000     2.2990   -13.2720    79.3240     8.4820     7.8510     8.9730    24.3170 
  176.6250     2.2990   -13.0920    76.9430     8.2420     7.6680     8.4100    24.3170 
  176.7500     2.2840   -13.0740    78.7730     8.1650     7.5390     7.6880    24.3170 
  176.8750     2.2680   -13.2030    84.2740     8.2510     7.5620     7.3380    24.3170 
  177.0000     2.2600   -13.4560    90.0580     8.4740     7.7810     7.6130    24.3170 
  177.1250     2.2560   -13.8350    93.8290     8.7890     8.1880     8.6400    24.3170 
  177.2500     2.2490   -14.2570    96.3310     9.0990     8.6750     9.4040    24.3170 
  177.3750     2.2440   -14.6140    97.6440     9.3250     9.1480    10.5020    24.3170 
  177.5000     2.2490   -14.8800    96.6350     9.5070     9.4190    11.6020    24.3170 
  177.6250     2.2640   -14.9780    95.0660     9.6730     9.3610    11.6880    24.3170 
  177.7500     2.2780   -14.9450    94.9920     9.7140     9.2210    11.2550    24.3170 
  177.8750     2.2890   -14.7830    94.8190     9.7060     9.0470    10.6440    24.3170 
  178.0000     2.2940   -14.4970    93.8380     9.7000     8.8720    10.1520    24.3160 
  178.1250     2.2920   -14.1060    92.1030     9.6630     8.7050     9.6880    24.3150 
  178.2500     2.2930   -13.6830    88.5830     9.5210     8.5160     9.7140    24.3150 
  178.3750     2.3030   -13.2680    82.7640     9.2400     8.2710     9.6840    24.3150 
  178.5000     2.3180   -12.8810    76.6510     8.8480     7.9580     9.4930    24.3150 
  178.6250     2.3280   -12.5590    73.3630     8.4310     7.5970     8.9630    24.3130 
  178.7500     2.3310   -12.3260    70.6430     8.0970     7.2630     8.3080    24.3130 
  178.8750     2.3260   -12.1710    66.9490     7.9060     7.0220     7.6620    24.3130 
  179.0000     2.3120   -12.1380    64.5220     7.8690     6.9290     7.2780    24.3100 
  179.1250     2.2890   -12.2680    65.6510     7.9670     7.0320     7.5230    24.3090 
  179.2500     2.2630   -12.5110    68.0140     8.1350     7.2730     8.1090    24.3080 
  179.3750     2.2410   -12.8680    68.8890     8.3500     7.5880     9.2190    24.3080 
  179.5000     2.2320   -13.2620    68.7540     8.6000     7.8880    10.4110    24.3080 
  179.6250     2.2370   -13.6290    69.8100     8.8640     8.0620    10.3770    24.3080 
  179.7500     2.2480   -13.9010    70.1480     9.0790     8.0890     9.6290    24.3080 
  179.8750     2.2600   -14.0440    68.9770     9.1850     7.9900     8.9580    24.3080 
  180.0000     2.2720   -13.9960    68.2300     9.1550     7.8110     8.8920    24.3080 
  180.1250     2.2830   -13.7280    68.7060     8.9590     7.6090     9.1490    24.3080 
  180.2500     2.2900   -13.3280    68.5470     8.6590     7.4330     8.5410    24.3080 
  180.3750     2.2880   -12.8370    68.1740     8.3120     7.3030     7.1740    24.3080 
  180.5000     2.2830   -12.3250    69.5150     7.9950     7.2100     6.1090    24.3080 
  180.6250     2.2880   -11.8550    71.4150     7.8100     7.1290     5.7990    24.3080 
  180.7500     2.3020   -11.4220    71.9050     7.7470     7.0530     5.8730    24.3080 
  180.8750     2.3160   -11.0900    71.9050     7.7510     7.0140     6.0400    24.3080 
  181.0000     2.3210   -10.9230    71.9050     7.7870     7.0680     6.2280    24.3080 
  181.1250     2.3190   -10.9000    71.9050     7.9040     7.2760     6.4730    24.3080 
  181.2500     2.3230   -10.9050    71.9050     8.1660     7.5730     7.1420    24.3080 
  181.3750     2.3370   -10.8870    71.9050     8.5600     7.8510     8.4280    24.3090 
  181.5000     2.3550   -10.8570    71.9050     8.9480     7.9780     9.6670    24.3170 
  181.6250     2.3630   -10.7780    71.9050     9.0320     7.8220    10.3830    24.3400 
  181.7500     2.3550   -10.7420    71.9050     8.7340     7.4560    10.4260    24.3750 
  181.8750     2.3420   -10.7280    71.9050     8.2040     6.9940     8.8180    24.4150 
  182.0000     2.3290   -10.7420    71.9050     7.7060     6.5690     7.2500    24.4760 
  182.1250     2.3180   -10.7960    71.9050     7.4900     6.3410     6.6200    24.5020 
  182.2500     2.3100   -11.1060    71.9050     7.6480     6.2870     6.3850    24.5210 
  182.3750     2.3040   -11.4650    71.9050     8.0650     6.5300     6.2820    24.5390 
  182.5000     2.2950   -11.9270    71.9050     8.6000     6.9210     6.4360    24.5650 
  182.6250     2.2810   -12.4400    71.9050     9.1650     7.4050     7.2450    24.5760 
  182.7500     2.2730   -12.9320    71.9050     9.6680     7.9230     9.2100    24.5770 
  182.8750     2.2800   -13.3610    71.9050     9.9750     8.3720    11.0380    24.5770 
  183.0000     2.2960   -13.6740    71.9050    10.0540     8.6620    11.7360    24.5770 
  183.1250     2.3050   -13.8500    71.9050     9.9280     8.7440    11.7030    24.5770 
  183.2500     2.3000   -13.8800    71.9050     9.6840     8.6410    11.3840    24.5800 
  183.3750     2.2800   -13.7910    71.9050     9.4610     8.4330    11.2170    24.5950 
  183.5000     2.2490   -13.6060    71.9050     9.3500     8.2220    10.7300    24.6210 
  183.6250     2.2240   -13.3690    71.9050     9.3240     8.0420     9.5330    24.6410 
  183.7500     2.2230   -13.1000    71.9050     9.2700     7.8910     8.8710    24.6490 
  183.8750     2.2460   -12.8010    71.9050     9.0500     7.7440     9.6000    24.6490 
  184.0000     2.2750   -12.5050    71.9050     8.7000     7.5800     9.8260    24.6540 
  184.1250     2.2810   -12.2780    71.9050     8.3350     7.4110     8.8100    24.6930 
  184.2500     2.2630   -12.1920    71.9050     8.0990     7.2720     7.4340    24.8670 
  184.3750     2.2330   -12.1740    71.9050     8.1190     7.2140     6.7680    25.2410 
  184.5000     2.2060   -12.2440    71.9050     8.3160     7.2350     6.8490    25.5520 
  184.6250     2.1880   -12.4110    71.9050     8.5580     7.3130     7.7150    25.5140 
  184.7500     2.1780   -12.6690    71.9050     8.7240     7.4070     9.3770    25.2990 
  184.8750     2.1790   -12.9670    71.9050     8.7490     7.4730    10.8010    25.0650 
  185.0000     2.1960   -13.2800    71.9050     8.6830     7.5100    11.4850    24.8520 
  185.1250     2.2240   -13.5800    71.9050     8.6000     7.5300    11.8910    24.5290 
  185.2500     2.2490   -13.8120    71.9050     8.5660     7.5440    11.2480    24.3020 
  185.3750     2.2660   -14.0340    71.9050     8.5970     7.5470    10.5490    24.2290 
  185.5000     2.2710   -14.2000    71.9050     8.6650     7.5330    10.6650    24.2310 
  185.6250     2.2670   -14.2760    71.9050     8.7590     7.5040    11.5390    24.2370 
  185.7500     2.2670   -14.2960    71.9050     8.8660     7.4620    12.2330    24.2540 
  185.8750     2.2780   -14.3330    71.9050     8.9650     7.4180    11.8210    24.2830 
  186.0000     2.2960   -14.3700    71.9050     9.0270     7.3890    10.8500    24.2960 
  186.1250     2.3050   -14.4160    71.9050     9.0520     7.3780     9.6630    24.2910 
