~V
VERS. 2.00: Ver 2.00
~W
STRT.M 58.0000:
STOP.M 193.0000:
STEP.M 0.1250:
NULL. -999.2500:
UWI. F10563:
~C
DEPT.M :
GR.API :
RML.OHMM :
RI. :
RXO.OHMM :
CALI.CM :
DEN.GM/CC :
SP.MV :
~A
# ...
  181.7500    95.4500     8.4460     7.3560     8.1690    24.1730     2.2830   -12.4910 
  181.8750    95.0270     8.6350     7.4930     8.3090    24.1490     2.2810   -12.2310 
  182.0000    92.8280     8.8970     7.7150     8.8560    24.1340     2.2820   -11.9570 
  182.1250    91.2770     9.1240     7.9260     9.2400    24.1320     2.2850   -11.7360 
  182.2500    91.6160     9.2080     8.0310     9.1600    24.1330     2.2880   -11.3980 
  182.3750    92.3170     9.0910     7.9850     9.0530    24.1330     2.2940   -11.0340 
  182.5000    91.0940     8.7780     7.7910     9.2610    24.1330     2.3090   -10.6690 
  182.6250    88.0570     8.3250     7.4790     8.7840    24.1330     2.3330   -10.3270 
  182.7500    86.7000     7.8490     7.1240     7.9530    24.1550     2.3590    -9.9240 
  182.8750    87.1490     7.4200     6.7670     7.2830    24.2750     2.3760    -9.5860 
  183.0000    86.6680     7.0810     6.4450     6.3550    24.6150     2.3790    -9.2830 
  183.1250    86.6680     6.8630     6.2090     5.5830    25.1440     2.3650    -8.9600 
  183.2500    86.6680     6.7320     6.0630     5.3050    25.3380     2.3380    -8.7220 
  183.3750    86.6680     6.6670     5.9980     5.4180    24.9560     2.3020    -8.5940 
  183.5000    86.6680     6.6470     5.9880     5.7100    24.4880     2.2640    -8.4290 
  183.6250    86.6680     6.6730     6.0100     6.1310    24.2090     2.2370    -8.4180 
  183.7500    86.6680     6.7410     6.0480     6.3320    24.1170     2.2350    -8.4410 
  183.8750    86.6680     6.8500     6.1090     6.3480    24.0000     2.2590    -8.4180 
  184.0000    86.6680     6.9920     6.2030     6.4860    23.8960     2.3020    -8.3860 
  184.1250    86.6680     7.1410     6.3300     6.8150    23.8540     2.3440    -8.4410 
  184.2500    86.6680     7.2650     6.4620     6.9960    23.8520     2.3690    -8.6030 
  184.3750    86.6680     7.3470     6.5670     7.0020    23.8500     2.3730    -8.7230 
  184.5000    86.6680     7.3760     6.6170     7.1210    23.8420     2.3630    -8.8740 
  184.6250    86.6680     7.3460     6.5920     7.2060    23.8250     2.3490    -8.8910 
  184.7500    86.6680     7.2720     6.5120     7.2720    23.8190     2.3420    -8.9600 
  184.8750    86.6680     7.1600     6.3960     7.2920    23.8180     2.3430    -9.0930 
  185.0000    86.6680     7.0220     6.2640     7.1830    23.8130     2.3480    -9.1920 
  185.1250    86.6680     6.8750     6.1340     6.9850    23.7980     2.3540    -9.3060 
  185.2500    86.6680     6.7450     6.0180     6.6400    23.7800     2.3590    -9.3930 
  185.3750    86.6680     6.6490     5.9230     6.4240    23.7590     2.3630    -9.4850 
  185.5000    86.6680     6.5980     5.8560     6.3740    23.7250     2.3670    -9.5460 
  185.6250    86.6680     6.5950     5.8240     6.4070    23.7080     2.3740    -9.6860 
  185.7500    86.6680     6.6200     5.8130     6.4980    23.7020     2.3830    -9.8940 
  185.8750    86.6680     6.6640     5.8110     6.6110    23.7000     2.3930   -10.1100 
  186.0000    86.6680     6.7220     5.8110     6.6470    23.6900     2.4020   -10.3150 
  186.1250    86.6680     6.7890     5.8240     6.6170    23.6760     2.4050   -10.5180 
  186.2500    86.6680     6.8580     5.8630     6.5310    23.6610     2.4010   -10.6630 
  186.3750    86.6680     6.9230     5.9390     6.5710    23.6540     2.3930   -10.7990 
  186.5000    86.6680     6.9760     6.0440     6.8840    23.6530     2.3850   -11.0470 
  186.6250    86.6680     7.0120     6.1570     7.1820    23.6500     2.3770   -11.2240 
  186.7500    86.6680     7.0360     6.2540     7.3030    23.6380     2.3690   -11.3980 
  186.8750    86.6680     7.0530     6.3220     7.4830    23.6190     2.3560   -11.6680 
  187.0000    86.6680     7.0660     6.3610     7.6150    23.6060     2.3350   -11.9870 
  187.1250    86.6680     7.0800     6.3740     8.0140    23.5990     2.3090   -12.4160 
  187.2500    86.6680     7.0960     6.3810     8.7170    23.5940     2.2870   -12.8510 
  187.3750    86.6680     7.1140     6.3880     9.3230    23.5920     2.2750   -13.3130 
  187.5000    86.6680     7.1290     6.3930     9.7190    23.5920     2.2710   -13.6780 
  187.6250    86.6680     7.1340     6.3830     9.7030    23.5920     2.2720   -14.0530 
  187.7500    86.6680     7.1270     6.3520     9.8180    23.5910     2.2720   -14.4070 
  187.8750    86.6680     7.1120     6.3110     9.9570    23.5880     2.2730   -14.6380 
  188.0000    86.6680     7.0950     6.2840    10.1840    23.5860     2.2780   -14.8130 
  188.1250    86.6680     7.0850     6.2930    10.4020    23.5860     2.2890   -14.7810 
  188.2500    86.6680     7.0870     6.3260    10.0720    23.5860     2.2980   -14.7580 
  188.3750    86.6680     7.1040     6.3650     9.1210    23.5820     2.3010   -14.7670 
  188.5000    86.6680     7.1350     6.3950     8.6760    23.5690     2.2940   -14.8560 
  188.6250    86.6680     7.1770     6.4120     9.1360    23.5430     2.2790   -14.9030 
  188.7500    86.6680     7.2200     6.4260     9.6300    23.5280     2.2670   -14.8190 
  188.8750    86.6680     7.2570     6.4380    10.1510    23.5150     2.2660   -14.7350 
  189.0000    86.6680     7.2830     6.4450    10.5110    23.4950     2.2750   -14.7280 
  189.1250    86.6680     7.2920     6.4470    10.3550    23.4840     2.2920   -14.7160 
  189.2500    86.6680     7.2940     6.4470     8.9600    23.4810     2.3070   -14.7370 
  189.3750    86.6680     7.2940     6.4470     7.8380    23.4810     2.3160   -14.6390 
  189.5000    86.6680     7.2940     6.4470     7.6140    23.4810     2.3190   -14.5020 
  189.6250    86.6680     7.2940     6.4470     7.9200    23.4810     2.3170   -14.4520 
  189.7500    86.6680     7.2940     6.4470     7.9680    23.4810     2.3120   -14.4100 
  189.8750    86.6680     7.2940     6.4470     7.5580    23.4810     2.3020   -14.4100 
  190.0000    86.6680     7.2940     6.4470     7.2820    23.4710     2.2890   -14.4100 
  190.1250    86.6680     7.2940     6.4470     7.6420    23.4210     2.2800  -999.2500 
  190.2500    86.6680     7.2940     6.4470     7.9260    23.3310     2.2800  -999.2500 
  190.3750    86.6680     7.2940     6.4470     7.7050    23.2520     2.2900  -999.2500 
  190.5000    86.6680     7.2940     6.4470     7.1620    23.2140     2.3060  -999.2500 
  190.6250    86.6680     7.2940     6.4470     6.8770    23.1860     2.3190  -999.2500 
  190.7500    86.6680     7.2940     6.4470     6.8220    23.1150     2.3270  -999.2500 
  190.8750    86.6680     7.2940     6.4470     6.7400    22.9890     2.3300  -999.2500 
  191.0000    86.6680     7.2940     6.4470     6.6170    22.8290     2.3300  -999.2500 
  191.1250    86.6680     7.2940     6.4470     6.3010    22.7100     2.3150  -999.2500 
  191.2500    86.6680     7.2940     6.4470     6.1930    22.6000     2.2700  -999.2500 
  191.3750    86.6680     7.2940     6.4470     6.1320    22.4760     2.1830  -999.2500 
  191.5000    86.6680     7.2940     6.4470     5.7480    22.1600     2.0600  -999.2500 
  191.6250    86.6680     7.2940     6.4470     4.9950    21.4700     1.9250  -999.2500 
  191.7500    86.6680     7.2940     6.4470     4.3870    20.6260     1.8120  -999.2500 
  191.8750    86.6680     7.2940     6.4470     4.1470    20.1740     1.7350  -999.2500 
  192.0000    86.6680     7.2940     6.4470     4.1040    20.0610     1.6950  -999.2500 
  192.1250    86.6680     7.2940     6.4470     4.1050    20.0610     1.6800  -999.2500 
  192.2500    86.6680     7.2940     6.4470     4.1050    20.0610     1.6740  -999.2500 
  192.3750    86.6680     7.2940     6.4470     4.1050    20.0610     1.6690  -999.2500 
  192.5000    86.6680     7.2940     6.4470     4.1050    20.0610     1.6690  -999.2500 
  192.6250    86.6680     7.2940     6.4470     4.1050    20.0610     1.6770  -999.2500 
  192.7500    86.6680     7.2940     6.4470     4.1050    20.0610  -999.2500  -999.2500 
  192.8750    86.6680     7.2940     6.4470     4.1060    20.0610  -999.2500  -999.2500 
