~V
VERS. 2.00: Ver 2.00
~W
STRT.M 50.0000:
STOP.M 215.0000:
STEP.M 0.1250:
NULL. -999.2500:
UWI. F10588:
~C
DEPT.M :
DEN.GM/CC :
GR.API :
RML.OHMM :
RI. :
RXO.OHMM :
CALI.CM :
SP.MV :
~A
# ...
  207.5000     2.2240    30.1320     5.7200     5.0650     5.5130    23.0850   -19.4220 
  207.6250     2.2530    30.1320     5.4660     4.8460     5.1510    23.0590   -19.3390 
  207.7500     2.2750    30.1320     5.2330     4.6270     4.9630    23.1100   -19.1920 
  207.8750     2.2810    30.1320     5.0530     4.4460     4.9100    23.1690   -19.0050 
  208.0000     2.2800    30.1320     4.9450     4.3280     4.9350    23.2130   -18.7920 
  208.1250     2.2840    30.1320     4.9310     4.2990     4.9030    23.2280   -18.6180 
  208.2500     2.2900    30.1320     4.9970     4.3410     4.8920    23.2290   -18.4840 
  208.3750     2.2890    30.1320     5.1270     4.4270     5.1580    23.2160   -18.3080 
  208.5000     2.2720    30.1320     5.2900     4.5250     5.8640    23.2010   -18.1140 
  208.6250     2.2470    30.1320     5.4350     4.5980     6.3950    23.1750   -17.8640 
  208.7500     2.2260    30.1320     5.5250     4.6430     5.7930    23.1270   -17.5770 
  208.8750     2.2200    30.1320     5.5540     4.6700     4.8850    23.0770   -17.3080 
  209.0000     2.2300    30.1320     5.5420     4.6900     4.4580    23.0470   -17.0880 
  209.1250     2.2520    30.1320     5.5170     4.7050     4.5700    23.0690   -16.9470 
  209.2500     2.2730    30.1320     5.4970     4.7110     4.9030    23.1040   -16.9070 
  209.3750     2.2940    30.1320     5.4880     4.7110     5.3520    23.0790   -16.9640 
  209.5000     2.3200    30.1320     5.4880     4.7100     5.9690    22.9460   -17.0810 
  209.6250     2.3530    30.1320     5.4980     4.7100     7.0340    22.9120   -17.2380 
  209.7500     2.3780    30.1320     5.5080     4.7120     8.7740    22.8940   -17.4350 
  209.8750     2.3830    30.1320     5.5130     4.7130    10.6120    23.0680   -17.6500 
  210.0000     2.3650    30.1320     5.5100     4.7140    10.3290    23.2470   -17.8620 
  210.1250     2.3400    30.1320     5.5010     4.7140     7.6750    23.3150   -18.0170 
  210.2500     2.3290    30.1320     5.4940     4.7120     6.2890    23.3190   -18.0780 
  210.3750     2.3350    30.1320     5.4940     4.7100     5.9390    23.3180   -18.0750 
  210.5000     2.3380    30.1320     5.5030     4.7070     6.1240    23.3180   -18.0440 
  210.6250     2.3170    30.1320     5.5170     4.7050     6.3890    23.3240   -18.0070 
  210.7500     2.2800    30.1320     5.5270     4.7050     6.5510    23.3360   -17.9550 
  210.8750     2.2500    30.1320     5.5300     4.7050     6.3930    23.3460   -17.8750 
  211.0000     2.2460    30.1320     5.5300     4.7050     5.5320    23.3250   -17.7260 
  211.1250     2.2660    30.1320     5.5300     4.7050     4.9290    23.3030   -17.5590 
  211.2500     2.2700    30.1320     5.5300     4.7050     4.6420    23.2800   -17.4200 
  211.3750     2.2380    30.1320     5.5300     4.7050     4.4930    23.2760   -17.3040 
  211.5000     2.1760    30.1320     5.5300     4.7050     4.3770    23.2830   -17.1570 
  211.6250     2.1170    30.1320     5.5300     4.7050     4.3230    23.3120   -17.0240 
  211.7500     2.0910    30.1320     5.5300     4.7050     4.3320    23.4090   -16.9250 
  211.8750     2.1070    30.1320     5.5300     4.7050     4.3520    23.5770   -16.8490 
  212.0000     2.1530    30.1320     5.5300     4.7050     4.4470    23.6340   -16.8270 
  212.1250     2.2050    30.1320     5.5300     4.7050     4.5720    23.4090   -16.8450 
  212.2500     2.2520    30.1320     5.5300     4.7050     4.7430    23.0320   -16.8110 
  212.3750     2.2850    30.1320     5.5300     4.7050     5.1560    22.7850   -16.7640 
  212.5000     2.2930    30.1320     5.5300     4.7050     5.9250    22.5910   -16.7590 
  212.6250     2.2660    30.1320     5.5300     4.7050     6.6160    22.4910   -16.7440 
  212.7500     2.2040    30.1320     5.5300     4.7050     6.6140    22.4250   -16.7100 
  212.8750     2.0950    30.1320     5.5300     4.7050     6.3680    22.3730   -16.6670 
  213.0000     1.9420    30.1320     5.5300     4.7050     5.8570    22.2410   -16.6240 
  213.1250     1.7740    30.1320     5.5300     4.7050     5.2940    21.7550   -16.5630 
  213.2500     1.6260    30.1320     5.5300     4.7050     4.9210    20.3820   -16.5750 
  213.3750     1.5110    30.1320     5.5300     4.7050     4.6930    17.5990   -16.5870 
  213.5000     1.4360    30.1320     5.5300     4.7050     4.5670    13.9100  -999.2500 
  213.6250     1.4030    30.1320     5.5300     4.7050     4.5280    12.1670  -999.2500 
  213.7500     1.3900    30.1320     5.5300     4.7050     4.5240    11.6740  -999.2500 
  213.8750     1.3850    30.1320     5.5300     4.7050     4.5220    11.6560  -999.2500 
  214.0000     1.3810    30.1320     5.5300     4.7050     4.5200    11.6550  -999.2500 
  214.1250     1.3770    30.1320     5.5300     4.7050     4.5210    11.6540  -999.2500 
  214.2500     1.3740    30.1320     5.5300     4.7050     4.5230    11.6530  -999.2500 
  214.3750     1.3750    30.1320     5.5300     4.7050     4.5230    11.6550  -999.2500 
  214.5000     1.3770    30.1320     5.5300     4.7050     4.5230    11.6560  -999.2500 
  214.6250     1.3800    30.1320     5.5300     4.7050     4.5230    11.6560  -999.2500 
  214.7500     1.3840    30.1320     5.5300     4.7050     4.5240    11.6560  -999.2500 
  214.8750     1.3870    30.1320     5.5300     4.7050     4.5250    11.6560  -999.2500 
  215.0000     1.3900    30.1320     5.5300     4.7050     4.5260    11.6560  -999.2500 
