~V
VERS. 2.00: Ver 2.00
~W
STRT.M 42.0000:
STOP.M 223.0000:
STEP.M 0.1250:
NULL. -999.2500:
UWI. F10538:
~C
DEPT.M :
DEN.GM/CC :
SP.MV :
GR.API :
RML.OHMM :
RI. :
RXO.OHMM :
CALI.CM :
~A
# ...
   64.5000     2.1570   -34.2640    75.9240     8.7390     8.2140     8.7880    24.5660 
   64.6250     2.1550   -34.4650    72.9690     8.5970     8.1420     8.7670    24.5660 
   64.7500     2.1540   -34.6130    68.8090     8.4480     8.0830     8.8150    24.5660 
   64.8750     2.1530   -34.6680    66.5150     8.3330     8.0550     8.9400    24.5660 
   65.0000     2.1530   -34.6900    67.8900     8.2610     8.0450     8.8970    24.5660 
   65.1250     2.1530   -34.6300    69.9920     8.2120     8.0220     8.8080    24.5660 
   65.2500     2.1560   -34.4750    69.9050     8.1370     7.9480     8.8170    24.5660 
   65.3750     2.1620   -34.2080    68.6020     7.9420     7.7620     8.8210    24.5660 
   65.5000     2.1720   -33.8010    72.3950     7.5770     7.4390     8.6560    24.5660 
   65.6250     2.1940   -33.2480    84.6580     7.0220     6.9670     8.1360    24.5640 
   65.7500     2.2340   -32.6640   101.2280     6.3340     6.3650     7.1030    24.5590 
   65.8750     2.2860   -32.0980   112.9810     5.6670     5.7190     6.1390    24.5550 
   66.0000     2.3210   -31.5570   114.7750     5.1690     5.1720     5.4440    24.5540 
   66.1250     2.3300   -31.0940   110.4270     4.9080     4.8160     5.3210    24.5560 
   66.2500     2.3290   -30.7000   110.0930     4.8810     4.6760     5.4830    24.5600 
   66.3750     2.3330   -30.3990   118.5790     5.0510     4.7260     5.4030    24.5640 
   66.5000     2.3420   -30.2350   125.3470     5.2960     4.8510     5.1200    24.5660 
   66.6250     2.3500   -30.2440   125.1340     5.5480     4.9980     4.9060    24.5660 
   66.7500     2.3570   -30.3730   122.0120     5.7700     5.1570     5.1100    24.5660 
   66.8750     2.3600   -30.6010   120.1750     5.9660     5.3490     5.3140    24.5660 
   67.0000     2.3570   -30.9110   116.5350     6.1510     5.5680     5.5510    24.5660 
   67.1250     2.3490   -31.2850   111.7020     6.3400     5.7950     5.6770    24.5650 
   67.2500     2.3380   -31.7240   108.3400     6.5560     6.0220     5.7620    24.5540 
   67.3750     2.3170   -32.2580   105.0610     6.8370     6.2670     5.8130    24.4720 
   67.5000     2.2840   -32.8320   103.4120     7.1910     6.5510     5.9710    24.3060 
   67.6250     2.2450   -33.4020   102.7830     7.6190     6.8900     6.5250    24.1440 
   67.7500     2.2050   -33.9530    97.9200     8.0890     7.2770     8.2140    24.0810 
   67.8750     2.1610   -34.4300    87.3800     8.4970     7.6500    10.1190    24.1050 
   68.0000     2.1210   -34.8030    81.3520     8.7280     7.9080     9.6380    24.1200 
   68.1250     2.0940   -35.0840    82.4540     8.6950     7.9650     8.4130    24.1240 
   68.2500     2.0860   -35.2310    83.7080     8.3990     7.7980     7.8990    24.1240 
   68.3750     2.0840   -35.2040    82.8680     7.9230     7.4360     8.1490    24.1240 
   68.5000     2.0800   -35.0610    85.8680     7.4250     6.9980     8.2880    24.1280 
   68.6250     2.0890   -34.8080    92.2590     6.9650     6.5410     7.6810    24.1550 
   68.7500     2.1240   -34.4760    97.3540     6.5660     6.1020     6.7750    24.2320 
   68.8750     2.1750   -34.0870    99.4020     6.2660     5.7240     6.2640    24.3470 
   69.0000     2.2150   -33.6650   101.4310     6.0680     5.4320     6.1180    24.4370 
   69.1250     2.2340   -33.2430   105.0720     5.9510     5.2260     5.8470    24.4800 
   69.2500     2.2470   -32.8550   109.8080     5.8760     5.0800     5.7440    24.4910 
   69.3750     2.2620   -32.5240   113.3810     5.8030     4.9670     5.7180    24.4910 
   69.5000     2.2810   -32.2790   112.6330     5.7330     4.8750     5.6440    24.4910 
   69.6250     2.3000   -32.1020   109.0730     5.6950     4.8250     5.5550    24.4910 
   69.7500     2.3110   -32.0020   107.4480     5.7160     4.8340     5.5230    24.4910 
   69.8750     2.3110   -32.0180   109.3140     5.8390     4.9210     5.4010    24.4800 
   70.0000     2.3030   -32.0850   111.6090     6.0830     5.0860     5.3750    24.4440 
   70.1250     2.2860   -32.1990   111.2830     6.4520     5.3370     5.9100    24.3860 
   70.2500     2.2580   -32.3700   108.5240     6.8780     5.6420     6.8160    24.3500 
   70.3750     2.2290   -32.5660   104.8030     7.1910     5.8960     6.9470    24.3400 
   70.5000     2.2110   -32.7680   101.6850     7.2820     6.0050     6.4410    24.3400 
   70.6250     2.2030   -32.9930   100.5580     7.1640     5.9510     6.2340    24.3400 
   70.7500     2.1990   -33.1840   102.2520     6.9550     5.8010     6.1580    24.3400 
   70.8750     2.2000   -33.3280   103.5270     6.8070     5.6660     6.3060    24.3400 
   71.0000     2.2050   -33.4600   102.4750     6.7570     5.5950     6.3400    24.3400 
   71.1250     2.2110   -33.5590   101.6850     6.7660     5.5680     6.4360    24.3400 
   71.2500     2.2170   -33.6620   101.9420     6.7780     5.5390     6.5160    24.3400 
   71.3750     2.2270   -33.7690   101.1700     6.7850     5.4930     6.3700    24.3400 
   71.5000     2.2420   -33.8830    99.3920     6.8380     5.4800     6.0640    24.3380 
   71.6250     2.2520   -33.9910    97.3870     6.9970     5.5650     6.0820    24.3220 
   71.7500     2.2460   -34.0730    94.4080     7.2940     5.7900     6.5360    24.2720 
   71.8750     2.2320   -34.0820    88.6220     7.6910     6.1420     6.8040    24.1510 
   72.0000     2.2220   -34.0220    83.0230     8.0430     6.4930     7.1200    24.0020 
   72.1250     2.2140   -33.8880    79.6590     8.2180     6.7230     7.5180    23.8840 
   72.2500     2.2050   -33.6540    79.9200     8.1350     6.7460     7.7500    23.8420 
   72.3750     2.1980   -33.3020    83.4690     7.7730     6.5230     7.2620    23.8670 
   72.5000     2.1980   -32.8150    88.0000     7.2520     6.1470     6.8780    23.9170 
   72.6250     2.2020   -32.2280    95.4720     6.6400     5.6710     6.5790    23.9560 
   72.7500     2.2100   -31.6110   107.4940     6.0000     5.1440     5.9930    24.0000 
   72.8750     2.2280   -31.0610   117.5180     5.4430     4.6440     5.2040    24.1110 
   73.0000     2.2590   -30.6020   120.0070     5.0600     4.2520     4.7360    24.2780 
   73.1250     2.2970   -30.2480   119.7510     4.9080     4.0280     4.5980    24.3770 
   73.2500     2.3290   -30.0500   123.8020     5.0210     4.0130     4.5320    24.3770 
   73.3750     2.3500   -30.0680   125.9930     5.4940     4.2850     4.8660    24.2720 
   73.5000     2.3630   -30.2830   117.5120     6.2930     4.8280     6.0590    24.1280 
   73.6250     2.3630   -30.6780   101.1850     7.3060     5.5950     8.5400    24.0020 
   73.7500     2.3360   -31.1820    88.8150     8.2550     6.4030    10.8160    23.9240 
   73.8750     2.2750   -31.6990    85.4610     8.6760     6.8870     8.7270    23.9160 
   74.0000     2.2170   -32.2110    84.6310     8.4950     6.8970     7.1640    23.9720 
   74.1250     2.1900   -32.6810    85.3190     7.9290     6.5410     6.7750    24.0900 
   74.2500     2.1910   -33.0820    91.4750     7.3240     6.0770     6.8350    24.1840 
   74.3750     2.2060   -33.4040   100.2220     6.9470     5.7370     6.5410    24.2700 
   74.5000     2.2240   -33.6560   102.2600     6.7900     5.5600     6.0950    24.3990 
   74.6250     2.2400   -33.8490    98.6040     6.8160     5.5230     6.0430    24.5400 
   74.7500     2.2440   -33.9990    97.3060     7.0100     5.6140     6.5660    24.6160 
   74.8750     2.2300   -34.1230   100.4530     7.3650     5.8290     6.7490    24.6320 
   75.0000     2.2150   -34.2290   101.4510     7.7470     6.0800     6.5720    24.6320 
   75.1250     2.2010   -34.3350    98.5360     8.0360     6.2850     6.6390    24.6320 
   75.2500     2.1830   -34.4220    94.0810     8.1620     6.3890     6.9560    24.6320 
   75.3750     2.1610   -34.4640    92.1190     8.1070     6.3840     7.1360    24.6320 
   75.5000     2.1450   -34.4420    91.5830     7.9610     6.3230     7.0370    24.6320 
   75.6250     2.1410   -34.3730    91.7670     7.7830     6.2420     6.8660    24.6320 
