~V
VERS. 2.00: Ver 2.00
~W
STRT.M 47.0000:
STOP.M 236.0000:
STEP.M 0.1250:
NULL. -999.2500:
UWI. F10597:
~C
DEPT.M :
SP.MV :
DEN.GM/CC :
GR.API :
RML.OHMM :
RI. :
RXO.OHMM :
CALI.CM :
~A
# ...
  125.7500   -15.4600     2.0710    78.0800    47.7480    41.6750    39.9680    23.6500 
  125.8750   -15.3200     2.0780    75.3150    47.6750    41.1400    37.9680    23.6500 
  126.0000   -15.1050     2.0810    74.8200    50.3860    42.8240    38.8050    23.6500 
  126.1250   -14.8380     2.0810    73.3810    55.5290    46.7000    43.9140    23.6500 
  126.2500   -14.5390     2.0820    69.1900    62.5400    52.5960    52.7470    23.6500 
  126.3750   -14.2520     2.0860    64.0160    69.9310    59.4700    62.9710    23.6500 
  126.5000   -14.0380     2.0930    59.7420    74.2530    64.5060    70.2850    23.6500 
  126.6250   -13.8610     2.1020    59.0340    73.0610    65.1470    72.9240    23.6500 
  126.7500   -13.7120     2.1120    64.9290    66.2960    60.7120    70.0790    23.6500 
  126.8750   -13.6110     2.1190    73.0640    56.4380    52.8570    61.8240    23.6500 
  127.0000   -13.5890     2.1220    76.3310    46.8250    44.4320    48.7810    23.6500 
  127.1250   -13.6170     2.1260    78.7100    39.3110    37.4850    37.7860    23.6500 
  127.2500   -13.6720     2.1330    81.6840    34.4250    32.6370    30.2840    23.6500 
  127.3750   -13.7210     2.1400    83.1510    32.2140    29.9570    26.6290    23.6500 
  127.5000   -13.6860     2.1370    82.3790    32.9480    29.6580    25.5800    23.6500 
  127.6250   -13.5960     2.1280    83.6370    35.8340    31.2090    27.0150    23.6500 
  127.7500   -13.4960     2.1200    84.7010    40.1090    34.2240    31.6390    23.6510 
  127.8750   -13.3910     2.1160    82.1350    44.4700    37.9040    36.0090    23.6530 
  128.0000   -13.2310     2.1190    80.9130    46.9880    40.8040    37.7320    23.6570 
  128.1250   -13.0340     2.1290    83.2070    47.0830    41.9760    38.7000    23.6590 
  128.2500   -12.8230     2.1460    84.6510    45.2140    41.3310    38.7330    23.6600 
  128.3750   -12.6040     2.1690    83.3940    42.4610    39.4760    37.1450    23.6700 
  128.5000   -12.4180     2.1930    82.1550    39.9800    37.3070    34.0530    23.7470 
  128.6250   -12.2410     2.2150    81.2940    38.3680    35.5530    31.6980    23.9000 
  128.7500   -12.0590     2.2370    77.3680    37.8710    34.5380    32.0020    24.0440 
  128.8750   -11.9140     2.2690    69.5720    38.4410    34.3980    36.1980    24.1070 
  129.0000   -11.8300     2.3130    63.1590    39.4890    34.9740    46.1790    24.1110 
  129.1250   -11.7860     2.3540    61.0280    39.8410    35.4770    47.0230    24.0980 
  129.2500   -11.7600     2.3890    59.8110    38.8930    35.3850    39.5920    24.0680 
  129.3750   -11.7370     2.4300    56.1240    36.8260    34.6680    37.8080    24.0450 
  129.5000   -11.7160     2.4790    51.3840    34.3920    33.7290    40.4100    24.0370 
  129.6250   -11.7130     2.5140    50.8060    32.2780    33.0000    37.1740    24.0370 
  129.7500   -11.7420     2.5230    54.0100    30.5700    32.5080    34.1140    24.0370 
  129.8750   -11.7920     2.5140    56.8810    29.0180    31.9470    35.5140    24.0370 
  130.0000   -11.8390     2.5030    56.9790    27.1850    30.6490    39.0790    24.0370 
  130.1250   -11.8500     2.5000    56.8260    24.7830    28.2790    40.5400    24.0370 
  130.2500   -11.8510     2.4970    59.0720    21.6560    24.7630    38.7580    24.0370 
  130.3750   -11.8960     2.4860    65.7060    17.8720    20.4210    32.8790    24.0370 
  130.5000   -11.9900     2.4570    77.1370    13.9090    16.0190    23.1130    24.0370 
  130.6250   -12.0970     2.4160    89.4460    10.4570    12.2970    14.2170    24.0370 
  130.7500   -12.1760     2.3720    99.0330     7.9010     9.5480     9.2560    24.0380 
  130.8750   -12.1830     2.3380   105.0490     6.3660     7.7920     7.0870    24.0390 
  131.0000   -12.1730     2.3280   109.0980     5.9860     7.0630     6.0110    24.0410 
  131.1250   -12.2470     2.3300   109.9460     6.5130     7.1140     6.1860    24.0390 
  131.2500   -12.3570     2.3300   104.5030     7.8650     7.9080     7.4780    24.0380 
  131.3750   -12.4330     2.3200    93.9210     9.9000     9.4190     9.3790    24.0510 
  131.5000   -12.4300     2.3060    88.8960    12.5110    11.6740    10.0930    24.1150 
  131.6250   -12.3750     2.3050    89.7160    15.6580    14.5450    10.7120    24.2250 
  131.7500   -12.3240     2.3230    86.9570    19.8280    18.3130    13.7460    24.3000 
  131.8750   -12.3290     2.3560    76.5510    25.6870    23.5480    20.4390    24.3010 
  132.0000   -12.3600     2.4040    66.5440    33.7060    31.0030    31.4080    24.2440 
  132.1250   -12.3470     2.4620    62.4690    42.1410    39.4340    43.0930    24.2040 
  132.2500   -12.3400     2.5170    61.6760    48.0470    46.0340    45.8670    24.1890 
  132.3750   -12.3780     2.5460    61.9290    48.8340    47.8080    40.7840    24.1790 
  132.5000   -12.4830     2.5360    64.1640    44.9460    44.5660    41.6540    24.1480 
  132.6250   -12.6680     2.5110    65.8030    40.5090    40.2990    43.9380    24.0900 
  132.7500   -12.8940     2.4840    64.5790    37.1000    36.7080    42.5330    24.0220 
  132.8750   -13.1160     2.4560    61.8480    34.6380    33.9420    35.9170    23.9810 
  133.0000   -13.3480     2.4270    62.6030    32.6490    31.6720    29.4510    23.9680 
  133.1250   -13.5890     2.4070    66.4500    31.0320    29.7580    27.9220    23.9700 
  133.2500   -13.8080     2.4020    69.7190    30.0480    28.4050    29.7440    23.9710 
  133.3750   -13.9890     2.4050    70.1390    29.7920    27.7520    28.1180    23.9710 
  133.5000   -14.0930     2.4020    69.0580    30.1390    27.7910    26.8530    23.9710 
  133.6250   -14.0840     2.3950    67.3250    30.7600    28.1980    27.2140    23.9750 
  133.7500   -13.9830     2.3930    65.4050    31.6360    28.8770    28.7780    23.9890 
  133.8750   -13.8370     2.4060    65.7940    32.9200    29.9040    27.9180    24.0210 
  134.0000   -13.6890     2.4370    67.6480    34.7420    31.4450    29.4950    24.0360 
  134.1250   -13.5680     2.4790    67.0140    36.6620    33.2360    33.3220    24.0430 
  134.2500   -13.4570     2.5160    62.8610    38.1760    34.8760    36.3320    24.0450 
  134.3750   -13.3420     2.5390    60.6970    38.9030    35.9870    38.5700    24.0470 
  134.5000   -13.3090     2.5490    64.1980    38.6200    36.2480    38.6430    24.0470 
  134.6250   -13.3940     2.5600    68.3960    37.7080    35.8590    37.2970    24.0430 
  134.7500   -13.5710     2.5710    70.6640    36.5960    35.1200    35.2690    24.0210 
  134.8750   -13.7820     2.5770    71.1870    35.7560    34.4190    34.4110    23.9660 
  135.0000   -13.9600     2.5690    70.5140    35.5510    34.0670    34.7120    23.8850 
  135.1250   -14.1170     2.5480    69.5620    35.8260    34.0310    34.3870    23.7840 
  135.2500   -14.2750     2.5200    69.3480    36.3750    34.2150    33.8670    23.6750 
  135.3750   -14.4470     2.4980    69.4800    36.9670    34.5200    33.0430    23.6150 
  135.5000   -14.5630     2.4930    69.1280    37.5110    34.9080    35.6610    23.6030 
  135.6250   -14.5510     2.4970    68.9990    38.0900    35.3960    36.5950    23.6030 
  135.7500   -14.4560     2.5060    68.4110    38.6840    35.9670    35.4170    23.6030 
  135.8750   -14.3550     2.5140    66.1670    39.0230    36.4420    33.6330    23.6030 
  136.0000   -14.2790     2.5090    65.2360    38.6860    36.5160    33.0480    23.6210 
  136.1250   -14.1970     2.4850    66.1770    37.8720    36.2640    34.7490    23.6890 
  136.2500   -14.0960     2.4480    65.1410    37.0140    35.9240    37.2050    23.8150 
  136.3750   -13.9650     2.4120    60.7040    36.5930    35.7580    38.8760    23.9260 
  136.5000   -13.8260     2.3970    58.2060    36.9850    35.9710    44.4810    23.9650 
  136.6250   -13.7180     2.4100    60.7520    37.8900    36.4610    46.4990    23.9710 
  136.7500   -13.6090     2.4430    63.0410    38.9540    37.0660    41.7600    23.9710 
  136.8750   -13.4770     2.4810    62.6990    39.9360    37.6510    38.9210    23.9710 
