~V
VERS. 2.00: Ver 2.00
~W
STRT.M 59.0000:
STOP.M 201.0000:
STEP.M 0.1250:
NULL. -999.2500:
UWI. F10560:
~C
DEPT.M :
DEN.GM/CC :
SP.MV :
GR.API :
RML.OHMM :
RI. :
RXO.OHMM :
CALI.CM :
~A
# ...
  160.2500     2.3310   -36.9830    74.7260    32.7730    32.7540    56.8980    24.3830 
  160.3750     2.3270   -37.1940    73.1180    36.3470    36.4680    53.9180    24.3480 
  160.5000     2.3230   -37.4120    73.3510    40.5390    40.7230    55.1690    24.3370 
  160.6250     2.3150   -37.6450    73.7700    45.2960    45.4120    56.0120    24.3370 
  160.7500     2.3010   -37.8730    73.3270    50.5080    50.4840    66.2020    24.3370 
  160.8750     2.2860   -38.0740    72.6120    56.5060    56.2870    75.6980    24.3170 
  161.0000     2.2750   -38.2560    71.7870    63.6810    63.1730    79.9570    24.2490 
  161.1250     2.2670   -38.4270    70.9160    72.0720    71.1170    81.0220    24.0970 
  161.2500     2.2600   -38.5380    69.5550    80.5310    78.9900    90.7040    23.9850 
  161.3750     2.2540   -38.5980    67.8270    87.6690    85.3770   101.7250    23.9370 
  161.5000     2.2500   -38.6550    67.2560    92.0250    88.8060    99.2610    23.9110 
  161.6250     2.2470   -38.7020    67.2880    92.1190    87.9530    81.4530    23.8570 
  161.7500     2.2440   -38.6830    66.8250    89.1520    84.3550    68.7890    23.8190 
  161.8750     2.2450   -38.6410    67.6170    84.6730    79.7630    69.0460    23.8790 
  162.0000     2.2500   -38.6260    70.4540    80.4110    75.8650    73.8940    24.0550 
  162.1250     2.2550   -38.6020    71.6700    78.1500    74.2220    72.3110    24.1610 
  162.2500     2.2550   -38.5880    69.6280    78.3350    74.9580    71.5220    24.1960 
  162.3750     2.2520   -38.5770    67.1420    80.9460    77.8660    77.0040    24.1890 
  162.5000     2.2470   -38.5790    67.0070    85.4750    82.3130    83.8290    24.1620 
  162.6250     2.2400   -38.5830    68.4240    90.9890    87.1620    92.8680    24.1110 
  162.7500     2.2350   -38.5870    70.4090    96.0340    90.9830    96.5870    24.0720 
  162.8750     2.2330   -38.5760    72.6230    99.7790    93.1220    96.2040    24.0580 
  163.0000     2.2340   -38.5210    73.4710   102.2200    94.0010    99.6480    24.0560 
  163.1250     2.2400   -38.4330    71.9130   104.1210    94.9480   102.9280    24.0550 
  163.2500     2.2580   -38.2960    69.1450   106.0750    96.6160   100.2150    24.0540 
  163.3750     2.2860   -38.1410    66.9450   106.9040    97.5960    96.5420    24.0590 
  163.5000     2.3120   -37.9610    65.8350   103.1720    93.9980   110.7290    24.0750 
  163.6250     2.3280   -37.7340    64.4350    89.1220    79.8300   117.4890    24.1020 
  163.7500     2.3460   -37.4890    63.6480    67.5700    58.7900   100.7730    24.0990 
  163.8750     2.3780   -37.2580    67.2640    45.3540    38.2830    60.6450    24.0550 
  164.0000     2.4150   -37.0720    75.9530    28.1050    23.2120    30.9120    23.9880 
  164.1250     2.4300   -36.9260    84.7400    17.8930    14.7700    18.7410    23.8830 
  164.2500     2.4170   -36.8320    89.6920    11.9940    10.1640    14.0030    23.7280 
  164.3750     2.3950   -36.7700    93.1440     8.7650     7.8690    11.4550    23.5440 
  164.5000     2.3890   -36.7080    98.1620     7.1060     6.8690     9.4030    23.3920 
  164.6250     2.4060   -36.6110   100.9640     6.6410     6.2980     7.7990    23.2530 
  164.7500     2.4310   -36.4890    98.7290     6.7180     6.1580     7.0370    23.0460 
  164.8750     2.4490   -36.2940    94.3780     6.8770     6.2170     6.9790    22.8960 
  165.0000     2.4500   -35.9650    90.9840     6.9660     6.2900     7.5330    22.9480 
  165.1250     2.4210   -35.4700    87.9670     6.9090     6.2640     8.7610    23.3010 
  165.2500     2.3760   -34.9170    84.5830     6.7570     6.1490     9.4890    23.7700 
  165.3750     2.3320   -34.3130    83.0450     6.5720     5.9890     9.0590    24.1230 
  165.5000     2.2990   -33.6480    82.5570     6.4210     5.8410     7.7860    24.2580 
  165.6250     2.2830   -32.9790    79.2910     6.3510     5.7580     7.2030    24.2650 
  165.7500     2.2790   -32.3370    76.2000     6.3450     5.7310     7.3650    24.2650 
  165.8750     2.2810   -31.7090    77.5580     6.3750     5.7280     7.8510    24.2650 
  166.0000     2.2870   -31.0990    83.6770     6.4100     5.6990     8.2580    24.2650 
  166.1250     2.2940   -30.5620    89.5560     6.4250     5.5910     7.3190    24.2650 
  166.2500     2.3040   -30.0650    88.6750     6.4050     5.4180     6.2780    24.2650 
  166.3750     2.3180   -29.6050    80.4590     6.3510     5.2180     5.9570    24.2650 
  166.5000     2.3320   -29.1910    70.7610     6.2800     5.0310     5.9700    24.2650 
  166.6250     2.3410   -28.8100    66.1410     6.2250     4.8910     5.9550    24.2650 
  166.7500     2.3460   -28.4500    64.7900     6.2130     4.7900     5.7290    24.2650 
  166.8750     2.3530   -28.1410    64.3490     6.2490     4.7100     5.3620    24.2650 
  167.0000     2.3670   -27.9050    63.6820     6.3120     4.6330     5.0850    24.2650 
  167.1250     2.3810   -27.7210    62.4450     6.3550     4.5530     5.0370    24.2650 
  167.2500     2.3820   -27.5920    60.9300     6.3440     4.4750     5.0140    24.2650 
  167.3750     2.3670   -27.4990    60.1000     6.2740     4.4060     4.9850    24.2650 
  167.5000     2.3530   -27.4430    59.3510     6.1640     4.3470     4.9020    24.2650 
  167.6250     2.3550   -27.4830    58.0870     6.0390     4.3000     4.7730    24.2650 
  167.7500     2.3660   -27.5940    57.2800     5.9380     4.2670     4.6440    24.2650 
  167.8750     2.3750   -27.7450    56.3820     5.8860     4.2530     4.5620    24.2650 
  168.0000     2.3750   -27.9030    55.2780     5.8990     4.2610     4.5920    24.2650 
  168.1250     2.3670   -28.0740    55.9300     5.9810     4.2890     4.8610    24.2650 
  168.2500     2.3550   -28.1750    57.4040     6.0770     4.3190     5.2060    24.2650 
  168.3750     2.3420   -28.1990    58.5900     6.1320     4.3370     5.2970    24.2650 
  168.5000     2.3340   -28.1550    59.5850     6.1180     4.3340     5.0620    24.2650 
  168.6250     2.3310   -28.0260    60.2020     6.0470     4.3090     4.8240    24.2650 
  168.7500     2.3310   -27.8690    59.3390     5.9910     4.2680     4.7030    24.2650 
  168.8750     2.3340   -27.6850    57.0090     5.9920     4.2220     4.7550    24.2650 
  169.0000     2.3380   -27.4860    54.3200     6.0590     4.1830     4.9520    24.2650 
  169.1250     2.3420   -27.2940    53.7490     6.1720     4.1680     5.0790    24.2650 
  169.2500     2.3430   -27.1630    55.6490     6.2810     4.1850     5.1310    24.2650 
  169.3750     2.3410   -27.0880    59.0180     6.3580     4.2350     5.2290    24.2610 
  169.5000     2.3420   -27.0550    61.5940     6.4020     4.3170     5.5330    24.2500 
  169.6250     2.3510   -27.0640    60.2410     6.4750     4.4540     5.9180    24.2260 
  169.7500     2.3640   -27.0590    58.3350     6.6650     4.6750     6.2690    24.2100 
  169.8750     2.3790   -27.0710    58.9990     7.0130     5.0070     6.6780    24.1970 
  170.0000     2.3990   -27.1300    60.4880     7.4920     5.4460     7.7050    24.1920 
  170.1250     2.4370   -27.1670    57.4410     7.9720     5.9130     9.7530    24.1920 
  170.2500     2.4760   -27.1310    52.6440     8.2540     6.2600    11.2090    24.1920 
  170.3750     2.4760   -27.0630    50.2720     8.2120     6.3650     9.5170    24.1920 
  170.5000     2.4270   -26.9850    50.0100     7.8690     6.1950     7.1130    24.1830 
  170.6250     2.3700   -26.8790    51.1430     7.3840     5.8190     6.1700    24.1600 
  170.7500     2.3440   -26.7550    54.8170     6.9660     5.4130     6.0090    24.1330 
  170.8750     2.3480   -26.6390    58.4260     6.6880     5.0660     5.9540    24.1210 
  171.0000     2.3650   -26.5420    59.3880     6.5470     4.8190     5.7880    24.1200 
  171.1250     2.3780   -26.5090    58.2840     6.4930     4.6810     5.5870    24.1200 
  171.2500     2.3810   -26.5640    56.4620     6.4690     4.6080     5.4130    24.1200 
  171.3750     2.3780   -26.7020    55.6200     6.4740     4.5840     5.2860    24.1200 
