~V
VERS. 2.00: Ver 2.00
~W
STRT.M 58.0000:
STOP.M 193.0000:
STEP.M 0.1250:
NULL. -999.2500:
UWI. F10563:
~C
DEPT.M :
GR.API :
RML.OHMM :
RI. :
RXO.OHMM :
CALI.CM :
DEN.GM/CC :
SP.MV :
~A
# ...
   80.5000    95.6850     9.4030     7.3000     7.1710    23.7120     2.2390   -12.0060 
   80.6250    86.4180    10.4810     8.0570     7.8720    23.7590     2.2900   -11.7640 
   80.7500    80.0900    11.5010     8.8440     9.4800    23.8850     2.3610   -11.4780 
   80.8750    80.9600    12.0610     9.3960    13.1300    24.0700     2.4220   -11.2460 
   81.0000    85.5450    11.8650     9.4750    15.8350    24.3120     2.4460   -11.0660 
   81.1250    89.9890    10.9250     8.9850    13.4080    24.4620     2.4220   -10.7700 
   81.2500    94.5530     9.8670     8.2820     8.5090    24.5170     2.3800   -10.3760 
   81.3750    97.5490     9.1780     7.6980     6.6580    24.5260     2.3450    -9.9910 
   81.5000    96.5810     9.1580     7.5000     6.8360    24.5260     2.3290    -9.6860 
   81.6250    90.3940    10.0260     7.9360     8.1420    24.5110     2.3210    -9.4510 
   81.7500    83.7300    11.5390     8.9250    10.2420    24.4360     2.3040    -9.2440 
   81.8750    78.6640    13.4240    10.3360    11.5360    24.2740     2.2720    -8.9720 
   82.0000    76.4520    15.2890    11.9180    11.6100    24.1320     2.2360    -8.6490 
   82.1250    76.5760    16.6550    13.3010    12.1510    24.0630     2.2110    -8.4260 
   82.2500    76.1020    17.4260    14.2700    13.3930    24.0460     2.1990    -8.2950 
   82.3750    76.2600    17.7100    14.7880    14.7340    24.0420     2.1960    -8.1770 
   82.5000    78.3810    17.7470    14.9680    13.8390    24.0410     2.2020    -8.0810 
   82.6250    80.9060    17.8300    15.0210    13.3030    24.0420     2.2190    -8.0060 
   82.7500    80.2650    18.1850    15.2120    12.8220    24.0440     2.2430    -7.8800 
   82.8750    76.1740    18.9540    15.7150    12.9230    24.0460     2.2670    -7.6660 
   83.0000    71.3320    20.1730    16.5990    14.0340    24.0450     2.2780    -7.3790 
   83.1250    67.9920    21.6820    17.7660    14.8510    24.0440     2.2680    -7.1560 
   83.2500    66.4370    22.9940    18.8230    16.4030    24.0540     2.2440    -7.0070 
   83.3750    66.9950    23.6940    19.4330    17.4020    24.0950     2.2140    -6.8850 
   83.5000    69.0900    23.6430    19.4540    17.4830    24.1680     2.1870    -6.7380 
   83.6250    71.5190    23.1350    19.0620    16.8530    24.2510     2.1710    -6.5730 
   83.7500    73.1890    22.8920    18.8140    15.4330    24.2550     2.1660    -6.4480 
   83.8750    73.0200    23.4170    19.1480    14.3070    24.2040     2.1710    -6.3960 
   84.0000    69.2350    24.9520    20.3340    15.2870    24.1670     2.1810    -6.3720 
   84.1250    63.1390    27.5010    22.5020    19.0580    24.1840     2.1930    -6.2360 
   84.2500    59.8900    30.3610    25.1460    23.2150    24.2600     2.2020    -6.0030 
   84.3750    60.8170    32.8150    27.7120    26.6960    24.4120     2.2060    -5.7650 
   84.5000    62.2210    34.2420    29.6380    28.6720    24.6380     2.2040    -5.5970 
   84.6250    60.6530    34.2420    30.4320    29.6940    24.9160     2.1960    -5.5600 
   84.7500    58.5020    33.3590    30.3470    29.5720    25.2120     2.1820    -5.6090 
   84.8750    58.9210    32.0560    29.6860    29.7360    25.4730     2.1610    -5.7040 
   85.0000    61.9570    30.6480    28.7130    29.3770    25.7130     2.1370    -5.8530 
   85.1250    63.9120    29.1270    27.4610    27.9300    25.8260     2.1160    -6.0560 
   85.2500    62.8310    27.1910    25.7750    25.3960    25.8080     2.1040    -6.2900 
   85.3750    61.2320    24.4970    23.3980    21.4450    25.6820     2.1040    -6.5280 
   85.5000    63.0350    20.9770    20.2570    18.0570    25.5410     2.1170    -6.7080 
   85.6250    71.0990    17.0170    16.6370    14.7210    25.3460     2.1430    -6.8040 
   85.7500    82.1340    13.3870    13.2160    11.1070    25.0660     2.1760    -6.8970 
   85.8750    91.1970    10.5580    10.4340     7.8030    24.7440     2.2130    -7.0500 
   86.0000    94.5720     8.7220     8.4900     6.0130    24.4380     2.2480    -7.2750 
   86.1250    92.5940     8.0220     7.5320     5.8440    24.1880     2.2720    -7.5040 
   86.2500    90.8480     8.2140     7.3630     6.2550    24.0120     2.2810    -7.6570 
   86.3750    89.1980     9.2360     7.9570     7.0090    23.9310     2.2740    -7.7090 
   86.5000    84.2310    11.0020     9.2810     8.1390    23.9240     2.2520    -7.7330 
   86.6250    77.0740    13.3400    11.2600    10.1080    24.0400     2.2220    -7.7730 
   86.7500    72.6850    15.6650    13.3930    12.2190    24.2610     2.1960    -7.8220 
   86.8750    72.2470    17.4120    15.1610    13.7850    24.4540     2.1790    -7.8480 
   87.0000    72.5370    18.1690    16.1170    14.2860    24.5550     2.1720    -7.8000 
   87.1250    71.3130    17.7980    16.0020    13.7520    24.5430     2.1730    -7.7210 
   87.2500    70.8730    16.9150    15.2890    12.5470    24.4500     2.1750    -7.6930 
   87.3750    71.5300    15.9930    14.3880    11.2530    24.3050     2.1760    -7.7210 
   87.5000    71.7330    15.3400    13.6090    10.3150    24.1650     2.1760    -7.7150 
   87.6250    71.0100    15.1210    13.1320     9.9340    24.1700     2.1760    -7.6350 
   87.7500    70.8110    15.2070    12.8980    10.0090    24.2970     2.1750    -7.4950 
   87.8750    71.2070    15.4800    12.8400    10.1220    24.4400     2.1740    -7.3500 
   88.0000    70.7490    15.8220    12.8950    10.4730    24.4830     2.1710    -7.2690 
   88.1250    70.4520    16.1580    13.0370    11.8060    24.4440     2.1670    -7.2680 
   88.2500    71.7330    16.4860    13.2570    13.3770    24.3710     2.1630    -7.3240 
   88.3750    73.4130    16.8490    13.5690    13.3320    24.2690     2.1600    -7.3810 
   88.5000    73.4110    17.2920    13.9860    12.7460    24.1380     2.1600    -7.4280 
   88.6250    70.5430    17.8410    14.5060    12.6310    24.0370     2.1590    -7.4680 
   88.7500    66.0860    18.4480    15.0730    13.2120    24.0180     2.1560    -7.4710 
   88.8750    62.6710    19.0900    15.6600    13.4920    24.0850     2.1510    -7.4140 
   89.0000    63.1510    19.7940    16.2820    13.3450    24.2340     2.1460    -7.2880 
   89.1250    65.4140    20.5940    16.9820    13.1890    24.3590     2.1480    -7.1690 
   89.2500    64.6790    21.3170    17.6570    13.3700    24.4120     2.1600    -7.0770 
   89.3750    62.1430    21.5650    18.0260    13.7120    24.3860     2.1780    -7.0770 
   89.5000    63.0680    20.8570    17.6970    14.5940    24.2850     2.1960    -7.2200 
   89.6250    67.6580    18.8130    16.2680    16.3230    24.2300     2.2120    -7.4570 
   89.7500    72.8090    16.0530    14.1270    16.5870    24.2070     2.2270    -7.7270 
   89.8750    80.5740    13.2560    11.7880    12.2800    24.1750     2.2410    -7.9740 
   90.0000    90.1480    10.9760     9.7370     7.7680    24.0990     2.2510    -8.1600 
   90.1250    95.5650     9.5700     8.3440     6.6690    24.0230     2.2510    -8.3100 
   90.2500    95.5690     8.8420     7.5260     6.4970    23.9910     2.2470    -8.4530 
   90.3750    92.4230     8.6080     7.1700     6.7590    23.9790     2.2480    -8.6010 
   90.5000    88.4710     8.6670     7.1300     6.6960    23.9590     2.2600    -8.7220 
   90.6250    85.2320     8.8310     7.2610     6.6670    23.9190     2.2820    -8.8040 
   90.7500    85.6520     8.9570     7.4050     6.7160    23.8910     2.3010    -8.8840 
   90.8750    90.0810     9.0110     7.5020     6.8110    23.8810     2.3070    -8.9770 
   91.0000    96.4010     9.0040     7.5400     6.9510    23.8750     2.2980    -9.1060 
   91.1250   100.1850     8.9540     7.5340     6.9970    23.8510     2.2810    -9.2160 
   91.2500   100.1470     8.8690     7.4950     6.9230    23.8130     2.2680    -9.2440 
   91.3750    99.1000     8.7390     7.4090     6.8410    23.7850     2.2630    -9.1520 
   91.5000    98.3280     8.5590     7.2590     6.7620    23.7750     2.2680    -8.9540 
   91.6250    98.0620     8.3630     7.0560     6.7320    23.7700     2.2790    -8.7770 
