~V
VERS. 2.00: Ver 2.00
~W
STRT.M 50.0000:
STOP.M 236.0000:
STEP.M 0.1250:
NULL. -999.2500:
UWI. F10596:
~C
DEPT.M :
DEN.GM/CC :
SP.MV :
GR.API :
RML.OHMM :
RI. :
RXO.OHMM :
CALI.CM :
~A
# ...
  128.7500     2.1300   -14.4140    78.1750    33.7010    35.0050    37.6980    24.6730 
  128.8750     2.1670   -14.3060    72.9010    31.2890    33.0500    35.0040    24.6470 
  129.0000     2.2270   -14.2010    68.2430    29.2920    31.5130    32.9830    24.6550 
  129.1250     2.2940   -14.1070    63.6350    28.2310    30.7360    31.2760    24.6810 
  129.2500     2.3380   -14.0160    57.5940    28.2660    30.8800    32.3910    24.7040 
  129.3750     2.3510   -13.9100    53.2100    29.3430    32.0220    37.2770    24.7030 
  129.5000     2.3520   -13.7930    53.7590    30.9420    33.8260    43.5060    24.6790 
  129.6250     2.3580   -13.6870    57.4180    31.6810    35.0180    46.4760    24.6540 
  129.7500     2.3680   -13.5980    58.6510    30.2440    34.0130    45.8020    24.6420 
  129.8750     2.3710   -13.5010    58.8900    26.2620    30.1340    42.5870    24.6310 
  130.0000     2.3580   -13.4040    62.9760    20.7370    24.3370    37.6530    24.6070 
  130.1250     2.3310   -13.3230    73.6130    15.5470    18.6560    26.1370    24.5800 
  130.2500     2.3060   -13.2510    84.9270    11.8260    14.3650    16.6120    24.5680 
  130.3750     2.2960   -13.1940    93.2430     9.8210    11.7070    12.2870    24.5660 
  130.5000     2.3110   -13.1420    98.3010     9.5280    10.6300    11.8020    24.5660 
  130.6250     2.3560   -13.1040    99.0910    11.4920    11.6330    13.2490    24.5660 
  130.7500     2.4160   -13.0750    92.9630    15.8450    15.0910    19.2450    24.5660 
  130.8750     2.4700   -13.0790    81.5320    22.8080    21.6600    30.9690    24.5660 
  131.0000     2.4960   -13.0940    71.4860    31.6720    31.1750    40.1270    24.5660 
  131.1250     2.4920   -13.1360    66.2260    38.8090    40.4330    42.5520    24.5660 
  131.2500     2.4750   -13.1980    62.4230    40.1450    44.1240    43.2320    24.5660 
  131.3750     2.4480   -13.2840    60.3850    35.8170    40.9630    40.1390    24.5660 
  131.5000     2.4190   -13.4000    61.5770    29.5450    34.4420    36.5700    24.5660 
  131.6250     2.4030   -13.5480    65.4680    24.5980    28.6580    33.4800    24.5660 
  131.7500     2.4040   -13.7060    69.3580    21.3370    24.6000    26.5030    24.5660 
  131.8750     2.4190   -13.8720    72.9270    19.7840    22.1820    20.7550    24.5600 
  132.0000     2.4510   -14.0360    75.2030    20.2270    21.5660    22.4760    24.5430 
  132.1250     2.4950   -14.1840    73.0680    23.0330    23.2690    32.2810    24.5090 
  132.2500     2.5220   -14.3290    67.7900    27.1240    26.5920    37.8570    24.4940 
  132.3750     2.5160   -14.4560    63.0440    31.0420    30.4050    34.5660    24.4900 
  132.5000     2.4900   -14.5490    62.1430    33.0820    32.9990    31.7970    24.4900 
  132.6250     2.4670   -14.5880    64.1200    32.2630    32.9180    30.9600    24.4900 
  132.7500     2.4530   -14.5740    65.1730    30.3810    31.4480    27.6970    24.4900 
  132.8750     2.4470   -14.5240    63.9700    28.9450    30.0390    25.8690    24.4900 
  133.0000     2.4500   -14.4470    62.6430    28.5680    29.4520    27.8440    24.4900 
  133.1250     2.4650   -14.3350    63.2480    29.2040    29.7920    31.7920    24.4900 
  133.2500     2.4810   -14.2000    63.3670    30.3790    30.6780    32.9870    24.4900 
  133.3750     2.4970   -14.0640    62.6460    31.9070    31.9430    30.7920    24.4900 
  133.5000     2.5140   -13.9410    62.2390    33.6710    33.4650    31.1990    24.4900 
  133.6250     2.5340   -13.8360    61.9780    35.6060    35.1900    36.4670    24.4850 
  133.7500     2.5510   -13.7670    60.6120    37.5860    37.0490    41.7740    24.4460 
  133.8750     2.5540   -13.7170    58.7170    39.3060    38.8220    44.1390    24.3330 
  134.0000     2.5350   -13.6980    59.1890    40.2500    40.0170    41.2070    24.1660 
  134.1250     2.5060   -13.7220    62.6870    39.9760    40.0650    36.6840    24.0320 
  134.2500     2.4880   -13.7810    65.0110    39.1500    39.4040    36.6120    23.9850 
  134.3750     2.4860   -13.8480    63.7770    38.4970    38.6970    37.4460    23.9890 
  134.5000     2.4880   -13.9240    59.5600    38.4010    38.4340    38.3720    24.0440 
  134.6250     2.4890   -14.0190    59.4500    38.8010    38.7490    38.7120    24.2200 
  134.7500     2.4920   -14.1230    64.7220    39.2040    39.2220    40.7040    24.4530 
  134.8750     2.4950   -14.2320    69.6970    39.2190    39.4390    42.5800    24.6350 
  135.0000     2.4880   -14.3470    69.6490    38.6720    39.1300    42.1300    24.7080 
  135.1250     2.4660   -14.4510    66.9370    37.7160    38.2950    40.0520    24.7120 
  135.2500     2.4390   -14.5330    66.1510    36.8290    37.3940    37.9830    24.7120 
  135.3750     2.4170   -14.6070    65.4970    36.3570    36.8300    37.0340    24.7130 
  135.5000     2.4010   -14.6650    62.8800    36.4570    36.8490    38.3210    24.7120 
  135.6250     2.4000   -14.7080    60.2010    37.0160    37.4250    40.3460    24.7140 
  135.7500     2.4120   -14.7260    60.6980    37.5180    38.0440    41.2400    24.7120 
  135.8750     2.4300   -14.7170    64.3320    37.5840    38.2850    42.3290    24.7090 
  136.0000     2.4450   -14.6660    66.9290    37.0970    37.9620    43.5010    24.7070 
  136.1250     2.4560   -14.5640    65.5030    36.2090    37.1660    40.1670    24.7090 
  136.2500     2.4660   -14.4370    63.3750    35.3380    36.3220    36.9740    24.7180 
  136.3750     2.4720   -14.3060    63.3570    34.7510    35.7180    36.0760    24.7430 
  136.5000     2.4730   -14.1850    63.9180    34.5520    35.4960    36.9910    24.7700 
  136.6250     2.4700   -14.0660    62.8170    34.7450    35.6920    37.8650    24.7810 
  136.7500     2.4700   -13.9560    62.4130    35.1770    36.1490    38.7510    24.7830 
  136.8750     2.4730   -13.8650    63.1680    35.7820    36.7780    39.6730    24.7820 
  137.0000     2.4800   -13.8010    61.6110    36.5420    37.5100    39.9080    24.7690 
  137.1250     2.4900   -13.7860    56.8860    37.4360    38.3080    40.1600    24.7270 
  137.2500     2.4980   -13.8010    54.7600    38.2530    39.0800    43.1830    24.6670 
  137.3750     2.4980   -13.8210    57.7890    38.7040    39.6380    46.0210    24.6210 
  137.5000     2.4920   -13.8510    62.0820    38.5320    39.7140    46.4970    24.5850 
  137.6250     2.4840   -13.8770    63.6370    37.5680    38.9870    44.0330    24.5700 
  137.7500     2.4740   -13.9060    64.8460    36.1740    37.6840    39.5020    24.5660 
  137.8750     2.4660   -13.9310    67.3560    34.8280    36.2740    34.8100    24.5660 
  138.0000     2.4620   -13.9550    68.8580    34.0990    35.3820    33.3610    24.5660 
  138.1250     2.4670   -13.9720    67.0600    34.6180    35.7140    34.5780    24.5610 
  138.2500     2.4780   -13.9890    64.6620    36.3020    37.2060    37.2270    24.5450 
  138.3750     2.4920   -14.0060    63.8610    38.8500    39.5570    41.5210    24.5160 
  138.5000     2.5060   -14.0110    64.5600    41.5610    42.1520    46.2810    24.4930 
  138.6250     2.5170   -14.0130    65.4130    43.2160    43.9630    49.2500    24.4780 
  138.7500     2.5230   -14.0210    65.5100    43.2120    44.3800    47.2250    24.4690 
  138.8750     2.5230   -14.0240    65.8530    41.6470    43.3180    42.4580    24.4740 
  139.0000     2.5140   -14.0120    66.8450    39.3310    41.3230    39.5600    24.4850 
  139.1250     2.4970   -13.9710    67.6170    37.5530    39.4940    40.0060    24.4890 
  139.2500     2.4830   -13.9120    67.6580    37.0160    38.6720    42.0540    24.4890 
  139.3750     2.4790   -13.8530    67.6820    37.7650    39.0840    43.5260    24.4740 
  139.5000     2.4890   -13.7930    67.6800    39.3740    40.4760    44.4130    24.4340 
  139.6250     2.5100   -13.7570    67.6620    41.1100    42.2440    46.7910    24.3720 
  139.7500     2.5300   -13.7210    67.2750    42.3440    43.7090    49.9790    24.3450 
  139.8750     2.5390   -13.6980    65.2220    42.8350    44.5640    54.2910    24.3390 
