~V
VERS. 2.00: Ver 2.00
~W
STRT.M 50.0000:
STOP.M 191.0000:
STEP.M 0.1250:
NULL. -999.2500:
UWI. F10562:
~C
DEPT.M :
DEN.GM/CC :
SP.MV :
GR.API :
RML.OHMM :
RI. :
RXO.OHMM :
CALI.CM :
~A
# ...
   83.7500     2.1740   -23.7550    80.6630    15.3240    11.5900    11.3350    23.4340 
   83.8750     2.1610   -23.5730    76.0760    18.8050    14.4400    11.7520    23.7820 
   84.0000     2.1550   -23.3700    71.8400    21.1300    16.6740    12.2780    24.2440 
   84.1250     2.1460   -23.1290    70.2790    21.4690    17.5110    12.8310    24.5220 
   84.2500     2.1390   -22.9060    69.9150    20.6860    17.4070    14.0870    24.5470 
   84.3750     2.1360   -22.6970    69.3410    19.4800    16.8350    16.0150    24.3790 
   84.5000     2.1390   -22.5280    69.5140    18.0710    15.9500    16.2670    24.0680 
   84.6250     2.1490   -22.3860    72.3780    16.2840    14.6120    13.1520    23.6350 
   84.7500     2.1640   -22.2660    76.1680    14.2890    13.0110    10.3690    23.4290 
   84.8750     2.1790   -22.1500    77.1210    12.4690    11.4740     9.0500    23.5110 
   85.0000     2.1900   -21.9910    75.0940    11.2090    10.2860     8.5060    23.8440 
   85.1250     2.1950   -21.7270    74.8950    10.9240     9.7110     7.7850    24.2600 
   85.2500     2.1940   -21.3350    77.1990    11.6110     9.7600     7.4690    24.4770 
   85.3750     2.1850   -20.8050    78.3160    13.3740    10.5540     7.8740    24.5490 
   85.5000     2.1710   -20.1600    76.0160    16.2990    12.2710     9.4730    24.5830 
   85.6250     2.1560   -19.4150    73.9170    20.3760    15.2330    12.7480    24.7010 
   85.7500     2.1420   -18.6580    74.2090    24.7080    18.9980    16.7100    24.8570 
   85.8750     2.1290   -17.9150    72.9190    28.1230    22.6670    18.5690    24.9090 
   86.0000     2.1190   -17.2120    68.2410    29.5420    25.0010    18.5120    24.8790 
   86.1250     2.1150   -16.6080    64.2030    28.6840    25.1220    18.9560    24.8380 
   86.2500     2.1150   -16.1100    63.3660    27.0160    24.0670    19.2740    24.8330 
   86.3750     2.1170   -15.7500    63.7400    25.4230    22.7290    19.0870    24.8550 
   86.5000     2.1190   -15.5030    63.6680    24.2360    21.5800    18.7590    24.8640 
   86.6250     2.1220   -15.3780    66.1650    23.4550    20.7330    18.6230    24.8250 
   86.7500     2.1280   -15.3230    71.0940    22.9220    20.0790    18.1340    24.7530 
   86.8750     2.1340   -15.3090    74.1370    22.5430    19.5760    17.1860    24.6610 
   87.0000     2.1420   -15.3260    73.3860    22.2100    19.1990    15.3030    24.5290 
   87.1250     2.1520   -15.3700    72.1190    21.8610    18.9580    14.5470    24.3600 
   87.2500     2.1580   -15.3960    72.3650    21.5570    18.8500    13.9310    24.4170 
   87.3750     2.1550   -15.3850    72.9630    21.4680    18.9100    13.4190    24.6790 
   87.5000     2.1410   -15.3320    73.5320    21.7820    19.1910    13.7060    24.8120 
   87.6250     2.1250   -15.2660    72.6070    22.5960    19.7550    15.3530    24.6440 
   87.7500     2.1150   -15.1640    70.7790    23.5730    20.4440    17.1450    24.3410 
   87.8750     2.1130   -15.0480    69.7260    24.3190    20.9990    17.3430    24.1560 
   88.0000     2.1150   -14.9230    69.7600    24.5090    21.1510    15.6650    24.0930 
   88.1250     2.1160   -14.7950    70.2910    24.0310    20.7530    14.7260    24.0890 
   88.2500     2.1160   -14.6640    70.7850    23.3310    20.1210    14.6990    24.1010 
   88.3750     2.1170   -14.5190    72.2340    22.8060    19.5790    15.2090    24.1300 
   88.5000     2.1190   -14.3550    74.0270    22.7360    19.3620    15.7620    24.1510 
   88.6250     2.1190   -14.1490    74.6570    23.3230    19.6280    16.8760    24.1750 
   88.7500     2.1170   -13.8950    73.2350    24.4810    20.2980    18.2140    24.2410 
   88.8750     2.1170   -13.5940    69.5370    26.1520    21.3290    19.5480    24.3540 
   89.0000     2.1200   -13.2810    65.7400    28.0940    22.6150    20.8200    24.4290 
   89.1250     2.1240   -12.9610    65.1610    29.8980    23.9080    21.6320    24.4500 
   89.2500     2.1280   -12.6400    67.4930    31.2450    24.9060    21.6540    24.4490 
   89.3750     2.1320   -12.3380    69.6420    32.0090    25.4750    21.6980    24.4370 
   89.5000     2.1340   -12.0910    69.6970    32.2660    25.6820    21.9820    24.4020 
   89.6250     2.1300   -11.8650    66.4380    32.1850    25.7100    22.4200    24.3380 
   89.7500     2.1230   -11.7070    64.0500    32.0210    25.7370    22.7830    24.2980 
   89.8750     2.1160   -11.6030    64.9670    31.8720    25.7760    23.0470    24.2410 
   90.0000     2.1090   -11.5360    67.3900    31.7590    25.7790    23.0490    24.1230 
   90.1250     2.1010   -11.5020    67.1800    31.6520    25.6970    23.0850    23.9920 
   90.2500     2.0900   -11.5510    62.9780    31.4610    25.5570    23.1260    24.0040 
   90.3750     2.0770   -11.6680    58.0450    31.1870    25.4100    23.5180    24.1270 
   90.5000     2.0660   -11.8350    56.2070    30.9440    25.3030    24.2530    24.1440 
   90.6250     2.0680   -12.0860    57.9840    30.8100    25.2470    25.0460    23.9560 
   90.7500     2.0850   -12.3900    59.7620    30.5990    25.1550    24.9420    23.8000 
   90.8750     2.1060   -12.7530    60.7800    30.0990    24.9020    24.1460    23.8020 
   91.0000     2.1250   -13.1960    63.4480    29.1950    24.3580    23.5440    23.9400 
   91.1250     2.1390   -13.7310    67.1950    27.8030    23.3370    23.1210    24.0420 
   91.2500     2.1530   -14.3340    67.2010    25.9900    21.8590    22.4940    24.1010 
   91.3750     2.1710   -15.0240    64.7030    23.7270    19.9540    21.6120    24.1730 
   91.5000     2.1910   -15.7900    64.4560    21.0160    17.7220    20.5280    24.2830 
   91.6250     2.2120   -16.6610    69.0090    17.9590    15.3130    18.1400    24.3500 
   91.7500     2.2370   -17.5780    75.8100    14.9160    12.9550    13.8310    24.3720 
   91.8750     2.2700   -18.5040    82.3930    12.2390    10.8420     9.4390    24.3740 
   92.0000     2.3070   -19.3660    87.7900    10.1920     9.1440     7.3980    24.3740 
   92.1250     2.3470   -20.1690    91.5460     9.0270     8.0740     7.3980    24.3740 
   92.2500     2.3880   -20.8680    93.4730     8.5850     7.5420     8.6240    24.3740 
   92.3750     2.4190   -21.4520    92.9180     8.6580     7.4200     9.4550    24.3740 
   92.5000     2.4250   -21.9480    91.7710     8.9240     7.5010     8.6430    24.3740 
   92.6250     2.4180   -22.3330    94.7740     9.0720     7.5600     7.5420    24.3740 
   92.7500     2.4200   -22.6380    98.5550     9.0490     7.5270     7.3310    24.3740 
   92.8750     2.4300   -22.8790    98.9790     8.9170     7.4480     7.8540    24.3740 
   93.0000     2.4360   -23.1080    95.9740     8.6780     7.3590     8.3700    24.3740 
   93.1250     2.4300   -23.2990    94.1390     8.2080     7.1900     8.2120    24.3740 
   93.2500     2.4190   -23.4860    96.8920     7.4790     6.8520     8.0590    24.3740 
   93.3750     2.4010   -23.6460   104.0440     6.5880     6.3260     7.3190    24.3740 
   93.5000     2.3780   -23.7730   111.5630     5.7660     5.7030     5.9050    24.3740 
   93.6250     2.3620   -23.8370   113.7340     5.2620     5.1570     5.0520    24.3740 
   93.7500     2.3590   -23.8890   112.2810     5.0760     4.8040     4.7580    24.3740 
   93.8750     2.3680   -23.9270   109.3280     5.1870     4.6870     5.0640    24.3720 
   94.0000     2.3840   -23.9260   106.4590     5.5520     4.7970     5.7140    24.3700 
   94.1250     2.3950   -23.8890   104.4270     6.0810     5.0700     6.1250    24.3720 
   94.2500     2.3950   -23.8310   103.4470     6.5730     5.3450     5.5650    24.3720 
   94.3750     2.3880   -23.7550   102.5630     6.9110     5.5300     5.2130    24.3710 
   94.5000     2.3860   -23.6330   101.1310     7.0880     5.6150     5.6600    24.3720 
   94.6250     2.3830   -23.4890    97.7210     7.1420     5.6440     6.6830    24.3730 
   94.7500     2.3660   -23.3150    94.8710     7.1070     5.6380     6.7420    24.3730 
   94.8750     2.3370   -23.1230    95.9190     6.9200     5.5640     6.0640    24.3700 
