~V
VERS. 2.00: Ver 2.00
~W
STRT.M 60.0000:
STOP.M 200.0000:
STEP.M 0.1250:
NULL. -999.2500:
UWI. F10576:
~C
DEPT.M :
GR.API :
RML.OHMM :
RI. :
RXO.OHMM :
CALI.CM :
DEN.GM/CC :
SP.MV :
~A
   60.0000    57.5250     0.4590     0.4930     4.1750    23.6360     1.9460     3.8440 
   60.1250    64.9630     1.0800     1.0910     4.3600    24.1080     1.8480     1.2930 
   60.2500    71.2600     2.1470     1.7290     4.3140    24.6810     1.8110    -1.2910 
   60.3750    76.1450     3.2500     2.4530     4.3370    24.9720     1.8630    -3.9300 
   60.5000    80.8620     4.1890     3.2560     4.7220    24.7510     1.9950    -6.6640 
   60.6250    84.1400     4.7640     4.0290     5.5950    24.1860     2.1600    -9.3670 
   60.7500    84.0350     5.0430     4.6600     6.1980    23.7030     2.2910   -11.8850 
   60.8750    80.9440     5.1760     5.1170     5.2700    23.4240     2.3610   -14.0630 
   61.0000    78.6270     5.2740     5.4260     4.4140    23.3130     2.3770   -15.8350 
   61.1250    79.0970     5.3520     5.6150     4.4370    23.2960     2.3640   -17.2420 
   61.2500    78.8640     5.4050     5.7340     4.8190    23.3020     2.3540   -18.4740 
   61.3750    77.1980     5.4600     5.7910     4.9890    23.3480     2.3510   -19.5370 
   61.5000    76.2540     5.5410     5.7880     4.9800    23.5070     2.3510   -20.4350 
   61.6250    76.7430     5.6370     5.7180     5.0210    23.8080     2.3500   -21.2080 
   61.7500    77.2540     5.7060     5.6150     5.4270    24.0960     2.3530   -21.8890 
   61.8750    80.0450     5.7470     5.5240     5.7750    24.2320     2.3610   -22.5070 
   62.0000    85.7120     5.7970     5.4920     5.6400    24.2180     2.3740   -23.0880 
   62.1250    87.8820     5.9230     5.5730     5.3120    24.1730     2.3810   -23.5890 
   62.2500    84.7330     6.1430     5.7790     5.5720    24.1590     2.3770   -24.0810 
   62.3750    80.5870     6.4770     6.1380     6.0350    24.1620     2.3670   -24.5740 
   62.5000    78.1800     6.9720     6.6710     6.2630    24.1240     2.3620   -25.0380 
   62.6250    74.5210     7.7230     7.3860     6.3170    23.7710     2.3700   -25.4890 
   62.7500    69.3590     8.6400     8.1610     6.8900    23.5610     2.3800   -25.9340 
   62.8750    66.5150     9.4920     8.8390     8.9780    23.4180     2.3780   -26.3840 
   63.0000    66.2620     9.9620     9.2450    14.0630    23.2810     2.3550   -26.8550 
   63.1250    66.5890     9.8220     9.2100    12.9490    23.1070     2.3160   -27.3180 
   63.2500    67.8060     9.3820     8.8680     9.9290    22.9900     2.2780   -27.7350 
   63.3750    69.8060     8.9480     8.3950     8.3570    22.9380     2.2520   -28.0840 
   63.5000    70.8230     8.6870     7.9710     7.5640    22.9320     2.2410   -28.4030 
   63.6250    70.5940     8.6140     7.7390     7.0930    22.9470     2.2440   -28.7060 
   63.7500    69.8720     8.6180     7.6800     6.9270    22.9920     2.2530   -29.0090 
   63.8750    69.2820     8.6590     7.7360     6.9800    23.0890     2.2660   -29.2570 
   64.0000    69.8170     8.7390     7.8380     7.0370    23.2390     2.2790   -29.4620 
   64.1250    71.0570     8.8570     7.9300     7.2220    23.4440     2.2800   -29.6580 
   64.2500    70.7180     8.9710     7.9980     7.3930    23.7130     2.2650   -29.8820 
   64.3750    68.6120     9.0710     8.0490     7.5600    24.0370     2.2350   -30.1330 
   64.5000    67.3050     9.1910     8.0960     7.8700    24.2320     2.2020   -30.3570 
   64.6250    67.1720     9.3920     8.1560     8.0660    24.1990     2.1820   -30.5240 
   64.7500    67.7090     9.6540     8.2360     8.3240    23.9510     2.1830   -30.6820 
   64.8750    68.9610     9.9150     8.3400     8.6620    23.6000     2.2000   -30.8360 
   65.0000    68.4220    10.1200     8.4660     8.5960    23.3800     2.2250   -30.9710 
   65.1250    65.7030    10.2620     8.6090     8.5810    23.3600     2.2440   -31.1150 
   65.2500    64.1460    10.3880     8.7470     8.6990    23.4310     2.2500   -31.1990 
   65.3750    65.0460    10.4880     8.8530     8.8980    23.5880     2.2470   -31.2770 
   65.5000    66.3430    10.4950     8.8980     8.7850    23.8500     2.2410   -31.4080 
   65.6250    67.4830    10.3490     8.8570     8.7970    24.0620     2.2380   -31.5650 
   65.7500    68.1200    10.1720     8.7850     8.8400    24.1440     2.2360   -31.6880 
   65.8750    67.7670    10.1570     8.7820     8.8410    24.1620     2.2290   -31.8060 
   66.0000    67.3140    10.5030     8.9930     8.9000    24.1690     2.2200   -31.9430 
   66.1250    67.8660    11.4260     9.6380     8.9480    24.0950     2.2280   -32.0380 
   66.2500    67.8810    12.8170    10.7110     9.6100    23.8390     2.2700   -32.1490 
   66.3750    66.8890    14.4340    12.0730    11.9540    23.3990     2.3380   -32.2740 
   66.5000    66.1720    15.7820    13.3640    17.1730    23.0570     2.4060   -32.4100 
   66.6250    66.0370    16.0770    13.9460    21.5600    23.0490     2.4310   -32.5940 
   66.7500    63.7910    15.2720    13.6220    19.2560    23.2490     2.4060   -32.8060 
   66.8750    60.4310    13.7770    12.5600    13.5940    23.5750     2.3480   -33.0540 
   67.0000    59.4970    12.2190    11.2040    10.4660    24.0830     2.2850   -33.3290 
   67.1250    61.7760    11.1800    10.0730     9.7980    24.5090     2.2410   -33.6140 
   67.2500    63.6290    10.7360     9.3780     9.6730    24.7520     2.2150   -33.8440 
   67.3750    64.5780    10.7830     9.1230     9.5740    24.7280     2.2020   -34.0190 
   67.5000    65.6150    11.1040     9.1890     9.5770    24.6410     2.1980   -34.1510 
   67.6250    67.7570    11.4120     9.3940     9.9920    24.6660     2.2050   -34.1920 
   67.7500    68.8310    11.4960     9.5290    10.4190    24.7440     2.2150   -34.1470 
   67.8750    67.5150    11.3040     9.5030    10.2870    24.7680     2.2250   -34.0200 
   68.0000    65.2830    10.9010     9.3170     9.7560    24.7250     2.2300   -33.8250 
   68.1250    64.3700    10.4510     9.0580     9.1830    24.6500     2.2260   -33.6000 
   68.2500    64.7570    10.1510     8.8870     8.8890    24.5690     2.2150   -33.3780 
   68.3750    64.3960    10.1520     8.9450     8.8160    24.5110     2.1990   -33.1290 
   68.5000    62.3310    10.5800     9.3560     8.9880    24.4790     2.1870   -32.8160 
   68.6250    61.2520    11.6010    10.2890    10.0680    24.3600     2.1850   -32.4560 
   68.7500    63.1670    13.0530    11.6310    13.0190    24.0870     2.1940   -32.1280 
   68.8750    67.5310    14.6250    13.1380    17.8200    23.7740     2.2080   -31.8080 
   69.0000    70.8300    15.7690    14.3600    21.4680    23.5460     2.2210   -31.4460 
   69.1250    72.2970    15.7030    14.5980    20.4780    23.4080     2.2300   -31.0290 
   69.2500    75.2820    14.4620    13.7700    18.2910    23.3570     2.2420   -30.6180 
   69.3750    80.1420    12.4490    12.1270    15.5400    23.3990     2.2590   -30.2110 
   69.5000    84.6830    10.2590    10.1510    11.1150    23.5460     2.2830   -29.8380 
   69.6250    87.1180     8.4370     8.3440     8.8070    23.7900     2.3130   -29.5540 
   69.7500    88.0870     7.1140     6.9250     6.9010    24.0820     2.3420   -29.2970 
   69.8750    88.7790     6.2830     5.9460     5.6930    24.2620     2.3680   -29.1090 
   70.0000    89.2010     5.8940     5.4030     5.0780    24.3350     2.3830   -29.0180 
   70.1250    86.6850     5.9730     5.3450     4.9660    24.3480     2.3820   -29.0800 
   70.2500    81.3810     6.4470     5.7020     4.9800    24.3850     2.3630   -29.2460 
   70.3750    75.7230     7.3110     6.4680     5.4200    24.4140     2.3310   -29.4440 
   70.5000    71.4540     8.5060     7.5910     6.8540    24.3670     2.2910   -29.6500 
   70.6250    68.0790     9.8220     8.8910     9.4840    24.4010     2.2470   -29.8240 
   70.7500    67.3160    10.8350     9.9630    11.8420    24.4480     2.2040   -29.9640 
   70.8750    70.4120    11.1760    10.4440    12.2560    24.4390     2.1680   -30.0350 
   71.0000    74.7450    10.6970    10.1540    10.7910    24.3690     2.1470   -30.0020 
   71.1250    76.7590     9.5420     9.1590     9.4760    24.3420     2.1540   -29.7740 
