~V
VERS. 2.00: Ver 2.00
~W
STRT.M 60.0000:
STOP.M 190.0000:
STEP.M 0.1250:
NULL. -999.2500:
UWI. F10561:
~C
DEPT.M :
SP.MV :
GR.API :
RML.OHMM :
RI. :
RXO.OHMM :
CALI.CM :
DEN.GM/CC :
~A
# ...
  127.5000   -13.5690    61.9290    19.5410    18.4410    17.9290    24.5450     2.4810 
  127.6250   -13.6470    66.9930    19.5710    18.2510    16.1150    24.4270     2.4780 
  127.7500   -13.7610    73.1660    20.2380    18.5860    17.4420    24.4010     2.4800 
  127.8750   -13.8620    76.9630    21.4260    19.4290    20.3570    24.4530     2.4860 
  128.0000   -13.9540    77.3860    22.7460    20.5080    22.1790    24.5380     2.4910 
  128.1250   -14.0570    76.9210    23.4050    21.1780    24.3950    24.5740     2.4910 
  128.2500   -14.1400    75.7200    22.9320    20.9490    27.2040    24.5820     2.4860 
  128.3750   -14.2180    72.3080    21.3710    19.7470    24.7790    24.5830     2.4750 
  128.5000   -14.2890    65.8360    19.2910    17.9600    19.1570    24.5820     2.4640 
  128.6250   -14.3610    61.2280    17.5700    16.3030    15.2950    24.5700     2.4610 
  128.7500   -14.4420    62.4430    16.6990    15.2870    13.9360    24.5490     2.4690 
  128.8750   -14.5180    65.7590    16.7930    15.0830    13.9650    24.5460     2.4880 
  129.0000   -14.6370    68.6980    17.7270    15.6440    15.7450    24.5890     2.5090 
  129.1250   -14.8290    71.5180    19.2170    16.7920    19.7640    24.6950     2.5190 
  129.2500   -15.0220    73.2500    20.6880    18.0480    25.9500    24.8260     2.5130 
  129.3750   -15.1910    73.2900    21.7540    19.0700    29.2600    24.9440     2.4920 
  129.5000   -15.3630    72.3870    22.2550    19.6720    27.7460    25.0110     2.4670 
  129.6250   -15.5880    71.9900    22.2450    19.8290    22.0400    25.0190     2.4450 
  129.7500   -15.8150    72.2400    21.9740    19.7120    19.7810    24.9510     2.4290 
  129.8750   -16.0200    74.9060    21.3750    19.2750    19.5960    24.7940     2.4170 
  130.0000   -16.1940    80.3460    20.2160    18.3430    20.2750    24.6340     2.4100 
  130.1250   -16.3100    85.6720    18.1700    16.6710    22.2650    24.5110     2.4110 
  130.2500   -16.3860    88.6680    15.6660    14.5050    21.6400    24.4150     2.4170 
  130.3750   -16.4070    89.5870    13.0480    12.1940    14.2100    24.3160     2.4210 
  130.5000   -16.3640    88.3370    10.7060    10.0980     8.6250    24.1980     2.4170 
  130.6250   -16.2260    81.2880     9.0020     8.5050     7.2060    24.1390     2.4000 
  130.7500   -15.9980    70.0450     7.8900     7.3650     6.9880    24.2160     2.3780 
  130.8750   -15.7340    58.8380     7.2750     6.6100     6.8810    24.4610     2.3620 
  131.0000   -15.4670    52.8900     7.0110     6.1640     6.3430    24.7250     2.3580 
  131.1250   -15.1740    52.4790     6.9780     5.9800     6.2180    24.8170     2.3680 
  131.2500   -14.8750    51.7700     7.0430     5.9530     6.2000    24.7910     2.3850 
  131.3750   -14.6220    48.5350     7.1620     6.0270     6.2520    24.7250     2.4010 
  131.5000   -14.4480    44.2380     7.2960     6.1520     6.2890    24.6280     2.4100 
  131.6250   -14.2970    43.8400     7.3830     6.2660     6.2360    24.4900     2.4090 
  131.7500   -14.1730    45.9840     7.3940     6.3210     6.2460    24.3920     2.4040 
  131.8750   -14.1090    46.8570     7.3370     6.2960     6.2200    24.3520     2.4020 
  132.0000   -14.0700    45.5830     7.2550     6.1980     6.1780    24.3730     2.4070 
  132.1250   -14.0070    43.6840     7.1900     6.0560     6.0930    24.5420     2.4210 
  132.2500   -13.9540    43.1670     7.1460     5.9240     6.0920    24.7190     2.4390 
  132.3750   -13.9280    43.8070     7.0990     5.8340     6.1860    24.8220     2.4520 
  132.5000   -13.8740    44.2710     7.0350     5.7920     6.2510    24.7770     2.4560 
  132.6250   -13.8350    43.6920     6.9620     5.7790     6.1570    24.6150     2.4480 
  132.7500   -13.8160    43.5330     6.9050     5.7520     6.0910    24.5000     2.4330 
  132.8750   -13.7750    45.4370     6.8670     5.6940     5.8950    24.5350     2.4140 
  133.0000   -13.7220    48.6410     6.8410     5.6130     5.6860    24.6710     2.3980 
  133.1250   -13.7290    52.6520     6.8200     5.5480     5.6280    24.7680     2.3890 
  133.2500   -13.7550    55.7970     6.8200     5.5330     5.7090    24.7820     2.3890 
  133.3750   -13.7540    56.5100     6.8580     5.5810     5.7240    24.7360     2.3970 
  133.5000   -13.7770    56.4340     6.9320     5.6800     5.7140    24.6770     2.4070 
  133.6250   -13.8640    59.3810     7.0050     5.7940     5.7520    24.6460     2.4170 
  133.7500   -13.9960    65.0070     7.0430     5.8740     5.7800    24.6550     2.4210 
  133.8750   -14.1340    70.4450     7.0370     5.8880     5.8490    24.6840     2.4220 
  134.0000   -14.2830    75.2960     6.9980     5.8240     6.0000    24.6900     2.4210 
  134.1250   -14.4740    81.0120     6.9400     5.6970     6.1780    24.6660     2.4210 
  134.2500   -14.7040    84.1500     6.8660     5.5590     6.3130    24.6480     2.4200 
  134.3750   -14.9530    83.4550     6.7750     5.4470     6.4240    24.6410     2.4170 
  134.5000   -15.1930    80.3800     6.6810     5.3780     6.4700    24.6410     2.4120 
  134.6250   -15.4110    78.9070     6.6200     5.3610     6.4950    24.6440     2.4070 
  134.7500   -15.6140    78.4540     6.6130     5.3760     6.5560    24.6730     2.4060 
  134.8750   -15.8170    77.0340     6.6740     5.4210     6.4880    24.7500     2.4070 
  135.0000   -16.0470    76.9750     6.8130     5.5070     6.4140    24.8380     2.4070 
  135.1250   -16.2500    79.3160     7.0590     5.6600     7.1860    24.9170     2.4020 
  135.2500   -16.4100    80.5300     7.4010     5.8820     8.0030    24.9460     2.3950 
  135.3750   -16.5800    80.2920     7.8130     6.1680     8.2770    24.9190     2.3920 
  135.5000   -16.7730    82.0380     8.2300     6.5030     8.2310    24.8170     2.3970 
  135.6250   -16.9290    85.8250     8.5580     6.8620     8.5440    24.6430     2.4090 
  135.7500   -17.0390    86.4290     8.7660     7.2060     8.9280    24.5300     2.4230 
  135.8750   -17.1530    83.1320     8.8720     7.5040     9.3550    24.5210     2.4320 
  136.0000   -17.2310    78.5550     8.9120     7.7230     9.5870    24.6360     2.4380 
  136.1250   -17.2530    77.7500     8.8970     7.8190     9.6020    24.8260     2.4450 
  136.2500   -17.2160    81.2120     8.8260     7.8060     9.1790    24.9790     2.4540 
  136.3750   -17.1330    85.8060     8.7010     7.7110     8.8210    25.0430     2.4630 
  136.5000   -17.0110    88.4080     8.5430     7.5740     8.5040    25.0660     2.4680 
  136.6250   -16.8450    88.7460     8.4040     7.4490     8.3740    25.0930     2.4630 
  136.7500   -16.6970    89.8480     8.3130     7.3720     8.1280    25.1130     2.4530 
  136.8750   -16.5860    90.3280     8.2690     7.3540     7.9970    25.1100     2.4400 
  137.0000   -16.4620    88.1020     8.2480     7.3780     7.9530    25.0860     2.4290 
  137.1250   -16.3190    83.5650     8.2260     7.3980     7.9600    25.0610     2.4210 
  137.2500   -16.2360    80.8810     8.1820     7.3620     7.9210    25.0070     2.4130 
  137.3750   -16.2000    82.9380     8.0930     7.2430     7.8690    24.8780     2.4040 
  137.5000   -16.1570    86.7310     7.9400     7.0530     7.7060    24.7060     2.3930 
  137.6250   -16.1420    87.2270     7.7700     6.8780     7.5950    24.7140     2.3810 
  137.7500   -16.1510    86.1740     7.7570     6.8670     7.6650    24.8660     2.3720 
  137.8750   -16.1280    85.0570     8.2080     7.2010     7.8450    25.0200     2.3790 
  138.0000   -16.0840    83.1350     9.5550     8.1200     8.0500    25.0670     2.4080 
  138.1250   -16.0560    78.0370    12.5800    10.1790     9.9740    25.0290     2.4550 
  138.2500   -16.0290    71.3660    17.2500    13.6970    17.1620    24.9640     2.4910 
  138.3750   -15.9650    66.1720    23.7020    18.9350    34.7720    24.9290     2.4960 
  138.5000   -15.9250    64.6070    31.5970    25.6030    52.2730    24.9460     2.4610 
  138.6250   -15.9170    66.0410    39.2770    32.3860    53.2030    25.0170     2.4000 
