~V
VERS. 2.00: Ver 2.00
~W
STRT.M 58.0000:
STOP.M 199.0000:
STEP.M 0.1250:
NULL. -999.2500:
UWI. F10565:
~C
DEPT.M :
SP.MV :
GR.API :
RML.OHMM :
RI. :
RXO.OHMM :
CALI.CM :
DEN.GM/CC :
~A
# ...
   69.2500   -19.8350    58.9780    12.3640    10.0360    10.6890    24.9820     2.1770 
   69.3750   -19.6900    60.7860    12.9970    10.5540    11.4970    25.0150     2.2190 
   69.5000   -19.5220    61.8430    13.6590    11.0680    12.5180    25.0490     2.2880 
   69.6250   -19.3660    64.1840    14.1900    11.4880    13.3900    25.0960     2.3690 
   69.7500   -19.2020    67.1650    14.3610    11.6700    13.3960    25.1650     2.4210 
   69.8750   -19.0250    67.9170    14.1400    11.5860    12.1820    25.2570     2.4240 
   70.0000   -18.8700    66.9320    13.5880    11.2520    10.8810    25.3780     2.3790 
   70.1250   -18.7190    66.7210    12.8530    10.7450    10.2190    25.5250     2.3100 
   70.2500   -18.5520    67.3880    12.1240    10.1660     9.9100    25.6930     2.2500 
   70.3750   -18.4260    67.2100    11.5330     9.6210     9.5560    25.8710     2.2150 
   70.5000   -18.3060    66.6060    11.1290     9.1700     9.2190    26.0510     2.2030 
   70.6250   -18.1880    66.5920    10.9300     8.8550     9.0050    26.1940     2.2090 
   70.7500   -18.0890    66.8130    10.9830     8.7530     8.9860    26.1770     2.2250 
   70.8750   -17.9410    67.7870    11.2720     8.8890     9.0350    25.9330     2.2380 
   71.0000   -17.7700    69.1140    11.8230     9.3110     9.0720    25.5010     2.2370 
   71.1250   -17.6210    67.5010    12.6590    10.0570     9.0410    25.0440     2.2160 
   71.2500   -17.4590    62.5690    13.8030    11.1660    10.5360    24.7700     2.1860 
   71.3750   -17.2330    59.2010    15.0800    12.4680    15.5470    24.6680     2.1680 
   71.5000   -16.9480    58.1800    16.2290    13.7250    24.5270    24.6420     2.1710 
   71.6250   -16.6320    57.6880    16.8920    14.5940    35.4560    24.6110     2.1890 
   71.7500   -16.2840    56.9280    16.5700    14.5830    40.9820    24.5600     2.2030 
   71.8750   -15.9420    57.7760    15.3270    13.6920    40.7560    24.5140     2.2050 
   72.0000   -15.5460    61.6080    13.4200    12.1280    26.2710    24.4890     2.2050 
   72.1250   -15.0630    68.5110    11.2810    10.2800    13.0740    24.4860     2.2190 
   72.2500   -14.5480    74.8730     9.3980     8.6000     8.6570    24.4990     2.2510 
   72.3750   -14.0620    78.7310     7.9810     7.3080     6.7880    24.5180     2.2860 
   72.5000   -13.6000    81.9860     7.0720     6.4530     5.8340    24.5390     2.3080 
   72.6250   -13.1410    86.2470     6.6160     5.9870     5.6370    24.5680     2.3130 
   72.7500   -12.7150    87.8520     6.5480     5.8440     6.1500    24.6250     2.3060 
   72.8750   -12.3140    86.0070     6.6730     5.8580     6.3880    24.7130     2.2990 
   73.0000   -11.9720    83.9550     6.8770     5.9400     6.1730    24.8120     2.2960 
   73.1250   -11.7190    83.6850     7.0700     6.0310     6.1690    24.8950     2.2990 
   73.2500   -11.5400    85.1510     7.1810     6.0910     6.1290    24.9430     2.3050 
   73.3750   -11.3490    87.6070     7.1980     6.1060     6.3560    24.9700     2.3080 
   73.5000   -11.1910    90.0760     7.1170     6.0700     6.3450    24.9910     2.3090 
   73.6250   -11.0780    91.2500     6.9450     5.9810     6.2980    25.0140     2.3080 
   73.7500   -11.0180    89.5150     6.7190     5.8630     6.3190    25.0310     2.3090 
   73.8750   -11.0050    88.2990     6.5420     5.7810     6.2740    25.0340     2.3160 
   74.0000   -11.0180    88.5570     6.4700     5.8070     6.1320    25.0180     2.3260 
   74.1250   -11.0350    85.4410     6.5500     6.0140     6.0120    24.9930     2.3330 
   74.2500   -11.0600    77.8260     6.8570     6.5080     6.8340    24.9960     2.3250 
   74.3750   -11.1270    72.1750     7.7320     7.2710     9.2320    25.0690     2.3010 
   74.5000   -11.1890    71.2560     8.9580     8.2460    14.7560    25.2120     2.2670 
   74.6250   -11.2300    72.6610    10.2040     9.2790    19.5810    25.3650     2.2330 
   74.7500   -11.2380    74.3560    11.0230    10.0740    19.8300    25.4200     2.2090 
   74.8750   -11.2060    75.5350    11.2580    10.4450    13.4670    25.3680     2.1970 
   75.0000   -11.1600    74.8620    10.9420    10.3520    10.5270    25.2610     2.1970 
   75.1250   -11.1080    72.9110    10.2740     9.9000     9.4480    25.1640     2.2060 
   75.2500   -11.0230    72.4460     9.4890     9.2320     8.7240    25.1180     2.2230 
   75.3750   -10.8920    72.9200     8.7470     8.5040     7.7710    25.0980     2.2430 
   75.5000   -10.7470    74.3300     8.1050     7.7880     7.0620    25.0780     2.2640 
   75.6250   -10.5770    77.3600     7.6210     7.1670     7.2300    25.0450     2.2850 
   75.7500   -10.3820    79.7290     7.4510     6.8050     7.6120    25.0060     2.3050 
   75.8750   -10.2020    79.0160     7.7040     6.8090     7.2440    24.9790     2.3180 
   76.0000   -10.0220    75.2550     8.5300     7.3040     6.6410    24.9720     2.3150 
   76.1250    -9.8390    69.8700    10.0570     8.3950     7.7560    24.9860     2.2940 
   76.2500    -9.6540    65.5840    12.4220    10.2310    11.3730    25.0180     2.2570 
   76.3750    -9.5030    63.2730    15.2890    12.5850    13.9950    25.0520     2.2220 
   76.5000    -9.3700    62.3140    18.2170    15.1430    15.5370    25.0760     2.1980 
   76.6250    -9.2710    61.1390    20.6560    17.4520    17.3130    25.0850     2.1900 
   76.7500    -9.2130    60.7280    22.0370    18.9520    18.8330    25.0770     2.1930 
   76.8750    -9.1770    61.6690    22.5360    19.6370    18.8820    25.0570     2.1950 
   77.0000    -9.1770    62.4970    22.4250    19.6660    17.8170    25.0290     2.1920 
   77.1250    -9.2220    62.2950    21.9350    19.2490    17.1150    24.9960     2.1800 
   77.2500    -9.3280    61.9700    21.1100    18.4910    16.3140    24.9500     2.1650 
   77.3750    -9.4670    62.7830    20.0310    17.5350    15.3590    24.8920     2.1550 
   77.5000    -9.6330    64.1480    18.7980    16.4780    14.6020    24.8270     2.1560 
   77.6250    -9.8140    67.4030    17.5840    15.4520    14.1190    24.7630     2.1680 
   77.7500    -9.9840    71.4740    16.6340    14.6310    12.5840    24.7040     2.1850 
   77.8750   -10.1200    72.2110    16.0370    14.0650    11.2880    24.6520     2.1980 
   78.0000   -10.2370    69.6130    15.7670    13.7300    11.3390    24.6100     2.2040 
   78.1250   -10.3270    67.4240    15.6750    13.5220    12.4070    24.5740     2.2070 
   78.2500   -10.3870    70.1360    15.5010    13.2680    12.7860    24.5280     2.2110 
   78.3750   -10.4310    74.4470    15.0550    12.8530    12.1780    24.4390     2.2180 
   78.5000   -10.4430    76.4140    14.3020    12.2610    11.3660    24.2900     2.2280 
   78.6250   -10.4190    75.7230    13.3520    11.5650    10.8600    24.0890     2.2350 
   78.7500   -10.3580    75.9500    12.4260    10.9050    10.0730    23.8690     2.2360 
   78.8750   -10.2970    78.5050    11.7020    10.3880     9.3470    23.6740     2.2290 
   79.0000   -10.2170    79.7150    11.2380    10.0490     8.8130    23.5240     2.2170 
   79.1250   -10.1200    77.5470    11.0020     9.8610     8.8260    23.4300     2.2050 
   79.2500   -10.0070    75.1760    10.8960     9.7470     9.2010    23.3980     2.2010 
   79.3750    -9.8630    73.9630    10.7580     9.5890     9.3800    23.4060     2.2090 
   79.5000    -9.7110    74.5880    10.4860     9.3140     8.9730    23.4360     2.2260 
   79.6250    -9.5700    78.9460    10.0380     8.8980     8.3480    23.4690     2.2440 
   79.7500    -9.4560    86.8590     9.4280     8.3650     7.5700    23.4970     2.2580 
   79.8750    -9.3410    93.3150     8.7700     7.8120     6.9690    23.5300     2.2680 
   80.0000    -9.2450    96.8730     8.1440     7.3040     6.6100    23.5790     2.2780 
   80.1250    -9.1670    98.3280     7.6040     6.8830     6.2930    23.6470     2.2930 
   80.2500    -9.0940    97.6790     7.1950     6.5780     5.8350    23.7140     2.3100 
   80.3750    -9.0390    96.6880     6.8970     6.3670     5.6790    23.7520     2.3220 
