~V
VERS. 2.00: Ver 2.00
~W
STRT.M 50.0000:
STOP.M 222.0000:
STEP.M 0.1250:
NULL. -999.2500:
UWI. F10580:
~C
DEPT.M :
DEN.GM/CC :
SP.MV :
GR.API :
RML.OHMM :
RI. :
RXO.OHMM :
CALI.CM :
~A
# ...
  185.0000     2.1480   -16.4980    72.9560    96.2360    86.4280    72.7690    24.4220 
  185.1250     2.1660   -16.5470    72.5690    94.6510    85.3080    76.4490    24.4190 
  185.2500     2.1980   -16.6050    72.2030    91.5910    83.1510    84.3680    24.4180 
  185.3750     2.2170   -16.6630    71.9310    87.6560    80.3440    82.1370    24.4180 
  185.5000     2.2060   -16.7480    73.1450    83.7760    77.5410    65.1520    24.4180 
  185.6250     2.1830   -16.8410    77.6780    81.3910    75.9260    61.1730    24.4180 
  185.7500     2.1750   -16.9340    80.6980    81.3150    76.3040    63.3170    24.4180 
  185.8750     2.1770   -17.0180    77.5630    84.0360    79.2120    65.2190    24.4180 
  186.0000     2.1780   -17.1140    70.0840    89.5060    84.7060    64.0950    24.4180 
  186.1250     2.1730   -17.1970    66.0950    97.0150    92.2590    68.3770    24.4000 
  186.2500     2.1750   -17.2700    67.3850   104.3500    99.8870    89.1610    24.3440 
  186.3750     2.1890   -17.3200    70.8050   109.5770   105.8170   111.0770    24.2600 
  186.5000     2.2040   -17.3460    73.8150   111.4840   108.7920   105.0080    24.2000 
  186.6250     2.2030   -17.3630    74.4200   110.0410   108.4110    84.4790    24.1650 
  186.7500     2.1900   -17.3490    73.1850   107.7650   106.8530    72.6770    24.1340 
  186.8750     2.1750   -17.3310    72.1840   106.3990   106.5280    73.9840    24.1200 
  187.0000     2.1610   -17.2910    73.2720   108.1230   108.1330    76.6830    24.0990 
  187.1250     2.1480   -17.2240    74.1930   113.1300   112.1790    79.8340    24.0250 
  187.2500     2.1410   -17.1260    73.2000   119.0630   116.5870    85.5790    23.9110 
  187.3750     2.1410   -17.0290    70.9240   123.6900   119.2310    95.8030    23.8400 
  187.5000     2.1500   -16.9190    68.6990   125.3640   118.7690   107.1220    23.8190 
  187.6250     2.1700   -16.7970    68.2290   123.1050   114.7230   103.2640    23.8190 
  187.7500     2.1950   -16.6840    70.2330   118.0830   108.5180    87.8510    23.8230 
  187.8750     2.2210   -16.5800    72.8550   111.1400   101.0180    76.2990    23.8440 
  188.0000     2.2510   -16.4730    73.8160   102.8850    92.6600    78.1820    23.8960 
  188.1250     2.2870   -16.4120    72.7030    93.0680    83.0360    80.8260    23.9480 
  188.2500     2.3040   -16.3940    71.9590    81.9900    72.3880    71.7340    23.9700 
  188.3750     2.2820   -16.3990    72.2670    70.6720    61.7710    61.5540    23.9730 
  188.5000     2.2390   -16.4060    73.8910    60.7140    52.7380    52.6770    23.9620 
  188.6250     2.2180   -16.4520    76.5690    54.2000    47.2070    39.8110    23.9110 
  188.7500     2.2250   -16.5250    76.8590    51.6900    45.4790    28.7560    23.8550 
  188.8750     2.2440   -16.6120    74.9830    53.8120    47.8780    28.6810    23.9080 
  189.0000     2.2560   -16.7170    71.7580    60.9460    54.5050    42.8120    24.1280 
  189.1250     2.2470   -16.7880    68.3060    73.7410    65.8280    71.1410    24.2630 
  189.2500     2.2230   -16.8670    64.9480    90.1260    80.2740    88.0540    24.3270 
  189.3750     2.1960   -16.9420    62.7990   107.5910    95.8770   100.2710    24.3400 
  189.5000     2.1800   -17.0040    63.1760   122.8860   109.8090   111.0190    24.3430 
  189.6250     2.1780   -17.0330    65.6200   132.9090   119.1580   110.3230    24.3450 
  189.7500     2.1790   -17.0590    68.0620   138.6680   124.7390   113.5540    24.3310 
  189.8750     2.1830   -17.0580    68.5900   141.1910   127.4660   117.6350    24.3010 
  190.0000     2.1900   -17.0290    66.6210   140.8010   127.5140   119.1390    24.2800 
  190.1250     2.2010   -17.0090    64.0940   136.7230   123.9370   111.0590    24.2730 
  190.2500     2.2130   -16.9560    63.1990   129.2940   116.9200   101.7600    24.2730 
  190.3750     2.2220   -16.8790    65.0050   118.6790   106.6700    96.7440    24.2730 
  190.5000     2.2250   -16.8150    68.4640   105.6870    94.2200    96.9370    24.2730 
  190.6250     2.2180   -16.7280    70.3000    92.2640    81.7870    87.4540    24.2730 
  190.7500     2.2060   -16.6200    71.4780    80.7870    71.5990    73.6400    24.2730 
  190.8750     2.1940   -16.5110    74.0210    72.6270    64.7590    56.7810    24.2730 
  191.0000     2.1840   -16.4250    75.7860    68.3470    61.5940    49.0260    24.2720 
  191.1250     2.1750   -16.3100    72.0030    68.6170    62.5740    51.5660    24.2450 
  191.2500     2.1730   -16.2050    65.3710    72.3180    66.6020    65.9830    24.1280 
  191.3750     2.1870   -16.1090    61.7640    78.0490    72.3700    82.1610    23.8700 
  191.5000     2.2150   -16.0090    63.4230    83.0260    77.2290    86.2760    23.5420 
  191.6250     2.2340   -15.9270    66.9340    82.5690    76.5320    80.3000    23.3400 
  191.7500     2.2340   -15.8540    69.3520    75.7820    69.6050    96.9280    23.2420 
  191.8750     2.2320   -15.7810    71.5460    64.9090    59.0360    95.9640    23.1650 
  192.0000     2.2410   -15.6860    75.9350    53.8250    48.7190    62.1720    23.0550 
  192.1250     2.2520   -15.6100    82.6040    45.9150    41.7040    41.8470    23.0300 
  192.2500     2.2570   -15.5210    90.1790    41.2500    37.8620    36.1150    23.1350 
  192.3750     2.2560   -15.4190    98.5560    39.0760    36.4620    38.7100    23.4130 
  192.5000     2.2560   -15.3080   103.9390    38.0910    36.1720    46.7710    23.7650 
  192.6250     2.2600   -15.1820   100.8400    35.9850    34.5920    45.3640    24.0580 
  192.7500     2.2760   -15.0390    94.1770    31.2710    30.2260    42.7080    24.1910 
  192.8750     2.3080   -14.8860    88.1460    24.6260    23.7100    42.4080    24.1570 
  193.0000     2.3510   -14.7460    81.2120    18.0570    17.1340    38.7170    24.0700 
  193.1250     2.3940   -14.6260    70.6910    13.3100    12.4720    27.0850    23.9970 
  193.2500     2.4370   -14.5200    60.6210    10.2630     9.6550    19.5140    23.9200 
  193.3750     2.4820   -14.4380    54.2530     8.4990     8.1790    19.7820    23.8560 
  193.5000     2.5100   -14.3800    51.1710     7.5490     7.4770    24.9140    23.8250 
  193.6250     2.4850   -14.3620    50.0100     7.0720     7.1580    21.0310    23.8190 
  193.7500     2.4350   -14.3740    50.7710     6.7500     6.9370    11.6950    23.8190 
  193.8750     2.3950   -14.4180    53.2000     6.4820     6.7430     6.8090    23.8190 
  194.0000     2.3820   -14.4710    55.8320     6.2500     6.5820     5.6180    23.8380 
  194.1250     2.3850   -14.5260    58.0820     6.1060     6.5030     5.8600    23.9010 
  194.2500     2.3950   -14.5810    60.7620     6.0720     6.5160     6.1780    23.9880 
  194.3750     2.4110   -14.6270    64.0120     6.1300     6.5990     6.3340    24.0320 
  194.5000     2.4280   -14.6670    65.0750     6.2270     6.7160     6.3310    24.0410 
  194.6250     2.4320   -14.6880    62.6880     6.3080     6.8370     6.2460    24.0410 
  194.7500     2.4300   -14.6940    60.8310     6.3490     6.9450     6.4240    24.0410 
  194.8750     2.4300   -14.6770    62.2100     6.3350     7.0080     6.8160    24.0410 
  195.0000     2.4280   -14.6550    65.2700     6.2480     6.9820     7.0070    24.0410 
  195.1250     2.4040   -14.6270    66.5620     6.0600     6.8230     6.7690    24.0410 
  195.2500     2.3650   -14.5780    66.1990     5.8040     6.5770     6.1210    24.0410 
  195.3750     2.3230   -14.5200    66.1510     5.5160     6.3000     5.4280    24.0410 
  195.5000     2.2880   -14.4530    67.8440     5.2470     6.0600     4.9770    24.0410 
  195.6250     2.2680   -14.3720    69.5760     5.0580     5.9210     4.8250    24.0410 
  195.7500     2.2670   -14.2700    71.2250     4.9620     5.8780     4.8900    24.0410 
  195.8750     2.2800   -14.1590    73.2690     4.9500     5.9090     5.2520    24.0410 
  196.0000     2.3000   -14.0260    75.0250     4.9920     5.9810     5.7000    24.0410 
  196.1250     2.3160   -13.8660    75.5430     5.0400     6.0510     5.7760    24.0280 
