~V
VERS. 2.00: Ver 2.00
~W
STRT.M 58.0000:
STOP.M 199.0000:
STEP.M 0.1250:
NULL. -999.2500:
UWI. F10565:
~C
DEPT.M :
SP.MV :
GR.API :
RML.OHMM :
RI. :
RXO.OHMM :
CALI.CM :
DEN.GM/CC :
~A
# ...
  148.0000    -8.0400    57.4220    67.2740    68.2340    67.9720    23.5620     2.4600 
  148.1250    -8.0260    62.6660    62.2470    64.1120    49.0950    23.5990     2.3720 
  148.2500    -8.0090    64.4440    56.9300    59.1510    39.3770    23.6090     2.2890 
  148.3750    -7.9830    63.6970    52.9710    54.7130    34.3250    23.6110     2.2350 
  148.5000    -7.9620    62.6270    51.1370    51.4550    32.5220    23.6090     2.2120 
  148.6250    -7.9650    62.0570    50.8030    49.6090    32.7700    23.6050     2.2090 
  148.7500    -7.9730    61.7040    51.1200    49.2680    33.5800    23.6140     2.2190 
  148.8750    -7.9800    60.9600    51.6520    49.9230    34.0130    23.6460     2.2360 
  149.0000    -7.9970    60.6740    52.1800    51.2670    33.9090    23.6730     2.2500 
  149.1250    -8.0440    60.9190    52.6980    52.9360    35.5860    23.6480     2.2560 
  149.2500    -8.0890    60.3370    53.6610    54.3620    40.1520    23.5490     2.2490 
  149.3750    -8.1210    60.8340    54.1950    55.0460    43.5790    23.4540     2.2370 
  149.5000    -8.1300    64.1640    53.7920    54.7090    41.8320    23.4200     2.2280 
  149.6250    -8.1360    66.8830    52.3920    53.4010    38.1000    23.4210     2.2250 
  149.7500    -8.1680    65.6110    50.4620    51.5060    35.9500    23.3480     2.2290 
  149.8750    -8.2030    64.9510    48.7930    49.7720    35.1700    23.1560     2.2320 
  150.0000    -8.2240    67.1640    47.8780    48.6960    35.1860    22.8820     2.2320 
  150.1250    -8.2150    68.7480    47.9410    48.5380    35.4130    22.6260     2.2230 
  150.2500    -8.1650    65.7180    49.0300    49.4090    33.7670    22.5290     2.2040 
  150.3750    -8.1120    61.5620    50.6460    50.8670    32.2960    22.6070     2.1820 
  150.5000    -8.1180    59.0580    52.3800    52.5230    33.1960    22.8040     2.1730 
  150.6250    -8.1660    59.7010    53.8450    53.9770    34.6000    23.0540     2.1930 
  150.7500    -8.2170    61.8650    54.6920    54.8320    33.0920    23.3650     2.2470 
  150.8750    -8.2430    62.9640    55.0000    55.1080    31.3800    23.7410     2.3080 
  151.0000    -8.2280    62.9610    54.9350    54.9390    32.4580    24.0980     2.3490 
  151.1250    -8.1970    62.8630    54.7080    54.5370    37.7150    24.3000     2.3540 
  151.2500    -8.2200    63.4690    54.5270    54.1230    43.8340    24.2580     2.3200 
  151.3750    -8.2700    63.5760    54.4930    53.8380    48.1980    24.0920     2.2730 
  151.5000    -8.3070    63.0090    54.5990    53.7120    50.1860    23.8970     2.2300 
  151.6250    -8.3370    62.4570    54.7560    53.6960    51.1270    23.7310     2.2060 
  151.7500    -8.3880    62.5600    54.7760    53.6590    51.4670    23.6200     2.2030 
  151.8750    -8.4630    62.2860    54.5180    53.4530    51.3100    23.5290     2.2110 
  152.0000    -8.5560    61.6720    53.9210    52.9940    50.8540    23.3910     2.2170 
  152.1250    -8.6430    62.5600    53.0710    52.3240    49.0900    23.1640     2.2120 
  152.2500    -8.7070    64.3640    52.2470    51.6820    44.1430    22.9180     2.1930 
  152.3750    -8.7920    64.4640    51.7760    51.3760    37.6210    22.7830     2.1730 
  152.5000    -8.8910    61.9480    51.8220    51.5620    33.9760    22.8080     2.1610 
  152.6250    -8.9660    59.1300    52.2970    52.1530    32.2800    22.9420     2.1630 
  152.7500    -8.9740    59.0910    52.7530    52.7150    32.5500    23.0740     2.1760 
  152.8750    -8.9480    61.0690    52.6170    52.7010    33.3660    23.1190     2.1860 
  153.0000    -8.9130    61.7540    51.6140    51.8420    34.5120    23.0750     2.1890 
  153.1250    -8.8810    60.1320    49.8730    50.2400    35.1860    23.0330     2.1880 
  153.2500    -8.8550    58.6450    47.9010    48.3250    31.0040    23.1420     2.2010 
  153.3750    -8.8130    59.4090    46.2880    46.6530    27.7330    23.3950     2.2380 
  153.5000    -8.7590    60.5330    45.2480    45.4620    27.9910    23.7060     2.2900 
  153.6250    -8.6790    61.0130    44.6570    44.7150    32.8960    23.9850     2.3380 
  153.7500    -8.5980    62.3670    44.0720    44.0930    37.8900    24.1830     2.3510 
  153.8750    -8.5450    64.2850    43.0200    43.1510    34.9190    24.3120     2.3310 
  154.0000    -8.5330    64.9770    41.3080    41.6400    31.2810    24.3730     2.2960 
  154.1250    -8.5200    64.9980    39.0120    39.5420    28.9260    24.3630     2.2670 
  154.2500    -8.4700    66.6590    36.4200    37.0420    28.2030    24.2790     2.2620 
  154.3750    -8.3950    69.6010    33.9360    34.5560    26.7850    24.1830     2.2740 
  154.5000    -8.3210    72.4660    31.7910    32.3540    24.0670    24.1340     2.2940 
  154.6250    -8.2950    74.1020    30.1450    30.6230    22.5680    24.1520     2.3140 
  154.7500    -8.3370    72.9770    29.2410    29.6060    22.8470    24.1890     2.3230 
  154.8750    -8.3890    70.7700    29.0710    29.3000    23.5080    24.1880     2.3150 
  155.0000    -8.4140    70.5260    29.6530    29.7390    24.9870    24.1480     2.2930 
  155.1250    -8.4470    72.6530    30.9300    30.8890    26.7950    24.0990     2.2650 
  155.2500    -8.5530    72.7390    32.8520    32.7030    30.7910    24.0830     2.2480 
  155.3750    -8.7310    69.9170    35.1170    34.8560    34.9220    24.1060     2.2480 
  155.5000    -8.9420    66.8060    37.4990    37.1020    36.7910    24.1440     2.2620 
  155.6250    -9.1490    64.8510    39.7680    39.2060    36.8700    24.1640     2.2800 
  155.7500    -9.3490    64.4780    41.6940    40.9400    38.3780    24.1640     2.2920 
  155.8750    -9.5670    65.9100    43.3130    42.3400    40.9730    24.1910     2.2950 
  156.0000    -9.8220    68.2720    44.7790    43.5360    43.7570    24.2770     2.2920 
  156.1250   -10.0770    68.9510    46.3440    44.7430    44.8590    24.4000     2.2870 
  156.2500   -10.2810    65.7110    48.3840    46.2740    43.4490    24.4840     2.2800 
  156.3750   -10.4370    62.2570    51.0100    48.2600    44.0240    24.4880     2.2720 
  156.5000   -10.5700    61.9290    54.0960    50.6370    50.3630    24.4250     2.2640 
  156.6250   -10.6810    65.1380    57.1420    53.0420    60.7510    24.3410     2.2580 
  156.7500   -10.7300    68.4160    59.0870    54.6690    64.5250    24.2660     2.2530 
  156.8750   -10.7020    68.2530    59.3500    55.0320    66.2530    24.1930     2.2480 
  157.0000   -10.6020    65.7340    57.9320    54.0660    65.5570    24.0970     2.2390 
  157.1250   -10.4740    64.6830    55.5150    52.2220    58.3880    23.9580     2.2290 
  157.2500   -10.3470    66.2120    53.3500    50.4540    49.5460    23.7830     2.2280 
  157.3750   -10.1870    65.7960    52.4620    49.6990    48.3010    23.6390     2.2500 
  157.5000    -9.9850    62.6520    53.3070    50.4690    54.2850    23.5890     2.3070 
  157.6250    -9.7720    58.6780    55.7440    52.7690    64.2100    23.6410     2.3970 
  157.7500    -9.5810    56.6170    58.7070    55.8620    70.0350    23.7320     2.5060 
  157.8750    -9.3780    56.9090    59.9930    57.8990    75.1020    23.7830     2.6060 
  158.0000    -9.1430    58.8730    57.5520    57.0110    82.0650    23.7750     2.6780 
  158.1250    -8.8990    61.9750    50.4480    51.9160    90.4200    23.7160     2.7130 
  158.2500    -8.6680    67.0630    39.6170    42.5210    79.2260    23.6090     2.7000 
  158.3750    -8.4690    73.1790    28.6160    31.8770    51.2360    23.4960     2.6490 
  158.5000    -8.2820    77.8260    19.5670    22.3560    35.5770    23.4460     2.5690 
  158.6250    -8.1120    78.4960    13.2400    15.2640    30.5160    23.5190     2.4790 
  158.7500    -7.9700    77.6280     9.8420    11.0590    17.6960    23.7150     2.4070 
  158.8750    -7.9100    77.9030     8.3250     8.6970     8.9370    23.9230     2.3690 
  159.0000    -7.9650    78.2720     7.9220     7.6020     6.8150    24.0700     2.3660 
  159.1250    -8.0990    81.4900     7.9360     7.3500     7.5310    24.1380     2.3880 
