~V
VERS. 2.00: Ver 2.00
~W
STRT.M 60.0000:
STOP.M 190.0000:
STEP.M 0.1250:
NULL. -999.2500:
UWI. F10561:
~C
DEPT.M :
SP.MV :
GR.API :
RML.OHMM :
RI. :
RXO.OHMM :
CALI.CM :
DEN.GM/CC :
~A
# ...
   82.5000   -12.4280    99.4230     7.8730     7.0770     7.2820    24.4310     2.2560 
   82.6250   -12.3970    99.4330     7.1010     6.4350     5.9540    24.4310     2.3070 
   82.7500   -12.3390    99.3320     6.7070     6.0170     5.5950    24.4370     2.3520 
   82.8750   -12.2900    99.8310     6.7000     5.8780     5.8040    24.4610     2.3770 
   83.0000   -12.1900   100.3350     7.0670     6.0490     6.5290    24.5100     2.3820 
   83.1250   -12.0490    98.1960     7.8570     6.5940     6.7480    24.5350     2.3740 
   83.2500   -11.9300    93.1490     8.9510     7.4180     6.9990    24.5420     2.3680 
   83.3750   -11.7980    87.2930    10.1540     8.3800     8.4850    24.5290     2.3680 
   83.5000   -11.6040    84.9410    11.1140     9.2320    12.7210    24.4870     2.3720 
   83.6250   -11.3820    86.4980    11.3240     9.6060    16.3390    24.4150     2.3680 
   83.7500   -11.1520    88.6210    10.8250     9.4610    14.4540    24.4020     2.3520 
   83.8750   -10.8900    91.1830     9.9410     8.9500    10.4340    24.4220     2.3240 
   84.0000   -10.5780    92.7230     9.1410     8.3550     7.7010    24.4600     2.2890 
   84.1250   -10.1880    89.4690     8.8940     8.0040     7.6070    24.5480     2.2530 
   84.2500    -9.7480    84.0480     9.2650     8.0470     8.5930    24.6370     2.2250 
   84.3750    -9.2580    81.7530    10.2220     8.5610     9.7250    24.6150     2.2090 
   84.5000    -8.7170    81.9460    11.6750     9.5760    10.5590    24.5380     2.2060 
   84.6250    -8.1840    78.6710    13.5790    11.1460    13.1830    24.4990     2.2130 
   84.7500    -7.6360    73.8860    15.7790    13.1050    14.1680    24.4940     2.2190 
   84.8750    -7.0250    71.0970    18.1650    15.3130    15.9520    24.5010     2.2180 
   85.0000    -6.4220    70.5110    20.5570    17.5710    18.3440    24.5190     2.2100 
   85.1250    -5.8630    69.2410    22.6430    19.6050    20.1540    24.5380     2.2000 
   85.2500    -5.3450    67.2940    24.2720    21.2740    20.4680    24.5370     2.1910 
   85.3750    -4.8580    66.4930    25.4650    22.5560    19.6940    24.5130     2.1830 
   85.5000    -4.4380    65.9290    26.3990    23.5400    19.4500    24.4810     2.1730 
   85.6250    -4.0890    63.9580    27.2740    24.3530    21.2220    24.4850     2.1630 
   85.7500    -3.7610    62.4660    28.1340    25.0990    24.0350    24.4910     2.1560 
   85.8750    -3.4880    63.4970    28.8570    25.7610    25.8110    24.4980     2.1540 
   86.0000    -3.2600    64.9150    29.3120    26.2930    26.1450    24.5100     2.1600 
   86.1250    -3.0830    64.8750    29.4760    26.6700    25.5680    24.5350     2.1690 
   86.2500    -2.9400    65.0730    29.5860    26.9860    25.1990    24.5470     2.1770 
   86.3750    -2.8280    64.6800    29.8470    27.3340    24.5160    24.5490     2.1800 
   86.5000    -2.7050    61.9020    30.3460    27.7670    24.2140    24.5490     2.1790 
   86.6250    -2.5550    60.2450    30.9850    28.2630    25.4810    24.5490     2.1740 
   86.7500    -2.4270    62.1000    31.4700    28.6850    27.1680    24.5460     2.1690 
   86.8750    -2.3310    63.9990    31.5380    28.8710    28.9250    24.5230     2.1670 
   87.0000    -2.2710    63.9660    31.0050    28.6490    29.3700    24.4660     2.1710 
   87.1250    -2.2360    65.2640    29.7890    27.8480    28.2680    24.4040     2.1820 
   87.2500    -2.1680    67.6570    28.2570    26.6630    26.8390    24.3730     2.1950 
   87.3750    -2.0760    68.2550    26.7740    25.3720    25.8780    24.3500     2.2040 
   87.5000    -2.0030    66.2340    25.6970    24.3050    23.7370    24.3200     2.2080 
   87.6250    -1.9310    63.0790    25.4230    23.8740    21.4910    24.3230     2.2040 
   87.7500    -1.8470    59.6960    25.9520    24.1620    21.4400    24.3680     2.1960 
   87.8750    -1.7730    57.6350    27.2150    25.1490    24.5520    24.4360     2.1870 
   88.0000    -1.6920    57.7910    28.9720    26.6470    27.2210    24.5110     2.1790 
   88.1250    -1.5710    57.9730    30.7740    28.2960    28.7150    24.5400     2.1750 
   88.2500    -1.4810    58.2750    32.1230    29.6680    29.2350    24.5380     2.1750 
   88.3750    -1.4600    60.5980    32.7780    30.5480    29.5620    24.5160     2.1780 
   88.5000    -1.4660    63.5900    32.7930    30.9320    29.0210    24.4990     2.1820 
   88.6250    -1.4900    64.1210    32.4490    30.9490    28.4010    24.4930     2.1850 
   88.7500    -1.6120    62.5770    32.1620    30.8740    27.6380    24.4960     2.1840 
   88.8750    -1.7710    61.3140    32.1390    30.8550    27.8570    24.5040     2.1770 
   89.0000    -1.9240    60.6980    32.4360    30.9860    28.5740    24.5200     2.1650 
   89.1250    -2.1460    60.4610    32.9320    31.2960    28.6380    24.5150     2.1530 
   89.2500    -2.4030    61.7450    33.2440    31.5920    27.7010    24.5080     2.1430 
   89.3750    -2.6730    63.4940    32.9520    31.5640    27.1010    24.4870     2.1400 
   89.5000    -3.0280    64.9040    31.7180    30.8480    27.2370    24.4580     2.1460 
   89.6250    -3.4740    66.0560    29.3930    29.0900    26.1360    24.4490     2.1650 
   89.7500    -3.8890    68.1180    26.5960    26.6420    24.3870    24.4380     2.1930 
   89.8750    -4.3310    70.5320    23.8910    23.9730    21.9370    24.3710     2.2210 
   90.0000    -4.8590    71.7880    21.7150    21.5850    18.8790    24.2300     2.2390 
   90.1250    -5.3770    71.6570    20.3660    19.9540    17.0200    23.9960     2.2340 
   90.2500    -5.8970    70.6890    19.6680    19.0610    17.0540    23.9170     2.2100 
   90.3750    -6.4080    69.1510    19.5180    18.8250    17.7150    23.9900     2.1760 
   90.5000    -6.8860    67.8970    19.8780    19.1530    17.7470    24.0310     2.1450 
   90.6250    -7.3650    68.1890    20.9240    20.1140    17.2880    23.9680     2.1370 
   90.7500    -7.8900    68.4870    22.6430    21.6600    17.5780    23.9710     2.1680 
   90.8750    -8.4240    66.3110    24.9180    23.7400    17.6130    23.9550     2.2390 
   91.0000    -8.9120    61.7900    27.2620    26.0060    19.9120    23.8960     2.3410 
   91.1250    -9.4280    59.0470    28.4650    27.4790    29.3380    23.8220     2.4400 
   91.2500    -9.9590    60.6430    27.7080    27.2980    38.6990    23.7880     2.5090 
   91.3750   -10.4940    65.9870    24.9360    25.1670    34.5410    23.7590     2.5360 
   91.5000   -11.0300    73.4780    20.9650    21.5900    23.2670    23.6720     2.5310 
   91.6250   -11.5290    81.4150    17.0130    17.6080    15.8100    23.5810     2.5020 
   91.7500   -11.9390    87.8250    13.8040    14.1510    12.0670    23.5530     2.4650 
   91.8750   -12.2720    91.1390    11.4630    11.5150    10.6410    23.6590     2.4230 
   92.0000   -12.5740    90.0940     9.8930     9.7000     8.9180    23.7500     2.3820 
   92.1250   -12.8090    86.9390     9.0520     8.6800     8.0000    23.7330     2.3490 
   92.2500   -13.0010    87.0130     8.7360     8.1990     7.7950    23.7040     2.3250 
   92.3750   -13.1660    91.7960     8.8910     8.1710     8.0290    23.8060     2.3080 
   92.5000   -13.2700    96.7940     9.4740     8.5370     8.1140    23.9800     2.2910 
   92.6250   -13.2780    95.7320    10.4860     9.3090     8.7860    24.1060     2.2740 
   92.7500   -13.2580    92.0440    11.7450    10.3570    10.3440    24.1670     2.2520 
   92.8750   -13.2520    89.1070    13.0200    11.5070    12.4210    24.2110     2.2240 
   93.0000   -13.2580    86.2830    13.9310    12.4400    14.1410    24.2780     2.1880 
   93.1250   -13.2700    82.0100    13.9100    12.6260    12.6700    24.2580     2.1530 
   93.2500   -13.2490    80.5270    12.9870    11.9980    11.2280    24.0570     2.1340 
   93.3750   -13.1680    86.9640    11.5020    10.7830    11.4440    23.7180     2.1440 
   93.5000   -13.0690    99.3650    10.0010     9.4140     9.1800    23.3030     2.1890 
   93.6250   -13.0240   107.7510     9.0700     8.3770     6.2510    22.7270     2.2600 
