~V
VERS. 2.00: Ver 2.00
~W
STRT.M 50.0000:
STOP.M 236.0000:
STEP.M 0.1250:
NULL. -999.2500:
UWI. F10596:
~C
DEPT.M :
DEN.GM/CC :
SP.MV :
GR.API :
RML.OHMM :
RI. :
RXO.OHMM :
CALI.CM :
~A
# ...
  207.5000     2.2650   -20.7760    54.8930     6.5200     5.5430     7.8050    24.3510 
  207.6250     2.2890   -20.7400    60.8370     6.7660     5.8190     8.5170    24.3530 
  207.7500     2.3080   -20.7090    64.3890     7.0310     6.0890     8.7420    24.3530 
  207.8750     2.3240   -20.6920    66.2660     7.3010     6.2900     8.7050    24.3510 
  208.0000     2.3350   -20.6730    67.2210     7.5100     6.3760     8.4990    24.3490 
  208.1250     2.3390   -20.6300    64.9210     7.5450     6.3290     8.3820    24.3470 
  208.2500     2.3360   -20.5990    61.6740     7.3990     6.2100     8.2250    24.3340 
  208.3750     2.3340   -20.5830    61.7030     7.1080     6.0700     8.0400    24.3050 
  208.5000     2.3370   -20.5810    65.9330     6.7470     5.9470     7.9110    24.2850 
  208.6250     2.3460   -20.6120    68.1010     6.4110     5.8800     8.1750    24.2770 
  208.7500     2.3550   -20.6420    65.6190     6.1630     5.8690     8.5100    24.2760 
  208.8750     2.3590   -20.6770    62.3070     6.0350     5.9020     8.6670    24.2740 
  209.0000     2.3600   -20.7340    61.8690     6.0480     5.9470     8.3500    24.2720 
  209.1250     2.3600   -20.8330    64.8580     6.2190     5.9720     7.8780    24.2610 
  209.2500     2.3560   -20.9350    66.1950     6.4930     5.9960     7.6140    24.2370 
  209.3750     2.3440   -21.0280    65.3430     6.8520     6.0700     7.7620    24.2160 
  209.5000     2.3240   -21.1120    66.8330     7.2680     6.2430     8.6440    24.2070 
  209.6250     2.3000   -21.1700    71.1160     7.6510     6.5200    10.3520    24.2070 
  209.7500     2.2800   -21.2100    72.6430     7.8530     6.7640    11.5020    24.2050 
  209.8750     2.2640   -21.2130    71.6510     7.7540     6.8260    10.3420    24.1930 
  210.0000     2.2460   -21.1610    74.1270     7.3640     6.6380     8.4910    24.1650 
  210.1250     2.2230   -21.0070    83.2150     6.8760     6.2840     7.7220    24.1380 
  210.2500     2.2070   -20.8040    89.2860     6.5220     5.9630     7.9960    24.1120 
  210.3750     2.2100   -20.5830    86.9690     6.3440     5.7500     8.1280    24.0810 
  210.5000     2.2280   -20.3550    78.9090     6.2660     5.6240     7.6360    24.0610 
  210.6250     2.2490   -20.1400    69.8830     6.1730     5.5070     7.1440    24.0720 
  210.7500     2.2650   -19.9550    63.4380     6.0360     5.3590     6.9410    24.1230 
  210.8750     2.2770   -19.8120    59.7780     5.9050     5.2160     6.8500    24.2090 
  211.0000     2.2880   -19.7140    57.8120     5.8350     5.1280     6.7180    24.3020 
  211.1250     2.3010   -19.6940    57.1660     5.8320     5.1150     6.6610    24.3420 
  211.2500     2.3150   -19.7230    57.0940     5.8390     5.1270     6.6520    24.3710 
  211.3750     2.3250   -19.7800    57.6210     5.8250     5.1260     6.6380    24.4160 
  211.5000     2.3290   -19.8550    57.7810     5.7900     5.0990     6.4360    24.4660 
  211.6250     2.3240   -19.9260    56.2390     5.7730     5.0700     6.2290    24.4860 
  211.7500     2.3180   -19.9740    55.2550     5.8180     5.0840     6.4000    24.4900 
  211.8750     2.3190   -20.0070    56.1220     5.9410     5.1660     6.9460    24.4960 
  212.0000     2.3270   -20.0260    59.8700     6.1130     5.3110     7.4820    24.5130 
  212.1250     2.3350   -20.0270    65.7330     6.2560     5.4690     7.7630    24.5470 
  212.2500     2.3400   -20.0010    68.1450     6.3150     5.5800     7.6700    24.5620 
  212.3750     2.3430   -19.9570    65.3210     6.3000     5.6240     7.5220    24.5660 
  212.5000     2.3450   -19.8910    61.2190     6.2650     5.6230     7.5940    24.5660 
  212.6250     2.3480   -19.8240    63.1870     6.2620     5.6150     7.8090    24.5660 
  212.7500     2.3510   -19.7300    66.8310     6.2770     5.6130     7.8920    24.5660 
  212.8750     2.3540   -19.6400    67.7710     6.2800     5.5980     7.8250    24.5660 
  213.0000     2.3620   -19.5620    67.3750     6.2590     5.5530     7.5620    24.5590 
  213.1250     2.3700   -19.4660    67.1480     6.2390     5.4800     7.5130    24.5380 
  213.2500     2.3730   -19.3910    65.9090     6.2540     5.4140     7.6390    24.5080 
  213.3750     2.3660   -19.3250    63.6950     6.3210     5.3860     7.6960    24.4930 
  213.5000     2.3510   -19.2690    63.4630     6.4360     5.4170     7.6500    24.4920 
  213.6250     2.3410   -19.2280    64.7930     6.5860     5.5260     7.8250    24.4950 
  213.7500     2.3410   -19.2140    64.5530     6.7400     5.6920     8.2950    24.4960 
  213.8750     2.3480   -19.2140    64.2070     6.8620     5.8890     8.9080    24.4930 
  214.0000     2.3520   -19.2200    64.7450     6.9070     6.0620     9.3230    24.4910 
  214.1250     2.3480   -19.2340    66.6410     6.8370     6.1350     8.9750    24.5010 
  214.2500     2.3410   -19.2350    69.1600     6.6930     6.1020     8.6100    24.5130 
  214.3750     2.3350   -19.2280    71.3940     6.5010     5.9880     8.8110    24.5150 
  214.5000     2.3280   -19.1890    74.9210     6.2700     5.8200     8.7110    24.5180 
  214.6250     2.3150   -19.0860    80.3980     6.0160     5.6140     8.0230    24.5340 
  214.7500     2.3030   -18.9510    85.5300     5.7700     5.3980     7.4850    24.5310 
  214.8750     2.2970   -18.7760    85.5390     5.5660     5.2090     7.3060    24.4810 
  215.0000     2.3020   -18.5670    80.9040     5.4410     5.0850     7.2360    24.3420 
  215.1250     2.3140   -18.3780    77.0240     5.4350     5.0590     7.0800    24.1740 
  215.2500     2.3220   -18.1950    74.1350     5.5120     5.0890     7.0000    24.0780 
  215.3750     2.3210   -18.0430    71.2400     5.6180     5.1280     6.9460    24.0480 
  215.5000     2.3150   -17.9810    70.1230     5.6910     5.1370     6.8780    24.0280 
  215.6250     2.3080   -18.0190    72.6090     5.6680     5.1110     6.8120    23.9530 
  215.7500     2.2990   -18.1430    74.9700     5.5660     5.0700     6.7440    23.8180 
  215.8750     2.2860   -18.3210    74.2230     5.4340     5.0260     6.6410    23.6870 
  216.0000     2.2710   -18.5420    72.3610     5.3270     4.9830     6.5100    23.6220 
  216.1250     2.2640   -18.7800    69.5860     5.2870     4.9470     6.4360    23.6200 
  216.2500     2.2680   -19.0280    64.4890     5.3250     4.9350     6.5770    23.6830 
  216.3750     2.2780   -19.2430    58.7010     5.4460     4.9690     6.8220    23.8330 
  216.5000     2.2910   -19.3910    56.4490     5.6360     5.0600     7.0580    23.9800 
  216.6250     2.3050   -19.5190    58.1290     5.8480     5.1960     7.1880    24.0370 
  216.7500     2.3190   -19.5830    58.5120     6.0110     5.3280     7.2870    24.0460 
  216.8750     2.3290   -19.5920    56.6170     6.0930     5.4240     7.3600    24.0460 
  217.0000     2.3350   -19.5980    56.5310     6.1110     5.4750     7.4190    24.0460 
  217.1250     2.3360   -19.6000    60.2440     6.1270     5.5040     7.5470    24.0450 
  217.2500     2.3340   -19.5740    65.3060     6.1920     5.5460     7.7700    24.0330 
  217.3750     2.3330   -19.5710    68.2920     6.3080     5.6130     7.9580    24.0040 
  217.5000     2.3320   -19.5980    67.2560     6.4410     5.6950     8.0070    23.9800 
  217.6250     2.3350   -19.5970    63.3740     6.5340     5.7670     7.9940    23.9710 
  217.7500     2.3420   -19.6010    60.1570     6.5610     5.8110     8.1620    23.9580 
  217.8750     2.3460   -19.6380    60.0490     6.5160     5.8110     8.3490    23.9200 
  218.0000     2.3440   -19.6650    63.1340     6.4020     5.7570     8.2800    23.8570 
  218.1250     2.3400   -19.6400    65.3960     6.2150     5.6290     7.9920    23.8280 
  218.2500     2.3360   -19.6070    64.1230     5.9750     5.4430     7.6310    23.8210 
  218.3750     2.3330   -19.5940    61.4230     5.7020     5.2220     7.2960    23.8230 
  218.5000     2.3310   -19.5800    59.8340     5.4200     4.9950     6.9100    23.8230 
  218.6250     2.3290   -19.5630    57.8420     5.1760     4.8050     6.5730    23.8200 
