~V
VERS. 2.00: Ver 2.00
~W
STRT.M 58.0000:
STOP.M 214.0000:
STEP.M 0.1250:
NULL. -999.2500:
UWI. F10594:
~C
DEPT.M :
GR.API :
RML.OHMM :
RI. :
RXO.OHMM :
CALI.CM :
DEN.GM/CC :
SP.MV :
~A
# ...
  204.2500    44.2600     7.2680     5.5470     7.3400    24.4500     2.4730   -31.4100 
  204.3750    44.2600     7.2600     5.5290     6.6840    24.4570     2.4680   -31.2600 
  204.5000    44.2600     7.2000     5.4760     6.5190    24.4780     2.4500   -31.1160 
  204.6250    44.2600     7.0750     5.3850     6.9050    24.5220     2.4210   -30.9820 
  204.7500    44.2600     6.8850     5.2590     7.0330    24.5600     2.3820   -30.8610 
  204.8750    44.2600     6.6440     5.1010     6.9910    24.6040     2.3390   -30.7480 
  205.0000    44.2600     6.3930     4.9310     6.6190    24.6690     2.3010   -30.6410 
  205.1250    44.2600     6.1980     4.7880     5.9340    24.9060     2.2840   -30.5490 
  205.2500    44.2600     6.0780     4.6910     5.6970    25.2260     2.2880   -30.4670 
  205.3750    44.2600     6.0200     4.6440     6.2920    25.2230     2.3060   -30.3930 
  205.5000    44.2600     5.9920     4.6330     7.2650    24.8620     2.3290   -30.3230 
  205.6250    44.2600     5.9600     4.6390     7.2850    24.6710     2.3550   -30.2520 
  205.7500    44.2600     5.9130     4.6460     6.4710    24.6970     2.3810   -30.1630 
  205.8750    44.2600     5.8490     4.6530     6.0870    24.7470     2.3980   -30.0530 
  206.0000    44.2600     5.7640     4.6590     6.2760    24.7680     2.3970   -29.9230 
  206.1250    44.2600     5.6450     4.6530     6.3720    24.7070     2.3780   -29.7770 
  206.2500    44.2600     5.5000     4.6210     5.9580    24.5390     2.3540   -29.6230 
  206.3750    44.2600     5.3340     4.5530     5.3650    24.3480     2.3420   -29.4670 
  206.5000    44.2600     5.1580     4.4490     4.9590    24.2520     2.3540   -29.3220 
  206.6250    44.2600     5.0150     4.3350     4.9390    24.3720     2.3910   -29.2080 
  206.7500    44.2600     4.9470     4.2570     5.0480    24.5690     2.4260   -29.1350 
  206.8750    44.2600     4.9800     4.2400     5.2690    24.5730     2.4360   -29.1100 
  207.0000    44.2600     5.1020     4.2810     5.6880    24.4780     2.4160   -29.1320 
  207.1250    44.2600     5.2650     4.3590     6.1520    24.7560     2.3800   -29.2040 
  207.2500    44.2600     5.3950     4.4260     6.0350    25.4520     2.3540   -29.3130 
  207.3750    44.2600     5.4520     4.4540     5.5210    26.0190     2.3490   -29.4500 
  207.5000    44.2600     5.4380     4.4360     5.1190    26.0930     2.3630   -29.6070 
  207.6250    44.2600     5.3770     4.3840     5.0380    25.7680     2.3740   -29.7690 
  207.7500    44.2600     5.3020     4.3270     5.1270    25.1320     2.3680   -29.9180 
  207.8750    44.2600     5.2260     4.2800     5.2120    24.6020     2.3500   -30.0500 
  208.0000    44.2600     5.1560     4.2460     5.1540    24.4310     2.3320   -30.1630 
  208.1250    44.2600     5.1060     4.2220     4.9420    24.5510     2.3280   -30.2430 
  208.2500    44.2600     5.0950     4.2040     4.8700    24.6660     2.3380   -30.2930 
  208.3750    44.2600     5.1440     4.2050     4.9820    24.7450     2.3580   -30.3170 
  208.5000    44.2600     5.2610     4.2440     5.2710    24.7820     2.3790   -30.3240 
  208.6250    44.2600     5.4390     4.3360     5.5170    24.7910     2.3930   -30.3300 
  208.7500    44.2600     5.6340     4.4510     5.7990    24.7760     2.4040   -30.3510 
  208.8750    44.2600     5.8170     4.5590     6.2790    24.7050     2.4140   -30.3920 
  209.0000    44.2600     5.9540     4.6360     6.6360    24.5110     2.4240   -30.4550 
  209.1250    44.2600     6.0100     4.6690     6.9730    24.1210     2.4310   -30.5630 
  209.2500    44.2600     6.0040     4.6810     7.5740    23.9460     2.4350   -30.7160 
  209.3750    44.2600     5.9730     4.6860     8.1600    23.9060     2.4380   -30.9080 
  209.5000    44.2600     5.9490     4.6920     8.4350    23.9110     2.4420   -31.1270 
  209.6250    44.2600     5.9460     4.6950     8.1800    23.9490     2.4430   -31.3470 
  209.7500    44.2600     5.9510     4.6940     7.9290    24.0300     2.4370   -31.5380 
  209.8750    44.2600     5.9510     4.6940     7.8500    24.1790     2.4200   -31.6700 
  210.0000    44.2600     5.9510     4.6940     7.8300    24.4300     2.3910   -31.7180 
  210.1250    44.2600     5.9510     4.6940     7.6220    24.8050     2.3610   -31.6210 
  210.2500    44.2600     5.9510     4.6940     7.6640    25.0000     2.3450   -31.3660 
  210.3750    44.2600     5.9510     4.6940     7.8290    24.8080     2.3460   -30.9480 
  210.5000    44.2600     5.9510     4.6940     8.0800    24.3640     2.3530   -30.3660 
  210.6250    44.2600     5.9510     4.6940     9.8150    23.9850     2.3570   -29.6080 
  210.7500    44.2600     5.9510     4.6940    13.0790    23.8270     2.3610   -28.7330 
  210.8750    44.2600     5.9510     4.6940    14.2960    23.8790     2.3690   -27.8030 
  211.0000    44.2600     5.9510     4.6940    10.3100    24.1380     2.3760   -26.9100 
  211.1250    44.2600     5.9510     4.6940     6.8790    24.4210     2.3640   -26.1210 
  211.2500    44.2600     5.9510     4.6940     5.6030    24.4320     2.3280   -25.4560 
  211.3750    44.2600     5.9510     4.6940     5.3240    24.2140     2.2840   -24.9270 
  211.5000    44.2600     5.9510     4.6940     5.0900    23.9960     2.2630   -24.5400 
  211.6250    44.2600     5.9510     4.6940     4.8990    23.7970     2.2920   -24.3260 
  211.7500    44.2600     5.9510     4.6940     4.9360    23.5210     2.3460   -24.2550 
  211.8750    44.2600     5.9510     4.6940     5.1590    23.1820     2.3860   -24.2550 
  212.0000    44.2600     5.9510     4.6940     5.4070    22.8430     2.3950   -21.5290 
  212.1250    44.2600     5.9510     4.6940     5.4910    22.6950     2.3860  -999.2500 
  212.2500    44.2600     5.9510     4.6940     5.7140    22.6540     2.3800  -999.2500 
  212.3750    44.2600     5.9510     4.6940     6.0200    22.6480     2.3850  -999.2500 
  212.5000    44.2600     5.9510     4.6940     6.4710    22.6510     2.3940  -999.2500 
  212.6250    44.2600     5.9510     4.6940     6.9730    22.6460     2.3970  -999.2500 
  212.7500    44.2600     5.9510     4.6940     7.4310    22.6400     2.3920  -999.2500 
  212.8750    44.2600     5.9510     4.6940     8.0600    22.6290     2.3800  -999.2500 
  213.0000    44.2600     5.9510     4.6940     8.4260    22.6340     2.3690  -999.2500 
  213.1250    44.2600     5.9510     4.6940     8.6480    22.6390     2.3620  -999.2500 
  213.2500    44.2600     5.9510     4.6940     8.8940    22.5270     2.3590  -999.2500 
  213.3750    44.2600     5.9510     4.6940     9.5740    22.0440     2.3580  -999.2500 
  213.5000    44.2600     5.9510     4.6940    11.0270    21.0300     2.3590  -999.2500 
  213.6250    44.2600     5.9510     4.6940    11.4680    19.3300     2.3580  -999.2500 
  213.7500    44.2600     5.9510     4.6940     9.4790    16.7520     2.3570  -999.2500 
  213.8750    44.2600     5.9510     4.6940     7.6180    14.4030     2.3540  -999.2500 
  214.0000    44.2600     5.9510     4.6940     6.9420    13.4730     2.3510  -999.2500 
