~V
VERS. 2.00: Ver 2.00
~W
STRT.M 60.0000:
STOP.M 207.0000:
STEP.M 0.1250:
NULL. -999.2500:
UWI. F10577:
~C
DEPT.M :
DEN.GM/CC :
SP.MV :
GR.API :
RML.OHMM :
RI. :
RXO.OHMM :
CALI.CM :
~A
# ...
  172.5000     2.2010   -21.3130    78.0290    73.3350    67.0020    63.9710    24.1090 
  172.6250     2.2070   -21.1200    78.1170    70.4700    63.6600    53.5730    24.1090 
  172.7500     2.2090   -20.8950    73.9940    66.5380    59.4380    57.9100    24.1050 
  172.8750     2.2130   -20.6300    72.7700    60.5500    53.4340    66.1460    24.0910 
  173.0000     2.2240   -20.3370    79.4290    52.1390    45.5170    58.7610    24.0610 
  173.1250     2.2390   -20.0450    90.3370    42.2560    36.7000    39.8770    24.0470 
  173.2500     2.2470   -19.7570    98.8260    33.2650    28.8300    28.5460    24.0420 
  173.3750     2.2430   -19.4960   102.9670    26.4960    22.9710    23.9580    24.0420 
  173.5000     2.2290   -19.2500   102.8550    22.2790    19.4770    20.2030    24.0420 
  173.6250     2.2060   -19.0290    97.5600    20.8360    18.6890    17.6170    24.0420 
  173.7500     2.1830   -18.8480    91.1820    21.6620    20.1230    25.1320    24.0420 
  173.8750     2.1740   -18.6890    86.0940    24.8540    23.7510    45.8440    24.0400 
  174.0000     2.1830   -18.5730    81.5440    30.6570    29.6630    54.8690    24.0300 
  174.1250     2.1930   -18.4860    78.9030    40.2700    38.6970    44.6450    24.0170 
  174.2500     2.1890   -18.4110    78.8010    54.1710    51.0440    56.0130    24.0190 
  174.3750     2.1720   -18.3320    79.4080    72.9360    67.2650    89.1180    24.0340 
  174.5000     2.1550   -18.2680    77.0000    96.1430    87.5270   118.7430    24.0430 
  174.6250     2.1430   -18.2140    72.0620   121.7210   110.9690   121.3620    24.0450 
  174.7500     2.1360   -18.1700    69.2050   144.2800   132.7080   136.0270    24.0500 
  174.8750     2.1290   -18.1530    67.7690   157.9820   146.2390   143.8790    24.0650 
  175.0000     2.1220   -18.1460    67.2610   159.3920   146.9950   140.8240    24.0950 
  175.1250     2.1330   -18.1460    67.6080   148.1140   134.4450   138.0830    24.0930 
  175.2500     2.1530   -18.1520    67.0360   129.8120   115.3010   135.0840    24.0370 
  175.3750     2.1830   -18.1720    65.5420   108.4190    94.3260   116.3040    23.9420 
  175.5000     2.2160   -18.1950    66.4550    88.0060    75.5610    80.9930    23.8990 
  175.6250     2.2490   -18.2080    72.5800    72.2410    61.8340    51.8090    23.8960 
  175.7500     2.2630   -18.2070    78.7070    61.1180    52.3160    44.4780    23.9060 
  175.8750     2.2510   -18.1780    82.6270    53.8720    46.0810    44.0970    23.9090 
  176.0000     2.2400   -18.1210    84.7240    49.4270    42.1710    45.2280    23.9070 
  176.1250     2.2310   -18.0420    86.2150    46.9300    39.9370    45.8640    23.9030 
  176.2500     2.2290   -17.9500    88.1980    45.1990    38.5100    42.5730    23.8990 
  176.3750     2.2220   -17.8500    90.4000    43.7780    37.5830    40.2580    23.8980 
  176.5000     2.2120   -17.7490    90.4780    42.6210    37.0910    37.0760    23.8970 
  176.6250     2.2020   -17.6480    86.9190    42.2510    37.4060    35.8230    23.8970 
  176.7500     2.1950   -17.5410    82.6080    43.2840    39.0160    34.3710    23.8970 
  176.8750     2.1870   -17.4350    80.5290    46.6240    42.7260    39.7480    23.8970 
  177.0000     2.1770   -17.3280    79.7280    53.3920    49.4180    52.8920    23.8910 
  177.1250     2.1690   -17.2150    78.2670    65.3060    60.2870    70.2840    23.8650 
  177.2500     2.1690   -17.1020    75.9080    80.9540    74.0170    89.8540    23.8190 
  177.3750     2.1760   -16.9660    72.8390    97.0890    87.8270   119.4870    23.7680 
  177.5000     2.1930   -16.7850    69.1040   108.4620    97.1040   138.6890    23.6750 
  177.6250     2.2290   -16.5860    66.3570   108.4460    95.9230    94.3140    23.3420 
  177.7500     2.2740   -16.3730    67.6870    97.4270    85.1230    50.1730    22.8050 
  177.8750     2.3120   -16.1220    73.5500    77.8300    67.4130    34.2640    22.4520 
  178.0000     2.3350   -15.8510    79.5750    54.9320    47.2110    35.4500    22.6290 
  178.1250     2.3460   -15.5610    79.6030    35.6220    29.9190    42.1760    23.1480 
  178.2500     2.3470   -15.2800    74.6110    22.1110    17.7430    31.8540    23.5020 
  178.3750     2.3360   -15.0410    68.9190    13.7710    10.4440    15.7560    23.6380 
  178.5000     2.3210   -14.8620    65.5980     9.0690     6.6750     7.1010    23.7050 
  178.6250     2.3140   -14.7570    63.6560     6.8130     5.2010     5.1790    23.7430 
  178.7500     2.3140   -14.7250    60.9780     5.6940     4.7150     4.8600    23.7590 
  178.8750     2.3200   -14.7890    58.4360     5.2760     4.7870     5.0330    23.7610 
  179.0000     2.3290   -14.9350    58.3300     5.2820     5.1550     5.3190    23.7610 
  179.1250     2.3320   -15.1860    59.9090     5.6000     5.4990     5.5550    23.7610 
  179.2500     2.3290   -15.5090    60.5300     5.9390     5.7240     5.7320    23.7610 
  179.3750     2.3220   -15.8780    62.0540     6.1290     5.9050     5.9640    23.7610 
  179.5000     2.3160   -16.3020    65.5640     6.2360     6.0700     6.3300    23.7610 
  179.6250     2.3110   -16.7800    69.2540     6.3860     6.2980     6.9560    23.7610 
  179.7500     2.3070   -17.3130    72.8910     6.6630     6.6330     8.1320    23.7610 
  179.8750     2.2990   -17.8500    79.8030     7.1010     7.0930     9.8890    23.7610 
  180.0000     2.2880   -18.3780    89.7700     7.7150     7.6750    11.4520    23.7610 
  180.1250     2.2790   -18.8460    97.0790     8.5410     8.4010    12.3780    23.7600 
  180.2500     2.2720   -19.2410   100.5560     9.5330     9.2580    12.8950    23.7520 
  180.3750     2.2710   -19.5590   102.6800    10.6680    10.2310    13.8450    23.7280 
  180.5000     2.2790   -19.7570   104.7890    11.9130    11.2750    15.6820    23.6750 
  180.6250     2.3010   -19.7840   105.2720    13.1140    12.2590    18.2910    23.6310 
  180.7500     2.3250   -19.6690   102.9110    13.9400    12.9380    19.3300    23.6030 
  180.8750     2.3420   -19.4430   100.5330    14.0130    12.9910    18.5220    23.5780 
  181.0000     2.3490   -19.1040   100.8170    13.1020    12.2160    17.6200    23.5550 
  181.1250     2.3450   -18.6480   100.6950    11.2790    10.6650    16.1400    23.5460 
  181.2500     2.3330   -18.1240    97.8310     9.2800     8.9120    12.4110    23.5440 
  181.3750     2.3180   -17.5960    94.5580     7.5990     7.3420     8.3380    23.5440 
  181.5000     2.3070   -17.1200    91.2460     6.4720     6.1590     6.1440    23.5440 
  181.6250     2.3040   -16.7240    85.6020     5.9720     5.4670     5.5740    23.5430 
  181.7500     2.3040   -16.3670    80.5530     5.8660     5.1330     5.6600    23.5410 
  181.8750     2.3030   -16.0370    79.3730     6.0030     5.0730     5.8680    23.5420 
  182.0000     2.3000   -15.7230    82.0040     6.2200     5.1790     6.0470    23.5420 
  182.1250     2.2980   -15.4720    85.4350     6.3620     5.3170     5.9860    23.5420 
  182.2500     2.3020   -15.2560    87.6810     6.3860     5.3790     5.7030    23.5410 
  182.3750     2.3100   -15.0210    85.3460     6.3160     5.3390     5.3260    23.5410 
  182.5000     2.3200   -14.7830    77.2960     6.2130     5.2220     5.0420    23.5400 
  182.6250     2.3270   -14.5490    68.9440     6.1400     5.0750     4.9780    23.5430 
  182.7500     2.3340   -14.3430    63.7610     6.1080     4.9420     5.0310    23.5440 
  182.8750     2.3410   -14.1830    60.5650     6.0900     4.8330     5.1410    23.5440 
  183.0000     2.3470   -14.1050    58.9810     6.0420     4.7390     5.2730    23.5430 
  183.1250     2.3500   -14.1130    59.7060     5.9440     4.6560     5.3380    23.5420 
  183.2500     2.3570   -14.1750    60.2200     5.8770     4.6110     5.3720    23.5410 
  183.3750     2.3710   -14.2970    58.9480     5.9770     4.6720     5.5490    23.5430 
  183.5000     2.3940   -14.4160    57.7850     6.3800     4.9280     6.1550    23.5440 
  183.6250     2.4350   -14.5280    58.5930     7.1810     5.4730     7.7630    23.5440 
