~V
VERS. 2.00: Ver 2.00
~W
STRT.M 47.0000:
STOP.M 236.0000:
STEP.M 0.1250:
NULL. -999.2500:
UWI. F10597:
~C
DEPT.M :
SP.MV :
DEN.GM/CC :
GR.API :
RML.OHMM :
RI. :
RXO.OHMM :
CALI.CM :
~A
# ...
  204.5000   -14.8310     2.3500    70.2980    14.8410    12.9240    21.2360    24.4720 
  204.6250   -15.1240     2.3420    73.1520    14.3620    12.7540    20.0870    24.4720 
  204.7500   -15.4590     2.3350    72.0290    14.0640    12.7930    19.7670    24.4720 
  204.8750   -15.7960     2.3270    69.7920    14.0050    13.0130    21.0040    24.4720 
  205.0000   -16.1130     2.3200    73.7450    14.1540    13.3370    23.3000    24.4720 
  205.1250   -16.4120     2.3200    80.5740    14.2690    13.5290    23.8220    24.4720 
  205.2500   -16.6930     2.3290    83.0990    14.0800    13.3630    21.5570    24.4720 
  205.3750   -16.9430     2.3460    79.1790    13.3900    12.7300    18.4290    24.4720 
  205.5000   -17.0850     2.3560    73.5700    12.2010    11.6870    15.3240    24.4720 
  205.6250   -17.1750     2.3570    70.7770    10.9190    10.5690    13.4020    24.4720 
  205.7500   -17.1870     2.3510    73.2570     9.8270     9.6060    12.5130    24.4720 
  205.8750   -17.1020     2.3400    79.3970     9.0510     8.9010    11.9490    24.4720 
  206.0000   -16.9400     2.3220    84.0890     8.6040     8.5280    11.3030    24.4690 
  206.1250   -16.6870     2.3030    86.2260     8.4210     8.3720    11.4480    24.4540 
  206.2500   -16.3380     2.2930    88.8100     8.5930     8.2260    11.3630    24.4180 
  206.3750   -15.8690     2.2960    91.6080     8.8860     8.0870    11.0060    24.3750 
  206.5000   -15.3630     2.3080    90.9190     8.9410     7.8630    10.7300    24.3370 
  206.6250   -14.8250     2.3200    86.1230     8.5500     7.5250     9.7160    24.3240 
  206.7500   -14.2880     2.3310    78.4100     7.7510     7.0980     8.3450    24.3210 
  206.8750   -13.7820     2.3380    70.6770     6.7950     6.6600     7.5210    24.3210 
  207.0000   -13.2680     2.3430    67.3610     6.1000     6.3270     7.3530    24.3200 
  207.1250   -12.8200     2.3480    66.9140     5.8420     6.1300     7.2140    24.3180 
  207.2500   -12.4330     2.3530    65.6680     5.9720     6.0440     7.2530    24.3180 
  207.3750   -12.1400     2.3550    62.4680     6.2920     6.0160     7.5200    24.3200 
  207.5000   -11.9030     2.3530    60.7570     6.5440     5.9850     7.5820    24.3200 
  207.6250   -11.7310     2.3540    62.4170     6.5940     5.9240     7.1830    24.3140 
  207.7500   -11.6040     2.3600    65.7380     6.4500     5.8440     6.7320    24.2870 
  207.8750   -11.5110     2.3660    67.4960     6.2280     5.7810     6.6750    24.2310 
  208.0000   -11.5520     2.3650    68.3580     6.1450     5.7990     7.3060    24.1940 
  208.1250   -11.6610     2.3620    70.7870     6.2830     5.9230     8.3530    24.1800 
  208.2500   -11.8290     2.3590    74.1430     6.5620     6.1480     9.0400    24.1790 
  208.3750   -12.0120     2.3490    77.1510     6.8310     6.4170     8.5710    24.1720 
  208.5000   -12.1170     2.3290    83.0330     7.0180     6.6450     8.0820    24.1500 
  208.6250   -12.0730     2.3030    92.6280     7.2290     6.7960     8.4830    24.1090 
  208.7500   -11.9190     2.2790    99.9490     7.5420     6.8490     8.9300    24.0570 
  208.8750   -11.7070     2.2650    98.7990     7.8630     6.7540     8.4940    23.9940 
  209.0000   -11.4120     2.2690    88.5200     7.8950     6.4090     7.1400    23.9630 
  209.1250   -11.0840     2.2850    76.1670     7.5580     5.8850     6.0670    23.9530 
  209.2500   -10.7280     2.3070    65.9490     7.0080     5.3260     5.6920    23.9520 
  209.3750   -10.3700     2.3280    61.4370     6.5260     4.9010     5.7350    23.9520 
  209.5000   -10.1120     2.3380    63.1860     6.3440     4.7390     5.8500    23.9630 
  209.6250    -9.9940     2.3410    64.0820     6.3620     4.7590     5.8670    24.0040 
  209.7500   -10.0140     2.3380    61.9800     6.4070     4.8590     5.7820    24.0820 
  209.8750   -10.1200     2.3320    59.6770     6.3520     4.9660     5.6730    24.1480 
  210.0000   -10.2580     2.3330    59.3260     6.2420     5.0660     5.7140    24.1740 
  210.1250   -10.3480     2.3420    59.4530     6.2590     5.1880     6.0290    24.1790 
  210.2500   -10.3930     2.3580    60.3580     6.4840     5.3380     6.5810    24.1780 
  210.3750   -10.4250     2.3760    62.6520     6.8420     5.4950     7.1880    24.1770 
  210.5000   -10.4390     2.3860    64.4310     7.1160     5.6090     7.1450    24.1740 
  210.6250   -10.4370     2.3790    65.4030     7.1710     5.6610     6.8510    24.1730 
  210.7500   -10.4030     2.3560    65.9790     7.0470     5.6580     6.3190    24.1710 
  210.8750   -10.3520     2.3290    65.6630     6.9370     5.6340     6.1510    24.1710 
  211.0000   -10.2430     2.3190    64.4980     7.0460     5.6250     6.4130    24.1720 
  211.1250   -10.1500     2.3240    63.8620     7.2530     5.6310     6.6280    24.1720 
  211.2500   -10.1030     2.3370    64.1340     7.3590     5.6270     6.6540    24.1710 
  211.3750   -10.0710     2.3510    65.7190     7.2770     5.5850     6.6050    24.1710 
  211.5000   -10.0420     2.3610    67.9690     7.0860     5.5000     6.5620    24.1720 
  211.6250   -10.0220     2.3690    69.3540     6.9200     5.4190     6.5510    24.1730 
  211.7500   -10.0110     2.3740    69.0580     6.8050     5.3860     6.5620    24.1720 
  211.8750   -10.0220     2.3780    67.6470     6.7200     5.4300     6.6550    24.1730 
  212.0000   -10.0510     2.3780    66.5180     6.6430     5.5690     6.9720    24.1700 
  212.1250   -10.0710     2.3750    66.4990     6.6060     5.7710     7.4910    24.1610 
  212.2500   -10.0810     2.3710    66.8360     6.6450     5.9980     8.1430    24.1400 
  212.3750   -10.0770     2.3700    66.7330     6.7100     6.1980     8.6890    24.1150 
  212.5000   -10.0750     2.3720    66.4200     6.6330     6.2990     8.8770    24.1030 
  212.6250   -10.0560     2.3700    66.8220     6.3920     6.2840     8.1710    24.1010 
  212.7500    -9.9900     2.3610    67.9000     6.1000     6.1670     7.5780    24.1020 
  212.8750    -9.8510     2.3460    68.6390     5.8980     5.9990     7.8140    24.0970 
  213.0000    -9.7090     2.3330    69.0100     5.8500     5.8200     8.4050    24.0580 
  213.1250    -9.5760     2.3180    73.4780     5.8710     5.6160     7.7100    23.9800 
  213.2500    -9.4250     2.2990    83.5660     5.9220     5.3510     6.4440    23.8890 
  213.3750    -9.2470     2.2760    93.9250     5.9980     5.0270     5.5540    23.8000 
  213.5000    -9.0480     2.2580    96.6130     6.1440     4.7190     5.2350    23.7070 
  213.6250    -8.8320     2.2490    95.6120     6.3920     4.5200     5.2050    23.6690 
  213.7500    -8.6610     2.2500    95.8690     6.6930     4.4750     5.3600    23.6600 
  213.8750    -8.5630     2.2540    95.9690     6.9390     4.5610     5.5610    23.6600 
  214.0000    -8.5430     2.2590    90.0130     6.9960     4.7100     5.6270    23.6600 
  214.1250    -8.5940     2.2660    81.3970     6.9380     4.8320     5.5790    23.6600 
  214.2500    -8.7130     2.2750    76.5070     6.9100     4.9000     5.4610    23.6600 
  214.3750    -8.8620     2.2830    76.8060     6.9930     4.9150     5.3150    23.6600 
  214.5000    -8.9750     2.2910    75.3920     7.1490     4.8970     5.2900    23.6600 
  214.6250    -9.0760     2.3030    67.4000     7.2320     4.8850     5.4920    23.6740 
  214.7500    -9.1540     2.3170    57.8420     7.1710     4.9090     5.7280    23.7570 
  214.8750    -9.1980     2.3280    54.5370     7.0340     4.9820     5.9130    23.9780 
  215.0000    -9.1710     2.3340    56.2030     7.0050     5.0930     6.0290    24.3000 
  215.1250    -9.0730     2.3360    58.0940     7.1330     5.2060     6.1580    24.5090 
  215.2500    -8.9160     2.3360    59.9910     7.3190     5.2960     6.2840    24.5890 
  215.3750    -8.7520     2.3370    62.1950     7.4570     5.3500     6.4450    24.6140 
  215.5000    -8.6200     2.3400    62.4940     7.5130     5.3780     6.5170    24.6530 
  215.6250    -8.5050     2.3390    60.3600     7.5460     5.4010     6.6230    24.7200 
