~V
VERS. 2.00: Ver 2.00
~W
STRT.M 50.0000:
STOP.M 199.0000:
STEP.M 0.1250:
NULL. -999.2500:
UWI. F10575:
~C
DEPT.M :
DEN.GM/CC :
SP.MV :
GR.API :
RML.OHMM :
RI. :
RXO.OHMM :
CALI.CM :
~A
# ...
  117.5000     2.4700   -22.7660    51.0190    32.5920    33.7290    32.7560    22.2570 
  117.6250     2.4850   -22.6810    53.2200    32.0900    33.1780    31.7660    22.2770 
  117.7500     2.4830   -22.6260    55.3470    31.4930    32.3560    26.7970    22.2690 
  117.8750     2.4650   -22.5660    54.9010    31.0190    31.5930    23.0450    22.2600 
  118.0000     2.4470   -22.4790    54.4920    30.7710    31.1180    21.7830    22.2570 
  118.1250     2.4390   -22.3540    55.2440    30.6880    30.9760    23.1030    22.2540 
  118.2500     2.4370   -22.2140    54.1890    30.5270    30.8720    24.5860    22.2580 
  118.3750     2.4410   -22.0500    52.0440    30.0950    30.5070    24.1040    22.2700 
  118.5000     2.4450   -21.8750    51.5150    29.3380    29.7050    22.3760    22.2440 
  118.6250     2.4420   -21.6950    52.7340    28.3990    28.5730    21.0370    22.0630 
  118.7500     2.4370   -21.5090    52.5610    27.5890    27.5460    20.3070    21.8670 
  118.8750     2.4390   -21.3450    51.5040    27.1190    26.9270    19.7330    21.8920 
  119.0000     2.4510   -21.1610    51.8800    27.0870    26.8540    19.3180    22.2410 
  119.1250     2.4690   -20.9730    54.8430    27.5960    27.3840    20.3710    22.5760 
  119.2500     2.4900   -20.8100    57.5760    28.5940    28.3420    22.0590    22.7860 
  119.3750     2.5120   -20.6740    56.8240    30.1390    29.7010    24.0840    22.7060 
  119.5000     2.5300   -20.5020    52.8030    32.2820    31.4670    26.5640    22.6490 
  119.6250     2.5390   -20.3020    49.6320    34.8770    33.5690    29.6050    22.7390 
  119.7500     2.5400   -20.1420    50.5600    37.2680    35.5620    31.0990    22.8130 
  119.8750     2.5350   -20.0450    53.3070    38.7340    36.8770    34.6710    22.7470 
  120.0000     2.5290   -20.0130    53.8720    38.7110    36.9910    38.0580    22.4920 
  120.1250     2.5210   -20.0390    52.7360    36.9740    35.5510    36.3070    22.2270 
  120.2500     2.5090   -20.1230    53.2040    34.3970    33.2380    29.9660    22.2180 
  120.3750     2.4890   -20.2480    56.2860    31.6730    30.6850    25.3390    22.3370 
  120.5000     2.4610   -20.4100    59.3100    29.3250    28.3980    23.6370    22.3980 
  120.6250     2.4370   -20.5990    59.4790    27.7050    26.7770    22.7590    22.2490 
  120.7500     2.4310   -20.7730    58.2700    26.7320    25.8320    21.5210    21.8700 
  120.8750     2.4470   -20.9240    56.4890    26.3290    25.5360    20.3660    21.3940 
  121.0000     2.4770   -21.0690    55.5080    26.4390    25.8320    19.2210    21.1000 
  121.1250     2.5140   -21.1970    55.9110    27.1530    26.7440    19.6150    21.0030 
  121.2500     2.5490   -21.2710    57.0950    28.3580    28.0920    22.1240    20.9820 
  121.3750     2.5790   -21.2980    57.8360    29.8730    29.6730    25.0040    21.0390 
  121.5000     2.6020   -21.3200    56.7120    31.2700    31.0780    26.3020    21.1020 
  121.6250     2.6160   -21.3670    55.4750    31.7120    31.4990    27.6590    21.1250 
  121.7500     2.6240   -21.4110    55.2550    30.8190    30.5780    27.7950    21.1270 
  121.8750     2.6220   -21.4140    55.1640    28.6500    28.3620    26.5420    21.1270 
  122.0000     2.6120   -21.3930    55.4350    25.7210    25.3830    22.0880    21.1130 
  122.1250     2.5930   -21.3870    57.7590    22.8040    22.4140    17.9850    21.0690 
  122.2500     2.5680   -21.3740    59.2940    20.4540    19.9990    16.4960    21.0540 
  122.3750     2.5360   -21.3210    56.1900    18.8420    18.3430    16.3660    21.2750 
  122.5000     2.5020   -21.2340    50.0690    17.9520    17.4630    16.2700    21.9650 
  122.6250     2.4660   -21.1090    47.2860    17.7820    17.3510    16.2410    22.9030 
  122.7500     2.4230   -20.9690    47.8910    18.1200    17.7000    16.2800    23.5700 
  122.8750     2.3760   -20.8280    50.1380    18.8380    18.3170    16.9270    23.8050 
  123.0000     2.3400   -20.6850    52.5050    19.7720    19.0590    17.8040    23.8360 
  123.1250     2.3290   -20.4860    53.0330    20.7310    19.8700    17.7470    23.8630 
  123.2500     2.3310   -20.3060    50.6730    21.5620    20.7100    18.7150    24.0340 
  123.3750     2.3310   -20.1580    48.1830    22.1670    21.4560    20.4160    24.4510 
  123.5000     2.3310   -20.0010    48.0560    22.4230    21.8520    20.5310    24.9670 
  123.6250     2.3460   -19.8530    50.6920    22.0340    21.5060    19.2900    25.2060 
  123.7500     2.3770   -19.7330    53.9640    20.9490    20.4600    19.6500    25.2950 
  123.8750     2.4070   -19.6300    55.9470    19.2720    18.9040    19.4550    25.4190 
  124.0000     2.4190   -19.5430    56.3800    17.3660    17.1550    16.3800    25.6740 
  124.1250     2.4090   -19.5270    55.3840    15.7230    15.5830    12.7200    25.8920 
  124.2500     2.3940   -19.5280    53.6690    14.5510    14.3690    11.3620    25.8320 
  124.3750     2.3830   -19.5390    51.0100    13.8780    13.5860    11.2840    25.4390 
  124.5000     2.3690   -19.5800    49.2750    13.6750    13.2680    11.3660    24.9800 
  124.6250     2.3310   -19.6030    51.4710    13.9580    13.4760    11.5870    25.1970 
  124.7500     2.2550   -19.6290    53.9330    14.5290    14.0050    12.8530    25.8950 
  124.8750     2.1410   -19.6640    53.1260    15.1830    14.6300    15.1250    26.5960 
  125.0000     2.0230   -19.7140    49.4340    15.6410    15.0750    17.4050    27.2060 
  125.1250     1.9490   -19.7450    46.7820    15.5660    15.0570    19.1080    27.6920 
  125.2500     1.9290   -19.7510    47.2870    15.0610    14.6510    17.0460    28.1690 
  125.3750     1.9470   -19.7800    49.3470    14.4090    14.0710    13.5180    28.4700 
  125.5000     1.9880   -19.8300    52.0850    13.9380    13.5770    11.7180    28.0480 
  125.6250     2.0690   -19.8940    54.1990    13.9290    13.3960    12.1840    26.2760 
  125.7500     2.1920   -19.9280    55.8240    14.3330    13.5310    13.8490    24.2290 
  125.8750     2.3230   -19.9430    57.9900    15.0900    13.9810    14.6280    22.9520 
  126.0000     2.4050   -19.9460    60.2510    16.1170    14.7270    14.4580    22.4610 
  126.1250     2.4160   -19.9340    61.2010    17.3220    15.7380    15.3840    22.3960 
  126.2500     2.4090   -19.9250    60.7060    18.5110    16.8200    17.1400    22.3690 
  126.3750     2.4010   -19.8840    58.8700    19.4780    17.7700    20.0430    22.3370 
  126.5000     2.3950   -19.8300    56.7550    20.0230    18.3810    23.3820    22.2790 
  126.6250     2.4000   -19.7940    56.7740    20.0030    18.4760    22.0020    22.1690 
  126.7500     2.4160   -19.7630    59.0480    19.6650    18.2460    20.1600    22.0760 
  126.8750     2.4330   -19.7190    60.3100    19.2540    17.8830    19.4880    22.0400 
  127.0000     2.4320   -19.6650    57.0960    18.9280    17.5120    18.9550    22.0270 
  127.1250     2.4090   -19.6360    52.5580    18.6740    17.1530    17.5900    22.0040 
  127.2500     2.3850   -19.6200    50.2150    18.3250    16.7430    16.5270    21.9970 
  127.3750     2.3710   -19.6170    49.7010    17.7520    16.2310    15.5130    22.0580 
  127.5000     2.3680   -19.5920    50.2130    16.9640    15.6360    14.5850    22.1820 
  127.6250     2.3770   -19.5240    52.7350    16.1430    15.0510    13.5480    22.2850 
  127.7500     2.3940   -19.4610    55.4440    15.5070    14.5630    12.7820    22.3230 
  127.8750     2.4160   -19.4030    54.6940    15.1480    14.2130    12.7390    22.3280 
  128.0000     2.4360   -19.3050    50.7210    15.0620    14.0170    13.3620    22.3780 
  128.1250     2.4470   -19.1500    48.0160    15.2180    14.0100    13.4060    22.6180 
  128.2500     2.4470   -18.9850    47.7490    15.5130    14.1850    12.8740    23.0530 
  128.3750     2.4350   -18.8290    49.7610    15.9140    14.5420    12.8530    23.4980 
  128.5000     2.4160   -18.6770    52.3670    16.4120    15.0590    13.8640    23.9370 
  128.6250     2.4040   -18.5320    52.7780    17.0150    15.7140    15.0310    24.4860 
