~V
VERS. 2.00: Ver 2.00
~W
STRT.M 58.0000:
STOP.M 208.0000:
STEP.M 0.1250:
NULL. -999.2500:
UWI. F10592:
~C
DEPT.M :
GR.API :
RML.OHMM :
RI. :
RXO.OHMM :
CALI.CM :
DEN.GM/CC :
SP.MV :
~A
# ...
  103.0000    92.3590    11.2700    10.0800     9.3730    24.2370     2.2350     1.9820 
  103.1250    90.9940    10.4260     9.4430     8.1160    24.2920     2.2590     2.0250 
  103.2500    86.5300     9.6590     8.8040     7.4620    24.3690     2.2710     2.0540 
  103.3750    83.5790     9.2520     8.3790     7.7590    24.4390     2.2710     2.0460 
  103.5000    83.3790     9.2860     8.2540     7.9670    24.4700     2.2650     2.0290 
  103.6250    85.1530     9.8480     8.5140     7.8630    24.4860     2.2590     2.0430 
  103.7500    86.9900    11.0420     9.2690     7.9680    24.5060     2.2570     2.1250 
  103.8750    86.5290    13.1400    10.7830     9.2940    24.5230     2.2590     2.2280 
  104.0000    83.8450    16.0740    13.0630    12.4330    24.5490     2.2610     2.2980 
  104.1250    79.4720    19.6350    16.0180    17.9750    24.5880     2.2520     2.3440 
  104.2500    73.6460    23.1870    19.2030    24.0380    24.6670     2.2240     2.3850 
  104.3750    68.8020    25.4230    21.5570    28.0220    24.8280     2.1770     2.4360 
  104.5000    68.5360    25.7600    22.3910    29.6270    24.9680     2.1340     2.5090 
  104.6250    73.6980    24.5070    21.7530    27.6230    24.9160     2.1130     2.5910 
  104.7500    80.0680    22.7710    20.4230    21.9010    24.6200     2.1250     2.6270 
  104.8750    80.2090    22.1510    19.6620    17.0920    24.2490     2.1650     2.6260 
  105.0000    74.5380    23.4980    20.3340    16.5420    24.0460     2.2070     2.6590 
  105.1250    67.8710    27.2080    22.9450    22.3760    24.0600     2.2290     2.7330 
  105.2500    63.6080    33.2070    27.6440    40.5010    24.1910     2.2190     2.8260 
  105.3750    63.1800    40.7510    34.0680    55.6920    24.3990     2.1780     2.9060 
  105.5000    64.4150    47.6840    40.4170    56.1540    24.6070     2.1290     2.9430 
  105.6250    64.9150    52.2030    45.0680    50.4550    24.7170     2.0940     2.9300 
  105.7500    63.4530    53.6380    47.2080    47.7640    24.6430     2.0880     2.9020 
  105.8750    62.0860    52.8150    47.2230    43.7840    24.4110     2.1170     2.8700 
  106.0000    63.2180    51.9120    46.9100    39.9020    24.1980     2.1610     2.8130 
  106.1250    64.2600    51.9910    47.2760    40.8780    24.1280     2.2000     2.7420 
  106.2500    64.4800    53.3690    48.7370    46.3550    24.2020     2.2190     2.6680 
  106.3750    64.8700    55.9300    51.3760    55.6150    24.3570     2.2090     2.5960 
  106.5000    64.9030    58.5760    54.3810    57.4670    24.4410     2.1800     2.5320 
  106.6250    62.4150    59.8850    56.4490    50.9700    24.4480     2.1410     2.4780 
  106.7500    59.0010    58.0510    55.7350    44.4430    24.4110     2.1030     2.4210 
  106.8750    59.9100    51.4200    50.1310    45.3100    24.4200     2.0830     2.3530 
  107.0000    65.4400    41.1780    41.1350    44.4040    24.3300     2.0930     2.2730 
  107.1250    74.2010    30.3500    31.1370    34.1930    23.9740     2.1320     2.1840 
  107.2500    81.6090    21.3900    22.4410    19.7360    23.6500     2.1900     2.0950 
  107.3750    83.7390    15.6580    16.5780    10.9620    23.5310     2.2430     2.0150 
  107.5000    84.1210    12.2570    12.9370     7.9000    23.5210     2.2770     1.9410 
  107.6250    85.5920    10.5160    10.8980     7.2630    23.5270     2.2910     1.8770 
  107.7500    87.9170     9.8570     9.8930     7.3250    23.5570     2.2930     1.8420 
  107.8750    90.2430     9.7300     9.5540     7.0050    23.5950     2.2940     1.8430 
  108.0000    91.6990     9.7200     9.4690     6.9090    23.6430     2.2990     1.8780 
  108.1250    90.2780     9.7190     9.4650     7.1520    23.6910     2.3070     1.9260 
  108.2500    86.1370     9.7130     9.4600     7.4020    23.7400     2.3160     1.9620 
  108.3750    84.9510     9.7260     9.4650     7.5370    23.7580     2.3200     1.9800 
  108.5000    88.2190     9.8370     9.5650     7.7890    23.7740     2.3180     2.0030 
  108.6250    89.9370    10.1660     9.8750     8.1270    23.8100     2.3180     2.0550 
  108.7500    85.2410    10.8100    10.5170     8.6600    23.8540     2.3300     2.1360 
  108.8750    77.3300    12.1730    11.6730     9.6460    23.8820     2.3600     2.2200 
  109.0000    72.1670    14.1250    13.3030    12.2730    23.8910     2.3920     2.2820 
  109.1250    69.6270    16.5140    15.3460    17.6570    23.8940     2.4020     2.3250 
  109.2500    68.1520    19.1120    17.6510    22.4490    23.9430     2.3740     2.3660 
  109.3750    67.0880    21.7050    20.0030    21.4320    24.0740     2.3090     2.3880 
  109.5000    65.3650    24.2070    22.2570    18.8610    24.2840     2.2350     2.3890 
  109.6250    62.8990    26.6930    24.4400    20.4310    24.4830     2.1740     2.3530 
  109.7500    61.0920    29.2030    26.7220    24.6330    24.6340     2.1380     2.2960 
  109.8750    60.3140    31.8700    29.4200    28.9920    24.6960     2.1350     2.2390 
  110.0000    58.4610    34.8940    32.6360    31.4350    24.6950     2.1650     2.1510 
  110.1250    56.8990    38.6970    36.3220    33.1190    24.6550     2.2260     2.0360 
  110.2500    56.6150    43.0150    40.2570    37.6650    24.5590     2.3070     1.8850 
  110.3750    56.7080    47.0340    43.9080    50.5740    24.3980     2.3770     1.7330 
  110.5000    56.8560    49.6550    46.5100    64.3330    24.2400     2.4170     1.5780 
  110.6250    56.7220    50.0540    47.1600    64.1030    24.1590     2.4230     1.4420 
  110.7500    55.2080    47.9270    45.2470    55.8650    24.1390     2.4100     1.3080 
  110.8750    54.2670    43.9080    40.8300    54.6950    24.2080     2.4030     1.1640 
  111.0000    56.3800    38.2330    35.7330    58.9170    24.3100     2.4150     1.0230 
  111.1250    59.5700    33.0970    31.3700    47.2820    24.2370     2.4450     0.9130 
  111.2500    59.2410    29.8750    28.6320    28.5670    24.0110     2.4870     0.8570 
  111.3750    54.1370    29.0980    27.9760    23.6840    23.8840     2.5270     0.8720 
  111.5000    50.7040    29.5380    28.5020    32.5150    23.8680     2.5490     0.9120 
  111.6250    52.5410    29.9660    29.1830    37.6400    23.8830     2.5440     0.9420 
  111.7500    58.6550    29.1690    28.8810    32.8860    23.9370     2.5120     0.9540 
  111.8750    65.6160    26.2600    26.6080    25.9910    24.0050     2.4620     0.9700 
  112.0000    71.3250    22.1160    22.9870    19.4180    24.0550     2.4110     1.0260 
  112.1250    76.2000    17.7820    18.9350    15.0440    24.0570     2.3700     1.1000 
  112.2500    80.2350    14.2240    15.2880    10.8710    23.9530     2.3410     1.1660 
  112.3750    84.1780    12.1800    12.6290     9.5150    23.7840     2.3270     1.1790 
  112.5000    89.3170    11.3810    10.8770     8.7750    23.7000     2.3250     1.1860 
  112.6250    92.8810    11.1920     9.9900     8.0380    23.7920     2.3360     1.2070 
  112.7500    92.4380    11.3430     9.9380     7.1210    23.9060     2.3600     1.2370 
  112.8750    86.8040    12.0560    10.7720     7.9420    23.9850     2.3950     1.2430 
  113.0000    79.6360    12.9420    12.1500    11.9420    24.0870     2.4250     1.2400 
  113.1250    76.2550    13.9280    13.6920    19.5450    24.1690     2.4390     1.2410 
  113.2500    80.0600    14.7460    14.9130    24.5370    24.1200     2.4270     1.2540 
  113.3750    87.2800    14.9030    15.3010    17.0800    23.8780     2.3870     1.2950 
  113.5000    89.1960    14.6130    15.0120    11.7130    23.6580     2.3360     1.3450 
  113.6250    83.4150    14.3240    14.4200    10.9040    23.6600     2.2890     1.4040 
  113.7500    75.5630    14.1820    13.9630    12.2320    23.8130     2.2610     1.4660 
  113.8750    72.6220    14.4770    14.0870    12.7050    23.7830     2.2660     1.5620 
  114.0000    73.5280    15.5070    14.9270    12.2400    23.6420     2.3050     1.6700 
  114.1250    73.7860    17.7190    16.6240    12.1940    23.5400     2.3720     1.7920 
