~V
VERS. 2.00: Ver 2.00
~W
STRT.M 60.0000:
STOP.M 200.0000:
STEP.M 0.1250:
NULL. -999.2500:
UWI. F10576:
~C
DEPT.M :
GR.API :
RML.OHMM :
RI. :
RXO.OHMM :
CALI.CM :
DEN.GM/CC :
SP.MV :
~A
# ...
  116.2500    55.9150    40.6810    41.0820    33.4900    23.8660     2.4950   -24.5390 
  116.3750    56.2230    40.0290    40.5950    32.6990    23.8530     2.5100   -24.6250 
  116.5000    56.4680    39.2390    40.0510    31.7870    23.8490     2.5240   -24.7370 
  116.6250    55.9310    38.3980    39.5310    30.0280    23.8390     2.5400   -24.8380 
  116.7500    54.0480    37.4730    38.9520    31.5900    23.8380     2.5560   -24.9020 
  116.8750    52.6180    36.3260    38.1320    37.3680    23.8480     2.5650   -24.9390 
  117.0000    53.8510    34.8120    36.9070    38.1490    23.8480     2.5620   -24.9330 
  117.1250    55.9750    32.8710    35.1900    36.6230    23.8180     2.5410   -24.9160 
  117.2500    56.4360    30.7930    33.2520    31.6840    23.7710     2.5080   -24.9140 
  117.3750    55.6310    28.9230    31.3910    26.2110    23.7590     2.4740   -24.8950 
  117.5000    55.3460    27.5790    29.8970    22.7210    23.8060     2.4480   -24.8720 
  117.6250    54.2830    27.0330    29.0430    23.2550    23.8740     2.4420   -24.8340 
  117.7500    52.6860    27.0920    28.7380    24.9480    23.9350     2.4500   -24.8020 
  117.8750    52.9460    27.5780    28.8860    26.2790    23.9330     2.4610   -24.7920 
  118.0000    55.3950    28.3400    29.3930    27.0010    23.8040     2.4670   -24.8110 
  118.1250    56.3980    29.3910    30.2650    28.1700    23.7320     2.4630   -24.8290 
  118.2500    54.3540    30.7910    31.4910    27.0090    23.7030     2.4610   -24.8200 
  118.3750    50.9650    32.6550    33.1610    27.2110    23.7020     2.4700   -24.7920 
  118.5000    49.6950    35.0190    35.3370    31.3210    23.6970     2.4980   -24.7620 
  118.6250    52.4460    37.7980    38.0090    36.1220    23.6830     2.5420   -24.7390 
  118.7500    54.4730    40.5740    40.7900    37.2400    23.6740     2.5850   -24.7530 
  118.8750    53.5230    42.8450    43.1810    38.8850    23.7170     2.6130   -24.7570 
  119.0000    51.8890    44.0290    44.5920    43.8010    23.8310     2.6190   -24.7250 
  119.1250    52.6790    43.4030    44.2990    47.3720    23.9640     2.6040   -24.7330 
  119.2500    54.7960    41.2970    42.5630    48.4120    23.9930     2.5790   -24.7800 
  119.3750    56.3100    38.2890    39.8610    42.3240    23.9830     2.5500   -24.8370 
  119.5000    56.6180    35.1640    36.8730    33.2140    23.9870     2.5210   -24.8720 
  119.6250    55.7570    32.7590    34.3520    27.2280    24.0180     2.4960   -24.9140 
  119.7500    54.7010    31.2760    32.5920    25.3160    24.0450     2.4830   -24.9420 
  119.8750    53.8270    30.6030    31.5840    27.0030    24.0010     2.4860   -24.9740 
  120.0000    52.8360    30.4220    31.1060    29.1170    23.8480     2.5000   -25.0240 
  120.1250    52.3210    30.3650    30.8490    27.6500    23.6970     2.5130   -25.0520 
  120.2500    52.9670    30.1780    30.5310    25.9980    23.6040     2.5150   -25.0700 
  120.3750    53.2180    29.8480    30.0930    24.7230    23.5970     2.5090   -25.0880 
  120.5000    53.0810    29.4860    29.6200    24.3340    23.6620     2.5060   -25.1040 
  120.6250    54.6480    29.2850    29.3010    24.9530    23.7470     2.5190   -25.1200 
  120.7500    57.1100    29.3170    29.2260    25.5600    23.8360     2.5450   -25.1370 
  120.8750    57.7160    29.5670    29.3860    25.4500    23.9200     2.5730   -25.1540 
  121.0000    55.3340    29.9520    29.6930    25.3360    24.0180     2.5930   -25.1770 
  121.1250    53.0050    30.3650    30.0350    27.3260    24.1170     2.5950   -25.2090 
  121.2500    52.6600    30.7340    30.3470    31.3000    24.1580     2.5860   -25.2440 
  121.3750    54.5590    31.0590    30.6480    33.0890    24.1010     2.5780   -25.2880 
  121.5000    57.3600    31.3730    30.9860    31.0340    24.0530     2.5780   -25.3420 
  121.6250    58.3680    31.6960    31.3830    30.7390    24.0590     2.5910   -25.4380 
  121.7500    57.6230    31.9870    31.7650    33.4960    24.0900     2.6090   -25.5680 
  121.8750    56.1400    32.1700    32.0380    35.9380    24.1150     2.6240   -25.7250 
  122.0000    54.6110    32.1870    32.1300    34.2280    24.0990     2.6330   -25.8610 
  122.1250    54.6260    32.0240    32.0120    31.5100    24.1030     2.6410   -25.9640 
  122.2500    56.2890    31.7880    31.7680    31.1650    24.1180     2.6510   -26.0500 
  122.3750    58.3170    31.5430    31.4300    31.5430    24.1410     2.6640   -26.1170 
  122.5000    57.5660    31.2380    30.9380    30.5410    24.1660     2.6740   -26.1780 
  122.6250    53.4210    30.5790    30.0430    30.7530    24.1330     2.6780   -26.1790 
  122.7500    49.3450    29.3430    28.6060    29.1920    24.1220     2.6770   -26.1440 
  122.8750    49.0270    27.4760    26.6250    26.5670    24.1270     2.6760   -26.0820 
  123.0000    53.7820    25.1890    24.3130    24.2140    24.1610     2.6800   -26.0380 
  123.1250    58.0980    22.9360    22.0720    20.9990    24.2770     2.6860   -26.0020 
  123.2500    58.3520    21.1200    20.2480    17.7740    24.4120     2.6840   -25.9460 
  123.3750    57.5370    19.9130    19.0100    16.1640    24.4440     2.6660   -25.8850 
  123.5000    59.2830    19.3100    18.3900    16.3040    24.4610     2.6290   -25.8180 
  123.6250    60.0320    19.2620    18.4050    17.5490    24.4580     2.5750   -25.7660 
  123.7500    56.0040    19.5370    18.8270    19.2160    24.3610     2.5210   -25.7260 
  123.8750    51.2490    20.0130    19.5070    20.3240    24.3280     2.4760   -25.6870 
  124.0000    49.9350    20.5630    20.2710    20.7910    24.3300     2.4510   -25.6410 
  124.1250    51.7250    20.9920    20.8710    18.8420    24.2270     2.4500   -25.6330 
  124.2500    54.0710    21.1080    21.1120    19.1690    24.1470     2.4680   -25.6680 
  124.3750    56.1440    20.7610    20.8480    20.3800    24.0650     2.4960   -25.7310 
  124.5000    57.1440    19.9110    20.0270    21.8590    23.9490     2.5220   -25.8360 
  124.6250    56.9630    18.6380    18.6960    18.6610    23.7360     2.5350   -25.9800 
  124.7500    57.4260    17.2490    17.1900    15.6970    23.7830     2.5350   -26.1110 
  124.8750    58.3510    15.9510    15.7550    13.8290    24.0950     2.5240   -26.2330 
  125.0000    58.8880    14.8800    14.5650    12.6180    24.3330     2.5060   -26.3430 
  125.1250    58.4890    14.1680    13.7600    12.1780    24.2670     2.4830   -26.4140 
  125.2500    57.9990    13.8080    13.2890    12.6920    24.2060     2.4580   -26.4620 
  125.3750    58.5680    13.8060    13.1320    12.8650    24.1890     2.4360   -26.4950 
  125.5000    59.5790    14.1210    13.2630    11.7590    24.1780     2.4240   -26.5070 
  125.6250    59.4010    14.6590    13.6500    11.5740    24.1070     2.4310   -26.4890 
  125.7500    58.7900    15.1850    14.1110    12.5740    24.0060     2.4500   -26.4590 
  125.8750    60.3620    15.5040    14.4630    14.2810    23.9260     2.4710   -26.4240 
  126.0000    63.5820    15.4860    14.5440    15.3180    23.8170     2.4830   -26.3730 
  126.1250    64.3700    15.0970    14.2640    14.0470    23.7520     2.4840   -26.3400 
  126.2500    62.7620    14.5870    13.8220    12.3200    23.7180     2.4810   -26.2940 
  126.3750    61.1330    14.1960    13.4380    11.1380    23.7450     2.4810   -26.2530 
  126.5000    61.1190    14.1160    13.2980    11.2340    23.8290     2.4840   -26.1960 
  126.6250    61.4520    14.4680    13.5410    12.0150    23.9260     2.4870   -26.1060 
  126.7500    59.9680    15.0800    14.0450    13.3920    23.9690     2.4840   -26.0280 
  126.8750    58.0380    15.7700    14.6680    15.0180    23.9770     2.4760   -25.9640 
  127.0000    57.3330    16.3770    15.2650    15.2400    23.9540     2.4660   -25.9340 
  127.1250    58.6030    16.8420    15.7460    14.1280    23.8570     2.4610   -25.9090 
  127.2500    60.0840    17.2870    16.1690    13.0330    23.7620     2.4640   -25.9060 
  127.3750    59.8110    17.8380    16.6160    13.8390    23.7100     2.4730   -25.8900 
