~V
VERS. 2.00: Ver 2.00
~W
STRT.M 58.0000:
STOP.M 197.0000:
STEP.M 0.1250:
NULL. -999.2500:
UWI. F10573:
~C
DEPT.M :
SP.MV :
GR.API :
RML.OHMM :
RI. :
RXO.OHMM :
CALI.CM :
DEN.GM/CC :
~A
# ...
  181.7500   -14.7290    34.4630     4.7380     3.8660     3.4150    27.0000     2.2750 
  181.8750   -14.6790    35.8580     4.7540     3.8830     3.8220    26.5160     2.3090 
  182.0000   -14.6310    36.3130     4.7620     3.8920     4.2210    26.2440     2.3250 
  182.1250   -14.5790    37.1530     4.7580     3.8870     4.0870    26.3590     2.2990 
  182.2500   -14.5340    38.7640     4.7420     3.8700     3.6950    26.5830     2.2570 
  182.3750   -14.5020    39.6780     4.7190     3.8400     3.5260    26.5500     2.2230 
  182.5000   -14.5270    39.1380     4.7070     3.8060     3.6250    26.5120     2.2180 
  182.6250   -14.5870    38.0520     4.7380     3.7920     3.9830    26.5680     2.2530 
  182.7500   -14.6710    37.6010     4.8160     3.8100     4.4440    26.7300     2.3020 
  182.8750   -14.8190    38.7740     4.9400     3.8700     4.8830    26.7700     2.3440 
  183.0000   -14.9850    41.6410     5.1120     3.9790     5.2180    26.1800     2.3670 
  183.1250   -15.2630    45.2060     5.3600     4.1600     5.3960    25.2460     2.3690 
  183.2500   -15.5900    47.7090     5.7030     4.4220     5.4890    24.9200     2.3630 
  183.3750   -15.9480    50.3760     6.1640     4.7790     6.0160    24.9190     2.3510 
  183.5000   -16.3590    56.2020     6.7410     5.2350     7.2430    24.8660     2.3350 
  183.6250   -16.8500    66.1450     7.4210     5.7890     8.6320    24.6740     2.3150 
  183.7500   -17.3230    75.4160     8.1550     6.4050     9.3320    24.5430     2.2990 
  183.8750   -17.7320    80.4590     8.9170     7.0670     9.4860    24.4700     2.2960 
  184.0000   -18.0800    80.4020     9.6610     7.7400    10.2470    24.4660     2.3070 
  184.1250   -18.2870    78.4880    10.2600     8.3200    12.5510    24.5110     2.3320 
  184.2500   -18.4030    79.1210    10.5750     8.6810    15.3920    24.5390     2.3570 
  184.3750   -18.4000    82.3310    10.4690     8.7000    16.1960    24.5150     2.3770 
  184.5000   -18.2320    84.9460     9.8900     8.3230    13.4640    24.4640     2.3890 
  184.6250   -17.8390    84.1280     8.9100     7.5810     9.1110    24.4870     2.3860 
  184.7500   -17.3470    81.4810     7.8570     6.7260     6.8990    24.5730     2.3730 
  184.8750   -16.8060    77.6280     6.9400     5.9300     5.8710    24.7870     2.3540 
  185.0000   -16.2490    73.4140     6.2680     5.2980     5.0600    25.3790     2.3430 
  185.1250   -15.7270    70.6840     5.8840     4.8960     4.4490    26.1230     2.3530 
  185.2500   -15.2510    68.8440     5.6830     4.6610     4.6220    26.1480     2.3830 
  185.3750   -14.8570    67.3610     5.5850     4.5380     5.0890    25.3400     2.4190 
  185.5000   -14.5460    67.9720     5.5250     4.4720     5.1730    24.6350     2.4360 
  185.6250   -14.3550    70.8990     5.4540     4.4180     4.8370    24.4670     2.4220 
  185.7500   -14.2560    72.9660     5.3510     4.3520     4.5180    24.6280     2.3880 
  185.8750   -14.2350    72.0150     5.2160     4.2690     4.3060    24.8500     2.3440 
  186.0000   -14.2470    69.2000     5.0700     4.1760     4.2960    25.0720     2.3080 
  186.1250   -14.2620    68.3620     4.9530     4.0960     4.1610    25.0600     2.3070 
  186.2500   -14.2650    69.4380     4.8960     4.0500     4.2420    24.8000     2.3370 
  186.3750   -14.2310    70.2900     4.9130     4.0540     4.4480    24.5450     2.3840 
  186.5000   -14.2100    69.1630     4.9990     4.1050     4.7300    24.4650     2.4220 
  186.6250   -14.2330    67.0970     5.1260     4.1870     5.0860    24.4790     2.4260 
  186.7500   -14.2440    66.5770     5.2400     4.2660     5.2840    24.3950     2.4050 
  186.8750   -14.2270    66.4640     5.3160     4.3260     5.3820    24.3820     2.3720 
  187.0000   -14.2160    66.4240     5.3700     4.3760     4.8340    24.5350     2.3440 
  187.1250   -14.2160    66.4240     5.4880     4.4760     4.7500    24.8010     2.3390 
  187.2500   -14.2190    66.4240     5.7490     4.6850     5.4220    24.7710     2.3670 
  187.3750   -14.2310    66.4240     6.1720     5.0240     6.7040    24.4220     2.4270 
  187.5000   -14.2040    66.4240     6.6880     5.4510     8.7230    24.1210     2.4970 
  187.6250   -14.1030    66.4240     7.1040     5.8300    10.7330    24.1120     2.5430 
  187.7500   -13.9900    66.4240     7.2360     6.0090    10.5680    24.2360     2.5480 
  187.8750   -13.8410    66.4240     7.0100     5.9110     8.2340    24.4050     2.5150 
  188.0000   -13.6300    66.4240     6.5090     5.5700     6.2550    24.7190     2.4540 
  188.1250   -13.3970    66.4240     5.9160     5.1050     5.4600    25.3430     2.3860 
  188.2500   -13.1760    66.4240     5.4060     4.6680     5.1190    25.9320     2.3320 
  188.3750   -12.9540    66.4240     5.0410     4.3250     4.8730    26.2930     2.3110 
  188.5000   -12.7450    66.4240     4.8220     4.0940     4.7330    26.2030     2.3390 
  188.6250   -12.5550    66.4240     4.7210     3.9690     4.5880    25.5730     2.4060 
  188.7500   -12.3730    66.4240     4.6700     3.8980     4.4720    24.9530     2.4500 
  188.8750   -12.2370    66.4240     4.6350     3.8550     4.3490    24.7010     2.4330 
  189.0000   -12.1780    66.4240     4.6020     3.8260     4.0900    24.8720     2.3640 
  189.1250   -12.1650    66.4240     4.5690     3.8120     3.7340    25.0950     2.2780 
  189.2500   -12.1320    66.4240     4.5550     3.8230     3.6610    24.9270     2.2140 
  189.3750   -12.1070    66.4240     4.5760     3.8690     3.9030    24.5740     2.1980 
  189.5000   -12.1290    66.4240     4.6420     3.9540     4.3320    24.3780     2.2260 
  189.6250   -12.1780    66.4240     4.7600     4.0750     4.8820    24.3430     2.2710 
  189.7500   -12.2420    66.4240     4.8990     4.2010     5.0890    24.3330     2.3100 
  189.8750   -12.2920    66.4240     5.0210     4.3010     4.9380    24.3440     2.3460 
  190.0000   -12.3060    66.4240     5.0930     4.3520     4.6500    24.3700     2.3830 
  190.1250   -12.2510    66.4240     5.0930     4.3350     4.6240    24.3660     2.4060 
  190.2500   -12.1990    66.4240     5.0430     4.2730     4.5240    24.3820     2.4040 
  190.3750   -12.1470    66.4240     4.9640     4.1860     4.2870    24.4950     2.3830 
  190.5000   -12.0800    66.4240     4.8830     4.0970     4.0510    24.6650     2.3640 
  190.6250   -12.0190    66.4240     4.8150     4.0200     4.0970    24.5100     2.3680 
  190.7500   -11.9340    66.4240     4.7590     3.9560     4.4300    24.4100     2.3890 
  190.8750   -11.9640    66.4240     4.7180     3.9060     4.6600    24.4210     2.4070 
  191.0000   -12.0980    66.4240     4.6940     3.8690     4.6930    24.5220     2.4040 
  191.1250   -12.3330    66.4240     4.6860     3.8470     5.4260    24.6260     2.3870 
  191.2500   -12.6660    66.4240     4.6860     3.8370     8.1330    24.6210     2.3830 
  191.3750   -13.1270    66.4240     4.6910     3.8340    14.6390    24.5180     2.4020 
  191.5000   -13.6000    66.4240     4.6970     3.8350    22.0460    24.4360     2.4390 
  191.6250   -14.0770    66.4240     4.7000     3.8380    23.4960    24.3620     2.4560 
  191.7500   -14.5460    66.4240     4.6980     3.8420    20.5140    24.2930     2.4370 
  191.8750   -14.9840    66.4240     4.6950     3.8460    16.3210    24.2260     2.3870 
  192.0000   -15.3450    66.4240     4.6900     3.8480    11.6950    24.2460     2.3310 
  192.1250   -15.6200    66.4240     4.6870     3.8470     7.8070    24.4320     2.2960 
  192.2500   -15.7790    66.4240     4.6860     3.8440     5.0790    24.6480     2.2840 
  192.3750   -15.8340    66.4240     4.6860     3.8410     4.3850    24.5370     2.2820 
  192.5000   -15.8700    66.4240     4.6850     3.8400     4.7260    24.1630     2.2740 
  192.6250   -15.8930    66.4240     4.6840     3.8380     4.6160    23.9900     2.2580 
  192.7500   -15.8640    66.4240     4.6860     3.8360     4.4000    23.8570     2.2470 
  192.8750   -15.7970    66.4240     4.6870     3.8360     4.5220    23.2480     2.2520 
