~V
VERS. 2.00: Ver 2.00
~W
STRT.M 47.0000:
STOP.M 236.0000:
STEP.M 0.1250:
NULL. -999.2500:
UWI. F10597:
~C
DEPT.M :
SP.MV :
DEN.GM/CC :
GR.API :
RML.OHMM :
RI. :
RXO.OHMM :
CALI.CM :
~A
# ...
  103.2500   -18.9700     2.2030   100.4840     8.6990     6.4960     7.4040    24.1290 
  103.3750   -18.6220     2.1930   100.8490     9.4010     6.7420     7.5020    24.1310 
  103.5000   -18.2080     2.1900   104.0140     9.8010     6.7800     7.8460    24.1310 
  103.6250   -17.7580     2.1910   105.2690     9.7610     6.5900     7.6200    24.1290 
  103.7500   -17.3170     2.1990   104.6350     9.3530     6.2430     7.1520    24.1270 
  103.8750   -16.8880     2.2150   104.2190     8.7730     5.8500     6.9380    24.1240 
  104.0000   -16.5110     2.2360   106.6060     8.1980     5.5140     6.5690    24.1230 
  104.1250   -16.2110     2.2600   111.3150     7.6720     5.2870     6.2240    24.1240 
  104.2500   -15.9970     2.2800   117.1250     7.2030     5.1780     6.0980    24.1220 
  104.3750   -15.8870     2.2880   120.5330     6.8200     5.1630     6.1370    24.0990 
  104.5000   -15.8920     2.2770   118.0270     6.6700     5.2150     6.1010    24.0320 
  104.6250   -15.9510     2.2620   111.8640     6.8510     5.2970     6.1100    23.9390 
  104.7500   -16.0290     2.2510   107.7020     7.3710     5.4100     6.2470    23.8420 
  104.8750   -16.1250     2.2470   110.2290     8.0850     5.5510     6.4240    23.7420 
  105.0000   -16.2220     2.2480   115.1690     8.6970     5.7020     6.4690    23.7000 
  105.1250   -16.3450     2.2530   114.9040     9.0180     5.8300     6.3550    23.6850 
  105.2500   -16.4780     2.2610   110.7690     9.0120     5.9170     6.4380    23.6810 
  105.3750   -16.5950     2.2760   109.0530     8.7360     5.9660     6.5910    23.6840 
  105.5000   -16.6840     2.2970   110.2860     8.3060     5.9830     6.7100    23.6870 
  105.6250   -16.7600     2.3140   109.7510     7.8790     5.9640     6.6940    23.6880 
  105.7500   -16.8410     2.3110   109.3570     7.5820     5.8950     6.6260    23.6880 
  105.8750   -16.9250     2.2910   110.4900     7.5280     5.7860     6.4510    23.6880 
  106.0000   -16.9920     2.2790   112.3390     7.8120     5.7190     6.3040    23.6880 
  106.1250   -16.9950     2.2860   111.9990     8.3390     5.8030     6.3660    23.6880 
  106.2500   -16.9340     2.3030   109.3440     9.0480     6.1220     6.8980    23.6880 
  106.3750   -16.8580     2.3270   107.6240     9.9610     6.7270     7.9290    23.6880 
  106.5000   -16.8200     2.3610   105.9190    11.1460     7.6590     9.5490    23.6880 
  106.6250   -16.8240     2.4030   100.5020    12.3950     8.7230    12.2210    23.6880 
  106.7500   -16.8330     2.4350    93.7940    13.2310     9.5960    14.8460    23.6860 
  106.8750   -16.8030     2.4330    91.2380    13.0680     9.8410    14.6280    23.6820 
  107.0000   -16.7560     2.3890    95.2330    11.6210     9.1190    10.8480    23.6800 
  107.1250   -16.7570     2.3340   100.4470     9.7500     7.9340     8.2240    23.6790 
  107.2500   -16.8140     2.2980   106.3420     8.2010     6.7910     7.1170    23.6810 
  107.3750   -16.8760     2.2810   112.0330     7.3300     6.0090     6.7330    23.6810 
  107.5000   -16.9100     2.2700   112.2860     7.1920     5.7240     6.7130    23.6760 
  107.6250   -16.9160     2.2560   110.5180     7.4620     5.7490     6.7710    23.6540 
  107.7500   -16.9130     2.2460   111.6300     7.9200     5.9470     6.7780    23.6110 
  107.8750   -16.9310     2.2400   115.4810     8.4050     6.2290     6.8680    23.5540 
  108.0000   -16.9490     2.2320   115.6530     8.7770     6.5810     7.2240    23.4970 
  108.1250   -16.9400     2.2190   109.6170     8.9390     6.9620     7.7450    23.4050 
  108.2500   -16.9170     2.2050   102.5840     8.8370     7.2950     7.7590    23.2890 
  108.3750   -16.9130     2.1980   100.4080     8.5210     7.5030     7.5410    23.1810 
  108.5000   -16.9560     2.2030   101.9060     8.2030     7.5510     7.3300    23.1000 
  108.6250   -17.0230     2.2120   102.2490     8.0500     7.5310     7.4000    23.0430 
  108.7500   -17.0940     2.2210   102.4580     8.0730     7.4960     7.2550    23.0240 
  108.8750   -17.1510     2.2320   105.2970     8.1970     7.4660     6.7260    23.0190 
  109.0000   -17.2090     2.2440   108.0820     8.3430     7.4420     6.6230    23.0190 
  109.1250   -17.2940     2.2480   105.7430     8.4830     7.4330     6.9660    23.0360 
  109.2500   -17.3800     2.2420   101.2370     8.6040     7.4440     7.5120    23.1500 
  109.3750   -17.4320     2.2270    98.0730     8.6500     7.4340     7.8530    23.4320 
  109.5000   -17.4250     2.2140    96.5170     8.5090     7.2950     7.6010    23.7890 
  109.6250   -17.3890     2.2120    97.7650     8.2660     7.0310     7.0130    23.9390 
  109.7500   -17.3520     2.2270   104.1380     8.1520     6.7730     6.7790    23.9710 
  109.8750   -17.3520     2.2520   111.1330     8.4750     6.7470     6.9360    23.9710 
  110.0000   -17.3780     2.2810   109.2800     9.8180     7.3620     7.7940    23.9710 
  110.1250   -17.3710     2.3160   100.5960    12.7070     9.0630     9.4190    23.9710 
  110.2500   -17.3220     2.3670    90.8790    18.0030    12.7710    13.5020    23.9710 
  110.3750   -17.2550     2.4400    82.5490    26.5200    19.6170    24.3920    23.9710 
  110.5000   -17.2300     2.5130    75.9810    38.4030    30.4680    45.9540    23.9710 
  110.6250   -17.2480     2.5390    71.6620    49.0400    41.4560    59.5160    23.9710 
  110.7500   -17.2990     2.4860    69.7280    51.6780    46.0770    55.8780    23.9570 
  110.8750   -17.3220     2.3620    72.5080    44.5680    41.4660    41.7570    23.9000 
  111.0000   -17.3400     2.2250    78.6610    34.7120    32.9930    29.3690    23.7720 
  111.1250   -17.4290     2.1290    79.3180    28.1990    26.8500    26.6150    23.6620 
  111.2500   -17.6040     2.0850    74.5060    25.4750    23.9040    27.3180    23.6130 
  111.3750   -17.8470     2.0760    71.2340    25.5180    23.3820    27.9370    23.6030 
  111.5000   -18.0740     2.0770    71.6280    27.4530    24.5620    26.2350    23.6070 
  111.6250   -18.2340     2.0760    70.5680    30.2860    26.6670    24.4590    23.6440 
  111.7500   -18.3300     2.0740    67.0270    33.8070    29.5660    24.2290    23.7520 
  111.8750   -18.4570     2.0730    63.2330    38.0390    33.2990    29.1160    23.9600 
  112.0000   -18.6710     2.0730    60.7820    42.7760    37.7440    39.5680    24.2970 
  112.1250   -18.8660     2.0770    61.1270    46.9260    41.8520    45.5660    24.6600 
  112.2500   -19.0060     2.0850    64.2880    49.3290    44.4560    46.4430    24.8610 
  112.3750   -19.0980     2.0920    68.6030    49.4880    44.9820    45.6070    24.9160 
  112.5000   -19.1650     2.0940    70.9310    47.8720    43.7730    45.4330    24.9160 
  112.6250   -19.2750     2.0910    68.5920    45.8640    42.1300    44.9870    24.9160 
  112.7500   -19.4030     2.0870    63.3860    43.8720    40.5200    45.4800    24.9160 
  112.8750   -19.4950     2.0820    61.6140    41.7670    38.8580    46.0560    24.9000 
  113.0000   -19.5190     2.0790    67.4820    39.3180    36.8840    44.4910    24.8070 
  113.1250   -19.5190     2.0780    73.7610    36.6500    34.6740    39.1680    24.6200 
  113.2500   -19.5240     2.0790    76.3730    34.0640    32.4770    33.9680    24.4360 
  113.3750   -19.5430     2.0820    76.2660    32.0400    30.6550    28.3300    24.3450 
  113.5000   -19.5970     2.0820    77.2400    31.2580    29.6940    26.4600    24.3300 
  113.6250   -19.6440     2.0810    79.9570    31.5490    29.5610    28.5170    24.3260 
  113.7500   -19.6910     2.0780    81.1240    32.3490    29.9350    33.0760    24.3030 
  113.8750   -19.7510     2.0750    79.6600    32.7700    30.1570    34.5060    24.2320 
  114.0000   -19.8210     2.0720    77.3500    31.8700    29.4070    29.6270    24.1360 
  114.1250   -19.8940     2.0710    76.1030    30.0980    27.8900    25.2920    24.0620 
  114.2500   -19.9450     2.0700    74.6910    28.4430    26.3210    23.4620    24.0290 
  114.3750   -19.9340     2.0670    73.4720    27.7660    25.4340    22.6810    24.0030 
