~V
VERS. 2.00: Ver 2.00
~W
STRT.M 50.0000:
STOP.M 222.0000:
STEP.M 0.1250:
NULL. -999.2500:
UWI. F10580:
~C
DEPT.M :
DEN.GM/CC :
SP.MV :
GR.API :
RML.OHMM :
RI. :
RXO.OHMM :
CALI.CM :
~A
# ...
  106.2500     2.2050   -18.2100    88.0940    10.0740     7.4850     6.6210    23.9290 
  106.3750     2.2010   -18.0720    85.4040    10.3110     7.7640     7.1090    23.4500 
  106.5000     2.2060   -17.9080    85.1130    10.3650     7.8940     7.4670    23.0620 
  106.6250     2.2150   -17.7310    85.2530    10.1610     7.7870     7.4940    22.7980 
  106.7500     2.2310   -17.5230    86.9140     9.7530     7.4750     6.5890    22.5850 
  106.8750     2.2540   -17.3520    93.3520     9.2180     7.0200     5.8550    22.4260 
  107.0000     2.2780   -17.1870   104.6950     8.6740     6.5290     5.4010    22.3430 
  107.1250     2.2940   -17.0440   111.2360     8.2670     6.1320     5.1680    22.3280 
  107.2500     2.3000   -16.9430   107.9020     8.0530     5.8900     5.1030    22.3260 
  107.3750     2.2950   -16.8840   101.8060     8.0430     5.8200     5.3860    22.3280 
  107.5000     2.2860   -16.8760    99.8890     8.1980     5.9050     6.0620    22.3260 
  107.6250     2.2770   -16.9050   100.8070     8.4350     6.1120     6.6500    22.3250 
  107.7500     2.2680   -16.9890    99.6980     8.6530     6.3670     6.5140    22.3250 
  107.8750     2.2560   -17.0590    97.0060     8.8220     6.6430     6.3710    22.3250 
  108.0000     2.2410   -17.1570    94.1730     8.9790     6.9390     6.5480    22.3290 
  108.1250     2.2280   -17.2650    91.2470     9.2470     7.3030     6.7650    22.3300 
  108.2500     2.2150   -17.3430    88.6550     9.7040     7.7760     6.9250    22.3190 
  108.3750     2.2040   -17.3840    87.6240    10.3130     8.3380     6.9730    22.2850 
  108.5000     2.1990   -17.3890    87.9830    10.8860     8.8660     7.2150    22.2110 
  108.6250     2.2030   -17.3690    88.1710    11.0530     9.0740     7.9580    22.0750 
  108.7500     2.2160   -17.2940    89.0550    10.6660     8.8180     8.6960    21.9200 
  108.8750     2.2390   -17.2240    91.9680     9.7830     8.1110     8.2420    21.8830 
  109.0000     2.2660   -17.1390    98.7410     8.6580     7.1370     6.5520    22.0560 
  109.1250     2.2870   -17.0610   108.5430     7.6220     6.1670     5.4670    22.5760 
  109.2500     2.3000   -17.0140   116.7570     6.8320     5.3780     4.9840    23.1940 
  109.3750     2.3120   -16.9980   118.6740     6.3090     4.8310     4.6830    23.7390 
  109.5000     2.3270   -16.9860   113.9790     6.0520     4.5460     4.5490    24.0060 
  109.6250     2.3440   -16.9720   106.3230     6.1610     4.5940     4.6080    24.0470 
  109.7500     2.3610   -16.9920   100.4800     6.7050     4.9850     5.1120    24.0080 
  109.8750     2.3770   -16.9890    96.0320     7.8120     5.7990     6.2420    23.9540 
  110.0000     2.3870   -16.9800    90.8320     9.5430     7.1060     8.6510    23.9220 
  110.1250     2.3750   -16.9450    83.7660    11.8250     8.9460    11.8180    23.8950 
  110.2500     2.3390   -16.8910    79.2730    14.1230    10.9630    15.7740    23.8220 
  110.3750     2.2850   -16.8290    78.7250    15.8800    12.6800    15.6850    23.7040 
  110.5000     2.2270   -16.7850    79.1740    16.7510    13.6740    11.7760    23.6270 
  110.6250     2.1910   -16.7540    78.2430    16.7930    13.8250    10.2060    23.6060 
  110.7500     2.1820   -16.7020    76.6440    16.6050    13.6290    10.8930    23.6070 
  110.8750     2.1920   -16.6820    75.5230    16.5260    13.4210    12.6400    23.6140 
  111.0000     2.2090   -16.6750    74.8960    16.7290    13.3990    13.8880    23.6330 
  111.1250     2.2230   -16.7070    75.6520    17.3800    13.7270    14.5190    23.6850 
  111.2500     2.2290   -16.7420    77.6170    18.5290    14.4340    15.6050    23.7720 
  111.3750     2.2230   -16.8000    78.8650    20.3280    15.6210    15.8380    23.9230 
  111.5000     2.2030   -16.8700    78.0460    22.9120    17.4210    17.8460    24.0860 
  111.6250     2.1680   -16.9310    73.7520    26.3390    20.0060    22.4210    24.2530 
  111.7500     2.1290   -17.0170    68.6890    30.1010    23.0900    25.3160    24.4120 
  111.8750     2.0870   -17.0750    65.4460    33.6960    26.3100    24.8080    24.6720 
  112.0000     2.0440   -17.1200    64.5090    36.7910    29.2900    22.8400    25.1010 
  112.1250     2.0090   -17.1160    64.7550    39.4870    31.8500    25.8190    25.6260 
  112.2500     1.9910   -17.0900    64.0250    42.3080    34.2360    30.5840    25.8180 
  112.3750     1.9920   -17.0230    62.2140    45.1650    36.4050    33.3870    25.7990 
  112.5000     2.0090   -16.9310    59.7120    46.7130    37.4570    33.2960    25.6640 
  112.6250     2.0340   -16.8400    58.9140    43.8270    35.1630    33.9870    25.5730 
  112.7500     2.0600   -16.7240    60.8590    36.5290    29.5840    35.6300    25.4570 
  112.8750     2.0920   -16.6210    65.7730    27.2570    22.5010    30.9720    25.2660 
  113.0000     2.1370   -16.5040    75.1600    18.9860    16.0690    18.3010    24.9730 
  113.1250     2.1930   -16.4260    88.3090    13.5890    11.6620     9.1980    24.5280 
  113.2500     2.2410   -16.3730    99.0810    10.4380     8.8990     6.3810    24.0270 
  113.3750     2.2670   -16.3420   102.6680     8.8610     7.3500     5.9130    23.7540 
  113.5000     2.2710   -16.3330   100.7660     8.2730     6.6270     6.3910    23.6840 
  113.6250     2.2650   -16.3250   101.0940     8.3120     6.5050     6.5380    23.6840 
  113.7500     2.2590   -16.3450   105.2490     8.5530     6.6550     6.1880    23.6840 
  113.8750     2.2540   -16.3560   109.0020     8.7900     6.8980     6.2300    23.6840 
  114.0000     2.2510   -16.3940   108.1310     8.9120     7.1090     6.5400    23.6840 
  114.1250     2.2520   -16.4310   103.1430     8.9000     7.2150     6.5070    23.6840 
  114.2500     2.2480   -16.4730    99.8130     8.8260     7.2380     6.3540    23.6850 
  114.3750     2.2370   -16.5210    99.0560     8.7350     7.2080     6.3040    23.7180 
  114.5000     2.2290   -16.5650    98.8440     8.6470     7.1450     6.3770    23.8180 
  114.6250     2.2440   -16.6400    97.8210     8.5510     7.0490     6.4980    24.0110 
  114.7500     2.2700   -16.6750    98.6760     8.4190     6.9140     6.4790    24.1090 
  114.8750     2.2890   -16.7240   103.6130     8.2310     6.7270     6.1970    24.1360 
  115.0000     2.2880   -16.7540   109.8620     7.9930     6.4910     5.8840    24.1380 
  115.1250     2.2760   -16.7510   112.1160     7.7250     6.2230     5.6080    24.1170 
  115.2500     2.2670   -16.7140   111.2930     7.4650     5.9590     5.4490    23.9880 
  115.3750     2.2660   -16.6500   111.0100     7.2310     5.7210     5.2520    23.6510 
  115.5000     2.2710   -16.5710   113.7810     7.0340     5.5290     5.1250    23.1240 
  115.6250     2.2810   -16.4490   116.8200     6.9050     5.4150     4.9560    22.7060 
  115.7500     2.2930   -16.3540   115.8920     6.8610     5.3840     4.8380    22.4210 
  115.8750     2.3040   -16.2320   112.9160     6.9190     5.4450     4.8820    22.2600 
  116.0000     2.3100   -16.1130   112.8160     7.0740     5.5880     5.2080    22.1910 
  116.1250     2.3060   -15.9900   116.0760     7.2900     5.7920     5.5600    22.1770 
  116.2500     2.2950   -15.8780   114.8530     7.4880     6.0030     5.9220    22.1770 
  116.3750     2.2750   -15.7810   108.7340     7.6190     6.1820     5.9890    22.1770 
  116.5000     2.2550   -15.6680   103.7760     7.6790     6.3110     6.0140    22.1770 
  116.6250     2.2460   -15.5780   103.1990     7.7080     6.3930     6.0500    22.1770 
  116.7500     2.2480   -15.4690   103.3060     7.7640     6.4620     6.0230    22.1760 
  116.8750     2.2570   -15.3880   102.2260     7.8740     6.5400     5.9980    22.1750 
  117.0000     2.2650   -15.2950   100.6000     8.0320     6.6340     6.0720    22.1730 
  117.1250     2.2670   -15.2130   101.4130     8.1990     6.7340     6.1050    22.1750 
  117.2500     2.2660   -15.1210   105.5770     8.3230     6.8080     6.0840    22.1760 
  117.3750     2.2650   -15.0300   108.8760     8.3640     6.8260     6.1150    22.1770 
