~V
VERS. 2.00: Ver 2.00
~W
STRT.M 58.0000:
STOP.M 203.0000:
STEP.M 0.1250:
NULL. -999.2500:
UWI. F10566:
~C
DEPT.M :
GR.API :
RML.OHMM :
RI. :
RXO.OHMM :
CALI.CM :
SP.MV :
DEN.GM/CC :
~A
# ...
   91.7500    89.4390     8.9410     9.9350     7.4510    24.0180    -6.8980     2.3070 
   91.8750    89.9050     7.8760     8.0020     6.0380    23.8240    -6.8640     2.3620 
   92.0000    88.6380     7.5720     7.1770     5.8440    23.6560    -6.8120     2.4200 
   92.1250    89.3810     7.9050     7.4330     6.3670    23.5260    -6.7730     2.4500 
   92.2500    88.5030     8.6910     8.5170     7.8990    23.5460    -6.7250     2.4350 
   92.3750    83.2320    10.3390    10.3120    10.3540    23.6870    -6.7050     2.3770 
   92.5000    76.1580    12.6660    12.5570    12.5140    23.9130    -6.6840     2.2990 
   92.6250    72.1470    14.9700    14.7490    16.1170    24.1190    -6.7350     2.2350 
   92.7500    71.1420    16.6350    16.4290    17.6360    24.2970    -6.7950     2.1980 
   92.8750    70.7980    17.6590    17.5130    16.1490    24.3720    -6.8890     2.1820 
   93.0000    69.8880    18.4860    18.3070    13.6220    24.4140    -7.0240     2.1720 
   93.1250    68.2270    19.9660    19.4840    13.9310    24.5300    -7.1690     2.1620 
   93.2500    66.2630    22.5850    21.5060    20.7030    24.7530    -7.2950     2.1540 
   93.3750    63.1960    26.4680    24.5070    30.1130    24.9810    -7.3940     2.1560 
   93.5000    58.3660    31.2950    28.2710    35.6060    25.1060    -7.5200     2.1670 
   93.6250    54.4580    36.1420    32.1770    36.9480    25.1330    -7.6050     2.1780 
   93.7500    54.3100    39.7600    35.3460    37.2790    25.1370    -7.7540     2.1780 
   93.8750    56.9950    41.1550    37.0390    35.6620    25.1660    -7.8960     2.1630 
   94.0000    59.4570    39.7350    36.6890    36.0370    25.2690    -8.0430     2.1430 
   94.1250    59.1410    35.2600    33.7660    39.0520    25.4690    -8.1640     2.1350 
   94.2500    59.7110    29.3280    29.2090    39.2510    25.5610    -8.3000     2.1470 
   94.3750    64.8550    23.3470    24.0680    31.7560    25.3980    -8.4280     2.1700 
   94.5000    71.9320    18.4060    19.3980    21.9760    24.9580    -8.5660     2.1930 
   94.6250    74.8210    15.2210    16.0460    14.6100    24.4630    -8.6440     2.2110 
   94.7500    74.9930    13.5860    13.8900    11.9090    24.2270    -8.7270     2.2270 
   94.8750    75.9450    13.2460    12.7340    10.6520    24.2380    -8.7890     2.2440 
   95.0000    76.9030    13.3410    12.3890    10.5690    24.4160    -8.8230     2.2550 
   95.1250    73.5540    13.6190    12.8750    10.7570    24.6020    -8.8420     2.2390 
   95.2500    68.5020    14.7430    14.1330    10.6440    24.7370    -8.8100     2.1900 
   95.3750    65.8860    17.1580    16.3740    11.4600    24.8810    -8.7580     2.1240 
   95.5000    65.5030    21.1120    19.9280    15.1250    25.0790    -8.6600     2.0810 
   95.6250    63.9790    27.2030    25.3430    21.8820    25.2320    -8.5870     2.1130 
   95.7500    60.5660    34.7420    31.9230    31.2070    25.2210    -8.4450     2.2170 
   95.8750    58.6240    41.7380    38.0390    39.3300    24.9350    -8.3310     2.3620 
   96.0000    59.5790    44.8080    41.1140    49.4200    24.3960    -8.1850     2.4980 
   96.1250    61.1470    40.5660    38.3140    60.6820    23.9880    -8.0340     2.5720 
   96.2500    64.8840    32.1450    31.5330    53.1470    23.8340    -7.8830     2.5800 
   96.3750    73.3610    23.3410    23.6230    32.4740    23.7880    -7.7460     2.5350 
   96.5000    83.6220    16.5780    16.9550    15.8690    23.7230    -7.6090     2.4620 
   96.6250    88.0290    12.6360    12.7470    10.5450    23.6430    -7.4950     2.3840 
   96.7500    89.0310    10.4320    10.2780     8.9800    23.5910    -7.3850     2.3210 
   96.8750    90.2810     9.3030     8.9550     9.7420    23.5720    -7.2690     2.2790 
   97.0000    90.5990     8.7350     8.2860     9.8660    23.5680    -7.1800     2.2590 
   97.1250    89.8620     8.3410     7.9560     9.3710    23.5600    -7.1160     2.2570 
   97.2500    90.2970     7.9160     7.7180     7.6310    23.5460    -7.0620     2.2670 
   97.3750    91.1300     7.5220     7.5110     6.8440    23.5330    -7.0210     2.2870 
   97.5000    90.4260     7.2520     7.3340     6.7570    23.5240    -6.9890     2.3170 
   97.6250    90.2870     7.1340     7.2070     6.8450    23.5210    -6.9570     2.3510 
   97.7500    93.3720     7.0510     7.1080     6.8380    23.5210    -6.9350     2.3780 
   97.8750    97.7730     6.9540     6.9980     6.7840    23.5220    -6.9190     2.3890 
   98.0000   101.2100     6.7790     6.8400     6.8720    23.5220    -6.9170     2.3790 
   98.1250   101.8450     6.6060     6.6180     6.6730    23.5200    -6.9150     2.3540 
   98.2500    99.7730     6.4760     6.3780     6.5490    23.5200    -6.9080     2.3310 
   98.3750    96.8940     6.4310     6.1720     6.4190    23.5260    -6.8950     2.3230 
   98.5000    96.0010     6.4760     6.0490     6.3770    23.5380    -6.9180     2.3330 
   98.6250    97.5020     6.5450     6.0600     6.4690    23.5480    -6.9460     2.3500 
   98.7500    97.0300     6.6300     6.1770     7.0000    23.5530    -6.9870     2.3570 
   98.8750    94.1060     6.7170     6.3590     7.8180    23.5560    -7.0150     2.3500 
   99.0000    91.7760     6.7910     6.5510     8.0750    23.5570    -7.0010     2.3390 
   99.1250    91.9850     6.8400     6.6940     7.6210    23.5570    -6.9630     2.3370 
   99.2500    93.7060     6.9070     6.7800     7.3220    23.5570    -6.9560     2.3470 
   99.3750    96.5880     7.0090     6.8230     7.1910    23.5590    -6.9910     2.3570 
   99.5000    99.6460     7.1490     6.8510     7.4130    23.5710    -7.0120     2.3570 
   99.6250    99.4040     7.2260     6.8740     7.5560    23.6090    -7.0100     2.3420 
   99.7500    97.0450     7.2560     6.8900     7.4820    23.6560    -6.9940     2.3230 
   99.8750    95.4540     7.2590     6.8880     7.3080    23.6850    -6.9580     2.3110 
  100.0000    95.2820     7.2480     6.8670     7.3330    23.6950    -6.9120     2.3080 
  100.1250    94.6220     7.2070     6.8370     7.3570    23.6940    -6.8870     2.3110 
  100.2500    94.1610     7.1300     6.8160     7.2830    23.6930    -6.8440     2.3130 
  100.3750    96.4350     7.0230     6.8020     7.1780    23.6930    -6.7870     2.3130 
  100.5000   101.1030     6.8910     6.7730     7.0930    23.6930    -6.7390     2.3130 
  100.6250   104.5820     6.7880     6.6900     6.8850    23.6930    -6.7100     2.3160 
  100.7500   105.4100     6.6640     6.5470     6.8440    23.6930    -6.6580     2.3250 
  100.8750   106.2690     6.4950     6.3540     6.7080    23.6930    -6.6400     2.3380 
  101.0000   108.4700     6.3090     6.1450     6.3540    23.7040    -6.6490     2.3510 
  101.1250   107.9680     6.1780     5.9680     5.9130    23.7450    -6.6580     2.3580 
  101.2500   104.7080     6.1170     5.8560     5.8480    23.8170    -6.6860     2.3570 
  101.3750   102.7140     6.1790     5.8210     6.1270    23.8980    -6.6800     2.3500 
  101.5000   104.0320     6.3600     5.8640     6.5220    24.0000    -6.7140     2.3440 
  101.6250   106.2700     6.6010     5.9770     6.6620    24.1130    -6.7310     2.3420 
  101.7500   107.1880     6.8330     6.1190     6.9220    24.1930    -6.7970     2.3430 
  101.8750   106.3040     7.0460     6.2740     7.3480    24.2220    -6.8300     2.3410 
  102.0000   102.9150     7.2730     6.4610     7.5470    24.2420    -6.8530     2.3300 
  102.1250    97.1780     7.6410     6.7830     7.6570    24.2890    -6.8800     2.3060 
  102.2500    91.8520     8.2970     7.3530     8.0320    24.3570    -6.8990     2.2750 
  102.3750    88.0090     9.4140     8.3040     8.8940    24.3960    -6.8970     2.2460 
  102.5000    86.6630    11.2410     9.7610    10.4080    24.4070    -6.8900     2.2260 
  102.6250    87.6360    14.1170    11.9340    13.7140    24.4070    -6.8310     2.2150 
  102.7500    85.8320    17.8250    14.7360    18.6030    24.4070    -6.7670     2.2050 
  102.8750    81.2710    21.9040    18.0340    22.6010    24.4070    -6.6690     2.1910 
