~V
VERS. 2.00: Ver 2.00
~W
STRT.M 60.0000:
STOP.M 190.0000:
STEP.M 0.1250:
NULL. -999.2500:
UWI. F10561:
~C
DEPT.M :
SP.MV :
GR.API :
RML.OHMM :
RI. :
RXO.OHMM :
CALI.CM :
DEN.GM/CC :
~A
# ...
  183.7500   -22.6330    59.5320     8.5870     7.4850     8.5820    24.4560     2.2790 
  183.8750   -23.0630    59.5320     8.5950     7.4960     8.7130    24.3940     2.2820 
  184.0000   -23.3960    59.5320     8.5890     7.4880     8.6960    24.3320     2.2910 
  184.1250   -23.5890    59.5320     8.5870     7.4790     8.7060    24.3640     2.2990 
  184.2500   -23.7130    59.5320     8.5940     7.4770     8.3710    24.4800     2.2990 
  184.3750   -23.7910    59.5320     8.6040     7.4790     8.4980    24.5860     2.2880 
  184.5000   -23.8470    59.5320     8.6180     7.4820     9.2120    24.6460     2.2700 
  184.6250   -23.8630    59.5320     8.6350     7.4820     9.6280    24.6560     2.2560 
  184.7500   -23.8840    59.5320     8.6530     7.4840     9.5830    24.6400     2.2530 
  184.8750   -23.9240    59.5320     8.6670     7.4870     9.1050    24.5910     2.2600 
  185.0000   -23.9570    59.5320     8.6730     7.4880     8.6560    24.5540     2.2750 
  185.1250   -23.9760    59.5320     8.6720     7.4820     8.1490    24.5410     2.2910 
  185.2500   -23.9710    59.5320     8.6690     7.4700     7.5710    24.5280     2.3090 
  185.3750   -23.9480    59.5320     8.6670     7.4610     7.1890    24.4980     2.3290 
  185.5000   -23.9340    59.5320     8.6620     7.4670     7.9290    24.4840     2.3490 
  185.6250   -23.9570    59.5320     8.6460     7.4970     9.0420    24.5640     2.3640 
  185.7500   -23.9940    59.5320     8.6240     7.5360     9.1900    24.6870     2.3710 
  185.8750   -24.0210    59.5320     8.6080     7.5620     8.3870    24.7650     2.3720 
  186.0000   -24.0260    59.5320     8.6020     7.5710     7.8070    24.7890     2.3720 
  186.1250   -24.0000    59.5320     8.6020     7.5710     7.6310    24.7880     2.3750 
  186.2500   -24.0010    59.5320     8.6020     7.5710     7.2720    24.7890     2.3820 
  186.3750   -24.0060    59.5320     8.6020     7.5710     6.8150    24.7900     2.3870 
  186.5000   -24.0200    59.5320     8.6020     7.5710     6.4170    24.7890     2.3900 
  186.6250   -24.0240    59.5320     8.6020     7.5710     6.2380    24.7880     2.3920 
  186.7500   -23.9970    59.5320     8.6020     7.5710     6.3290    24.7810     2.3960 
  186.8750   -23.9820    59.5320     8.6020     7.5710     6.3890    24.7460     2.4040 
  187.0000   -23.9800    59.5320     8.6020     7.5710     6.5040    24.6610     2.4140 
  187.1250   -24.0240    59.5320     8.6020     7.5710     6.6210    24.5820     2.4220 
  187.2500   -24.0560    59.5320     8.6020     7.5710     6.6950    24.5520     2.4290 
  187.3750   -24.0980    59.5320     8.6020     7.5710     6.8370    24.5490     2.4420 
  187.5000   -24.1300    59.5320     8.6020     7.5710     6.9970    24.5520     2.4600 
  187.6250   -24.1590    59.5320     8.6020     7.5710     7.1330    24.5600     2.4560 
  187.7500   -24.2120    59.5320     8.6020     7.5710     7.3800    24.6000     2.4000 
  187.8750   -24.2560    59.5320     8.6020     7.5710     7.6310    24.7440     2.2700 
  188.0000   -24.2730    59.5320     8.6020     7.5710     7.5130    25.0110     2.0760 
  188.1250   -24.2750    59.5320     8.6020     7.5710     6.8140    24.8630     1.8620 
  188.2500   -24.2900    59.5320     8.6020     7.5710     6.0840    24.0510     1.6840 
  188.3750   -24.2990    59.5320     8.6020     7.5710     5.5560    23.1750     1.5680 
  188.5000   -24.2990    59.5320     8.6020     7.5710     5.3580    22.7850     1.5100 
  188.6250   -24.2990    59.5320     8.6020     7.5710     5.3510    22.7650     1.4930 
  188.7500  -999.2500    59.5320     8.6020     7.5710     5.3430    22.7490     1.4860 
  188.8750  -999.2500    59.5320     8.6020     7.5710     5.3360    22.7380     1.4830 
  189.0000  -999.2500    59.5320     8.6020     7.5710     5.3340    22.7340     1.4810 
  189.1250  -999.2500    59.5320     8.6020     7.5710     5.3340    22.7340     1.4800 
  189.2500  -999.2500    59.5320     8.6020     7.5710     5.3340    22.7340     1.4800 
  189.3750  -999.2500    59.5320     8.6020     7.5710     5.3340    22.7340     1.4800 
  189.5000  -999.2500    59.5320     8.6020     7.5710     5.3330    22.7340     1.4800 
  189.6250  -999.2500    59.5320     8.6020     7.5710     5.3330    22.7340     1.4770 
  189.7500  -999.2500    59.5320     8.6020     7.5710     5.3320    22.7340     1.4780 
  189.8750  -999.2500    59.5320     8.6020     7.5710     5.3320    22.7340     1.4800 
  190.0000  -999.2500    59.5320     8.6020     7.5710     5.3320    22.7340     1.4790 
