~V
VERS. 2.00: Ver 2.00
~W
STRT.M 50.0000:
STOP.M 199.0000:
STEP.M 0.1250:
NULL. -999.2500:
UWI. F10575:
~C
DEPT.M :
DEN.GM/CC :
SP.MV :
GR.API :
RML.OHMM :
RI. :
RXO.OHMM :
CALI.CM :
~A
# ...
  140.0000     2.2320   -15.4240    80.1880    19.6360    17.0770    21.4630    23.9100 
  140.1250     2.2400   -15.5870    81.2840    18.9890    16.8440    20.8680    23.9060 
  140.2500     2.2500   -15.8140    81.8500    18.1860    16.3810    19.3580    23.8870 
  140.3750     2.2630   -16.0920    82.0060    17.5800    15.8990    17.2750    23.8340 
  140.5000     2.2820   -16.3880    82.5320    17.5410    15.6440    15.2250    23.7590 
  140.6250     2.3070   -16.6720    84.1800    18.3930    15.8940    15.0910    23.7040 
  140.7500     2.3220   -16.9160    83.7000    19.8830    16.6600    17.5030    23.6840 
  140.8750     2.3120   -17.1280    79.8940    21.6640    17.8890    20.3070    23.6810 
  141.0000     2.2770   -17.3460    75.8200    23.3480    19.3970    21.8330    23.6810 
  141.1250     2.2410   -17.5660    74.4430    24.6230    20.8640    22.3890    23.6810 
  141.2500     2.2240   -17.7370    74.1600    25.5710    22.0500    22.8920    23.6840 
  141.3750     2.2230   -17.8660    73.5320    26.3610    22.9310    23.2580    23.6980 
  141.5000     2.2230   -17.9500    71.7380    27.1560    23.6750    23.6710    23.7390 
  141.6250     2.2140   -17.9990    69.2590    28.2200    24.6170    24.7180    23.7840 
  141.7500     2.1960   -18.0360    67.2280    29.7730    25.9600    26.8840    23.8460 
  141.8750     2.1770   -18.0820    66.3580    31.9540    27.7860    29.7390    23.9480 
  142.0000     2.1630   -18.1030    64.8950    35.9020    30.0990    32.7540    24.1070 
  142.1250     2.1590   -18.1000    62.6730    38.1550    32.8950    35.8090    24.2740 
  142.2500     2.1590   -18.0910    60.3320    39.0400    35.8690    40.0610    24.3280 
  142.3750     2.1650   -18.1090    58.7430    40.1440    38.6280    43.4670    24.2910 
  142.5000     2.1750   -18.1520    59.1480    40.7140    40.6280    43.9650    24.1700 
  142.6250     2.1880   -18.2220    60.2640    40.6930    41.0070    43.0310    23.9520 
  142.7500     2.2020   -18.2920    60.1500    40.1430    39.7910    39.6300    23.6810 
  142.8750     2.2190   -18.3390    59.6160    39.2610    37.4580    36.2750    23.5100 
  143.0000     2.2350   -18.3650    62.0680    37.0490    34.8560    34.0160    23.4940 
  143.1250     2.2370   -18.3530    67.7460    34.9510    32.9320    32.4630    23.7290 
  143.2500     2.2200   -18.3170    70.3360    33.8880    32.0220    31.7320    24.2270 
  143.3750     2.1910   -18.2710    68.6440    33.9540    32.1780    32.8360    24.7720 
  143.5000     2.1720   -18.2070    65.1050    34.9260    33.2270    36.5870    25.0500 
  143.6250     2.1820   -18.1150    61.7920    36.4300    34.8620    39.8200    25.0810 
  143.7500     2.2120   -18.0180    58.4610    37.8210    36.5290    42.7860    25.0500 
  143.8750     2.2410   -17.9240    55.9940    38.1320    38.3230    43.1670    25.0370 
  144.0000     2.2530   -17.8470    55.9880    38.5500    38.4960    41.3110    25.0360 
  144.1250     2.2540   -17.7840    56.8080    38.4390    37.5180    40.7070    25.1090 
  144.2500     2.2470   -17.7370    57.2550    37.7760    36.2780    40.1930    25.3810 
  144.3750     2.2230   -17.6760    58.6930    36.8780    35.1650    38.7720    25.8000 
  144.5000     2.1880   -17.6510    61.7200    36.1090    34.4790    36.4690    25.8290 
  144.6250     2.1720   -17.6180    63.1870    35.8420    34.4510    35.9310    25.2620 
  144.7500     2.1910   -17.5840    62.4360    36.0840    34.8610    36.0710    24.6500 
  144.8750     2.2300   -17.5690    61.7750    36.7010    35.5480    38.4700    24.3680 
  145.0000     2.2610   -17.5540    63.1930    37.4750    36.3850    40.8800    24.2420 
  145.1250     2.2630   -17.5460    63.8190    38.2150    37.2950    39.8680    24.0730 
  145.2500     2.2560   -17.5510    62.3320    38.9360    38.2220    38.4260    23.9990 
  145.3750     2.2560   -17.5640    61.4680    39.7870    39.1660    38.3790    23.9810 
  145.5000     2.2630   -17.5480    62.5850    40.8720    40.0980    40.3630    23.9810 
  145.6250     2.2600   -17.5690    64.5740    42.0900    40.8260    42.1480    23.9810 
  145.7500     2.2390   -17.6120    65.9300    43.0380    41.1670    44.1010    23.9810 
  145.8750     2.2080   -17.6410    65.3370    43.3110    41.0080    45.3340    23.9810 
  146.0000     2.1840   -17.6640    62.7080    42.7310    40.2920    45.2650    23.9810 
  146.1250     2.1770   -17.6730    60.6680    41.4740    39.0530    43.1700    23.9810 
  146.2500     2.1770   -17.6480    61.9240    40.1970    37.7340    40.1240    23.9770 
  146.3750     2.1760   -17.6100    63.9070    39.3340    36.7230    37.9360    23.9390 
  146.5000     2.1750   -17.5780    64.4930    39.1140    36.2670    36.7990    23.8240 
  146.6250     2.1740   -17.5170    62.9410    39.5620    36.4520    36.3470    23.6440 
  146.7500     2.1730   -17.4100    61.0090    40.2090    36.8910    38.0250    23.5360 
  146.8750     2.1740   -17.2760    59.6780    40.5950    37.2450    41.1500    23.5700 
  147.0000     2.1790   -17.1390    59.0180    40.3080    37.2070    43.9940    23.7410 
  147.1250     2.1840   -16.9890    58.9690    39.0390    36.4730    43.4200    23.9220 
  147.2500     2.1870   -16.8490    59.4610    37.1830    35.1860    40.0280    24.0080 
  147.3750     2.1890   -16.6990    60.5500    35.2210    33.6130    36.5290    24.0290 
  147.5000     2.1910   -16.5400    61.6080    33.6340    32.1500    34.9910    24.0040 
  147.6250     2.1940   -16.3600    61.8850    32.8590    31.2560    34.6060    23.9820 
  147.7500     2.1950   -16.1960    63.6490    32.8170    30.9610    34.8670    23.9600 
  147.8750     2.1930   -16.0260    65.8420    33.3110    31.1280    35.8810    23.9310 
  148.0000     2.1870   -15.8450    67.0930    33.9940    31.4730    37.5160    23.9130 
  148.1250     2.1830   -15.6620    67.1680    34.4040    31.6690    38.4420    23.9050 
  148.2500     2.1860   -15.4820    66.4380    34.3030    31.5380    38.0370    23.9040 
  148.3750     2.1920   -15.2920    64.3540    33.7080    31.0360    36.7550    23.9030 
  148.5000     2.2000   -15.0880    60.9220    32.8870    30.2950    35.2320    23.9030 
  148.6250     2.2080   -14.9520    58.9750    32.3210    29.6940    35.0910    23.9030 
  148.7500     2.2120   -14.8620    60.6730    32.3490    29.5990    34.9440    23.9030 
  148.8750     2.2070   -14.7990    64.2500    33.1150    30.1910    35.9380    23.9030 
  149.0000     2.1930   -14.7580    65.4840    34.5430    31.4410    38.5770    23.9030 
  149.1250     2.1830   -14.7410    62.7090    36.3000    33.1100    42.6590    23.9030 
  149.2500     2.1790   -14.7700    59.9210    37.7950    34.6500    44.0340    23.9030 
  149.3750     2.1820   -14.8500    60.6570    38.6470    35.6150    43.5610    23.9030 
  149.5000     2.1880   -14.9540    62.6630    38.7600    35.7730    43.4930    23.9030 
  149.6250     2.1910   -15.0370    62.1120    38.2940    35.2050    42.8030    23.9030 
  149.7500     2.1930   -15.1060    60.6840    37.7570    34.5230    41.8300    23.9030 
  149.8750     2.1930   -15.2110    60.9390    37.4200    34.1300    40.9290    23.9030 
  150.0000     2.1940   -15.3080    62.7920    37.3630    34.1780    39.8710    23.8960 
  150.1250     2.1980   -15.4400    62.7560    37.5300    34.6150    40.3670    23.8750 
  150.2500     2.2010   -15.5700    60.9890    37.8190    35.2190    41.4510    23.8370 
  150.3750     2.2020   -15.6810    59.8430    38.2830    35.9490    43.3920    23.7840 
  150.5000     2.2060   -15.7960    59.7440    39.0270    36.8320    43.4530    23.6890 
  150.6250     2.2250   -15.9100    61.0850    40.1840    37.7990    42.9160    23.5650 
  150.7500     2.2480   -16.0430    62.9960    41.5880    38.6060    45.6550    23.5230 
  150.8750     2.2520   -16.1440    64.1080    42.9370    39.0330    50.0830    23.6480 
  151.0000     2.2270   -16.2600    62.5380    43.8230    38.9850    53.7870    23.7730 
  151.1250     2.1940   -16.3470    59.6180    43.7270    38.4510    51.6160    23.7980 
