~V
VERS. 2.00: Ver 2.00
~W
STRT.M 52.0000:
STOP.M 208.0000:
STEP.M 0.1250:
NULL. -999.2500:
UWI. F10572:
~C
DEPT.M :
GR.API :
RML.OHMM :
RI. :
RXO.OHMM :
CALI.CM :
DEN.GM/CC :
SP.MV :
~A
# ...
  198.2500    62.7540     4.2650     3.5530     3.9480    23.7120     2.2490   -11.2730 
  198.3750    62.7540     4.2230     3.4980     3.8710    23.6500     2.2420   -11.1860 
  198.5000    62.7540     4.2120     3.4650     3.8030    23.5670     2.2730   -11.1020 
  198.6250    62.7540     4.2340     3.4640     3.7290    23.5080     2.3100   -11.0080 
  198.7500    62.7540     4.2890     3.4940     3.7400    23.4800     2.3240   -10.9560 
  198.8750    62.7540     4.3680     3.5460     3.8640    23.5240     2.3230   -10.9630 
  199.0000    62.7540     4.4550     3.6070     4.0830    23.7380     2.3240   -10.9860 
  199.1250    62.7540     4.5220     3.6540     4.5110    23.8050     2.3390   -10.9730 
  199.2500    62.7540     4.5550     3.6780     5.0160    23.8060     2.3530   -10.9340 
  199.3750    62.7540     4.5500     3.6760     4.7520    23.8350     2.3630   -10.8920 
  199.5000    62.7540     4.5240     3.6570     4.0640    24.0350     2.3720   -10.8580 
  199.6250    62.7540     4.5140     3.6360     3.6630    23.9980     2.3820   -10.8320 
  199.7500    62.7540     4.5330     3.6260     3.9930    23.8510     2.3820   -10.7880 
  199.8750    62.7540     4.5660     3.6280     4.6160    23.6710     2.3670   -10.7250 
  200.0000    62.7540     4.5860     3.6360     4.5850    23.6360     2.3410   -10.6450 
  200.1250    62.7540     4.5710     3.6410     4.1940    23.6330     2.3250   -10.6230 
  200.2500    62.7540     4.5420     3.6420     3.8740    23.6730     2.3290   -10.6930 
  200.3750    62.7540     4.5360     3.6510     3.8610    23.7330     2.3430   -10.8090 
  200.5000    62.7540     4.5840     3.6930     4.2260    23.8680     2.3530   -10.9370 
  200.6250    62.7540     4.7090     3.8000     4.6320    23.9680     2.3520   -11.1220 
  200.7500    62.7540     4.8980     3.9730     5.0320    24.0100     2.3500   -11.3490 
  200.8750    62.7540     5.1350     4.2030     5.3390    24.0210     2.3540   -11.5950 
  201.0000    62.7540     5.3910     4.4590     5.4170    24.0160     2.3680   -11.8770 
  201.1250    62.7540     5.6080     4.6830     5.3960    23.9350     2.3840   -12.1750 
  201.2500    62.7540     5.7490     4.8330     5.4670    23.7910     2.3960   -12.4180 
  201.3750    62.7540     5.8110     4.8970     5.5780    23.6920     2.4050   -12.6100 
  201.5000    62.7540     5.8100     4.8930     5.4970    23.6480     2.4100   -12.7810 
  201.6250    62.7540     5.7780     4.8540     5.1690    23.6320     2.4060   -12.8720 
  201.7500    62.7540     5.7430     4.8170     4.9780    23.6700     2.3880   -12.8810 
  201.8750    62.7540     5.7140     4.7900     5.0110    23.7570     2.3570   -12.8310 
  202.0000    62.7540     5.6900     4.7730     5.0320    23.8900     2.3240   -12.7440 
  202.1250    62.7540     5.6640     4.7640     4.7210    24.0530     2.3070   -12.6420 
  202.2500    62.7540     5.6360     4.7590     4.6500    24.2000     2.3120   -12.5760 
  202.3750    62.7540     5.6100     4.7570     5.1570    24.1700     2.3300   -12.5610 
  202.5000    62.7540     5.5970     4.7560     6.3770    24.0170     2.3420   -12.6160 
  202.6250    62.7540     5.6030     4.7530     7.7570    23.8880     2.3310   -12.7760 
  202.7500    62.7540     5.6120     4.7500     7.7890    23.8730     2.3090   -12.9790 
  202.8750    62.7540     5.6060     4.7470     8.1110    23.9080     2.2910   -13.2190 
  203.0000    62.7540     5.5850     4.7470     8.6210    23.8850     2.2890   -13.4520 
  203.1250    62.7540     5.5660     4.7480     9.0500    23.8050     2.3060   -13.6790 
  203.2500    62.7540     5.5630     4.7510     9.4820    23.7060     2.3270   -13.9010 
  203.3750    62.7540     5.5760     4.7550    10.6920    23.6310     2.3410   -14.1170 
  203.5000    62.7540     5.5990     4.7620    12.6310    23.6010     2.3450   -14.2820 
  203.6250    62.7540     5.6230     4.7670    11.9790    23.6630     2.3440   -14.3690 
  203.7500    62.7540     5.6230     4.7670     8.6160    23.7760     2.3470   -14.4440 
  203.8750    62.7540     5.6230     4.7670     5.8650    23.8300     2.3570   -14.5510 
  204.0000    62.7540     5.6230     4.7670     4.9920    23.7960     2.3740   -14.6850 
  204.1250    62.7540     5.6230     4.7670     4.9000    23.7110     2.3970   -14.7510 
  204.2500    62.7540     5.6230     4.7670     4.7980    23.6760     2.4230   -14.7670 
  204.3750    62.7540     5.6230     4.7670     4.6040    23.6830     2.4440   -14.7700 
  204.5000    62.7540     5.6230     4.7670     4.2400    23.7490     2.4500   -14.7700 
  204.6250    62.7540     5.6230     4.7670     3.6970    23.9230     2.4310   -14.7740 
  204.7500    62.7540     5.6230     4.7670     3.3720    24.1300     2.3990   -14.7490 
  204.8750    62.7540     5.6230     4.7670     3.2980    24.3700     2.3670   -14.6880 
  205.0000    62.7540     5.6230     4.7670     3.6050    24.5080     2.3460   -14.5930 
  205.1250    62.7540     5.6230     4.7670     4.0310    24.4430     2.3390   -14.5520 
  205.2500    62.7540     5.6230     4.7670     5.0440    23.9790     2.3330   -14.4590 
  205.3750    62.7540     5.6230     4.7670     5.3310    23.9050     2.3260   -14.2790 
  205.5000    62.7540     5.6230     4.7670     5.5970    23.9420     2.3270   -14.0930 
  205.6250    62.7540     5.6230     4.7670     5.7230    23.9990     2.3500   -13.9130 
  205.7500    62.7540     5.6230     4.7670     5.2040    24.0230     2.3910   -13.7540 
  205.8750    62.7540     5.6230     4.7670     4.7430    24.1050     2.4250   -13.6050 
  206.0000    62.7540     5.6230     4.7670     4.4540    24.3360     2.4130   -13.4640 
  206.1250    62.7540     5.6230     4.7670     4.2490    24.6300     2.3400   -13.3360 
  206.2500    62.7540     5.6230     4.7670     3.9120    24.7540     2.2310   -13.3360 
  206.3750    62.7540     5.6230     4.7670     3.6100    24.6480     2.1150   -13.3360 
  206.5000    62.7540     5.6230     4.7670     3.7210    24.5340     2.0120  -999.2500 
  206.6250    62.7540     5.6230     4.7670     4.0240    24.5150     1.9420  -999.2500 
  206.7500    62.7540     5.6230     4.7670     4.1890    24.5190     1.8980  -999.2500 
  206.8750    62.7540     5.6230     4.7670     4.2020    24.5100     1.8730  -999.2500 
  207.0000    62.7540     5.6230     4.7670     4.1990    24.5100     1.8600  -999.2500 
  207.1250    62.7540     5.6230     4.7670     4.1980    24.5100     1.8530  -999.2500 
  207.2500    62.7540     5.6230     4.7670     4.1980    24.5100     1.8420  -999.2500 
  207.3750    62.7540     5.6230     4.7670     4.1980    24.5100     1.8390  -999.2500 
  207.5000    62.7540     5.6230     4.7670     4.1990    24.5100     1.8400  -999.2500 
  207.6250    62.7540     5.6230     4.7670     4.1980    24.5100     1.8420  -999.2500 
  207.7500    62.7540     5.6230     4.7670     4.1960    24.5100     1.8450  -999.2500 
  207.8750    62.7540     5.6230     4.7670     4.1940    24.5070     1.8460  -999.2500 
  208.0000    62.7540     5.6230     4.7670     4.1920    24.5000     1.8470  -999.2500 
