~V
VERS. 2.00: Ver 2.00
~W
STRT.M 50.0000:
STOP.M 233.0000:
STEP.M 0.1250:
NULL. -999.2500:
UWI. F10598:
~C
DEPT.M :
DEN.GM/CC :
SP.MV :
GR.API :
RML.OHMM :
RI. :
RXO.OHMM :
CALI.CM :
~A
# ...
   61.2500     2.0540   -11.2330    83.8890     8.6780     4.5670     7.8010    23.2890 
   61.3750     2.0510   -14.0700    84.9380     7.9990     5.1110     7.3640    23.2210 
   61.5000     2.0360   -16.1380    87.8030     7.5710     5.4910     7.1620    23.1970 
   61.6250     2.0090   -17.5310    85.8950     7.3370     5.7250     7.0480    23.1900 
   61.7500     1.9830   -18.5390    81.2560     7.2310     5.8520     6.7550    23.1420 
   61.8750     1.9680   -19.2730    79.7380     7.2500     5.9030     6.5400    23.0090 
   62.0000     1.9740   -19.7810    85.0040     7.3560     5.9160     6.7350    22.8240 
   62.1250     1.9970   -20.1350    92.2330     7.4660     5.9370     7.2200    22.6080 
   62.2500     2.0170   -20.4380    95.2370     7.4910     6.0000     7.5800    22.3960 
   62.3750     2.0180   -20.7120    94.8420     7.4260     6.1270     7.6540    22.1370 
   62.5000     2.0050   -20.9110    93.6630     7.3660     6.3150     7.8990    21.8010 
   62.6250     2.0010   -21.0740    93.9920     7.4030     6.5140     8.1870    21.4690 
   62.7500     2.0140   -21.1940    94.6350     7.4990     6.6350     7.9850    20.9810 
   62.8750     2.0350   -21.2600    93.4570     7.5970     6.6140     7.4680    20.2550 
   63.0000     2.0580   -21.2890    87.9820     7.6460     6.4480     7.1140    19.6550 
   63.1250     2.0800   -21.2810    83.0770     7.5910     6.2080     7.0080    19.4800 
   63.2500     2.0990   -21.2190    84.6770     7.4500     6.0050     7.0150    19.5970 
   63.3750     2.1020   -21.1010    89.0430     7.2860     5.8920     7.3450    19.9090 
   63.5000     2.0860   -20.9780    89.5930     7.1600     5.8720     7.9140    20.3140 
   63.6250     2.0610   -20.8570    86.0290     7.0600     5.9260     8.0690    20.8190 
   63.7500     2.0480   -20.7520    82.0420     6.9490     5.9960     7.9340    21.4590 
   63.8750     2.0500   -20.6740    79.7620     6.8390     6.0450     7.9670    22.1350 
   64.0000     2.0660   -20.6360    80.2840     6.7470     6.0440     8.0730    22.6480 
   64.1250     2.0890   -20.6120    84.0080     6.6750     5.9790     7.6900    22.8360 
   64.2500     2.1120   -20.6210    88.3410     6.6300     5.8760     7.2640    22.8840 
   64.3750     2.1320   -20.6440    93.5520     6.5850     5.7640     6.9700    22.8870 
   64.5000     2.1480   -20.6910   101.1350     6.4800     5.6760     6.8760    22.8870 
   64.6250     2.1570   -20.7690   104.1080     6.3170     5.6330     6.8650    22.8870 
   64.7500     2.1590   -20.8950   101.1130     6.2030     5.6160     6.8280    22.8870 
   64.8750     2.1520   -21.0540    96.9760     6.2060     5.6070     6.7570    22.8870 
   65.0000     2.1370   -21.2160    95.4440     6.3260     5.5950     6.7170    22.8870 
   65.1250     2.1230   -21.3880    93.2450     6.5230     5.5770     6.7090    22.8870 
   65.2500     2.1150   -21.5850    88.4860     6.7160     5.5610     6.7250    22.8870 
   65.3750     2.1130   -21.8090    84.6230     6.8560     5.5580     6.7950    22.8870 
   65.5000     2.1060   -22.0460    81.1850     6.9510     5.5730     6.8600    22.8870 
   65.6250     2.0860   -22.3200    77.7800     7.0520     5.6060     6.8580    22.8870 
   65.7500     2.0670   -22.6010    76.8780     7.1590     5.6540     6.8230    22.8780 
   65.8750     2.0650   -22.9050    80.1990     7.2500     5.7120     6.8120    22.8050 
   66.0000     2.0820   -23.2420    85.8090     7.3110     5.7640     6.8300    22.6130 
   66.1250     2.1080   -23.6160    87.7360     7.3380     5.7870     6.8840    22.3600 
   66.2500     2.1280   -24.0020    86.9480     7.3460     5.7800     7.0130    22.2610 
   66.3750     2.1360   -24.4110    85.5980     7.3300     5.7550     7.0540    22.2810 
   66.5000     2.1300   -24.8470    83.6840     7.3010     5.7310     6.8850    22.3760 
   66.6250     2.1040   -25.3330    82.6540     7.2780     5.7350     6.9030    22.6640 
   66.7500     2.0680   -25.8510    82.6320     7.2740     5.7670     7.1050    23.1180 
   66.8750     2.0380   -26.4110    82.7950     7.3130     5.8150     7.4590    23.5160 
   67.0000     2.0300   -27.0020    81.7790     7.4070     5.8620     7.7460    23.6390 
   67.1250     2.0510   -27.6080    78.8130     7.5440     5.9070     7.8960    23.5220 
   67.2500     2.0790   -28.2200    76.9790     7.6890     5.9630     7.9210    23.4220 
   67.3750     2.0890   -28.7990    76.8060     7.8290     6.0440     8.0230    23.5030 
   67.5000     2.0690   -29.3030    77.6220     7.9630     6.1530     8.2940    23.8390 
   67.6250     2.0340   -29.6310    77.3260     8.0540     6.2660     8.6060    24.2670 
   67.7500     2.0110   -29.8030    75.2360     8.0510     6.3410     8.6860    24.5330 
   67.8750     2.0100   -29.7880    74.5440     7.9440     6.3370     8.5790    24.6110 
   68.0000     2.0240   -29.5710    75.8520     7.7520     6.2410     8.4210    24.6010 
   68.1250     2.0390   -29.1180    76.1810     7.5160     6.0640     8.1730    24.5690 
   68.2500     2.0490   -28.4610    75.2780     7.2920     5.8560     7.7950    24.5490 
   68.3750     2.0590   -27.6240    75.4380     7.0950     5.6480     7.2070    24.5150 
   68.5000     2.0760   -26.6720    77.4660     6.9400     5.4680     6.6760    24.4390 
   68.6250     2.0960   -25.6850    78.8330     6.8680     5.3620     6.4000    24.3470 
   68.7500     2.1180   -24.6980    81.0050     6.8680     5.3380     6.2840    24.2860 
   68.8750     2.1400   -23.7470    85.9380     6.9030     5.3680     5.9660    24.2600 
   69.0000     2.1550   -22.8330    90.3010     6.9120     5.3890     5.9940    24.2740 
   69.1250     2.1590   -21.9120    87.9220     6.8350     5.3060     6.7630    24.3340 
   69.2500     2.1690   -20.9720    83.4130     6.6560     5.0970     6.8250    24.3710 
   69.3750     2.1970   -20.0680    84.1820     6.3740     4.7980     5.8910    24.3500 
   69.5000     2.2340   -19.2380    90.8200     6.0390     4.4840     4.9160    24.2580 
   69.6250     2.2530   -18.4750    98.3380     5.7470     4.2410     4.8400    24.1600 
   69.7500     2.2560   -17.7950   102.1010     5.5590     4.1050     5.0100    24.0840 
   69.8750     2.2520   -17.1690   101.8640     5.4980     4.0890     5.1020    24.0400 
   70.0000     2.2470   -16.6380    99.9270     5.5350     4.1800     5.2310    24.0220 
   70.1250     2.2410   -16.2720    96.0260     5.6130     4.3520     5.5080    24.0170 
   70.2500     2.2350   -16.0740    92.2950     5.7010     4.5540     6.0490    24.0090 
   70.3750     2.2340   -15.9900    91.6870     5.8050     4.7430     6.1870    23.9860 
   70.5000     2.2370   -15.9670    94.7400     5.9160     4.8840     6.2350    23.9410 
   70.6250     2.2350   -15.9710    95.5870     6.0140     4.9330     5.7710    23.8950 
   70.7500     2.2310   -15.9940    91.7940     6.1000     4.9000     5.5550    23.8710 
   70.8750     2.2340   -16.0450    88.7840     6.1710     4.8040     5.3150    23.8510 
   71.0000     2.2480   -16.1250    92.0310     6.2130     4.6740     5.0060    23.7980 
   71.1250     2.2710   -16.2550   101.5830     6.1910     4.5370     4.9060    23.6640 
   71.2500     2.2960   -16.4310   110.0190     6.0680     4.4110     4.9120    23.5270 
   71.3750     2.3190   -16.6520   112.3020     5.8260     4.2860     4.9030    23.4520 
   71.5000     2.3360   -16.9250   108.9910     5.4970     4.1380     4.7800    23.4630 
   71.6250     2.3520   -17.2910   104.7980     5.1750     3.9330     4.6000    23.5450 
   71.7500     2.3670   -17.7250   103.5950     4.9830     3.7270     4.3380    23.6190 
   71.8750     2.3810   -18.2490   102.5140     5.0730     3.6460     4.3220    23.6950 
   72.0000     2.3880   -18.8720    98.2250     5.6200     3.8420     4.7330    23.8600 
   72.1250     2.3900   -19.6400    93.4510     6.8700     4.5200     6.5400    24.1380 
   72.2500     2.3840   -20.5230    90.5460     8.6780     5.6570    11.7920    24.3260 
   72.3750     2.3540   -21.4930    87.4110    10.6980     7.1100    23.7630    24.4010 
