~V
VERS. 2.00: Ver 2.00
~W
STRT.M 50.0000:
STOP.M 215.0000:
STEP.M 0.1250:
NULL. -999.2500:
UWI. F10588:
~C
DEPT.M :
DEN.GM/CC :
GR.API :
RML.OHMM :
RI. :
RXO.OHMM :
CALI.CM :
SP.MV :
~A
# ...
  185.0000     2.3930    47.4550     9.3920     7.3090     9.5010    23.9140   -23.7520 
  185.1250     2.3870    48.7990     9.1040     7.1480     8.7920    23.8930   -23.7920 
  185.2500     2.3800    51.1840     8.5840     6.7880     8.4850    23.8160   -23.8890 
  185.3750     2.3630    52.1870     7.9920     6.3360     8.6800    23.7330   -24.0330 
  185.5000     2.3300    53.5030     7.5110     5.9220     8.7140    23.7310   -24.2640 
  185.6250     2.2870    61.6480     7.3230     5.6950     7.1100    23.8120   -24.5770 
  185.7500     2.2480    75.8250     7.4250     5.6820     6.2310    23.8670   -24.9840 
  185.8750     2.2190    87.4640     7.7590     5.8670     6.3050    23.9010   -25.4420 
  186.0000     2.2050    89.4940     8.1980     6.1720     7.4440    23.9080   -25.9300 
  186.1250     2.2090    85.5920     8.5430     6.4540     8.6170    23.8990   -26.3220 
  186.2500     2.2260    83.6410     8.6660     6.5910     8.8070    23.8920   -26.6160 
  186.3750     2.2490    83.4630     8.5650     6.5560     8.0890    23.8810   -26.8140 
  186.5000     2.2670    81.5300     8.3570     6.4110     7.1030    23.8720   -26.9300 
  186.6250     2.2670    78.1900     8.2340     6.2880     7.0080    23.8680   -26.9620 
  186.7500     2.2530    78.0240     8.3030     6.2870     7.6070    23.8680   -26.9020 
  186.8750     2.2350    80.2350     8.5860     6.4460     8.4100    23.8670   -26.7920 
  187.0000     2.2240    81.4780     9.0540     6.7640     8.8230    23.8640   -26.6300 
  187.1250     2.2260    82.2770     9.6700     7.2230     9.0810    23.8670   -26.4960 
  187.2500     2.2380    84.8350    10.3550     7.7550     9.6700    23.8680   -26.3490 
  187.3750     2.2530    87.5320    11.0560     8.3190    10.3930    23.8680   -26.1750 
  187.5000     2.2680    87.2780    11.6740     8.8480    11.2180    23.8680   -25.9210 
  187.6250     2.2800    83.5320    11.9630     9.1730    11.8730    23.8700   -25.5430 
  187.7500     2.2900    80.0960    11.7770     9.1590    11.9690    23.8710   -25.0540 
  187.8750     2.2990    79.0670    11.0760     8.7370    11.7180    23.8720   -24.4700 
  188.0000     2.3050    79.3440    10.0020     7.9770    11.6260    23.8720   -23.8580 
  188.1250     2.3030    76.5390     8.6910     7.0710     9.9250    23.8770   -23.2070 
  188.2500     2.2900    70.0830     7.2720     6.2580     7.4140    23.8810   -22.6150 
  188.3750     2.2730    64.4180     6.5990     5.6420     6.2590    23.8680   -22.0870 
  188.5000     2.2600    62.7400     6.2240     5.2530     6.0350    23.7940   -21.6660 
  188.6250     2.2630    63.6920     6.1250     5.0990     5.8790    23.5710   -21.3710 
  188.7500     2.2810    61.9020     6.1650     5.0890     5.6980    23.2560   -21.2020 
  188.8750     2.3100    56.5730     6.2570     5.1580     5.5990    23.0200   -21.1240 
  189.0000     2.3370    51.7990     6.3370     5.2500     5.8270    23.0640   -21.1100 
  189.1250     2.3560    50.2260     6.3620     5.3200     6.0530    23.3510   -21.1460 
  189.2500     2.3690    49.6670     6.3320     5.3500     6.1050    23.6320   -21.1950 
  189.3750     2.3760    48.6300     6.2550     5.3360     5.9790    23.7610   -21.2480 
  189.5000     2.3750    48.7120     6.1460     5.2820     5.8800    23.7900   -21.2680 
  189.6250     2.3650    50.9610     6.0220     5.1950     5.8230    23.7810   -21.2630 
  189.7500     2.3570    52.9890     5.9010     5.0960     5.7310    23.7160   -21.2120 
  189.8750     2.3550    51.8390     5.7960     5.0020     5.4740    23.5050   -21.1390 
  190.0000     2.3610    48.2960     5.7150     4.9250     5.3180    23.1860   -21.0350 
  190.1250     2.3690    49.6950     5.6670     4.8770     5.3870    22.9470   -20.9190 
  190.2500     2.3710    55.2710     5.6380     4.8530     5.4780    23.0940   -20.7690 
  190.3750     2.3650    57.7530     5.6090     4.8360     5.5590    23.3900   -20.6010 
  190.5000     2.3520    54.1770     5.5580     4.8100     5.6710    23.5810   -20.4360 
  190.6250     2.3350    49.1440     5.4650     4.7590     5.4360    23.6230   -20.2760 
  190.7500     2.3150    48.6480     5.3530     4.6920     5.1740    23.6300   -20.1400 
  190.8750     2.2980    51.5140     5.2480     4.6260     4.9710    23.6230   -20.0360 
  191.0000     2.2890    53.6850     5.1760     4.5750     4.9710    23.5700   -19.9650 
  191.1250     2.2950    50.7320     5.1580     4.5560     5.1440    23.4470   -19.9480 
  191.2500     2.3130    45.2200     5.1770     4.5630     5.2110    23.2910   -19.9860 
  191.3750     2.3360    41.0200     5.2140     4.5870     5.1420    23.1980   -20.0700 
  191.5000     2.3520    38.6110     5.2470     4.6120     5.0650    23.1710   -20.2150 
  191.6250     2.3480    37.2130     5.2570     4.6180     5.0680    23.1740   -20.4160 
  191.7500     2.3290    39.1190     5.2400     4.5980     5.1670    23.2040   -20.6450 
  191.8750     2.3010    43.5970     5.2040     4.5560     5.2920    23.3010   -20.8730 
  192.0000     2.2780    46.1840     5.1620     4.5060     5.3140    23.4930   -21.0750 
  192.1250     2.2710    44.0560     5.1290     4.4640     5.3180    23.6490   -21.2070 
  192.2500     2.2800    42.1220     5.1130     4.4380     5.4090    23.7460   -21.2760 
  192.3750     2.2980    43.6380     5.1240     4.4360     5.4440    23.7840   -21.2710 
  192.5000     2.3160    46.3750     5.1880     4.4740     5.3240    23.8020   -21.1650 
  192.6250     2.3370    46.2720     5.3710     4.6040     5.2150    23.8330   -20.9760 
  192.7500     2.3680    44.3370     5.6780     4.8340     5.2680    23.8520   -20.7320 
  192.8750     2.4090    43.4310     6.0710     5.1450     5.4900    23.8560   -20.4600 
  193.0000     2.4470    45.0190     6.4450     5.4620     6.1590    23.8460   -20.1940 
  193.1250     2.4550    46.9350     6.6000     5.6340     7.5740    23.8210   -19.9650 
  193.2500     2.4290    46.5940     6.4620     5.5830     8.6300    23.8020   -19.7700 
  193.3750     2.3810    45.0850     6.0870     5.3250     7.5440    23.7960   -19.6200 
  193.5000     2.3350    44.7730     5.6410     4.9710     5.9200    23.7670   -19.5340 
  193.6250     2.3120    45.7000     5.3350     4.6770     4.9470    23.7030   -19.5140 
  193.7500     2.3160    45.7570     5.2530     4.5350     4.5980    23.6690   -19.5770 
  193.8750     2.3410    44.7620     5.4000     4.5740     4.7470    23.7260   -19.7120 
  194.0000     2.3780    44.2080     5.7140     4.7710     5.2940    23.7950   -19.9120 
  194.1250     2.4100    45.0690     6.0850     5.0590     5.8760    23.8400   -20.1960 
  194.2500     2.4260    46.2040     6.3800     5.3200     6.3120    23.8440   -20.5490 
  194.3750     2.4260    46.3990     6.5420     5.4920     6.6610    23.8210   -20.9810 
  194.5000     2.4130    46.1240     6.5800     5.5610     6.7670    23.7890   -21.4740 
  194.6250     2.3930    48.5810     6.5550     5.5590     6.6140    23.7590   -22.0400 
  194.7500     2.3710    53.1370     6.5490     5.5540     6.4490    23.7300   -22.6300 
  194.8750     2.3470    57.6320     6.5860     5.5710     6.5910    23.6830   -23.2430 
  195.0000     2.3210    61.8210     6.6590     5.6140     7.1800    23.6460   -23.8590 
  195.1250     2.2960    67.6090     6.7650     5.6850     7.6900    23.6340   -24.4330 
  195.2500     2.2740    73.9410     6.9250     5.7990     8.1290    23.6370   -24.9390 
  195.3750     2.2570    79.3540     7.1960     5.9970     8.1160    23.6390   -25.3680 
  195.5000     2.2450    84.1750     7.6310     6.3220     7.8630    23.6360   -25.7080 
  195.6250     2.2430    90.1630     8.2430     6.8080     8.1890    23.6290   -25.8820 
  195.7500     2.2510    94.4270     8.8530     7.3420     9.3730    23.6310   -25.8750 
  195.8750     2.2680    93.3010     9.2260     7.7530    10.4430    23.6390   -25.6680 
  196.0000     2.2810    88.4890     9.1500     7.8520    10.7430    23.6510   -25.2620 
  196.1250     2.2780    85.8500     8.5410     7.5050    10.1400    23.6620   -24.6680 
