~V
VERS. 2.00: Ver 2.00
~W
STRT.M 40.0000:
STOP.M 191.0000:
STEP.M 0.1250:
NULL. -999.2500:
UWI. F10585:
~C
DEPT.M :
DEN.GM/CC :
SP.MV :
GR.API :
RML.OHMM :
RI. :
RXO.OHMM :
CALI.CM :
~A
# ...
   51.2500     2.1620    85.7080    46.5150    14.6150     0.1890     5.0780    25.1190 
   51.3750     2.1640    87.2320    43.9700    15.4450     0.1910     4.6190    25.1160 
   51.5000     2.1560    88.8320    42.0880    17.1490     0.1940     5.7630    25.1150 
   51.6250     2.1430    90.5930    43.1020    19.7380     0.1950     6.2360    25.1160 
   51.7500     2.1270    92.4020    45.4790    22.3980     0.1940     5.1400    25.1170 
   51.8750     2.1130    94.0330    46.5790    24.3140     0.1940     4.0700    25.1110 
   52.0000     2.1080    95.3920    46.2710    24.6110     0.1950     3.4700    25.0930 
   52.1250     2.1160    96.4800    46.9680    22.8010     0.1940     2.8850    25.0490 
   52.2500     2.1330    97.3960    47.4440    20.5330     0.1900     2.3230    24.9400 
   52.3750     2.1510    98.1070    46.3310    18.8950     0.1810     1.9130    24.6850 
   52.5000     2.1640    98.6010    45.6340    17.9610     0.1670     1.8090    24.3040 
   52.6250     2.1750    98.8820    48.0800    17.2260     0.1520     2.5370    24.0550 
   52.7500     2.1940    99.1680    49.9700    16.0080     0.1420     7.1390    23.9390 
   52.8750     2.2180    99.6470    49.2730    14.6070     0.1440    22.8610    23.8410 
   53.0000     2.2430   100.2960    48.1930    13.8230     0.1580     9.8900    23.6150 
   53.1250     2.2730   101.0030    48.7320    14.1300     0.1780     2.3020    23.2550 
   53.2500     2.3050   101.7120    49.9250    14.8080     0.1910     1.0590    22.9010 
   53.3750     2.3360   102.3570    50.8610    15.0020     0.1900     0.6660    22.6320 
   53.5000     2.3630   102.8650    51.9020    14.3050     0.1760     0.5080    22.4670 
   53.6250     2.4010   103.1330    52.7640    13.2280     0.1590     0.4220    22.3550 
   53.7500     2.4490   103.1290    53.5980    12.3700     0.1470     0.3800    22.1750 
   53.8750     2.4940   102.8790    55.9390    11.7080     0.1410     0.4290    21.8880 
   54.0000     2.5150   102.4790    58.3650    11.0290     0.1370     0.7450    21.6510 
   54.1250     2.5090   102.2010    57.0730    10.3580     0.1360     2.8420    21.6350 
   54.2500     2.4960   102.2120    53.5030     9.9640     0.1370    13.3420    21.8930 
   54.3750     2.4840   102.6590    52.7450     9.8790     0.1380    45.3000    22.4160 
   54.5000     2.4810   103.5940    56.5920     9.9290     0.1400    76.8170    22.9550 
   54.6250     2.4850   105.0780    59.1450     9.9670     0.1440  1469.5330    23.1320 
   54.7500     2.4780   106.8770    59.3540     9.8710     0.1470  1469.5330    23.1320 
   54.8750     2.4320   108.8080    61.0140     9.6060     0.1490  1469.5330    23.1400 
   55.0000     2.3400   110.7950    64.2100     9.2320     0.1480  1469.5330    23.2880 
   55.1250     2.2380   112.6800    63.0340     8.8640     0.1450  1469.5330    23.6980 
   55.2500     2.1670   114.5690    57.8410     8.5930     0.1430  1469.5330    24.1640 
   55.3750     2.1320   116.5360    54.2140     8.4400     0.1440  1469.5330    24.3150 
   55.5000     2.1160   118.5140    54.8210     8.3750     0.1480  1469.5330    24.1150 
   55.6250     2.0930   120.3690    58.8550     8.3300     0.1570  1469.5330    23.9720 
   55.7500     2.0670   121.9560    62.8560     8.2240     0.1680  1469.5330    23.9280 
   55.8750     2.0480   123.1400    64.0260     8.0330     0.1800  1469.5330    23.9270 
   56.0000     2.0400   123.8410    62.8750     7.7630     0.1910  1469.5330    23.9280 
   56.1250     2.0440   123.9920    60.3100     7.4580     0.1950  1469.5330    23.9580 
   56.2500     2.0570   123.5660    57.5400     7.1950     0.1900  1469.5330    24.1450 
   56.3750     2.0650   122.4760    55.4330     7.0270     0.1790  1469.5330    24.5880 
   56.5000     2.0580   120.8980    53.9520     6.9590     0.1650  1469.5330    25.1040 
   56.6250     2.0360   119.0850    53.3450     6.9630     0.1530  1469.5330    25.3350 
   56.7500     2.0160   117.3600    53.6890     6.9820     0.1460  1469.5330    25.3900 
   56.8750     2.0050   115.9700    55.7450     6.9740     0.1460   746.0590    25.3930 
   57.0000     2.0030   115.0430    57.6320     6.8850     0.1520   335.2780    25.3930 
   57.1250     2.0000   114.5810    57.4060     6.6750     0.1630   258.9670    25.3930 
   57.2500     1.9920   114.3040    56.9500     6.3910     0.1750   494.8130    25.3930 
   57.3750     1.9870   114.0500    57.4920     6.0750     0.1840  1248.4240    25.3930 
   57.5000     1.9920   113.6810    59.6020     5.7760     0.1890  1469.5330    25.3930 
   57.6250     2.0130   113.0460    61.6880     5.5320     0.1900  1469.5330    25.3930 
   57.7500     2.0440   112.1750    60.4360     5.3260     0.1890  1469.5330    25.3930 
   57.8750     2.0750   111.1360    55.4650     5.1030     0.1890  1469.5330    25.3930 
   58.0000     2.0990   109.9810    51.0130     4.8550     0.1900  1469.5330    25.3930 
   58.1250     2.1250   108.7230    52.0000     4.7060     0.1890  1469.5330    25.3930 
   58.2500     2.1680   107.3770    54.1720     4.7420     0.1770  1469.5330    25.3930 
   58.3750     2.2290   105.9440    54.3410     4.9050     0.1500  1469.5330    25.3930 
   58.5000     2.3000   104.3640    54.4980     4.9000     0.1080  1469.5330    25.3930 
   58.6250     2.3710   102.4680    58.3710     4.1950     0.0630  1469.5330    25.3930 
   58.7500     2.4330   100.0510    61.4840     2.9570     0.0290  1469.5330    25.3930 
   58.8750     2.4520    96.8600    59.0780     1.7450     0.0100   396.5410    25.3930 
   59.0000     2.3580    92.7600    53.7630     0.9390     0.0030     4.6560    25.3930 
   59.1250     2.1010    87.4580    52.6610     0.6210     0.0090     4.1350    25.4380 
   59.2500     1.8260    81.1990    54.6810     0.6440     0.0420     4.9260    25.7700 
   59.3750     1.6560    74.0970    56.2010     1.0290     0.1480     6.5150    26.7630 
   59.5000     1.6190    66.2630    57.8660     1.9200     0.4260     7.7250    28.4240 
   59.6250     1.6920    57.9440    63.1510     3.7770     1.2000     8.1050    29.2710 
   59.7500     1.8010    49.6610    68.5660     6.7970     2.8060     9.0770    28.4550 
   59.8750     1.9000    41.6980    72.2910    10.8670     5.5100    10.7750    26.4810 
   60.0000     1.9690    34.2120    76.0770    15.0580     9.0390    13.4180    24.5240 
   60.1250     2.0140    27.6180    80.0260    17.8940    12.4250    15.6920    23.6230 
   60.2500     2.0510    21.8520    82.2590    19.4570    15.0140    17.7260    23.3490 
   60.3750     2.0720    16.8950    83.0280    20.2580    16.7570    19.1480    23.3510 
   60.5000     2.0660    12.7390    83.6800    20.6010    17.7730    18.7140    23.4250 
   60.6250     2.0360     9.2990    82.8700    20.5310    18.1490    18.1440    23.5950 
   60.7500     2.0110     6.3470    80.8620    20.2690    18.2160    17.1770    23.8630 
   60.8750     2.0040     3.8360    77.8870    20.0350    18.2190    16.4160    24.2470 
   61.0000     2.0080     1.6900    75.2120    20.0600    18.3850    16.4110    24.6350 
   61.1250     2.0110    -0.1750    77.0380    20.5530    18.8920    17.3110    24.8420 
   61.2500     2.0340    -1.8420    80.2340    21.3800    19.6130    18.1590    24.8760 
   61.3750     2.0900    -3.3300    80.0290    22.3120    20.3200    20.9800    24.7500 
   61.5000     2.1520    -4.6840    76.0200    23.0080    20.7310    28.2490    24.4430 
   61.6250     2.1450    -5.9340    75.0710    22.8830    20.4140    36.8920    24.1940 
   61.7500     2.0890    -7.0950    78.3070    21.7170    19.2610    25.6820    24.3290 
   61.8750     2.0540    -8.1650    81.5250    19.5810    17.3390    16.1880    24.7210 
   62.0000     2.0720    -9.1100    82.8810    16.8740    14.9420    13.0720    24.8090 
   62.1250     2.1260    -9.9270    84.7020    14.1530    12.4930    11.4620    24.4470 
   62.2500     2.1770   -10.6520    90.0080    11.8240    10.3510     8.8280    24.0120 
   62.3750     2.1990   -11.2670    99.1670    10.0270     8.6750     6.8810    23.6940 
