~V
VERS. 2.00: Ver 2.00
~W
STRT.M 58.0000:
STOP.M 214.0000:
STEP.M 0.1250:
NULL. -999.2500:
UWI. F10594:
~C
DEPT.M :
GR.API :
RML.OHMM :
RI. :
RXO.OHMM :
CALI.CM :
DEN.GM/CC :
SP.MV :
~A
# ...
  125.5000    53.7260    52.1170    41.2550    44.3080    23.3690     2.4410   -22.2440 
  125.6250    53.3350    51.5500    40.8450    44.1980    23.8800     2.4530   -22.1870 
  125.7500    51.8060    51.1620    40.5910    41.7800    24.0700     2.4710   -22.1340 
  125.8750    49.3870    50.9110    40.4750    41.1870    24.0600     2.4890   -22.0900 
  126.0000    48.0330    50.6880    40.4130    42.8780    24.0190     2.5000   -22.0610 
  126.1250    49.5460    50.3970    40.3130    42.6290    24.0490     2.5070   -22.0550 
  126.2500    52.3210    50.0470    40.1700    42.3470    24.0430     2.5180   -22.0700 
  126.3750    54.7730    49.5940    39.9710    42.0550    23.9640     2.5380   -22.1030 
  126.5000    57.3070    48.8730    39.6090    41.8930    23.8730     2.5610   -22.1490 
  126.6250    58.1290    47.5610    38.8280    41.4000    23.8500     2.5730   -22.1990 
  126.7500    55.8160    45.6200    37.5500    42.5230    23.8460     2.5640   -22.2420 
  126.8750    52.3170    43.1970    35.8360    41.8940    23.8220     2.5350   -22.2690 
  127.0000    50.0240    40.6690    33.9490    38.2580    23.7550     2.5020   -22.2740 
  127.1250    50.2080    38.6230    32.3270    33.7920    23.7060     2.4800   -22.2490 
  127.2500    50.8310    37.3580    31.2410    32.6470    23.6700     2.4730   -22.1970 
  127.3750    51.0160    36.9840    30.8100    32.3020    23.6400     2.4820   -22.1160 
  127.5000    51.7700    37.3900    31.0050    32.1520    23.6070     2.5040   -22.0080 
  127.6250    53.2640    38.2030    31.6290    32.5230    23.6050     2.5300   -21.8810 
  127.7500    54.6420    38.7790    32.1920    33.3900    23.5950     2.5480   -21.7550 
  127.8750    54.3450    38.7280    32.3470    34.4320    23.5640     2.5560   -21.6370 
  128.0000    52.2910    37.9600    31.9450    34.9800    23.5320     2.5530   -21.5310 
  128.1250    48.8460    36.6690    31.0500    34.4320    23.5480     2.5400   -21.4470 
  128.2500    45.8540    35.3480    30.0350    33.3890    23.5820     2.5160   -21.3890 
  128.3750    45.9460    34.2930    29.1490    32.5230    23.5350     2.4800   -21.3670 
  128.5000    48.8520    33.6690    28.5500    32.1860    23.3790     2.4360   -21.3840 
  128.6250    50.7800    33.6380    28.3940    32.2160    23.0980     2.4050   -21.4410 
  128.7500    49.6100    34.1080    28.6490    32.2350    22.8460     2.4050   -21.5240 
  128.8750    47.6080    34.9350    29.2340    32.2210    22.6760     2.4410   -21.6300 
  129.0000    47.9430    35.8510    29.9580    32.2550    22.5270     2.4930   -21.7560 
  129.1250    48.7490    36.4930    30.5280    32.5250    22.3260     2.5250   -21.8920 
  129.2500    48.0140    36.6570    30.7490    32.9730    22.2210     2.5260   -22.0220 
  129.3750    47.5590    36.2510    30.5110    33.3370    22.2680     2.5050   -22.1350 
  129.5000    49.1380    35.3470    29.8310    33.3790    22.4500     2.4820   -22.2270 
  129.6250    51.2370    34.1750    28.8520    32.9390    22.5530     2.4760   -22.2960 
  129.7500    52.3570    33.0550    27.8480    31.9960    22.5200     2.4900   -22.3460 
  129.8750    52.2450    32.1800    26.9960    30.6860    22.3600     2.5150   -22.3720 
  130.0000    50.5140    31.7090    26.4450    29.4900    22.1250     2.5410   -22.3730 
  130.1250    48.2870    31.8420    26.3800    28.9940    21.8890     2.5600   -22.3470 
  130.2500    47.9180    32.4870    26.7450    29.0120    21.9460     2.5710   -22.3050 
  130.3750    48.4520    33.5510    27.4680    29.1600    22.3150     2.5800   -22.2540 
  130.5000    48.2750    34.8760    28.4210    29.4080    22.8200     2.5940   -22.2050 
  130.6250    47.9500    36.1630    29.3760    30.9380    23.1630     2.6180   -22.1600 
  130.7500    48.2200    37.0700    30.0470    33.5800    23.2920     2.6430   -22.1150 
  130.8750    48.4620    37.3770    30.2400    33.2400    23.3050     2.6560   -22.0730 
  131.0000    47.9110    37.0240    29.8920    31.7470    23.3330     2.6530   -22.0360 
  131.1250    46.5150    36.0940    29.0500    31.2740    23.2630     2.6450   -22.0120 
  131.2500    45.0530    34.9940    28.0410    29.6000    23.1060     2.6480   -22.0030 
  131.3750    44.8770    33.9990    27.0960    27.7900    22.9840     2.6560   -22.0100 
  131.5000    46.2090    33.2730    26.3620    27.7550    22.8640     2.6500   -22.0300 
  131.6250    47.3030    32.9290    25.9420    27.6520    22.7480     2.6020   -22.0690 
  131.7500    47.7880    32.9660    25.8370    29.0840    22.6360     2.5270   -22.1280 
  131.8750    48.6590    33.4630    26.1000    30.2660    22.6650     2.4550   -22.2090 
  132.0000    49.8410    34.4630    26.7470    27.1820    22.8960     2.4210   -22.3170 
  132.1250    50.2970    35.9620    27.7510    26.7440    23.3320     2.4590   -22.4590 
  132.2500    49.5220    37.6300    28.8700    29.7660    23.5060     2.5450   -22.6310 
  132.3750    48.6830    39.0540    29.8370    35.6020    23.5060     2.6280   -22.8270 
  132.5000    48.5390    39.7580    30.3500    38.1020    23.4470     2.6670   -23.0440 
  132.6250    49.3850    39.3160    30.1250    32.8840    23.4160     2.6440   -23.2760 
  132.7500    49.5300    38.1140    29.3840    29.6750    23.4090     2.5980   -23.5140 
  132.8750    47.7730    36.6370    28.4180    29.0440    23.4300     2.5570   -23.7500 
  133.0000    45.7040    35.3270    27.5010    28.3850    23.4710     2.5430   -23.9790 
  133.1250    46.1260    34.3760    26.7590    28.0010    23.5190     2.5690   -24.1940 
  133.2500    48.7500    33.5030    26.0240    28.8190    23.5520     2.6090   -24.3840 
  133.3750    51.0180    32.4080    25.1120    28.3090    23.5720     2.6340   -24.5380 
  133.5000    50.2490    30.9360    23.9510    27.5070    23.5960     2.6250   -24.6540 
  133.6250    48.3490    29.0480    22.5680    25.1480    23.6670     2.5790   -24.7210 
  133.7500    48.2180    26.9180    21.0930    21.3300    23.7660     2.5190   -24.7460 
  133.8750    49.3320    24.6870    19.6030    19.1650    23.9100     2.4610   -24.7290 
  134.0000    51.3390    22.5090    18.1660    18.6460    24.0790     2.4160   -24.6750 
  134.1250    54.6410    20.5800    16.8750    17.3460    24.1590     2.3930   -24.5860 
  134.2500    56.8150    18.9800    15.7650    14.8950    24.2350     2.3900   -24.4800 
  134.3750    56.7460    17.7580    14.8680    12.8880    24.3080     2.4030   -24.3730 
  134.5000    57.1160    16.9400    14.2120    12.6160    24.3070     2.4200   -24.2770 
  134.6250    59.5980    16.6380    13.9030    13.3130    24.2000     2.4290   -24.2020 
  134.7500    59.9500    16.8010    13.9420    13.4920    24.1480     2.4320   -24.1530 
  134.8750    57.0280    17.3570    14.3050    13.2310    24.2200     2.4330   -24.1340 
  135.0000    53.0160    18.1290    14.8750    13.7310    24.2790     2.4390   -24.1420 
  135.1250    50.9000    18.7870    15.4090    16.1380    24.1520     2.4470   -24.1750 
  135.2500    51.4210    19.0160    15.6410    18.4750    23.9950     2.4450   -24.2260 
  135.3750    53.2960    18.6580    15.4170    17.9300    23.9300     2.4290   -24.2860 
  135.5000    54.1030    17.7900    14.7650    15.0940    23.9310     2.4050   -24.3490 
  135.6250    53.9250    16.7300    13.8980    13.4860    23.9890     2.3860   -24.4110 
  135.7500    54.9850    15.8940    13.1420    13.1780    24.0550     2.3770   -24.4700 
  135.8750    55.9480    15.5340    12.6990    12.8180    24.0520     2.3810   -24.5180 
  136.0000    55.8720    15.7590    12.6770    13.0510    23.9610     2.3930   -24.5480 
  136.1250    54.1630    16.5610    13.1220    13.5950    23.8920     2.4080   -24.5570 
  136.2500    51.8480    17.5950    13.8100    14.8220    23.9220     2.4220   -24.5510 
  136.3750    50.0070    18.5630    14.5300    16.3290    23.8960     2.4340   -24.5330 
  136.5000    49.0040    19.1980    15.0730    18.2430    23.8110     2.4450   -24.5000 
  136.6250    48.5130    19.2900    15.2410    19.1060    23.7570     2.4510   -24.4460 
