~V
VERS. 2.00: Ver 2.00
~W
STRT.M 50.0000:
STOP.M 236.0000:
STEP.M 0.1250:
NULL. -999.2500:
UWI. F10596:
~C
DEPT.M :
DEN.GM/CC :
SP.MV :
GR.API :
RML.OHMM :
RI. :
RXO.OHMM :
CALI.CM :
~A
# ...
  196.2500     2.1920   -17.9660    72.9610    49.7640    42.0900    47.2360    24.9460 
  196.3750     2.1760   -18.0940    71.6420    57.2580    49.5600    63.0420    24.9950 
  196.5000     2.1700   -18.2250    72.1720    69.7060    60.9290    77.9230    25.0210 
  196.6250     2.1730   -18.3610    74.8700    83.8390    72.9260    86.2320    25.0280 
  196.7500     2.1780   -18.4840    76.9200    93.7280    80.1590    88.8140    25.0280 
  196.8750     2.1830   -18.5990    76.0080    96.5340    80.6930    82.4800    25.0280 
  197.0000     2.1830   -18.6890    72.3060    94.3380    77.6150    74.6360    25.0280 
  197.1250     2.1770   -18.7590    69.3780    92.3940    76.0690    70.5560    25.0260 
  197.2500     2.1690   -18.8050    68.7740    94.0690    78.0570    81.3440    25.0220 
  197.3750     2.1610   -18.8370    69.2310    99.8000    83.4560    96.3120    24.9930 
  197.5000     2.1580   -18.8540    68.6410   108.1520    90.9290   102.1180    24.9090 
  197.6250     2.1680   -18.8460    66.5040   115.7180    97.5480   110.2830    24.7890 
  197.7500     2.1870   -18.8420    65.0090   119.3660   100.6070   106.7500    24.7870 
  197.8750     2.2100   -18.8420    65.5120   118.1920    99.4050   100.0270    24.8440 
  198.0000     2.2290   -18.8660    67.0220   113.3810    95.1420    96.7840    24.8770 
  198.1250     2.2410   -18.9030    67.6160   106.7350    89.4020    95.6780    24.8770 
  198.2500     2.2390   -18.9640    69.6570    99.8470    83.4830    86.8600    24.8770 
  198.3750     2.2230   -19.0470    74.4120    93.5970    78.2080    70.0810    24.8770 
  198.5000     2.2060   -19.1590    81.3140    89.0310    74.5430    63.4060    24.8660 
  198.6250     2.2000   -19.2930    88.2680    87.6320    73.6580    67.6270    24.7960 
  198.7500     2.1980   -19.4460    91.5400    89.1730    75.0960    82.4930    24.6710 
  198.8750     2.1900   -19.6030    91.7420    92.7490    77.9000    97.4730    24.5600 
  199.0000     2.1800   -19.7330    92.0870    96.5650    80.5010    95.4890    24.4560 
  199.1250     2.1780   -19.8500    93.5460    98.2950    81.0630    81.4800    24.2880 
  199.2500     2.1810   -19.9400    90.9980    97.6090    79.6600    74.6170    24.0900 
  199.3750     2.1800   -19.9980    83.4080    95.2290    76.9990    79.7280    23.9930 
  199.5000     2.1810   -20.0440    76.4510    91.8890    73.5410    87.2390    24.0500 
  199.6250     2.1960   -20.0740    74.5550    87.4920    69.1690    75.4160    24.2460 
  199.7500     2.2180   -20.0680    75.2450    82.2020    64.3160    70.2510    24.4670 
  199.8750     2.2380   -20.0390    77.3580    76.6350    59.7350    69.4380    24.6010 
  200.0000     2.2510   -20.0190    77.5350    71.6220    56.0610    74.9060    24.6460 
  200.1250     2.2580   -20.0010    73.4110    67.6520    53.3880    82.2850    24.6510 
  200.2500     2.2600   -20.0100    67.2740    64.0440    50.8400    81.0050    24.6510 
  200.3750     2.2560   -20.0470    63.7820    60.0840    47.7780    73.0410    24.6510 
  200.5000     2.2450   -20.0930    65.1040    55.6090    44.2300    59.2950    24.6510 
  200.6250     2.2270   -20.1250    68.2580    51.6590    41.3250    47.5490    24.6510 
  200.7500     2.2080   -20.1690    70.0990    49.7080    40.2050    47.5330    24.6510 
  200.8750     2.1910   -20.2410    69.9090    50.4890    41.2330    63.9390    24.6510 
  201.0000     2.1780   -20.3120    69.6400    53.5150    43.8400    79.9500    24.6510 
  201.1250     2.1720   -20.4010    71.4650    56.8420    46.3990    68.3910    24.6510 
  201.2500     2.1730   -20.4740    73.0220    58.0810    47.1590    59.5070    24.6510 
  201.3750     2.1820   -20.5380    73.6600    56.4170    45.6740    61.1450    24.6510 
  201.5000     2.1980   -20.5930    74.3430    52.7620    42.8380    60.2360    24.6510 
  201.6250     2.2190   -20.6770    75.0410    48.9150    40.0620    55.5860    24.6510 
  201.7500     2.2440   -20.7640    75.3100    45.9020    37.9250    54.6330    24.6510 
  201.8750     2.2680   -20.8370    74.9700    43.6900    36.3110    53.9650    24.6510 
  202.0000     2.2720   -20.8980    74.5120    42.1850    35.2010    50.8050    24.6510 
  202.1250     2.2350   -20.9410    72.9490    41.9110    35.0880    46.5840    24.6480 
  202.2500     2.1870   -20.9620    70.3880    42.9100    35.9820    53.6130    24.6330 
  202.3750     2.1610   -20.9470    68.8950    44.6550    37.3780    63.5080    24.6050 
  202.5000     2.1670   -20.9110    69.1380    45.8440    38.1120    70.2720    24.5860 
  202.6250     2.1970   -20.8300    69.1930    44.1290    36.2290    68.8910    24.5670 
  202.7500     2.2330   -20.7150    67.0040    39.0800    31.6490    61.8990    24.5400 
  202.8750     2.2740   -20.5870    65.1610    31.8430    25.5390    54.1840    24.5050 
  203.0000     2.3260   -20.4710    65.7630    24.2890    19.4240    41.2320    24.4730 
  203.1250     2.3810   -20.3800    66.1600    17.9520    14.3790    23.1750    24.4570 
  203.2500     2.4160   -20.3310    63.5620    13.0630    10.5020    11.8470    24.4690 
  203.3750     2.4200   -20.3370    59.5340     9.6230     7.8460     8.2690    24.4900 
  203.5000     2.4060   -20.3800    58.8820     7.5210     6.3760     7.8540    24.5000 
  203.6250     2.3990   -20.4680    61.3310     6.7330     6.0950     8.6130    24.5000 
  203.7500     2.4100   -20.5870    61.8260     6.8230     6.5800     9.7060    24.5000 
  203.8750     2.4310   -20.7240    59.2650     7.5270     7.5240    10.7740    24.5000 
  204.0000     2.4440   -20.8500    57.1900     8.4720     8.5180    11.4880    24.5000 
  204.1250     2.4340   -20.9690    58.6080     9.0620     9.1440    11.3650    24.5000 
  204.2500     2.4150   -21.0750    59.2350     9.0870     9.3330    12.7670    24.5000 
  204.3750     2.3990   -21.1640    59.1150     8.7410     9.1110    14.2950    24.5000 
  204.5000     2.3840   -21.2400    61.2990     8.1990     8.6410    13.9320    24.5000 
  204.6250     2.3660   -21.2860    63.6200     7.5800     8.0590    11.0840    24.4970 
  204.7500     2.3550   -21.3350    62.4290     7.0180     7.5070     9.4190    24.4830 
  204.8750     2.3520   -21.3740    58.6770     6.6190     7.0820     8.9940    24.4550 
  205.0000     2.3550   -21.4110    56.0560     6.4530     6.8430     9.1150    24.4340 
  205.1250     2.3600   -21.4250    53.2630     6.5280     6.8050     9.3850    24.4270 
  205.2500     2.3650   -21.4230    51.1270     6.6570     6.8400     9.6430    24.4280 
  205.3750     2.3660   -21.3990    51.5720     6.6860     6.8370     9.4580    24.4290 
  205.5000     2.3570   -21.3680    54.8900     6.5580     6.7410     9.1100    24.4260 
  205.6250     2.3420   -21.3200    58.1040     6.3340     6.5720     8.7440    24.4180 
  205.7500     2.3300   -21.2520    60.4270     6.1310     6.3940     8.5680    24.4000 
  205.8750     2.3210   -21.1720    62.1570     5.9950     6.2280     8.6090    24.3740 
  206.0000     2.3090   -21.0810    62.6590     5.9250     6.0620     8.4560    24.3580 
  206.1250     2.2930   -21.0190    61.4400     5.8770     5.8600     8.1720    24.3520 
  206.2500     2.2790   -20.9530    59.1910     5.7910     5.6150     7.6510    24.3530 
  206.3750     2.2730   -20.9010    55.5490     5.6610     5.3530     6.8280    24.3550 
  206.5000     2.2690   -20.8430    51.4670     5.5180     5.1230     6.1960    24.3530 
  206.6250     2.2580   -20.8140    49.3900     5.4160     4.9820     6.0520    24.3530 
  206.7500     2.2440   -20.7950    50.3070     5.3870     4.9280     6.0500    24.3510 
  206.8750     2.2330   -20.7840    52.2290     5.4490     4.9390     6.1080    24.3530 
  207.0000     2.2290   -20.7890    53.3580     5.5980     4.9900     6.2360    24.3520 
  207.1250     2.2290   -20.7820    52.8040     5.8110     5.0670     6.4280    24.3540 
  207.2500     2.2330   -20.7850    51.1620     6.0460     5.1710     6.6900    24.3530 
  207.3750     2.2440   -20.7840    50.9060     6.2840     5.3240     7.1330    24.3520 
