~V
VERS. 2.00: Ver 2.00
~W
STRT.M 46.0000:
STOP.M 208.0000:
STEP.M 0.1250:
NULL. -999.2500:
UWI. F10533:
~C
DEPT.M :
GR.API :
RML.OHMM :
RI. :
RXO.OHMM :
CALI.CM :
DEN.GM/CC :
SP.MV :
~A
# ...
   57.2500    36.4070    -0.5910     0.3390     0.5510    25.1330     2.3050   -10.5740 
   57.3750    38.6900    -0.6320     0.3140     0.3580    24.9710     2.3790   -10.1580 
   57.5000    38.9760    -0.5860     0.3360     0.3120    24.6760     2.3640   -10.2840 
   57.6250    37.4450    -0.4100     0.4410     0.6810    24.2540     2.2800   -11.0690 
   57.7500    37.1070    -0.0390     0.6570     2.2340    23.9840     2.1800   -12.2470 
   57.8750    38.5920     0.6460     1.0330     4.1200    24.1170     2.0980   -13.6720 
   58.0000    40.9930     1.7460     1.6230     5.2570    24.3770     2.0540   -15.2710 
   58.1250    44.6080     3.1540     2.4760     5.2570    23.8950     2.0540   -16.9920 
   58.2500    49.1950     4.3490     3.4520     5.7350    23.3180     2.0730   -18.6980 
   58.3750    53.1420     5.0790     4.3880     6.1430    22.9880     2.0940   -20.2580 
   58.5000    54.2220     5.4820     5.1610     6.3160    23.0560     2.1080   -21.5580 
   58.6250    53.3070     5.8060     5.7010     6.5190    23.2920     2.1190   -22.4650 
   58.7500    53.6710     6.1300     6.0590     6.6960    23.4580     2.1340   -23.1350 
   58.8750    55.1430     6.4190     6.2730     6.8830    23.4750     2.1550   -23.6590 
   59.0000    55.0020     6.6410     6.3950     6.9540    23.3740     2.1770   -24.0600 
   59.1250    51.6660     6.7960     6.4700     6.9240    23.2420     2.1880   -24.3040 
   59.2500    48.9120     6.9420     6.5320     6.8380    23.2620     2.1850   -24.3930 
   59.3750    49.1780     7.1180     6.5900     6.6760    23.3420     2.1730   -24.4120 
   59.5000    51.1600     7.3230     6.6460     6.5600    23.3100     2.1600   -24.3710 
   59.6250    53.7450     7.5200     6.6960     6.6000    23.2510     2.1590   -24.2970 
   59.7500    56.3890     7.6640     6.7330     6.7150    23.2370     2.1680   -24.1880 
   59.8750    59.2650     7.7280     6.7480     6.7920    23.2890     2.1770   -24.0660 
   60.0000    60.2110     7.7050     6.7310     6.7810    23.3660     2.1780   -23.9500 
   60.1250    56.9170     7.6120     6.6820     6.6930    23.3680     2.1650   -23.8620 
   60.2500    52.8230     7.5000     6.6190     6.5600    23.2900     2.1530   -23.7910 
   60.3750    51.4790     7.4110     6.5660     6.4700    23.1870     2.1500   -23.7260 
   60.5000    53.2540     7.3900     6.5550     6.5450    23.0750     2.1520   -23.6820 
   60.6250    53.4690     7.4910     6.6290     6.8440    22.9190     2.1420   -23.6430 
   60.7500    53.1770     7.6910     6.7760     7.0340    22.8840     2.1170   -23.6020 
   60.8750    54.7390     7.9260     6.9480     6.9300    23.0200     2.0960   -23.5380 
   61.0000    57.0160     8.0900     7.0630     6.9520    23.1520     2.1030   -23.4680 
   61.1250    58.7230     8.0340     7.0070     8.0660    23.0770     2.1620   -23.3980 
   61.2500    62.4670     7.7400     6.7730     9.5480    22.7890     2.2410   -23.3490 
   61.3750    69.7660     7.2670     6.4050     8.5980    22.5590     2.2950   -23.2960 
   61.5000    78.4260     6.7370     5.9840     7.0280    22.5210     2.3010   -23.2300 
   61.6250    83.9060     6.3000     5.6080     6.1260    22.6440     2.2770   -23.1640 
   61.7500    86.3400     6.0210     5.3260     5.9400    22.7450     2.2610   -23.1140 
   61.8750    88.5930     5.9030     5.1570     5.9260    22.7650     2.2630   -23.0860 
   62.0000    91.0240     5.9140     5.0940     5.7250    22.7320     2.2800   -23.0710 
   62.1250    91.0810     6.0160     5.1240     5.6050    22.6690     2.2960   -23.0530 
   62.2500    88.4100     6.1550     5.2010     5.6840    22.6610     2.3030   -23.0290 
   62.3750    86.9150     6.3100     5.3010     5.6970    22.7050     2.3080   -23.0220 
   62.5000    86.7260     6.4660     5.4100     5.6450    22.7340     2.3170   -23.0350 
   62.6250    84.8520     6.6140     5.5260     5.6600    22.7150     2.3340   -23.0540 
   62.7500    82.5610     6.7810     5.6550     5.6930    22.6840     2.3490   -23.0960 
   62.8750    80.3140     6.9990     5.8060     5.8150    22.6690     2.3480   -23.1460 
   63.0000    75.7370     7.2850     5.9820     6.0250    22.5940     2.3260   -23.2120 
   63.1250    69.2780     7.6090     6.1770     6.2730    22.4230     2.2890   -23.3000 
   63.2500    65.4610     7.8900     6.3550     6.3790    22.3340     2.2490   -23.4100 
   63.3750    65.6690     8.0570     6.4740     6.4170    22.3510     2.2170   -23.5240 
   63.5000    66.1770     8.0640     6.4950     6.4660    22.4300     2.2020   -23.6390 
   63.6250    64.5290     7.8950     6.3920     6.5960    22.5550     2.2080   -23.7670 
   63.7500    63.2130     7.6580     6.2210     6.6150    22.6430     2.2220   -23.8830 
   63.8750    65.2050     7.4510     6.0480     6.4250    22.6580     2.2320   -23.9900 
   64.0000    70.6460     7.3500     5.9320     6.0540    22.6070     2.2310   -24.0840 
   64.1250    74.3150     7.3870     5.9100     6.1290    22.5620     2.2180   -24.1390 
   64.2500    73.9260     7.4820     5.9420     6.5480    22.5700     2.2000   -24.1550 
   64.3750    71.9430     7.5540     5.9740     6.8620    22.6710     2.1840   -24.1420 
   64.5000    71.0890     7.5350     5.9560     7.0120    22.8760     2.1740   -24.1030 
   64.6250    72.5520     7.3800     5.8450     6.6100    23.1600     2.1730   -24.0450 
   64.7500    75.5910     7.1440     5.6680     5.9830    23.2780     2.1790   -23.9620 
   64.8750    79.1840     6.8800     5.4580     5.6960    23.2470     2.1960   -23.8520 
   65.0000    82.6830     6.6310     5.2480     5.8110    23.3290     2.2240   -23.7240 
   65.1250    86.4530     6.4270     5.0660     5.6900    23.6440     2.2600   -23.6050 
   65.2500    90.1780     6.2620     4.9180     5.5820    23.9150     2.2920   -23.5050 
   65.3750    92.4410     6.1310     4.8130     5.4800    24.0320     2.3100   -23.4040 
   65.5000    92.2810     6.0530     4.7660     5.3610    24.0550     2.3100   -23.3150 
   65.6250    92.0180     6.1050     4.8150     5.3570    24.0190     2.2980   -23.2330 
   65.7500    92.1290     6.3050     4.9590     5.4910    23.9290     2.2860   -23.1660 
   65.8750    89.7230     6.6200     5.1720     5.5590    23.8110     2.2790   -23.1350 
   66.0000    86.4310     6.9630     5.4030     5.6790    23.6760     2.2730   -23.1380 
   66.1250    85.5330     7.2020     5.5720     5.9930    23.4000     2.2640   -23.1700 
   66.2500    85.9980     7.2820     5.6370     6.2070    23.0610     2.2520   -23.2180 
   66.3750    83.9210     7.2160     5.5960     6.0730    22.8560     2.2390   -23.2970 
   66.5000    80.7880     7.0740     5.4840     5.8260    22.8490     2.2260   -23.3950 
   66.6250    81.5970     6.9390     5.3550     5.8780    22.9200     2.2160   -23.4970 
   66.7500    82.5140     6.8620     5.2590     5.8890    22.9370     2.2110   -23.6110 
   66.8750    80.8140     6.8540     5.2170     6.0150    22.9650     2.2130   -23.7120 
   67.0000    76.3660     6.8930     5.2300     5.9840    23.0430     2.2150   -23.7850 
   67.1250    70.4070     6.9390     5.2830     5.8620    23.1320     2.2060   -23.8110 
   67.2500    65.9090     7.0030     5.3610     6.0810    23.1800     2.1780   -23.8010 
   67.3750    64.5890     7.1930     5.5140     6.3740    23.1520     2.1390   -23.7300 
   67.5000    65.2500     7.6840     5.8380     6.4530    23.0490     2.1080   -23.5960 
   67.6250    64.4850     8.6770     6.4820     6.4800    22.8340     2.1160   -23.3780 
   67.7500    63.2770    10.0150     7.3890     7.0270    22.5740     2.1780   -23.0860 
   67.8750    63.8500    11.3520     8.3740     9.3140    22.4780     2.2870   -22.7400 
   68.0000    65.3050    12.1380     9.0870    15.8280    22.7450     2.4050   -22.3570 
   68.1250    65.8760    11.6900     9.0130    19.0960    23.0990     2.4610   -21.9600 
   68.2500    68.5780    10.2750     8.2240    13.2800    23.2720     2.4440   -21.5670 
   68.3750    74.7940     8.4750     7.0480     7.5490    23.2590     2.3820   -21.1910 
