~V
VERS. 2.00: Ver 2.00
~W
STRT.M 54.0000:
STOP.M 217.0000:
STEP.M 0.1250:
NULL. -999.2500:
UWI. F10593:
~C
DEPT.M :
SP.MV :
GR.API :
RML.OHMM :
RI. :
RXO.OHMM :
CALI.CM :
DEN.GM/CC :
~A
# ...
  166.5000   -16.5780    67.0210    31.3830    30.6480    26.4200    23.8500     2.2400 
  166.6250   -16.4230    68.4670    31.2610    30.2960    26.7590    23.8010     2.2420 
  166.7500   -16.3150    69.0700    31.6850    30.4830    27.8160    23.7280     2.2430 
  166.8750   -16.3010    69.1150    32.5860    31.1470    28.2480    23.6710     2.2430 
  167.0000   -16.2510    68.8450    33.6630    32.0130    28.5700    23.6430     2.2400 
  167.1250   -16.2130    67.2040    34.7110    32.9020    29.9540    23.6310     2.2350 
  167.2500   -16.2090    64.5790    35.6030    33.7000    31.1650    23.6140     2.2310 
  167.3750   -16.2150    63.9600    36.3030    34.3660    30.9360    23.5670     2.2300 
  167.5000   -16.1990    65.3510    36.9180    34.9620    30.5200    23.5050     2.2330 
  167.6250   -16.1940    67.7250    37.5240    35.5250    30.6910    23.4560     2.2400 
  167.7500   -16.2090    68.6710    38.1590    36.0540    31.3940    23.4130     2.2460 
  167.8750   -16.2270    64.9070    38.8080    36.5000    32.6580    23.3980     2.2500 
  168.0000   -16.2440    60.7180    39.4120    36.8270    33.8870    23.3890     2.2500 
  168.1250   -16.2620    59.7530    39.8970    37.0020    33.5190    23.3740     2.2470 
  168.2500   -16.2940    60.9790    40.1790    37.0080    32.9900    23.3330     2.2420 
  168.3750   -16.3180    59.3460    40.1260    36.7950    32.8740    23.2690     2.2360 
  168.5000   -16.3500    57.0160    39.7500    36.3820    32.8840    23.2040     2.2300 
  168.6250   -16.4080    59.1150    39.0850    35.7810    32.6140    23.1550     2.2270 
  168.7500   -16.4270    64.8850    38.2250    35.0370    31.4550    23.1340     2.2280 
  168.8750   -16.4130    67.1700    37.3360    34.2610    29.5580    23.1340     2.2370 
  169.0000   -16.4660    63.8040    36.6190    33.6250    28.0960    23.1470     2.2540 
  169.1250   -16.5340    59.7030    36.2130    33.2720    28.1410    23.1720     2.2720 
  169.2500   -16.5950    59.2830    36.1930    33.2910    28.3890    23.2260     2.2880 
  169.3750   -16.6760    61.1920    36.5770    33.7210    29.0540    23.3150     2.2940 
  169.5000   -16.7530    61.1500    37.1120    34.3500    30.1520    23.4280     2.2940 
  169.6250   -16.8100    60.2130    37.4960    34.9510    31.9210    23.4820     2.2920 
  169.7500   -16.8620    61.8300    37.4390    35.2900    33.6870    23.4730     2.2920 
  169.8750   -16.9010    64.5720    36.8210    35.2220    34.1610    23.4560     2.2940 
  170.0000   -16.9040    64.9700    36.1420    35.0400    35.0200    23.4480     2.2960 
  170.1250   -16.8760    64.6350    36.0060    35.1750    34.3830    23.4480     2.2970 
  170.2500   -16.8060    65.6370    36.8050    35.9690    32.1990    23.4470     2.3050 
  170.3750   -16.7220    65.5280    38.1200    37.1960    31.3350    23.4460     2.3440 
  170.5000   -16.6310    62.6450    38.2410    37.5160    35.2530    23.4470     2.4220 
  170.6250   -16.4550    60.0650    35.6560    35.4560    43.6130    23.4440     2.5270 
  170.7500   -16.2300    59.2970    30.0750    30.3990    47.3820    23.4410     2.6260 
  170.8750   -15.9690    59.3320    23.0430    23.3030    32.1290    23.4060     2.6700 
  171.0000   -15.6200    58.6120    16.3570    16.5890    17.8940    23.3410     2.6520 
  171.1250   -15.2550    55.9090    11.3130    11.4420     9.7380    23.2570     2.5880 
  171.2500   -14.9600    51.4080     8.1500     8.0780     6.2820    23.2140     2.5100 
  171.3750   -14.6480    50.2010     6.6910     6.3450     5.5360    23.2430     2.4490 
  171.5000   -14.3490    52.8860     6.1770     5.5580     5.3860    23.3410     2.4130 
  171.6250   -14.1770    55.4850     6.2830     5.4330     5.3050    23.4480     2.3970 
  171.7500   -14.0970    58.2350     6.7750     5.7730     5.4850    23.4990     2.3960 
  171.8750   -14.0740    67.1320     7.4760     6.4580     6.2980    23.5100     2.4020 
  172.0000   -14.1700    80.7080     8.1930     7.2930     7.0980    23.5230     2.4110 
  172.1250   -14.3040    92.0450     8.8110     8.1490     7.8270    23.5520     2.4170 
  172.2500   -14.3980    97.3160     9.2820     8.8990     8.2310    23.5710     2.4210 
  172.3750   -14.5350    97.8830     9.6180     9.4010     8.4000    23.5750     2.4210 
  172.5000   -14.6690    95.8090     9.9420     9.6660     8.4510    23.5740     2.4210 
  172.6250   -14.7180    93.4910    10.1540     9.7320     8.5680    23.5730     2.4240 
  172.7500   -14.7280    95.2040    10.1720     9.6570     8.6840    23.5730     2.4280 
  172.8750   -14.7530   101.7800    10.0560     9.4790     8.6790    23.5730     2.4360 
  173.0000   -14.7250   106.2050     9.9060     9.2430     8.6100    23.5730     2.4430 
  173.1250   -14.7020   107.0660     9.7670     8.9720     8.5160    23.5730     2.4480 
  173.2500   -14.7070   108.3190     9.6350     8.6880     8.4010    23.5730     2.4490 
  173.3750   -14.7180   112.1270     9.4460     8.4160     8.2580    23.5730     2.4450 
  173.5000   -14.7670   115.2430     9.2440     8.1720     8.2070    23.5730     2.4370 
  173.6250   -14.9110   114.0340     9.0510     7.9780     8.2330    23.5730     2.4250 
  173.7500   -15.0790   107.3680     9.0080     7.8900     8.3960    23.5730     2.4110 
  173.8750   -15.2460    99.5770     9.4700     8.0880     8.9540    23.5740     2.4000 
  174.0000   -15.4510    94.6130    10.7360     8.7690     9.5300    23.5770     2.4020 
  174.1250   -15.6830    89.5150    13.0010    10.2540    10.3400    23.5820     2.4240 
  174.2500   -15.9640    80.7020    16.3650    12.9440    13.5250    23.5820     2.4650 
  174.3750   -16.2590    72.8730    21.2710    17.5090    25.6500    23.5800     2.5090 
  174.5000   -16.5710    68.5570    27.4550    23.6520    42.7810    23.5770     2.5310 
  174.6250   -16.8730    65.0120    34.5410    30.6720    53.1760    23.5770     2.5160 
  174.7500   -17.1850    61.9540    41.1740    37.4000    52.0540    23.5730     2.4670 
  174.8750   -17.4750    61.9810    45.9500    42.5850    47.2430    23.5720     2.4020 
  175.0000   -17.7750    63.1250    49.3650    46.4140    45.4850    23.5570     2.3440 
  175.1250   -18.0590    63.1030    52.2690    49.4610    47.7170    23.5490     2.3010 
  175.2500   -18.2940    63.0530    55.1290    52.1250    55.8490    23.5380     2.2760 
  175.3750   -18.4610    64.2240    57.4880    54.1390    67.0090    23.4850     2.2650 
  175.5000   -18.5540    65.2010    58.7380    55.1890    64.9630    23.4530     2.2630 
  175.6250   -18.6310    65.5380    58.8680    55.3190    52.4850    23.4410     2.2650 
  175.7500   -18.6590    66.2440    58.6770    55.1710    43.8590    23.4360     2.2700 
  175.8750   -18.6640    66.7890    59.7000    56.0370    44.3360    23.4360     2.2820 
  176.0000   -18.6450    66.0880    62.7180    58.6770    51.6050    23.4410     2.3060 
  176.1250   -18.6150    64.9540    67.6070    63.1170    69.8730    23.4490     2.3370 
  176.2500   -18.5890    63.8990    73.1550    68.4430    88.9530    23.4470     2.3650 
  176.3750   -18.5660    63.6530    76.8430    72.6000    89.7570    23.4240     2.3700 
  176.5000   -18.5610    63.5390    77.3400    74.1470    80.9940    23.3830     2.3520 
  176.6250   -18.5610    64.2540    75.0530    73.0010    70.6910    23.3460     2.3180 
  176.7500   -18.6030    66.2180    71.8270    70.4530    57.0190    23.3310     2.2840 
  176.8750   -18.6920    68.1280    70.2600    68.8310    49.8750    23.3310     2.2660 
  177.0000   -18.7610    68.7210    71.5990    69.7450    47.8600    23.3330     2.2590 
  177.1250   -18.8500    68.1580    76.8960    73.8230    50.8570    23.3410     2.2560 
  177.2500   -18.9190    66.7670    86.5790    80.8460    64.1780    23.3590     2.2490 
  177.3750   -19.0260    63.8860   100.5160    89.8720    81.1280    23.3730     2.2360 
  177.5000   -19.1150    62.0520   112.1050    98.7390    91.5980    23.3820     2.2170 
  177.6250   -19.1780    61.7790   120.1240   105.8450    92.0660    23.3890     2.1950 
