~V
VERS. 2.00: Ver 2.00
~W
STRT.M 50.0000:
STOP.M 236.0000:
STEP.M 0.1250:
NULL. -999.2500:
UWI. F10596:
~C
DEPT.M :
DEN.GM/CC :
SP.MV :
GR.API :
RML.OHMM :
RI. :
RXO.OHMM :
CALI.CM :
~A
# ...
   83.7500     2.0930   -23.8290    75.8080    10.8560     7.7680     9.7520    24.5420 
   83.8750     2.0860   -23.8200    75.2020    10.7850     7.7820     9.8890    24.6860 
   84.0000     2.0850   -23.7770    76.4200    10.7220     7.7790     9.9250    24.7300 
   84.1250     2.0970   -23.6880    77.4380    10.7460     7.7590     9.9810    24.6550 
   84.2500     2.1130   -23.5840    76.0540    10.8270     7.7350    10.2190    24.6030 
   84.3750     2.1250   -23.4570    73.3390    10.8850     7.7180    10.4940    24.5860 
   84.5000     2.1310   -23.3490    73.2300    10.8650     7.7140    10.6620    24.5850 
   84.6250     2.1300   -23.2740    75.4920    10.8160     7.7220    10.8120    24.5850 
   84.7500     2.1270   -23.2230    77.1230    10.8290     7.7330    10.8140    24.5850 
   84.8750     2.1240   -23.2040    79.5960    10.9130     7.7380    10.5540    24.5850 
   85.0000     2.1190   -23.2320    83.4560    11.0210     7.7240    10.1790    24.5850 
   85.1250     2.1160   -23.2820    85.2070    11.0460     7.6870    10.0180    24.5850 
   85.2500     2.1170   -23.3350    82.4710    10.9300     7.6480     9.9980    24.5820 
   85.3750     2.1240   -23.4020    79.0810    10.7020     7.6260     9.9760    24.5700 
   85.5000     2.1330   -23.4690    76.7540    10.4510     7.6270     9.9440    24.5430 
   85.6250     2.1410   -23.5110    73.3350    10.2760     7.6370     9.8990    24.5280 
   85.7500     2.1480   -23.5500    69.7700    10.1860     7.6340     9.9040    24.5300 
   85.8750     2.1520   -23.5490    68.9620    10.1480     7.6140    10.0150    24.5580 
   86.0000     2.1490   -23.5280    72.5520    10.1080     7.5890    10.1190    24.6200 
   86.1250     2.1340   -23.4920    78.7850    10.0090     7.5800    10.0670    24.6500 
   86.2500     2.1070   -23.4520    83.1920     9.8900     7.5950    10.0270    24.6550 
   86.3750     2.0780   -23.4120    84.0900     9.8090     7.6220    10.0870    24.6120 
   86.5000     2.0570   -23.3870    82.2880     9.7840     7.6240    10.1690    24.4670 
   86.6250     2.0490   -23.4050    80.2130     9.8010     7.5580    10.2450    24.1610 
   86.7500     2.0490   -23.4720    79.9620     9.8080     7.4400    10.4490    23.8290 
   86.8750     2.0540   -23.6170    79.1890     9.7720     7.3130    10.6320    23.6250 
   87.0000     2.0620   -23.8310    76.1690     9.7210     7.2250    10.7290    23.5860 
   87.1250     2.0710   -24.0830    75.4700     9.7170     7.2130    10.6280    23.7680 
   87.2500     2.0800   -24.3500    77.5340     9.7820     7.2510    10.3500    24.1320 
   87.3750     2.0890   -24.6160    77.5470     9.8840     7.3040    10.0770    24.4810 
   87.5000     2.0990   -24.8560    72.5730     9.9710     7.3500     9.8510    24.6410 
   87.6250     2.1070   -25.0290    69.0280     9.9990     7.3880     9.8330    24.6490 
   87.7500     2.1090   -25.1240    70.0060     9.9820     7.4260     9.9260    24.6030 
   87.8750     2.1050   -25.1360    71.2750     9.9450     7.4610    10.1150    24.5300 
   88.0000     2.0990   -25.0500    71.7680     9.8890     7.4780    10.1480    24.5060 
   88.1250     2.0950   -24.8650    71.6350     9.8070     7.4660     9.9590    24.5510 
   88.2500     2.0970   -24.5920    71.3630     9.7330     7.4370     9.5030    24.5780 
   88.3750     2.1030   -24.2360    72.1570     9.6860     7.4150     9.0490    24.5850 
   88.5000     2.1070   -23.8220    74.9200     9.6630     7.4230     8.8040    24.5850 
   88.6250     2.1070   -23.3520    77.4080     9.6670     7.4710     9.2940    24.5850 
   88.7500     2.1080   -22.8690    78.0420     9.7050     7.5370     9.6230    24.5850 
   88.8750     2.1120   -22.3960    78.7460     9.7810     7.6010     9.8830    24.5900 
   89.0000     2.1140   -21.9590    80.1490     9.8910     7.6490    10.1620    24.6070 
   89.1250     2.1110   -21.5490    79.1360     9.9910     7.6750    10.1780    24.6410 
   89.2500     2.1100   -21.1620    75.7930    10.0080     7.6820     9.9400    24.6560 
   89.3750     2.1140   -20.7810    73.2930     9.9230     7.6660     9.6110    24.6420 
   89.5000     2.1220   -20.4080    73.2590     9.7680     7.6230     9.2900    24.5630 
   89.6250     2.1320   -20.0780    74.8790     9.6050     7.5450     8.9660    24.3810 
   89.7500     2.1400   -19.7540    77.5750     9.4730     7.4420     9.0080    24.2220 
   89.8750     2.1470   -19.4170    82.0380     9.3700     7.3180     9.3930    24.1590 
   90.0000     2.1520   -19.0640    85.7840     9.2870     7.1870     9.9140    24.1530 
   90.1250     2.1530   -18.7370    86.1030     9.1860     7.0630    10.2930    24.1570 
   90.2500     2.1530   -18.4410    85.5800     9.0240     6.9460    10.4300    24.1600 
   90.3750     2.1550   -18.2230    84.1390     8.8090     6.8320    10.1060    24.1640 
   90.5000     2.1670   -18.1050    81.4060     8.6320     6.7530     9.5630    24.1750 
   90.6250     2.1840   -18.0850    79.1650     8.7300     6.8190     9.4010    24.1840 
   90.7500     2.1980   -18.1290    78.1240     9.1920     7.1010    10.3100    24.1800 
   90.8750     2.2080   -18.2090    75.8200     9.9050     7.5940    12.3450    24.1760 
   91.0000     2.2110   -18.3050    71.4930    10.5510     8.1350    13.9580    24.1840 
   91.1250     2.1950   -18.4130    68.5800    10.6590     8.3650    12.4210    24.1940 
   91.2500     2.1650   -18.5330    68.4270    10.2930     8.1860    10.4750    24.1950 
   91.3750     2.1370   -18.6220    70.3940     9.8230     7.7890     9.9810    24.1810 
   91.5000     2.1210   -18.6640    73.4190     9.6260     7.4740    10.6640    24.1680 
   91.6250     2.1120   -18.6470    74.9830     9.9110     7.4660    10.9890    24.1790 
   91.7500     2.1080   -18.6090    75.1800    10.4450     7.6730    11.0690    24.2030 
   91.8750     2.1140   -18.5890    74.9680    10.9770     7.9270    11.1780    24.2150 
   92.0000     2.1270   -18.6080    73.8890    11.2880     8.0640    11.3360    24.2180 
   92.1250     2.1390   -18.6920    72.1490    11.2440     8.0140    11.2770    24.2200 
   92.2500     2.1480   -18.8490    72.4880    10.9930     7.8890    10.9940    24.2180 
   92.3750     2.1560   -19.0970    74.7020    10.6840     7.7860    10.7320    24.2180 
   92.5000     2.1600   -19.4130    75.2260    10.4640     7.7850    10.7060    24.2230 
   92.6250     2.1570   -19.7820    73.7550    10.4540     7.9620    11.2310    24.2360 
   92.7500     2.1480   -20.1720    74.7350    10.6240     8.2890    11.7030    24.2630 
   92.8750     2.1390   -20.5350    76.3950    10.9200     8.7160    12.1190    24.2840 
   93.0000     2.1340   -20.8460    75.2580    11.2800     9.1640    12.2960    24.2920 
   93.1250     2.1360   -21.0620    71.9520    11.6780     9.5510    12.3170    24.2920 
   93.2500     2.1400   -21.1750    69.0350    12.0810     9.8620    12.3500    24.2900 
   93.3750     2.1390   -21.1730    67.5970    12.4280    10.1130    12.4990    24.2890 
   93.5000     2.1340   -21.0580    66.8560    12.6620    10.3180    12.6360    24.2900 
   93.6250     2.1300   -20.8260    65.5370    12.7230    10.4310    12.7050    24.2910 
   93.7500     2.1300   -20.5060    64.0250    12.5950    10.3850    12.7690    24.2920 
   93.8750     2.1340   -20.1210    64.3160    12.2170    10.1180    12.7080    24.2920 
   94.0000     2.1420   -19.7020    67.8160    11.5540     9.6130    12.4930    24.2920 
   94.1250     2.1600   -19.2960    73.0590    10.6390     8.9030    11.8240    24.2920 
   94.2500     2.1860   -18.9510    78.5360     9.7030     8.1290    10.5500    24.2920 
   94.3750     2.2160   -18.6930    83.7360     8.9730     7.4250     9.1370    24.2920 
   94.5000     2.2400   -18.5540    86.6150     8.6340     6.9310     8.5410    24.2920 
   94.6250     2.2430   -18.5700    86.6700     8.8390     6.8330     8.5120    24.2920 
   94.7500     2.2250   -18.7120    84.3380     9.4740     7.1490     8.9320    24.2910 
   94.8750     2.1870   -18.9770    79.8150    10.4280     7.8680     9.8990    24.2850 
