~V
VERS. 2.00: Ver 2.00
~W
STRT.M 52.0000:
STOP.M 220.0000:
STEP.M 0.1250:
NULL. -999.2500:
UWI. F10539:
~C
DEPT.M :
SP.MV :
DEN.GM/CC :
GR.API :
RML.OHMM :
RI. :
RXO.OHMM :
CALI.CM :
~A
# ...
   74.5000   -17.9130     2.3290    87.2400     6.6060     4.7170     5.0580    23.9660 
   74.6250   -17.8870     2.3540    92.8670     6.6090     4.6970     4.9300    23.9480 
   74.7500   -17.8940     2.3610    91.7050     6.7700     4.7820     5.5130    23.9090 
   74.8750   -17.9340     2.3570    86.5900     7.0300     4.9550     6.6140    23.8640 
   75.0000   -17.9970     2.3470    81.4760     7.3170     5.1780     7.2460    23.7900 
   75.1250   -18.1100     2.3320    77.6260     7.5880     5.4140     6.7870    23.7050 
   75.2500   -18.2320     2.3100    74.8490     7.8630     5.6430     6.3740    23.7370 
   75.3750   -18.3950     2.2780    71.5200     8.1720     5.8690     6.2160    23.8370 
   75.5000   -18.5700     2.2400    66.3910     8.5100     6.0920     6.0670    23.8660 
   75.6250   -18.7930     2.2100    60.5640     8.7780     6.2740     6.3820    23.7580 
   75.7500   -19.0270     2.1990    57.2600     8.8570     6.3570     6.5990    23.7120 
   75.8750   -19.2990     2.2120    58.4110     8.6880     6.2940     6.6640    23.7800 
   76.0000   -19.5820     2.2420    64.0750     8.3240     6.0950     6.5960    23.8790 
   76.1250   -19.8720     2.2690    70.7240     7.9110     5.8310     6.3500    23.9240 
   76.2500   -20.1400     2.2780    73.2460     7.6050     5.6070     6.0260    23.8890 
   76.3750   -20.3720     2.2660    71.2260     7.5070     5.4900     5.9550    23.7970 
   76.5000   -20.5580     2.2370    67.2280     7.7120     5.5360     5.9960    23.7630 
   76.6250   -20.6860     2.2160    62.6350     8.3700     5.8470     5.9830    23.8510 
   76.7500   -20.7800     2.2230    58.2400     9.4240     6.4100     5.5980    24.0280 
   76.8750   -20.8060     2.2640    55.6400    10.7360     7.1760     5.6390    24.2270 
   77.0000   -20.7890     2.3180    56.7130    12.0170     8.0110     7.1740    24.0960 
   77.1250   -20.7320     2.3390    58.9250    12.7740     8.6380    10.4920    23.4610 
   77.2500   -20.6660     2.3140    57.7800    12.8230     8.8730    11.2160    22.8260 
   77.3750   -20.6000     2.2620    54.6690    12.2600     8.6950     8.6760    22.4110 
   77.5000   -20.5130     2.2180    53.1530    11.4020     8.2440     6.8390    22.2420 
   77.6250   -20.4010     2.2080    54.1530    10.6190     7.7340     6.4420    22.2670 
   77.7500   -20.2620     2.2210    55.1580    10.0890     7.3310     6.4920    22.3940 
   77.8750   -20.1190     2.2360    55.2240     9.8240     7.0890     6.6160    22.5170 
   78.0000   -19.9930     2.2430    54.9790     9.7530     6.9930     6.6240    22.5960 
   78.1250   -19.8540     2.2450    54.9180     9.7800     6.9960     6.9490    22.7080 
   78.2500   -19.7330     2.2470    54.4860     9.8180     7.0280     7.3320    22.7960 
   78.3750   -19.5940     2.2480    53.8120     9.8470     7.0650     7.5540    22.8400 
   78.5000   -19.5160     2.2420    54.1220     9.8580     7.0940     7.4200    22.8310 
   78.6250   -19.4810     2.2220    55.4390     9.8520     7.1040     7.2300    22.7240 
   78.7500   -19.4850     2.1960    55.5690     9.8510     7.0970     6.9860    22.5230 
   78.8750   -19.5310     2.1750    54.0840     9.8750     7.0810     6.8320    22.3290 
   79.0000   -19.6000     2.1690    53.6250     9.9290     7.0630     6.9700    22.2330 
   79.1250   -19.7270     2.1840    55.5350     9.9980     7.0540     7.0750    22.1590 
   79.2500   -19.8560     2.2020    57.5090    10.0530     7.0530     6.8660    22.0700 
   79.3750   -20.0040     2.2100    57.3650    10.0780     7.0560     6.5390    22.0310 
   79.5000   -20.1120     2.2030    55.2350    10.0740     7.0580     6.4090    22.0950 
   79.6250   -20.2000     2.1850    52.9920    10.0620     7.0580     6.7290    22.2520 
   79.7500   -20.2580     2.1730    53.1330    10.0650     7.0560     7.2640    22.3500 
   79.8750   -20.2560     2.1750    56.4530    10.0910     7.0570     7.5810    22.3310 
   80.0000   -20.1960     2.1930    59.5670    10.1420     7.0710     7.3580    22.2050 
   80.1250   -20.0360     2.2150    57.7700    10.2160     7.1030     6.9750    22.1090 
   80.2500   -19.8270     2.2260    54.8310    10.3030     7.1460     6.7390    22.1860 
   80.3750   -19.5580     2.2220    54.6930    10.3830     7.1870     6.7360    22.3390 
   80.5000   -19.2490     2.2060    56.0180    10.4300     7.2090     6.9270    22.4870 
   80.6250   -18.8890     2.1920    54.5230    10.4230     7.1990     7.2000    22.5460 
   80.7500   -18.4920     2.1880    53.9160    10.3650     7.1570     7.3800    22.4890 
   80.8750   -18.0950     2.1930    57.2030    10.2420     7.0730     7.1270    22.3550 
   81.0000   -17.6860     2.2020    60.7230    10.0500     6.9430     6.6570    22.3440 
   81.1250   -17.3190     2.2110    61.3370     9.8180     6.7830     6.4240    22.6440 
   81.2500   -16.9620     2.2230    61.7740     9.6040     6.6380     6.8010    23.0170 
   81.3750   -16.6550     2.2410    63.0060     9.4530     6.5400     6.8590    23.2440 
   81.5000   -16.3850     2.2620    65.3880     9.3980     6.5040     6.9640    23.1910 
   81.6250   -16.1970     2.2850    68.9430     9.4470     6.5390     8.4040    22.9340 
   81.7500   -16.0580     2.3100    72.4840     9.5280     6.6070    10.5400    22.7250 
   81.8750   -15.9690     2.3360    75.1810     9.5730     6.6730     9.5900    22.6080 
   82.0000   -15.9320     2.3630    76.4690     9.5330     6.6960     7.5520    22.5230 
   82.1250   -15.9420     2.3790    75.5830     9.3620     6.6200     6.1530    22.4120 
   82.2500   -15.9960     2.3810    73.7680     9.0850     6.4380     6.0250    22.2860 
   82.3750   -16.0720     2.3690    74.1800     8.7480     6.1730     6.2370    22.2960 
   82.5000   -16.1750     2.3480    77.8670     8.3960     5.8710     6.0100    22.5040 
   82.6250   -16.2680     2.3280    80.3800     8.0520     5.5720     5.4300    22.8440 
   82.7500   -16.3580     2.3100    82.7170     7.7090     5.2960     5.2380    23.2470 
   82.8750   -16.4110     2.3000    87.2430     7.3640     5.0500     5.3520    23.5400 
   83.0000   -16.4370     2.2990    90.1520     7.0350     4.8430     5.4200    23.5910 
   83.1250   -16.4270     2.3050    88.1040     6.7780     4.7030     5.3340    23.5990 
   83.2500   -16.3780     2.3110    84.7140     6.6960     4.6720     5.1800    23.6250 
   83.3750   -16.2970     2.3230    83.5890     6.9170     4.8210     5.2180    23.6060 
   83.5000   -16.1730     2.3540    83.9330     7.5060     5.1960     5.5890    23.4690 
   83.6250   -16.0580     2.4140    82.6350     8.4140     5.7930     5.9660    23.5410 
   83.7500   -15.9530     2.4780    79.6370     9.3020     6.4130     7.3950    23.6920 
   83.8750   -15.8880     2.5130    76.0810     9.8030     6.8230    11.0930    23.8650 
   84.0000   -15.8610     2.5010    75.3440     9.6530     6.8280    15.4890    23.9330 
   84.1250   -15.8800     2.4490    76.5720     8.8420     6.3740    11.7570    23.9640 
   84.2500   -15.9610     2.3930    76.0340     7.8610     5.7520     7.4890    24.0120 
   84.3750   -16.1060     2.3570    75.7080     7.0340     5.1740     5.8660    24.0290 
   84.5000   -16.3300     2.3450    79.0200     6.5470     4.7730     5.6920    23.9890 
   84.6250   -16.5510     2.3470    84.2610     6.5340     4.6560     5.7700    23.9240 
   84.7500   -16.8020     2.3410    86.3570     6.8710     4.7800     5.6360    23.8710 
   84.8750   -17.0310     2.3180    84.8050     7.4410     5.1040     5.5730    23.8070 
   85.0000   -17.2500     2.2800    79.1820     8.1060     5.5660     6.0440    23.6550 
   85.1250   -17.3930     2.2410    68.0070     8.7040     6.0920     7.1390    23.3690 
   85.2500   -17.4790     2.2140    58.2030     9.1610     6.5840     7.9170    23.0660 
   85.3750   -17.4680     2.2010    54.3760     9.4890     6.9900     7.9620    22.9600 
   85.5000   -17.3470     2.1970    55.2000     9.7280     7.2900     7.6490    23.0480 
   85.6250   -17.1380     2.1920    56.3780     9.8490     7.4480     7.3580    23.2490 
