~V
VERS. 2.00: Ver 2.00
~W
STRT.M 42.0000:
STOP.M 223.0000:
STEP.M 0.1250:
NULL. -999.2500:
UWI. F10538:
~C
DEPT.M :
DEN.GM/CC :
SP.MV :
GR.API :
RML.OHMM :
RI. :
RXO.OHMM :
CALI.CM :
~A
# ...
   87.0000     2.1550   -32.5310    83.3340     7.6120     6.3520     7.6960    24.4140 
   87.1250     2.1700   -31.9420    88.3790     7.1080     6.0580     7.5610    24.4400 
   87.2500     2.1990   -31.2650    95.0270     6.4930     5.6420     7.0120    24.4950 
   87.3750     2.2350   -30.5300   106.2060     5.8670     5.1580     5.9860    24.5380 
   87.5000     2.2710   -29.7520   119.2510     5.3390     4.6970     5.2460    24.5540 
   87.6250     2.2990   -28.9930   130.7430     4.9670     4.3210     4.9440    24.5570 
   87.7500     2.3180   -28.3010   138.6570     4.7600     4.0590     4.8080    24.5570 
   87.8750     2.3320   -27.7020   142.6940     4.6980     3.9170     4.6430    24.5570 
   88.0000     2.3480   -27.2340   143.3770     4.7070     3.8450     4.5180    24.5570 
   88.1250     2.3610   -26.8940   139.6200     4.7460     3.8070     4.4610    24.5570 
   88.2500     2.3650   -26.6490   134.7120     4.7960     3.7850     4.4710    24.5570 
   88.3750     2.3580   -26.5320   133.0660     4.8670     3.7790     4.4210    24.5570 
   88.5000     2.3510   -26.4910   136.0070     4.9920     3.8070     4.3530    24.5570 
   88.6250     2.3510   -26.5190   139.5390     5.2250     3.9070     4.4600    24.5570 
   88.7500     2.3610   -26.6200   139.0880     5.6510     4.1360     4.8090    24.5490 
   88.8750     2.3800   -26.8190   134.6560     6.5630     4.6470     5.1190    24.5150 
   89.0000     2.4100   -27.1150   128.0080     8.4280     5.6780     6.0740    24.4590 
   89.1250     2.4590   -27.5220   117.6490    11.9970     7.7770     8.7640    24.4220 
   89.2500     2.5250   -28.0620   103.3700    18.0150    11.6630    14.8550    24.4120 
   89.3750     2.5890   -28.7270    91.8730    27.1270    18.2190    25.7580    24.4130 
   89.5000     2.6260   -29.4920    86.5470    36.7210    25.9210    35.4410    24.4120 
   89.6250     2.6300   -30.3300    83.1850    41.2710    30.8290    41.9370    24.4120 
   89.7500     2.6040   -31.2020    78.9180    36.4890    29.0550    47.4370    24.4090 
   89.8750     2.5520   -32.1100    75.4140    26.2660    22.2200    39.3810    24.4080 
   90.0000     2.4750   -32.9630    73.4670    17.8310    15.8770    23.8000    24.4130 
   90.1250     2.3800   -33.7350    72.2840    12.4320    11.4540    12.8780    24.4280 
   90.2500     2.2890   -34.4020    71.8930     9.3920     8.6960     8.8920    24.4570 
   90.3750     2.2290   -34.9100    72.7970     8.1260     7.2440     8.0990    24.4800 
   90.5000     2.1950   -35.2690    74.0500     7.8060     6.5680     8.0580    24.4890 
   90.6250     2.1760   -35.5050    75.0850     8.0270     6.4120     8.1360    24.4920 
   90.7500     2.1620   -35.6490    75.2020     8.4210     6.5190     8.1370    24.4990 
   90.8750     2.1540   -35.6720    74.3440     8.6690     6.6530     7.9300    24.5210 
   91.0000     2.1550   -35.6770    73.9410     8.7140     6.7040     7.8010    24.5450 
   91.1250     2.1600   -35.6730    74.5350     8.6590     6.6980     7.8200    24.5550 
   91.2500     2.1640   -35.6390    75.0640     8.6220     6.6950     7.8940    24.5570 
   91.3750     2.1590   -35.6480    74.4270     8.6690     6.7390     7.9600    24.5570 
   91.5000     2.1510   -35.7100    73.5360     8.7730     6.8190     7.9740    24.5560 
   91.6250     2.1440   -35.7990    74.1290     8.9000     6.9070     7.9590    24.5550 
   91.7500     2.1430   -35.9460    76.5680     9.0150     6.9790     7.9160    24.5530 
   91.8750     2.1470   -36.1420    77.7460     9.0900     7.0100     7.9910    24.5590 
   92.0000     2.1540   -36.3310    77.1540     9.1290     7.0080     7.9510    24.5820 
   92.1250     2.1600   -36.5390    75.7480     9.1410     6.9870     7.8560    24.6330 
   92.2500     2.1610   -36.7780    75.1010     9.1460     6.9640     7.7980    24.6840 
   92.3750     2.1610   -36.9890    74.1920     9.1630     6.9590     7.9410    24.7140 
   92.5000     2.1600   -37.2090    72.1780     9.1920     6.9720     8.0950    24.7800 
   92.6250     2.1580   -37.4430    70.2110     9.2210     6.9930     8.1000    24.9170 
   92.7500     2.1510   -37.6220    68.9720     9.2400     7.0150     8.0160    25.0270 
   92.8750     2.1410   -37.7750    67.0310     9.2450     7.0330     8.0130    25.0650 
   93.0000     2.1330   -37.9130    64.5490     9.2430     7.0480     8.0030    25.0680 
   93.1250     2.1280   -37.9820    63.4800     9.2350     7.0580     8.0080    25.0540 
   93.2500     2.1210   -38.0150    65.2090     9.2090     7.0550     8.0660    25.0190 
   93.3750     2.1080   -38.0150    66.9640     9.1430     7.0210     8.1470    24.9580 
   93.5000     2.0930   -37.9270    67.6290     9.0320     6.9510     8.2210    24.9250 
   93.6250     2.0790   -37.7800    70.0360     8.8770     6.8470     8.2350    24.8710 
   93.7500     2.0690   -37.6200    77.2000     8.6920     6.7180     8.1490    24.6980 
   93.8750     2.0760   -37.4070    84.6760     8.5050     6.5860     7.9690    24.3530 
   94.0000     2.0980   -37.1720    85.3760     8.3520     6.4760     7.7830    24.0190 
   94.1250     2.1280   -36.9380    81.0850     8.2690     6.4150     7.7480    23.8390 
   94.2500     2.1530   -36.6640    77.9430     8.2880     6.4260     7.8410    23.7680 
   94.3750     2.1630   -36.3970    78.5320     8.4590     6.5470     8.0260    23.7520 
   94.5000     2.1670   -36.1640    80.1290     8.7550     6.7630     8.2430    23.7470 
   94.6250     2.1710   -35.9080    81.6840     9.1230     7.0450     8.4040    23.7470 
   94.7500     2.1760   -35.6460    82.1570     9.4620     7.3270     8.4750    23.7470 
   94.8750     2.1810   -35.3690    79.9840     9.6070     7.4860     8.4540    23.7480 
   95.0000     2.1850   -35.0520    78.3980     9.5010     7.4610     8.4050    23.7650 
   95.1250     2.1870   -34.7440    79.1050     9.1620     7.2440     8.3260    23.8180 
   95.2500     2.1880   -34.4460    80.4390     8.6800     6.8890     8.1790    23.9110 
   95.3750     2.1970   -34.1460    81.4030     8.1740     6.4770     7.6520    23.9580 
   95.5000     2.2170   -33.9040    85.1770     7.7430     6.0940     6.8630    23.9730 
   95.6250     2.2440   -33.7480    91.3840     7.4490     5.7980     6.2780    23.9800 
   95.7500     2.2660   -33.6730    96.5350     7.3470     5.6370     6.3160    23.9970 
   95.8750     2.2740   -33.7630    96.0680     7.5130     5.6750     6.6840    24.0330 
   96.0000     2.2650   -33.9730    91.8700     7.8990     5.8870     7.0530    24.0920 
   96.1250     2.2420   -34.2550    87.2430     8.4360     6.2340     7.4480    24.1950 
   96.2500     2.2140   -34.6210    83.3160     9.0130     6.6450     7.9090    24.2890 
   96.3750     2.1920   -35.0330    77.7390     9.4690     7.0130     8.2240    24.3250 
   96.5000     2.1790   -35.4030    70.5420     9.7290     7.2670     8.2720    24.3270 
   96.6250     2.1740   -35.7410    66.0570     9.7830     7.3820     8.2650    24.3070 
   96.7500     2.1750   -36.0390    66.4240     9.6740     7.3680     8.3130    24.2580 
   96.8750     2.1840   -36.2300    69.3150     9.4780     7.2620     8.3740    24.2120 
   97.0000     2.1970   -36.3880    72.0960     9.2990     7.1420     8.4370    24.1930 
   97.1250     2.2100   -36.4990    74.2470     9.2030     7.0600     8.5460    24.1950 
   97.2500     2.2180   -36.5780    75.3150     9.2430     7.0620     8.5560    24.2260 
   97.3750     2.2240   -36.6680    74.4470     9.5080     7.2140     8.5630    24.3030 
   97.5000     2.2340   -36.7560    72.6730    10.0280     7.5440     8.8790    24.3740 
   97.6250     2.2510   -36.8200    70.0710    10.8240     8.0820    10.2770    24.3820 
   97.7500     2.2780   -36.8850    67.5400    11.8010     8.8000    14.3910    24.3010 
   97.8750     2.3100   -36.9880    66.6180    12.5190     9.4580    25.0700    24.1430 
   98.0000     2.3180   -37.0630    67.5940    12.4570     9.6520    26.7770    24.1550 
   98.1250     2.2770   -37.1010    68.6510    11.4450     9.1590    15.5120    24.4140 
