~V
VERS. 2.00: Ver 2.00
~W
STRT.M 52.0000:
STOP.M 208.0000:
STEP.M 0.1250:
NULL. -999.2500:
UWI. F10572:
~C
DEPT.M :
GR.API :
RML.OHMM :
RI. :
RXO.OHMM :
CALI.CM :
DEN.GM/CC :
SP.MV :
~A
# ...
   74.5000    60.9300    19.3220    15.7810     8.9380    24.7970     2.1480   -26.9590 
   74.6250    63.8970    17.3690    14.4520     8.8190    24.7900     2.1730   -27.1350 
   74.7500    65.1580    15.3010    12.9150     8.6180    24.6470     2.2070   -27.3470 
   74.8750    66.4830    13.4560    11.4430     8.2150    24.4430     2.2360   -27.5860 
   75.0000    69.9820    12.0380    10.2190     7.6190    24.3630     2.2500   -27.8620 
   75.1250    73.0560    11.1940     9.3910     7.3180    24.3630     2.2540   -28.1230 
   75.2500    73.1750    10.7630     8.8830     7.0490    24.3720     2.2570   -28.2990 
   75.3750    72.4220    10.5730     8.5970     6.9860    24.3720     2.2590   -28.4010 
   75.5000    73.2000    10.3850     8.3810     7.1190    24.3720     2.2600   -28.4300 
   75.6250    74.8280     9.9280     8.0420     7.5600    24.3790     2.2710   -28.3250 
   75.7500    75.5750     9.2280     7.5460     7.9840    24.3910     2.3040   -28.1550 
   75.8750    76.9890     8.5310     7.0230     7.8680    24.3860     2.3540   -27.9310 
   76.0000    80.6570     8.2060     6.7040     6.1280    24.3280     2.3920   -27.5940 
   76.1250    82.7760     8.8150     6.9650     5.9460    24.3000     2.3720   -27.1380 
   76.2500    80.1270    10.6510     8.0550     7.4520    24.3460     2.3110   -26.6540 
   76.3750    74.1850    14.1200    10.3450    12.3330    24.6140     2.2310   -26.1380 
   76.5000    67.9580    19.5700    14.2200    22.7000    25.2560     2.1550   -25.5860 
   76.6250    62.5270    27.1090    19.9970    31.8920    25.7460     2.1130   -25.0520 
   76.7500    57.8570    34.6710    26.2310    33.8870    25.7320     2.1050   -24.5120 
   76.8750    55.2960    39.1460    30.5390    35.9080    25.3140     2.1200   -23.9760 
   77.0000    54.8750    38.2830    30.8900    39.9920    24.9290     2.1400   -23.5050 
   77.1250    54.8050    32.8720    27.3050    39.2790    24.7120     2.1610   -23.1290 
   77.2500    55.4200    26.8220    22.7100    31.8870    24.5970     2.1970   -22.7780 
   77.3750    56.7550    21.8510    18.6280    22.4960    24.4190     2.2510   -22.4230 
   77.5000    59.3250    18.4860    15.6610    13.8990    24.0170     2.3110   -22.0580 
   77.6250    62.5060    16.9500    14.1000    10.6460    23.4360     2.3380   -21.7180 
   77.7500    63.7990    16.7450    13.6140     9.8840    23.0980     2.3170   -21.3810 
   77.8750    63.6970    17.6390    14.0420    10.7470    23.2670     2.2610   -21.0020 
   78.0000    63.5480    19.3750    15.2050    11.8260    23.6060     2.1980   -20.5750 
   78.1250    62.3190    21.6140    16.8860    12.0090    23.6670     2.1620   -20.1600 
   78.2500    59.1010    23.7010    18.5830    12.8400    23.6680     2.1570   -19.7600 
   78.3750    56.0110    25.0830    19.8530    15.1410    23.7500     2.1730   -19.3510 
   78.5000    55.6570    25.4220    20.3700    18.2330    23.9530     2.1930   -18.9570 
   78.6250    57.3350    24.6770    19.9980    19.5090    24.4010     2.2040   -18.5790 
   78.7500    59.0820    23.5020    19.1760    17.0710    24.8480     2.2000   -18.1670 
   78.8750    61.4860    22.3830    18.2690    13.7200    25.0810     2.1830   -17.7230 
   79.0000    64.0520    21.6560    17.5690    12.1510    25.1280     2.1640   -17.2730 
   79.1250    64.7090    21.5620    17.3090    12.4870    25.1970     2.1630   -16.7540 
   79.2500    61.9970    21.9940    17.4580    13.4260    25.2680     2.1870   -16.1500 
   79.3750    57.6620    22.8630    17.9680    13.7590    25.2000     2.2260   -15.4680 
   79.5000    55.8480    24.0810    18.7770    13.6390    24.8620     2.2550   -14.6790 
   79.6250    57.0120    25.6740    19.8980    14.8100    24.4150     2.2470   -13.7940 
   79.7500    56.9010    27.6100    21.2940    17.9150    24.3860     2.2110   -12.9210 
   79.8750    53.2710    29.8400    22.9370    20.7730    24.9120     2.1600   -12.0710 
   80.0000    49.0570    32.1200    24.6680    22.0850    25.5230     2.1100   -11.2120 
   80.1250    49.6970    33.8020    26.0360    24.8860    25.8140     2.0820   -10.4000 
   80.2500    53.0860    34.4070    26.6520    28.2860    25.8620     2.0800    -9.7170 
   80.3750    56.0890    33.8340    26.3860    29.6950    25.7920     2.1010    -9.1750 
   80.5000    57.4540    32.4650    25.4570    27.3750    25.6270     2.1270    -8.7460 
   80.6250    58.8910    31.0270    24.3450    22.4540    25.3140     2.1350    -8.3770 
   80.7500    60.0920    30.1440    23.5430    20.4090    25.1820     2.1260    -8.0510 
   80.8750    59.2340    30.0570    23.2840    21.0640    25.1690     2.1170    -7.8200 
   81.0000    56.4200    30.7110    23.6040    24.0730    25.3160     2.1250    -7.6900 
   81.1250    55.0140    31.8390    24.3990    26.0710    25.4680     2.1470    -7.5730 
   81.2500    56.0530    32.9130    25.2850    26.0310    25.4730     2.1600    -7.4580 
   81.3750    56.6890    33.6010    25.9800    24.9530    25.4120     2.1520    -7.3900 
   81.5000    53.2750    33.7870    26.3240    24.2170    25.3910     2.1330    -7.3550 
   81.6250    48.6010    33.5340    26.2950    24.5500    25.2760     2.1240    -7.3820 
   81.7500    48.0480    33.0960    26.0760    23.9790    25.1910     2.1350    -7.4680 
   81.8750    51.5970    32.5890    25.7720    22.1850    25.1660     2.1570    -7.5390 
   82.0000    55.6860    32.0970    25.4620    20.7260    25.2840     2.1710    -7.5560 
   82.1250    55.9000    31.7220    25.2260    21.2420    25.4290     2.1650    -7.6000 
   82.2500    54.0480    31.5050    25.0920    21.4600    25.4790     2.1440    -7.6540 
   82.3750    52.4900    31.4410    25.0590    22.1870    25.4590     2.1220    -7.6660 
   82.5000    51.7260    31.4550    25.0870    23.5370    25.4380     2.1130    -7.6840 
   82.6250    53.5320    31.4210    25.0990    23.7650    25.4660     2.1280    -7.7100 
   82.7500    57.0750    31.2820    25.0550    22.7110    25.4030     2.1510    -7.7240 
   82.8750    60.0650    31.0560    24.9590    21.4280    25.2270     2.1650    -7.7930 
   83.0000    59.1580    30.7890    24.8280    20.4580    25.0700     2.1570    -7.9650 
   83.1250    55.6900    30.4860    24.6480    20.2690    24.9700     2.1290    -8.1770 
   83.2500    55.2570    30.0760    24.3720    20.6410    24.8970     2.1040    -8.3950 
   83.3750    57.4360    29.4350    23.9150    20.3280    24.8720     2.0940    -8.6680 
   83.5000    58.3210    28.4590    23.2080    18.2370    24.8730     2.1000    -9.0030 
   83.6250    56.2350    27.1390    22.2360    14.9250    24.8550     2.1150    -9.4090 
   83.7500    55.2550    25.7380    21.1790    12.5180    24.8000     2.1260    -9.8420 
   83.8750    57.2050    24.5060    20.2110    10.8420    24.8010     2.1310   -10.2390 
   84.0000    60.4790    23.6510    19.4940     9.6890    24.9100     2.1360   -10.6080 
   84.1250    61.8010    23.3340    19.1850     9.1140    25.0930     2.1430   -10.9600 
   84.2500    60.3790    23.4110    19.2170     9.0940    25.2010     2.1510   -11.2700 
   84.3750    57.6500    23.7440    19.5030     9.3150    25.2410     2.1580   -11.5200 
   84.5000    54.8250    24.1760    19.9220     9.4130    25.2250     2.1670   -11.7130 
   84.6250    53.5010    24.5490    20.3330     9.3150    25.0490     2.1750   -11.8100 
   84.7500    55.0780    24.7850    20.6360     9.2770    24.6990     2.1780   -11.8290 
   84.8750    57.7940    24.8740    20.8010     9.1600    24.3080     2.1720   -11.8330 
   85.0000    57.4790    24.8450    20.8410     8.9200    24.1330     2.1640   -11.8220 
   85.1250    55.0940    24.7150    20.7650     8.6080    24.3510     2.1710   -11.7640 
   85.2500    55.8020    24.4840    20.5850     8.2360    24.5750     2.1910   -11.6760 
   85.3750    57.7900    24.0890    20.2600     7.8370    24.5750     2.1930   -11.5510 
   85.5000    57.1270    23.4860    19.7590     7.7220    24.5020     2.1570   -11.3890 
   85.6250    54.4870    22.7370    19.1220     7.7660    24.9530     2.0840   -11.2330 
