~V
VERS. 2.00: Ver 2.00
~W
STRT.M 50.0000:
STOP.M 222.0000:
STEP.M 0.1250:
NULL. -999.2500:
UWI. F10580:
~C
DEPT.M :
DEN.GM/CC :
SP.MV :
GR.API :
RML.OHMM :
RI. :
RXO.OHMM :
CALI.CM :
~A
# ...
  173.7500     2.2370   -15.7710    67.0720    28.4960    29.0360    23.5480    24.1280 
  173.8750     2.2590   -15.7870    70.5950    26.2890    26.7560    21.9490    24.1280 
  174.0000     2.2820   -15.8020    68.8090    24.6210    25.0080    20.9760    24.1280 
  174.1250     2.2760   -15.8130    65.5070    23.6000    23.9240    20.6710    24.1280 
  174.2500     2.2380   -15.8320    65.0400    23.2140    23.4770    19.5130    24.1240 
  174.3750     2.1920   -15.8480    67.3760    23.5480    23.7370    19.2750    24.1060 
  174.5000     2.1700   -15.8450    70.9380    24.6130    24.7210    20.6920    24.0580 
  174.6250     2.1860   -15.8520    73.2220    26.4470    26.4850    23.5840    24.0010 
  174.7500     2.2200   -15.8510    73.5920    28.8170    28.8080    27.5330    23.9400 
  174.8750     2.2540   -15.8310    72.0350    31.5710    31.5290    31.2840    23.8830 
  175.0000     2.2740   -15.8080    69.7500    34.4950    34.4110    31.1130    23.8180 
  175.1250     2.2870   -15.7840    67.7960    37.2670    37.0830    31.8790    23.7570 
  175.2500     2.2990   -15.7590    66.1320    39.5670    39.2130    35.9020    23.6750 
  175.3750     2.2970   -15.7350    64.4520    41.1020    40.5240    39.3900    23.5510 
  175.5000     2.2600   -15.7170    63.1810    41.7020    40.8730    37.6350    23.4670 
  175.6250     2.2030   -15.7090    65.3660    41.3440    40.2540    32.5240    23.4420 
  175.7500     2.1620   -15.7100    69.5700    40.5620    39.1990    30.7910    23.4420 
  175.8750     2.1460   -15.7300    72.7320    39.7920    38.1370    31.3390    23.4420 
  176.0000     2.1440   -15.7590    72.2030    39.3890    37.4310    32.5770    23.4510 
  176.1250     2.1480   -15.7910    69.6870    39.5750    37.3470    35.2220    23.5360 
  176.2500     2.1520   -15.8230    69.2590    40.0720    37.6730    36.4740    23.7480 
  176.3750     2.1540   -15.8550    70.9180    40.5270    38.1070    37.6160    24.0150 
  176.5000     2.1580   -15.9060    71.0440    40.5940    38.3260    38.8110    24.1680 
  176.6250     2.1700   -15.9510    68.4320    39.9640    38.0060    39.4920    24.2040 
  176.7500     2.1820   -16.0030    68.2480    38.7870    37.1810    37.9440    24.2050 
  176.8750     2.1880   -16.0690    71.4780    37.3290    36.0010    33.6160    24.2050 
  177.0000     2.1910   -16.1190    75.0950    35.9550    34.7410    29.7800    24.2050 
  177.1250     2.2070   -16.1760    76.6570    35.0390    33.7160    29.3240    24.2040 
  177.2500     2.2420   -16.2440    76.5360    34.5430    32.9840    29.6340    24.2000 
  177.3750     2.2980   -16.3130    74.0680    34.2250    32.4120    30.2660    24.1980 
  177.5000     2.3570   -16.3630    69.2000    33.7290    31.7570    31.0080    24.1990 
  177.6250     2.3750   -16.3820    66.5590    32.7270    30.7730    29.8230    24.2030 
  177.7500     2.3510   -16.4000    68.4640    31.4240    29.5710    26.6040    24.2050 
  177.8750     2.3150   -16.4000    73.1870    30.2390    28.4440    23.8870    24.2050 
  178.0000     2.2930   -16.4120    77.2460    29.6680    27.7690    22.7900    24.2020 
  178.1250     2.2890   -16.4170    77.7400    30.3060    28.0530    23.1770    24.1980 
  178.2500     2.2890   -16.4000    76.8220    32.1430    29.3780    24.9010    24.1980 
  178.3750     2.2850   -16.3740    77.0970    35.0860    31.7580    26.4280    24.2010 
  178.5000     2.2700   -16.3570    77.9010    38.8500    35.0210    31.0970    24.2040 
  178.6250     2.2410   -16.3530    75.5450    42.9510    38.7750    36.5460    24.2040 
  178.7500     2.2060   -16.3300    71.9110    46.7280    42.3250    41.9050    24.2000 
  178.8750     2.1790   -16.3020    70.9600    49.7620    45.2050    42.9600    24.1980 
  179.0000     2.1680   -16.2660    71.9810    51.8300    47.1790    44.5330    24.1980 
  179.1250     2.1740   -16.2340    72.1480    52.7680    48.1220    46.3930    24.2000 
  179.2500     2.1880   -16.1960    72.0760    52.9930    48.4610    46.1880    24.2010 
  179.3750     2.2080   -16.1480    71.4870    52.9510    48.6320    44.6690    24.2020 
  179.5000     2.2430   -16.0950    69.3310    53.2150    49.1750    45.9970    24.2000 
  179.6250     2.3080   -16.0320    66.0040    54.6220    50.8870    48.6660    24.2000 
  179.7500     2.3970   -15.9580    63.3760    57.5470    54.1000    51.0240    24.1970 
  179.8750     2.4840   -15.8550    61.5290    62.2080    58.9730    58.2920    24.1970 
  180.0000     2.5410   -15.7230    60.8550    68.4780    65.2610    65.9200    24.1990 
  180.1250     2.5560   -15.5670    61.9840    75.2030    71.7110    73.2500    24.2030 
  180.2500     2.5540   -15.3960    62.2200    78.8880    75.1910    79.9550    24.2030 
  180.3750     2.5550   -15.2110    60.9080    74.9570    71.6400    79.3900    24.2000 
  180.5000     2.5680   -15.0020    61.3960    61.3860    59.1820    67.8420    24.1960 
  180.6250     2.5750   -14.7950    64.3880    42.6010    41.8020    56.7320    24.1020 
  180.7500     2.5510   -14.5780    67.0510    26.5820    26.8960    34.2630    23.8380 
  180.8750     2.4930   -14.3800    69.1650    15.8000    16.7110    14.8820    23.4930 
  181.0000     2.4290   -14.2210    70.2860     9.6640    10.6760     6.1230    23.3470 
  181.1250     2.3890   -14.1020    69.4330     6.8770     7.6740     4.6990    23.4490 
  181.2500     2.3690   -14.0380    67.3410     5.5560     6.0930     4.3860    23.5580 
  181.3750     2.3580   -14.0150    65.8360     5.0550     5.3970     4.1120    23.6100 
  181.5000     2.3530   -14.0500    66.9020     5.0590     5.3120     4.0660    23.6520 
  181.6250     2.3520   -14.1130    74.0410     5.4230     5.7250     4.4590    23.7250 
  181.7500     2.3490   -14.2330    86.7870     5.9370     6.4080     5.3290    23.8420 
  181.8750     2.3390   -14.3860    98.4010     6.4770     7.2220     6.2250    23.9350 
  182.0000     2.3290   -14.5750   103.1050     6.9440     8.0210     6.4430    23.9540 
  182.1250     2.3280   -14.7830   106.7590     7.2520     8.6370     6.4330    23.8420 
  182.2500     2.3340   -14.9720   114.0990     7.4280     9.0280     6.6100    23.6220 
  182.3750     2.3440   -15.1610   120.5170     7.5250     9.2190     6.7180    23.4050 
  182.5000     2.3480   -15.3140   122.1410     7.6030     9.2640     6.6850    23.3070 
  182.6250     2.3380   -15.4600   123.6270     7.6970     9.1840     6.9130    23.4140 
  182.7500     2.3200   -15.5670   124.3160     7.7930     9.0010     7.2540    23.7300 
  182.8750     2.3040   -15.6600   121.0530     7.8620     8.7210     7.4860    24.1420 
  183.0000     2.2950   -15.7290   118.3900     7.8710     8.3640     7.5860    24.3760 
  183.1250     2.2920   -15.7470   121.1360     7.8050     7.9730     7.8290    24.4210 
  183.2500     2.2910   -15.7740   122.3060     7.7440     7.6380     8.0740    24.4210 
  183.3750     2.2930   -15.8020   119.8810     7.8410     7.4790     8.3050    24.4200 
  183.5000     2.3000   -15.8450   117.7490     8.3360     7.6630     8.7870    24.4190 
  183.6250     2.3080   -15.8780   115.4920     9.7880     8.5760     9.7230    24.4180 
  183.7500     2.3180   -15.9300   110.0050    12.7300    10.6010    13.2240    24.4180 
  183.8750     2.3280   -15.9870   101.6150    17.9530    14.4670    22.6410    24.4180 
  184.0000     2.3270   -16.0520    91.0810    26.2930    21.1660    38.4930    24.4180 
  184.1250     2.3100   -16.1240    79.8520    38.8610    32.3190    54.2260    24.4180 
  184.2500     2.2970   -16.1830    72.9400    54.2240    46.8600    65.2500    24.4180 
  184.3750     2.2910   -16.2480    70.7770    69.8640    62.0890    76.0640    24.4180 
  184.5000     2.2740   -16.3020    70.6140    82.5300    74.3120    80.0480    24.4180 
  184.6250     2.2310   -16.3540    71.1780    89.8650    81.0620    78.7110    24.4180 
  184.7500     2.1860   -16.4090    72.4410    93.8540    84.5130    74.7050    24.4180 
  184.8750     2.1570   -16.4640    73.2340    95.8510    86.1210    73.8880    24.4190 
