~V
VERS. 2.00: Ver 2.00
~W
STRT.M 50.0000:
STOP.M 222.0000:
STEP.M 0.1250:
NULL. -999.2500:
UWI. F10580:
~C
DEPT.M :
DEN.GM/CC :
SP.MV :
GR.API :
RML.OHMM :
RI. :
RXO.OHMM :
CALI.CM :
~A
# ...
   72.5000     2.1110   -27.8380    68.9410    13.0550     9.9620     8.6840    23.0360 
   72.6250     2.1080   -27.7500    65.0770    13.2230    10.0930     8.3070    23.1640 
   72.7500     2.0880   -27.6520    65.7460    13.1090    10.0270     8.1540    23.4360 
   72.8750     2.0640   -27.5820    70.0550    12.7870     9.7950     8.0260    23.7320 
   73.0000     2.0520   -27.4960    72.9900    12.4050     9.4850     8.0450    23.9530 
   73.1250     2.0540   -27.4400    71.8620    12.1130     9.2080     8.3440    24.1570 
   73.2500     2.0620   -27.3930    69.5420    11.9280     9.0130     8.5220    24.3850 
   73.3750     2.0730   -27.3500    67.0600    11.7930     8.8860     8.4990    24.5640 
   73.5000     2.0840   -27.3130    64.8930    11.6330     8.7920     8.4370    24.6480 
   73.6250     2.0860   -27.2640    65.5150    11.4110     8.7040     8.2580    24.6690 
   73.7500     2.0840   -27.2160    69.0540    11.1650     8.6220     8.0170    24.6690 
   73.8750     2.0860   -27.1210    72.4580    10.9440     8.5560     7.8170    24.6810 
   74.0000     2.0900   -27.0390    71.5010    10.7830     8.5250     7.7130    24.7420 
   74.1250     2.0870   -26.9180    67.6930    10.7180     8.5540     7.8230    24.8920 
   74.2500     2.0740   -26.7670    66.1680    10.7480     8.6490     7.9300    25.0390 
   74.3750     2.0620   -26.5700    65.8590    10.8740     8.8100     7.9150    25.0680 
   74.5000     2.0640   -26.3490    64.2230    11.0560     9.0020     7.9280    24.9660 
   74.6250     2.0840   -26.1020    63.0350    11.1440     9.1060     8.0010    24.7850 
   74.7500     2.1090   -25.8210    65.3760    10.9460     8.9760     7.7500    24.6800 
   74.8750     2.1340   -25.5630    68.8910    10.3300     8.5040     7.1890    24.5800 
   75.0000     2.1610   -25.2810    73.2110     9.3020     7.6960     6.3460    24.4080 
   75.1250     2.1960   -25.0380    82.3950     8.0560     6.6940     5.3170    24.2320 
   75.2500     2.2330   -24.8470    94.6870     6.9450     5.7650     4.5630    24.1610 
   75.3750     2.2570   -24.7300   105.1090     6.1880     5.0740     4.2290    24.1470 
   75.5000     2.2570   -24.6700   112.3870     5.8880     4.7090     4.0580    24.1470 
   75.6250     2.2260   -24.6630   117.7960     6.1220     4.7520     4.3010    24.1280 
   75.7500     2.1820   -24.7160   118.2450     6.6980     5.0960     4.9850    24.0430 
   75.8750     2.1410   -24.7700   111.0840     7.3900     5.6130     5.7620    23.8460 
   76.0000     2.1190   -24.8470   100.6280     7.9000     6.0950     6.1970    23.5830 
   76.1250     2.1270   -24.9010    95.6790     7.9260     6.2710     6.2960    23.5500 
   76.2500     2.1560   -24.9540    97.6680     7.6150     6.1450     6.0590    23.7810 
   76.3750     2.1970   -24.9890   102.5160     7.2640     5.8840     5.3650    24.0350 
   76.5000     2.2330   -25.0370   105.9250     7.1720     5.7190     4.8720    24.1430 
   76.6250     2.2430   -25.1310   102.4080     7.5630     5.8720     5.5490    24.1470 
   76.7500     2.2330   -25.2140    92.3740     8.2910     6.3320     7.8390    24.1470 
   76.8750     2.2090   -25.3190    80.5830     9.1360     7.0040    10.1620    24.1470 
   77.0000     2.1730   -25.4450    73.4290     9.8860     7.7390    10.3530    24.1400 
   77.1250     2.1390   -25.6060    72.6690    10.5590     8.4460     8.5250    24.0860 
   77.2500     2.1330   -25.7200    73.2540    11.5760     9.2790     8.3590    23.9870 
   77.3750     2.1710   -25.8120    72.8060    13.3980    10.5230    10.0160    23.9120 
   77.5000     2.2470   -25.8730    71.9400    16.2340    12.4240    15.0100    23.8940 
   77.6250     2.3280   -25.8800    72.3730    19.6780    14.9620    32.8250    23.8850 
   77.7500     2.3630   -25.8790    73.6020    22.2220    17.1880    49.0540    23.8490 
   77.8750     2.3380   -25.8540    75.5770    22.4330    17.9070    32.0000    23.7940 
   78.0000     2.2740   -25.8240    79.1770    20.0780    16.6150    12.8740    23.7070 
   78.1250     2.2060   -25.7780    83.5750    16.5430    14.0880     9.0910    23.6890 
   78.2500     2.1570   -25.7750    84.3840    13.6380    11.7690     8.4380    23.7160 
   78.3750     2.1310   -25.7720    80.5090    11.8850    10.1760     8.4960    23.7800 
   78.5000     2.1220   -25.7690    76.9540    11.1990     9.3720     8.3370    23.8240 
   78.6250     2.1190   -25.7720    77.0420    11.3400     9.2900     8.0860    23.8390 
   78.7500     2.1150   -25.7690    79.0300    11.8150     9.5740     8.0690    23.8410 
   78.8750     2.1090   -25.7840    80.9480    12.3600     9.9980     8.2830    23.8410 
   79.0000     2.1020   -25.7810    81.7570    12.7960    10.3740     8.4600    23.8390 
   79.1250     2.0990   -25.7920    82.0070    12.9830    10.5430     8.5690    23.8380 
   79.2500     2.0990   -25.7870    82.0290    12.9370    10.4950     8.6640    23.8390 
   79.3750     2.1040   -25.8150    82.1370    12.6910    10.2620     8.6890    23.8410 
   79.5000     2.1140   -25.8240    80.2800    12.3240     9.9180     8.6720    23.8450 
   79.6250     2.1280   -25.8320    76.4030    11.9400     9.5580     8.5470    23.8470 
   79.7500     2.1410   -25.8640    75.2620    11.6500     9.2720     8.4310    23.8460 
   79.8750     2.1510   -25.9000    77.0380    11.5430     9.1200     8.4650    23.8420 
   80.0000     2.1610   -25.9520    77.9690    11.7020     9.1580     8.5930    23.8390 
   80.1250     2.1740   -25.9870    75.6260    12.2470     9.4680     9.1520    23.8400 
   80.2500     2.1870   -26.0380    73.8400    13.0990    10.0130    10.6150    23.8430 
   80.3750     2.1900   -26.0700    74.8930    14.1200    10.7210    13.9790    23.8460 
   80.5000     2.1800   -26.1230    75.9750    15.0590    11.4320    18.7500    23.8470 
   80.6250     2.1490   -26.1520    75.6930    15.5220    11.8600    21.2670    23.8440 
   80.7500     2.1070   -26.1440    76.1920    15.4050    11.8720    20.0610    23.8400 
   80.8750     2.0690   -26.1320    78.1270    14.8080    11.4870    15.7410    23.8180 
   81.0000     2.0490   -26.1350    78.4210    13.9960    10.8760    10.9540    23.7350 
   81.1250     2.0560   -26.1500    74.9510    13.2840    10.2740     8.9350    23.5240 
   81.2500     2.0750   -26.1320    72.5310    12.8210     9.8350     8.2170    23.3140 
   81.3750     2.0960   -26.1180    75.0840    12.6190     9.6020     8.1090    23.1960 
   81.5000     2.1150   -26.0860    81.0780    12.6210     9.5480     8.0370    23.1620 
   81.6250     2.1320   -26.0790    84.0260    12.7320     9.6120     7.9100    23.1620 
   81.7500     2.1460   -26.0960    84.2050    12.8370     9.6900     7.7830    23.1620 
   81.8750     2.1540   -26.1080    83.7500    12.8730     9.7310     7.7120    23.1620 
   82.0000     2.1560   -26.1170    83.8810    12.8200     9.7140     7.6930    23.1620 
   82.1250     2.1520   -26.1090    84.7790    12.6860     9.6420     7.5580    23.1620 
   82.2500     2.1460   -26.1380    85.9340    12.5310     9.5480     7.3410    23.1620 
   82.3750     2.1360   -26.1670    85.3190    12.3920     9.4500     7.2360    23.1740 
   82.5000     2.1230   -26.2270    83.5290    12.2840     9.3540     7.5230    23.2640 
   82.6250     2.1070   -26.3230    84.4320    12.1760     9.2420     7.8970    23.5580 
   82.7500     2.0930   -26.4560    86.0180    12.0020     9.0850     8.2020    23.9430 
   82.8750     2.0860   -26.6020    85.8160    11.7200     8.8600     8.1730    24.1730 
   83.0000     2.0910   -26.7330    85.3620    11.3320     8.5610     7.9610    24.2330 
   83.1250     2.1040   -26.8900    88.2010    10.9080     8.2230     7.7170    24.2290 
   83.2500     2.1180   -27.0350    90.7030    10.5610     7.9210     7.4080    24.2320 
   83.3750     2.1270   -27.1900    89.8730    10.3670     7.7180     7.1580    24.2340 
   83.5000     2.1310   -27.3070    88.0810    10.3470     7.6470     7.1380    24.2340 
   83.6250     2.1280   -27.3700    86.4470    10.4780     7.7210     7.4210    24.2340 
