~V
VERS. 2.00: Ver 2.00
~W
STRT.M 47.0000:
STOP.M 236.0000:
STEP.M 0.1250:
NULL. -999.2500:
UWI. F10597:
~C
DEPT.M :
SP.MV :
DEN.GM/CC :
GR.API :
RML.OHMM :
RI. :
RXO.OHMM :
CALI.CM :
~A
# ...
  148.2500   -10.7240     2.4220    60.7940    16.5410    14.6250    14.2800    23.4130 
  148.3750   -10.6260     2.4030    65.0850    16.1460    14.1350    14.2260    23.3830 
  148.5000   -10.5650     2.3920    67.4980    15.5930    13.6730    13.7810    23.4060 
  148.6250   -10.4950     2.3920    67.1410    15.0310    13.3350    13.0010    23.5680 
  148.7500   -10.4060     2.3980    67.4690    14.6060    13.1490    12.7300    23.8240 
  148.8750   -10.3030     2.4050    69.4410    14.4560    13.1390    12.7340    23.9770 
  149.0000   -10.1640     2.4070    72.1210    14.8000    13.3840    12.7950    24.0100 
  149.1250   -10.0190     2.4090    72.6140    15.6680    13.9160    13.2970    24.0350 
  149.2500    -9.8740     2.4130    69.8200    16.9910    14.7680    14.8590    24.0930 
  149.3750    -9.7170     2.4170    64.6650    18.5210    15.8650    17.1410    24.1360 
  149.5000    -9.5460     2.4150    61.9590    19.7670    16.9670    18.5440    24.1470 
  149.6250    -9.4020     2.4090    62.6610    20.3040    17.7380    19.2540    24.1450 
  149.7500    -9.2770     2.4120    63.9250    20.0040    17.9730    18.8690    24.1460 
  149.8750    -9.1550     2.4280    63.9020    19.1770    17.7190    17.6630    24.1450 
  150.0000    -9.1000     2.4500    63.0420    18.5100    17.2650    17.1290    24.1450 
  150.1250    -9.1060     2.4650    62.6220    18.4390    16.9710    17.4950    24.1430 
  150.2500    -9.1170     2.4700    62.8670    18.9500    16.9540    19.0500    24.1420 
  150.3750    -9.1310     2.4680    65.0370    19.7260    17.1500    20.5410    24.1380 
  150.5000    -9.1960     2.4560    66.8030    20.2450    17.3490    19.9550    24.1190 
  150.6250    -9.2800     2.4370    66.0000    20.2910    17.3650    18.1040    24.0790 
  150.7500    -9.3830     2.4200    63.3520    20.0010    17.2010    16.8710    24.0180 
  150.8750    -9.5340     2.4110    61.3290    19.6680    17.0110    17.0500    23.8840 
  151.0000    -9.6970     2.4190    63.2000    19.4880    16.9710    17.9110    23.5940 
  151.1250    -9.8360     2.4330    65.1780    19.3840    17.0370    19.1920    23.2790 
  151.2500    -9.9700     2.4440    64.3700    19.2340    17.0720    19.5040    23.1500 
  151.3750   -10.1320     2.4460    63.1360    18.9490    16.9610    19.5200    23.2190 
  151.5000   -10.2740     2.4430    65.0880    18.5360    16.6980    19.3910    23.5180 
  151.6250   -10.3580     2.4400    67.3120    18.1200    16.4110    19.5970    23.9170 
  151.7500   -10.4230     2.4390    66.2680    17.7850    16.1610    19.2760    24.1510 
  151.8750   -10.4860     2.4330    63.1000    17.5730    15.9530    18.1290    24.2150 
  152.0000   -10.5060     2.4230    61.4740    17.5030    15.7800    18.1310    24.2120 
  152.1250   -10.5070     2.4190    61.1540    17.4970    15.6470    18.2900    24.2110 
  152.2500   -10.4900     2.4220    61.3270    17.4840    15.5840    17.8960    24.2140 
  152.3750   -10.4490     2.4220    61.5120    17.3940    15.5860    17.9090    24.2170 
  152.5000   -10.3870     2.4160    60.8820    17.1520    15.5780    17.4740    24.2170 
  152.6250   -10.3300     2.4080    60.0880    16.8230    15.4950    16.6480    24.2170 
  152.7500   -10.3060     2.4060    60.1950    16.5390    15.3670    16.2370    24.2170 
  152.8750   -10.2720     2.4110    60.9470    16.4690    15.2970    16.7260    24.2170 
  153.0000   -10.2020     2.4230    61.0520    16.8020    15.4300    17.4630    24.2170 
  153.1250   -10.1350     2.4390    60.8300    17.4770    15.7700    17.5890    24.2170 
  153.2500   -10.0720     2.4580    61.2300    18.3470    16.2530    17.8340    24.2170 
  153.3750    -9.9730     2.4760    60.9810    19.1890    16.7490    18.4120    24.2170 
  153.5000    -9.8660     2.4840    60.8570    19.7350    17.0760    18.4670    24.2170 
  153.6250    -9.7930     2.4860    61.6220    19.9250    17.1810    17.5430    24.2170 
  153.7500    -9.6970     2.4820    61.8570    19.8070    17.0970    17.2420    24.2170 
  153.8750    -9.5890     2.4760    61.9440    19.5300    16.9060    17.3770    24.2170 
  154.0000    -9.5750     2.4710    63.4990    19.2620    16.6790    17.5220    24.2170 
  154.1250    -9.5890     2.4690    64.0720    19.0820    16.4450    17.4690    24.2170 
  154.2500    -9.5930     2.4690    61.3090    18.9850    16.2250    17.3330    24.2080 
  154.3750    -9.6190     2.4690    58.7980    18.9240    16.0560    17.5370    24.1770 
  154.5000    -9.6360     2.4710    61.8520    18.8880    16.0130    17.6400    24.1130 
  154.6250    -9.6130     2.4730    66.4610    18.9470    16.1160    17.7080    24.0780 
  154.7500    -9.5810     2.4700    68.3650    19.1570    16.3360    17.8930    24.0640 
  154.8750    -9.5700     2.4640    65.5260    19.4830    16.5990    18.7600    24.0460 
  155.0000    -9.4850     2.4570    60.8090    19.7770    16.8040    19.4540    23.9970 
  155.1250    -9.3660     2.4450    58.8710    19.8950    16.9220    19.3830    23.9420 
  155.2500    -9.2510     2.4280    60.9310    19.7880    16.9510    18.6230    23.9270 
  155.3750    -9.1310     2.4140    64.5320    19.5180    16.9080    17.7600    23.9650 
  155.5000    -9.0380     2.4130    65.7600    19.2660    16.8500    17.7520    23.9690 
  155.6250    -8.9750     2.4180    62.8860    19.1680    16.8440    18.2140    23.9110 
  155.7500    -8.9220     2.4270    57.7740    19.2350    16.8980    18.5610    23.7830 
  155.8750    -8.8740     2.4390    55.3020    19.4000    16.9640    18.8790    23.6620 
  156.0000    -8.8450     2.4530    57.9000    19.5090    16.9440    18.7470    23.7070 
  156.1250    -8.8380     2.4620    61.5240    19.4480    16.8110    18.4130    23.8580 
  156.2500    -8.8760     2.4620    62.8410    19.2090    16.5940    18.3600    23.9660 
  156.3750    -8.9480     2.4520    62.7110    18.8720    16.3470    18.5170    24.0000 
  156.5000    -8.9800     2.4350    64.2750    18.5600    16.0990    18.5560    24.0000 
  156.6250    -9.0000     2.4240    67.9290    18.3310    15.8470    17.8420    24.0000 
  156.7500    -9.0240     2.4230    70.0000    18.1990    15.6130    16.7340    24.0000 
  156.8750    -9.0090     2.4280    67.5420    18.1700    15.4520    16.0910    23.9960 
  157.0000    -8.9950     2.4320    63.9170    18.2770    15.4560    16.2930    23.9790 
  157.1250    -8.9750     2.4330    64.0590    18.5080    15.6310    16.8830    23.9510 
  157.2500    -8.9190     2.4300    66.1290    18.8460    15.9440    17.4460    23.9310 
  157.3750    -8.8500     2.4270    66.0800    19.2330    16.3190    18.0650    23.9240 
  157.5000    -8.8490     2.4280    64.4240    19.5360    16.6500    18.2940    23.9240 
  157.6250    -8.8650     2.4290    63.3520    19.6780    16.8580    18.0480    23.9240 
  157.7500    -8.9050     2.4270    62.8020    19.6480    16.9030    17.8080    23.9230 
  157.8750    -9.0090     2.4230    62.6660    19.4870    16.8050    17.7880    23.9210 
  158.0000    -9.1090     2.4210    63.6710    19.2540    16.6390    18.2650    23.9180 
  158.1250    -9.1800     2.4250    65.3940    18.9790    16.4830    18.6860    23.9200 
  158.2500    -9.2450     2.4320    65.5660    18.6540    16.3450    18.5910    23.9230 
  158.3750    -9.3140     2.4370    63.5080    18.2740    16.2120    17.8860    23.9240 
  158.5000    -9.3380     2.4430    62.6450    17.8960    16.0700    18.1660    23.9240 
  158.6250    -9.3290     2.4510    64.4280    17.6350    15.9290    18.6810    23.9340 
  158.7500    -9.2830     2.4550    66.4010    17.5780    15.8170    19.2410    23.9770 
  158.8750    -9.2160     2.4510    65.9390    17.7380    15.7510    19.3640    24.0720 
  159.0000    -9.1740     2.4320    65.9350    18.0110    15.7040    18.4400    24.1230 
  159.1250    -9.1430     2.4080    67.5500    18.1770    15.6320    16.9930    24.1410 
  159.2500    -9.1260     2.3860    69.4280    18.1060    15.5290    16.2370    24.1410 
  159.3750    -9.1310     2.3720    70.4650    17.7810    15.4070    16.0750    24.1410 
