~V
VERS. 2.00: Ver 2.00
~W
STRT.M 50.0000:
STOP.M 222.0000:
STEP.M 0.1250:
NULL. -999.2500:
UWI. F10580:
~C
DEPT.M :
DEN.GM/CC :
SP.MV :
GR.API :
RML.OHMM :
RI. :
RXO.OHMM :
CALI.CM :
~A
# ...
  196.2500     2.3220   -13.7050    73.9600     5.0490     6.0820     5.5410    23.9850 
  196.3750     2.3190   -13.5360    71.5970     4.9980     6.0590     5.2130    23.9100 
  196.5000     2.3080   -13.3480    69.8160     4.8890     5.9780     5.0020    23.8250 
  196.6250     2.2980   -13.1520    68.5620     4.7400     5.8490     4.8320    23.7060 
  196.7500     2.2920   -12.9700    65.5530     4.5880     5.7090     4.5580    23.5130 
  196.8750     2.2880   -12.8070    60.4020     4.4580     5.5870     4.2610    23.2660 
  197.0000     2.2890   -12.6770    55.5480     4.3690     5.5120     4.0000    23.0440 
  197.1250     2.3020   -12.6080    52.6510     4.3380     5.5150     3.8560    22.8190 
  197.2500     2.3250   -12.5850    50.0500     4.3590     5.5780     3.7940    22.5760 
  197.3750     2.3500   -12.6170    47.2440     4.4210     5.6790     3.8540    22.4830 
  197.5000     2.3680   -12.7200    44.0550     4.5090     5.7870     4.1310    22.5320 
  197.6250     2.3720   -12.9060    41.1120     5.8660     4.5980     4.5330    22.7440 
  197.7500     2.3620   -13.1380    40.4110     5.9120     4.6660     4.6790    23.1190 
  197.8750     2.3460   -13.3930    42.8820     5.9380     4.7050     4.6680    23.6400 
  198.0000     2.3360   -13.6660    46.7110     5.9700     4.7240     4.6680    24.1850 
  198.1250     2.3370   -13.9160    48.4590     6.0280     4.7380     4.7060    24.4980 
  198.2500     2.3360   -14.1540    48.6360     6.0960     4.7570     4.7440    24.6530 
  198.3750     2.3230   -14.3690    49.1370     6.1460     4.7720     4.8430    24.7060 
  198.5000     2.3000   -14.5510    51.1930     6.1470     4.7640     4.9510    24.7170 
  198.6250     2.2770   -14.6930    55.0290     6.0820     4.7110     4.8280    24.7170 
  198.7500     2.2550   -14.8220    58.3860     5.9890     4.6260     4.6180    24.7140 
  198.8750     2.2370   -14.9430    59.2880     5.9080     4.5390     4.4640    24.6950 
  199.0000     2.2350   -15.0510    56.4020     5.8710     4.4800     4.4190    24.6480 
  199.1250     2.2660   -15.1730    52.6160     5.9100     4.4830     4.4780    24.5910 
  199.2500     2.3100   -15.2980    52.7940     6.0130     4.5420     4.5990    24.5690 
  199.3750     2.3400   -15.4330    55.2640     6.1640     4.6430     4.8260    24.5670 
  199.5000     2.3440   -15.5760    56.7850     6.3390     4.7670     5.1090    24.5670 
  199.6250     2.3350   -15.7330    57.0430     6.5290     4.9040     5.3080    24.5670 
  199.7500     2.3360   -15.8720    58.5590     6.7540     5.0680     5.4180    24.5640 
  199.8750     2.3480   -16.0020    60.2140     7.0580     5.2900     5.6710    24.5630 
  200.0000     2.3660   -16.1130    60.6250     7.4830     5.6010     6.1790    24.5630 
  200.1250     2.3790   -16.2170    61.9220     8.0670     6.0360     7.2580    24.5630 
  200.2500     2.3880   -16.3020    65.1430     8.7480     6.5600     8.8840    24.5630 
  200.3750     2.3930   -16.3650    68.8910     9.4620     7.1380    10.4300    24.5630 
  200.5000     2.3970   -16.3940    70.9690    10.1510     7.7290    10.7190    24.5630 
  200.6250     2.4070   -16.3740    70.6450    10.8290     8.3350    10.5880    24.5630 
  200.7500     2.4230   -16.3270    70.3920    11.6250     9.0360    11.0240    24.5630 
  200.8750     2.4430   -16.2520    70.6900    12.7080     9.9560    12.1090    24.5630 
  201.0000     2.4660   -16.1620    70.2800    14.1870    11.2060    13.5480    24.5630 
  201.1250     2.4970   -16.0220    67.3080    16.0240    12.8310    15.8320    24.5630 
  201.2500     2.5290   -15.8660    64.6990    17.8180    14.5500    19.7010    24.5670 
  201.3750     2.5470   -15.7010    63.5500    19.1670    16.0180    24.2670    24.5820 
  201.5000     2.5360   -15.5270    63.9360    19.8200    16.9350    26.5720    24.6170 
  201.6250     2.4980   -15.3350    65.0130    19.6560    17.0680    22.8280    24.6340 
  201.7500     2.4610   -15.1340    64.8500    18.8550    16.5410    18.5900    24.6400 
  201.8750     2.4420   -14.9180    64.5100    17.3900    15.3630    16.6970    24.6400 
  202.0000     2.4350   -14.6970    65.7570    15.2610    13.5780    16.8370    24.6400 
  202.1250     2.4140   -14.4820    68.8500    12.6630    11.3500    16.2620    24.6460 
  202.2500     2.3710   -14.2550    69.8830    10.1530     9.1340    12.7580    24.7060 
  202.3750     2.3160   -14.0320    67.3540     8.1130     7.2420     7.8710    24.9250 
  202.5000     2.2630   -13.8310    63.7090     6.7190     5.8440     4.6110    25.3870 
  202.6250     2.2170   -13.6750    61.1680     6.0330     5.0310     3.7350    25.9150 
  202.7500     2.1890   -13.5470    60.9100     5.8040     4.6350     3.6390    26.0860 
  202.8750     2.1870   -13.4510    62.6750     5.8730     4.5480     3.8230    25.8450 
  203.0000     2.2030   -13.3670    65.4940     6.0870     4.6550     4.1200    25.4010 
  203.1250     2.2170   -13.2750    68.5600     6.3070     4.8430     4.5490    25.0410 
  203.2500     2.2210   -13.1840    71.3880     6.4500     5.0040     4.8920    24.8910 
  203.3750     2.2150   -13.0690    74.2780     6.4920     5.0870     4.8910    24.8620 
  203.5000     2.1990   -12.9330    78.0020     6.4340     5.0720     4.5520    24.8830 
  203.6250     2.1660   -12.7750    79.2170     6.2900     4.9640     4.2410    25.1270 
  203.7500     2.1250   -12.6280    74.9400     6.1270     4.8190     4.0470    25.7540 
  203.8750     2.0970   -12.4910    67.7450     5.9970     4.6810     3.8700    26.5250 
  204.0000     2.1010   -12.3780    61.6220     5.9440     4.5860     3.7330    26.6950 
  204.1250     2.1330   -12.3080    57.3250     5.9990     4.5620     3.8550    26.1870 
  204.2500     2.1580   -12.2710    53.5200     6.1300     4.5980     4.0370    25.9300 
  204.3750     2.1630   -12.2670    51.7400     6.3000     4.6840     4.0470    26.7230 
  204.5000     2.1680   -12.2990    53.6170     6.4700     4.8000     4.0380    27.7430 
  204.6250     2.2020   -12.3380    57.2030     6.6030     4.9280     4.1270    27.5670 
  204.7500     2.2550   -12.3840    60.4030     6.7050     5.0530     4.3750    26.3700 
  204.8750     2.3090   -12.4300    62.4070     6.8020     5.1760     4.7000    25.2610 
  205.0000     2.3550   -12.4630    62.6310     6.9260     5.3080     5.1450    24.7880 
  205.1250     2.3810   -12.4940    60.8050     7.1070     5.4650     5.5420    24.7500 
  205.2500     2.3840   -12.5120    58.7040     7.3150     5.6420     5.8160    24.7970 
  205.3750     2.3610   -12.5080    60.0810     7.4920     5.8040     5.9490    24.8620 
  205.5000     2.3170   -12.4820    65.7210     7.5570     5.8890     5.9330    24.9400 
  205.6250     2.2510   -12.4470    71.3240     7.4130     5.8020     5.5090    25.0200 
  205.7500     2.1610   -12.3930    73.7690     7.0950     5.5520     5.1210    25.2910 
  205.8750     2.0640   -12.3490    73.4620     6.6780     5.1940     4.7460    26.1310 
  206.0000     2.0000   -12.3170    69.9120     6.2690     4.8230     4.2960    27.6680 
  206.1250     2.0030   -12.3030    62.6500     5.9890     4.5550     4.0380    28.9480 
  206.2500     2.0580   -12.3080    57.3430     5.8690     4.4270     4.0200    29.0000 
  206.3750     2.1400   -12.3400    55.5430     5.9080     4.4400     4.1360    27.5910 
  206.5000     2.2190   -12.3960    55.1970     6.0700     4.5650     4.3700    25.8350 
  206.6250     2.2650   -12.4500    56.7090     6.2980     4.7580     4.8870    25.0510 
  206.7500     2.2780   -12.5090    60.1920     6.5090     4.9550     5.3510    24.8710 
  206.8750     2.2820   -12.5690    62.9820     6.6710     5.1270     5.5480    24.8620 
  207.0000     2.2990   -12.6100    63.5560     6.7850     5.2630     5.6350    24.8620 
  207.1250     2.3340   -12.6370    62.9240     6.8750     5.3690     5.7940    24.8620 
  207.2500     2.3620   -12.6530    62.1530     6.9620     5.4580     5.8270    24.8620 
  207.3750     2.3730   -12.6540    61.4980     7.0320     5.5240     5.9880    24.8620 
