~V
VERS. 2.00: Ver 2.00
~W
STRT.M 57.0000:
STOP.M 205.0000:
STEP.M 0.1250:
NULL. -999.2500:
UWI. F10591:
~C
DEPT.M :
SP.MV :
GR.API :
RML.OHMM :
RI. :
RXO.OHMM :
CALI.CM :
DEN.GM/CC :
~A
# ...
  102.0000   -12.5120    67.7790    17.6540    14.2400    10.6230    23.3960     2.1750 
  102.1250   -12.4590    68.4800    20.0000    15.0900    14.5660    23.4460     2.1750 
  102.2500   -12.4020    68.1200    24.5820    17.6890    24.4590    23.5280     2.1770 
  102.3750   -12.2960    66.3520    31.0970    22.0750    34.7430    23.6910     2.1750 
  102.5000   -12.1400    63.8470    38.7810    27.9320    36.7900    23.9440     2.1630 
  102.6250   -11.9700    61.7980    46.1610    34.2980    37.5730    24.1950     2.1390 
  102.7500   -11.7740    59.7950    52.0300    39.8580    40.2110    24.4750     2.1110 
  102.8750   -11.6090    56.9150    55.9480    43.9390    48.8930    24.7520     2.0890 
  103.0000   -11.4500    52.4610    57.7980    46.2110    56.1770    24.8970     2.0790 
  103.1250   -11.3080    48.3570    57.2330    46.2170    55.7310    24.8890     2.0840 
  103.2500   -11.1970    47.7660    55.2070    44.6940    50.8990    24.8540     2.1010 
  103.3750   -11.1310    51.9880    52.9910    42.6060    44.7690    24.8670     2.1250 
  103.5000   -11.0780    58.6560    52.0030    41.0840    39.2180    24.9110     2.1470 
  103.6250   -11.0950    63.5750    53.5660    41.2590    39.0750    24.9180     2.1550 
  103.7500   -11.1390    63.7640    57.2740    43.0950    45.5040    24.9170     2.1510 
  103.8750   -11.1740    60.3630    62.2020    46.1410    53.3190    24.9160     2.1420 
  104.0000   -11.2430    58.1110    66.7810    49.4460    58.0560    24.8790     2.1370 
  104.1250   -11.3250    58.2000    68.7790    51.5170    60.8780    24.7670     2.1370 
  104.2500   -11.4040    57.2210    67.9220    51.8050    62.2790    24.6860     2.1380 
  104.3750   -11.4970    55.2340    65.2850    50.7110    60.3510    24.8260     2.1360 
  104.5000   -11.6150    54.8820    62.6120    49.2730    53.6150    25.0880     2.1340 
  104.6250   -11.6960    58.0380    61.5930    48.7080    47.8420    25.2820     2.1360 
  104.7500   -11.7860    60.0850    62.4460    49.4180    48.6050    25.2960     2.1410 
  104.8750   -11.8850    59.9940    64.6500    51.2590    55.9610    25.2100     2.1460 
  105.0000   -11.9450    60.1990    66.6950    53.3570    65.7910    25.1260     2.1440 
  105.1250   -12.0480    60.1440    65.1410    53.2240    66.9310    25.0620     2.1290 
  105.2500   -12.1220    58.3120    58.0130    48.7350    61.4040    25.0500     2.1060 
  105.3750   -12.1900    57.0020    46.0820    39.8220    53.4400    25.1140     2.0850 
  105.5000   -12.2680    58.6910    32.9460    29.2140    39.6930    25.1550     2.0770 
  105.6250   -12.3080    63.4850    22.7460    20.5670    23.3880    25.0380     2.0980 
  105.7500   -12.3470    68.9680    16.0980    14.7250    12.8360    24.7920     2.1490 
  105.8750   -12.3600    72.9960    12.3550    11.2440     8.7500    24.6590     2.2210 
  106.0000   -12.3230    73.1600    10.5950     9.4200     7.8620    24.6960     2.3030 
  106.1250   -12.2570    70.7180    10.1680     8.7960     8.6190    24.7390     2.3740 
  106.2500   -12.2010    70.3460    10.2860     8.7590     9.7430    24.6800     2.4160 
  106.3750   -12.1310    72.1400    10.5620     8.9940    10.2790    24.4640     2.4180 
  106.5000   -12.0480    72.2320    10.7110     9.2260    10.3110    24.1510     2.3880 
  106.6250   -11.9770    72.2720    10.5590     9.2290     9.2540    23.9500     2.3460 
  106.7500   -11.9170    76.3610    10.2180     9.0270     8.2890    23.9170     2.3120 
  106.8750   -11.8620    81.6050     9.8170     8.7150     7.6380    23.9150     2.2920 
  107.0000   -11.8710    82.0310     9.4520     8.3870     7.3380    23.9060     2.2830 
  107.1250   -11.8680    77.6190     9.1690     8.1080     7.3360    23.9760     2.2780 
  107.2500   -11.8710    75.1670     8.9580     7.8890     7.5780    24.1240     2.2760 
  107.3750   -11.8840    76.1360     8.8630     7.7590     8.0020    24.3210     2.2750 
  107.5000   -11.8770    76.8020     9.0160     7.8020     8.3690    24.4790     2.2720 
  107.6250   -11.8620    74.5150     9.7520     8.2500     8.5840    24.5390     2.2620 
  107.7500   -11.8190    71.4950    11.2120     9.2400     8.9620    24.5220     2.2410 
  107.8750   -11.7770    68.2790    13.3760    10.8450    10.0260    24.4700     2.2100 
  108.0000   -11.7130    65.4400    15.8160    12.8680    12.7170    24.5170     2.1780 
  108.1250   -11.6290    62.6430    17.2540    14.3900    19.3160    24.6960     2.1600 
  108.2500   -11.5360    61.5700    16.6790    14.3700    23.6980    24.8720     2.1650 
  108.3750   -11.4200    64.7160    14.2250    12.6980    19.3600    24.8970     2.1950 
  108.5000   -11.3100    70.5600    11.1330    10.2880    11.0800    24.7520     2.2450 
  108.6250   -11.2150    76.3750     8.7610     8.2180     6.9410    24.4550     2.2970 
  108.7500   -11.1110    81.1540     7.3520     6.8080     5.4860    24.0840     2.3330 
  108.8750   -11.0260    84.7320     6.7340     6.0270     5.4340    23.7990     2.3500 
  109.0000   -10.9190    86.9070     6.6620     5.7500     5.8380    23.6730     2.3600 
  109.1250   -10.8350    87.4970     6.9420     5.8680     5.9390    23.6530     2.3750 
  109.2500   -10.7390    86.7380     7.3310     6.1610     6.2030    23.6990     2.3920 
  109.3750   -10.6570    83.1520     7.7100     6.5110     6.9050    23.7820     2.4030 
  109.5000   -10.6020    77.6930     8.0270     6.8520     7.5470    23.8390     2.3980 
  109.6250   -10.5500    75.5630     8.2870     7.1630     7.0470    23.8590     2.3760 
  109.7500   -10.5380    77.1690     8.5460     7.4670     6.6290    23.8360     2.3460 
  109.8750   -10.5160    79.9770     8.8430     7.7910     7.1040    23.8030     2.3160 
  110.0000   -10.5160    82.0330     9.2010     8.1490     8.0160    23.8330     2.2950 
  110.1250   -10.5380    82.9630     9.6420     8.5530     8.6550    23.8860     2.2980 
  110.2500   -10.5710    83.0690    10.1450     8.9810     8.6410    23.9100     2.3250 
  110.3750   -10.6190    83.3790    10.7000     9.4170     8.9290    23.8610     2.3600 
  110.5000   -10.6260    84.0780    11.2810     9.8400     9.6470    23.9370     2.3740 
  110.6250   -10.6410    84.4100    11.7980    10.1940    10.2150    24.2200     2.3500 
  110.7500   -10.6170    84.5740    12.1260    10.4030    11.1690    24.5200     2.3110 
  110.8750   -10.5970    85.7520    12.1760    10.3970    11.6860    24.7610     2.2790 
  111.0000   -10.5590    87.0940    11.9650    10.1850    11.8480    24.8520     2.2670 
  111.1250   -10.4860    87.2180    11.6640     9.8740    10.8330    24.7060     2.2730 
  111.2500   -10.4030    85.3660    11.6020     9.6870     9.5830    24.4870     2.2840 
  111.3750   -10.2940    80.6810    12.1190     9.8490     9.7700    24.3230     2.3000 
  111.5000   -10.2050    75.0940    13.5330    10.5910    11.9900    24.3000     2.3330 
  111.6250   -10.0920    70.3610    16.2490    12.2670    14.7070    24.4350     2.4000 
  111.7500   -10.0130    67.5900    20.0710    14.8540    17.0790    24.6270     2.4840 
  111.8750    -9.9060    64.6080    24.6260    18.2210    25.6260    24.7290     2.5530 
  112.0000    -9.8270    61.1630    29.1220    21.8750    39.9410    24.7650     2.5840 
  112.1250    -9.7560    58.4960    32.3630    24.8720    42.5540    24.8150     2.5780 
  112.2500    -9.7050    56.7030    34.2570    26.8420    31.8220    24.8620     2.5650 
  112.3750    -9.6800    56.7070    35.4320    28.0560    26.3310    24.8760     2.5620 
  112.5000    -9.6560    57.0600    36.7570    29.0910    33.3170    24.8110     2.5660 
  112.6250    -9.6790    56.1760    39.1150    30.6490    41.3550    24.6910     2.5620 
  112.7500    -9.6800    55.0050    42.6470    33.0710    41.8820    24.6430     2.5570 
  112.8750    -9.7230    54.5250    47.1090    36.3610    37.5740    24.7220     2.5700 
  113.0000    -9.7530    54.6170    51.8370    40.1150    40.0810    24.7290     2.6090 
  113.1250    -9.7990    53.2370    55.7060    43.5090    51.4060    24.6120     2.6440 
