~V
VERS. 2.00: Ver 2.00
~W
STRT.M 42.0000:
STOP.M 195.0000:
STEP.M 0.1250:
NULL. -999.2500:
UWI. F10590:
~C
DEPT.M :
GR.API :
RML.OHMM :
RI. :
RXO.OHMM :
CALI.CM :
DEN.GM/CC :
SP.MV :
~A
# ...
  109.5000    64.0000    23.0730    21.2220    21.8980    24.3980     2.1560   -12.9620 
  109.6250    60.4990    23.2890    21.4970    22.4120    24.4960     2.1390   -12.8790 
  109.7500    56.2060    23.4590    21.8170    22.8210    24.5360     2.1280   -12.8480 
  109.8750    54.4380    23.5250    22.1250    23.2200    24.5340     2.1280   -12.8440 
  110.0000    57.6850    23.5020    22.3970    23.5920    24.5040     2.1370   -12.8490 
  110.1250    62.2710    23.5270    22.6880    24.0970    24.4550     2.1500   -12.8670 
  110.2500    64.5000    23.7550    23.0920    24.6590    24.4320     2.1640   -12.9150 
  110.3750    65.0210    24.2210    23.6510    25.9660    24.4260     2.1810   -12.9990 
  110.5000    64.5770    24.7490    24.2460    29.5870    24.4190     2.2020   -13.1150 
  110.6250    65.0080    24.7720    24.4020    34.9020    24.3990     2.2190   -13.2250 
  110.7500    68.2590    23.8310    23.6730    33.6680    24.3760     2.2280   -13.3390 
  110.8750    73.1480    21.8050    21.8840    27.9580    24.3610     2.2320   -13.4800 
  111.0000    77.4810    19.0600    19.3260    23.0770    24.3360     2.2410   -13.6610 
  111.1250    81.7990    16.3990    16.7070    18.2800    24.2760     2.2720   -13.8620 
  111.2500    84.7910    14.5250    14.6950    13.5750    24.2040     2.3220   -14.0500 
  111.3750    83.8880    13.7690    13.6130    11.7530    24.1080     2.3800   -14.2390 
  111.5000    78.6150    14.2210    13.5920    13.0800    23.9890     2.4310   -14.4270 
  111.6250    73.4220    15.9580    14.8350    16.6420    23.8710     2.4620   -14.5730 
  111.7500    70.0950    18.4810    17.0210    18.6970    23.8810     2.4800   -14.6480 
  111.8750    66.8720    21.2910    19.7800    20.4260    24.0300     2.4940   -14.6690 
  112.0000    64.1720    23.7570    22.5140    21.5950    24.1750     2.5090   -14.6440 
  112.1250    65.8250    25.1620    24.4160    32.4370    24.2300     2.5200   -14.5840 
  112.2500    70.7230    25.5740    25.3230    34.1060    24.2430     2.5180   -14.4960 
  112.3750    73.1600    25.4020    25.4870    25.0520    24.2550     2.5020   -14.3850 
  112.5000    70.9270    25.2560    25.4270    18.8510    24.2860     2.4790   -14.2560 
  112.6250    67.1590    25.8150    25.7550    21.2210    24.3250     2.4690   -14.1560 
  112.7500    62.6380    27.2120    26.7060    26.1310    24.3540     2.4790   -14.0930 
  112.8750    56.6400    29.3140    28.2600    30.5750    24.3640     2.5090   -14.0070 
  113.0000    52.0580    31.7600    30.1780    33.2820    24.3650     2.5490   -13.8990 
  113.1250    52.4100    34.0710    32.0950    33.3710    24.3650     2.5870   -13.8210 
  113.2500    54.3990    36.0670    33.8200    35.5430    24.3610     2.6140   -13.7790 
  113.3750    56.2050    37.8700    35.4480    41.4300    24.3460     2.6270   -13.7510 
  113.5000    57.6000    39.6960    37.1830    45.1320    24.3160     2.6230   -13.7200 
  113.6250    57.9010    41.6150    39.1390    46.6660    24.2920     2.6040   -13.6520 
  113.7500    57.0900    43.3440    41.0560    50.1120    24.2660     2.5740   -13.5680 
  113.8750    55.7270    44.4440    42.5020    53.0160    24.2450     2.5380   -13.5170 
  114.0000    55.1620    44.5560    43.0680    54.5850    24.2300     2.5010   -13.5090 
  114.1250    56.4100    43.5620    42.5180    50.6150    24.2120     2.4730   -13.5140 
  114.2500    58.2000    42.1550    41.4290    49.6190    24.1810     2.4550   -13.5260 
  114.3750    58.2760    40.9840    40.3880    44.5970    24.1470     2.4500   -13.5560 
  114.5000    55.7500    40.5490    39.8990    40.2450    24.1240     2.4550   -13.6040 
  114.6250    53.0960    41.1880    40.3120    39.3290    24.1060     2.4680   -13.6550 
  114.7500    53.7170    42.7190    41.3180    44.6990    24.0990     2.4830   -13.7180 
  114.8750    55.8140    44.8060    42.5140    51.8140    24.0950     2.4960   -13.8090 
  115.0000    55.2940    46.2880    43.4760    48.7710    24.0930     2.5020   -13.9180 
  115.1250    50.8440    46.6550    43.8730    45.2930    24.0890     2.5020   -14.0460 
  115.2500    47.8370    46.4480    43.8930    43.4530    24.0800     2.5010   -14.1700 
  115.3750    49.1540    46.2800    43.8570    41.5100    24.0670     2.4990   -14.2810 
  115.5000    52.3110    46.4650    44.0770    40.8010    24.0540     2.4970   -14.3850 
  115.6250    52.8350    47.1130    44.7150    42.3920    24.0470     2.4970   -14.4940 
  115.7500    51.7300    47.8870    45.5160    44.8340    24.0420     2.5030   -14.5850 
  115.8750    51.9670    48.4230    46.1610    45.8690    24.0360     2.5170   -14.6800 
  116.0000    54.7460    48.4170    46.3600    46.3530    24.0270     2.5340   -14.7910 
  116.1250    56.5730    47.6370    45.8650    45.3520    24.0330     2.5450   -14.8700 
  116.2500    55.7480    46.3510    44.8660    44.5960    24.0360     2.5420   -14.9240 
  116.3750    54.9700    44.8840    43.6160    42.1850    24.0380     2.5230   -14.9460 
  116.5000    55.4280    43.6420    42.4690    35.8800    24.0380     2.4980   -14.9530 
  116.6250    56.6530    43.1340    41.9140    33.9570    24.0380     2.4780   -14.9720 
  116.7500    58.0980    43.4100    42.0840    35.5630    24.0380     2.4750   -15.0160 
  116.8750    59.0950    44.2790    42.8700    39.6280    24.0380     2.4880   -15.0410 
  117.0000    58.0920    45.2930    43.9000    42.0210    24.0380     2.5090   -15.0290 
  117.1250    55.0430    45.7740    44.5630    48.0880    24.0520     2.5230   -15.0300 
  117.2500    53.2670    45.4200    44.5140    54.5140    24.0930     2.5210   -15.0550 
  117.3750    52.7710    44.2870    43.7340    48.0730    24.1460     2.5020   -15.1220 
  117.5000    52.7860    42.7290    42.4830    37.5840    24.1750     2.4760   -15.1970 
  117.6250    54.0510    41.2280    41.1740    33.7390    24.1820     2.4590   -15.2450 
  117.7500    55.9690    40.0610    40.1110    33.5270    24.1850     2.4560   -15.2810 
  117.8750    57.3520    39.2550    39.3620    33.5620    24.1930     2.4630   -15.3220 
  118.0000    57.5970    38.7100    38.8600    33.7870    24.2150     2.4720   -15.3650 
  118.1250    56.9210    38.3210    38.5080    32.9370    24.2360     2.4740   -15.4010 
  118.2500    55.7610    38.0150    38.2370    34.5850    24.2540     2.4690   -15.4370 
  118.3750    54.2480    37.8100    38.0710    36.0080    24.2630     2.4600   -15.4680 
  118.5000    53.1490    37.7170    38.0330    36.5040    24.2640     2.4520   -15.4970 
  118.6250    53.7470    37.6930    38.0760    36.2030    24.2640     2.4510   -15.5390 
  118.7500    54.7570    37.6240    38.0600    36.1840    24.2650     2.4580   -15.5620 
  118.8750    54.9240    37.4310    37.8860    35.1910    24.2640     2.4740   -15.5540 
  119.0000    54.3140    37.0760    37.5220    34.4560    24.2630     2.4950   -15.5360 
  119.1250    54.0440    36.5360    36.9710    34.7670    24.2630     2.5110   -15.5450 
  119.2500    55.3260    35.8710    36.3020    35.7890    24.2630     2.5160   -15.5590 
  119.3750    57.1720    35.1340    35.5590    33.8320    24.2630     2.5100   -15.5600 
  119.5000    58.0080    34.3920    34.8110    30.9260    24.2630     2.4970   -15.5700 
  119.6250    56.4850    33.7480    34.1780    29.9770    24.2700     2.4830   -15.5970 
  119.7500    54.9360    33.2650    33.7400    29.5290    24.2870     2.4730   -15.6660 
  119.8750    55.9420    32.9910    33.5360    30.6210    24.3030     2.4660   -15.7720 
  120.0000    58.0980    32.9650    33.5650    32.1350    24.3100     2.4600   -15.8910 
  120.1250    57.3160    33.2910    33.8710    32.3680    24.3080     2.4550   -15.9940 
  120.2500    54.1940    33.9710    34.4600    31.6980    24.3040     2.4530   -16.1030 
  120.3750    50.9550    34.9840    35.3520    31.4320    24.3000     2.4590   -16.2530 
  120.5000    49.4690    36.1740    36.4460    31.9310    24.2970     2.4770   -16.4430 
  120.6250    49.5270    37.1350    37.3900    36.2840    24.2870     2.5080   -16.6420 
