~V
VERS. 2.00: Ver 2.00
~W
STRT.M 50.0000:
STOP.M 191.0000:
STEP.M 0.1250:
NULL. -999.2500:
UWI. F10562:
~C
DEPT.M :
DEN.GM/CC :
SP.MV :
GR.API :
RML.OHMM :
RI. :
RXO.OHMM :
CALI.CM :
~A
# ...
  185.0000     2.4210   -20.2030    89.7390     5.9320     5.2970     6.7370    24.1690 
  185.1250     2.4210   -20.1480    89.7390     5.9670     5.2890     7.0080    24.1680 
  185.2500     2.4140   -20.1750    89.7390     5.9680     5.2790     6.8950    24.1670 
  185.3750     2.4050   -20.2480    89.7390     5.9450     5.2690     6.6780    24.1670 
  185.5000     2.4000   -20.2820    89.7390     5.9240     5.2600     6.8370    24.1670 
  185.6250     2.4000   -20.2730    89.7390     5.9280     5.2540     7.2030    24.1670 
  185.7500     2.4000   -20.2030    89.7390     5.9500     5.2530     7.1350    24.1670 
  185.8750     2.3980   -20.0870    89.7390     5.9710     5.2540     6.8470    24.1670 
  186.0000     2.3960   -19.9770    89.7390     5.9770     5.2580     6.5690    24.1670 
  186.1250     2.3970   -19.8840    89.7390     5.9660     5.2630     6.3510    24.1670 
  186.2500     2.4030   -19.7840    89.7390     5.9570     5.2680     6.1430    24.1670 
  186.3750     2.4130   -19.6990    89.7390     5.9540     5.2700     5.9040    24.1660 
  186.5000     2.4240   -19.6530    89.7390     5.9540     5.2700     5.7150    24.1630 
  186.6250     2.4310   -19.6440    89.7390     5.9540     5.2700     5.9830    24.1250 
  186.7500     2.4270   -19.6780    89.7390     5.9540     5.2700     6.7640    24.0470 
  186.8750     2.4140   -19.7480    89.7390     5.9540     5.2700     7.5150    23.9720 
  187.0000     2.3970   -19.8180    89.7390     5.9540     5.2700     7.8540    23.9410 
  187.1250     2.3790   -19.8610    89.7390     5.9540     5.2700     7.8400    23.9410 
  187.2500     2.3640   -19.8610    89.7390     5.9540     5.2700     7.8000    23.9410 
  187.3750     2.3540   -19.8610    89.7390     5.9540     5.2700     7.8010    23.9410 
  187.5000     2.3490  -999.2500    89.7390     5.9540     5.2700     7.8720    23.9410 
  187.6250     2.3460  -999.2500    89.7390     5.9540     5.2700     7.8710    23.9410 
  187.7500     2.3440  -999.2500    89.7390     5.9540     5.2700     7.8260    23.9410 
  187.8750     2.3460  -999.2500    89.7390     5.9540     5.2700     7.8690    23.9290 
  188.0000     2.3520  -999.2500    89.7390     5.9540     5.2700     8.1890    23.8950 
  188.1250     2.3570  -999.2500    89.7390     5.9540     5.2700     8.6510    23.8160 
  188.2500     2.3540  -999.2500    89.7390     5.9540     5.2700     9.1980    23.7560 
  188.3750     2.3370  -999.2500    89.7390     5.9540     5.2700     9.5730    23.7070 
  188.5000     2.3020  -999.2500    89.7390     5.9540     5.2700     9.9630    23.6620 
  188.6250     2.2460  -999.2500    89.7390     5.9540     5.2700     9.7600    23.5930 
  188.7500     2.1740  -999.2500    89.7390     5.9540     5.2700     8.3650    23.4420 
  188.8750     2.0880  -999.2500    89.7390     5.9540     5.2700     7.2630    23.2110 
  189.0000     1.9880  -999.2500    89.7390     5.9540     5.2700     6.2870    22.2780 
  189.1250     1.8960  -999.2500    89.7390     5.9540     5.2700     5.0640    19.9410 
  189.2500     1.8380  -999.2500    89.7390     5.9540     5.2700     3.8590    16.9720 
  189.3750     1.8140  -999.2500    89.7390     5.9540     5.2700     3.4030    15.5840 
  189.5000     1.8090  -999.2500    89.7390     5.9540     5.2700     3.3420    15.3330 
  189.6250     1.8080  -999.2500    89.7390     5.9540     5.2700     3.3410    15.3300 
  189.7500     1.8060  -999.2500    89.7390     5.9540     5.2700     3.3400    15.3290 
  189.8750     1.8060  -999.2500    89.7390     5.9540     5.2700     3.3400    15.3280 
  190.0000     1.8050  -999.2500    89.7390     5.9540     5.2700     3.3400    15.3280 
  190.1250     1.8050  -999.2500    89.7390     5.9540     5.2700     3.3400    15.3280 
  190.2500     1.8060  -999.2500    89.7390     5.9540     5.2700     3.3390    15.3280 
  190.3750     1.8080  -999.2500    89.7390     5.9540     5.2700     3.3390    15.3280 
  190.5000     1.8090  -999.2500    89.7390     5.9540     5.2700     3.3400    15.3280 
  190.6250     1.8090  -999.2500    89.7390     5.9540     5.2700     3.3410    15.3270 
  190.7500     1.8090  -999.2500    89.7390     5.9540     5.2700     3.3410    15.3240 
  190.8750     1.8100  -999.2500    89.7390     5.9540     5.2700     3.3400    15.3200 
  191.0000  -999.2500  -999.2500    89.7390     5.9540     5.2700     3.3400    15.3190 
