~V
VERS. 2.00: Ver 2.00
~W
STRT.M 58.0000:
STOP.M 203.0000:
STEP.M 0.1250:
NULL. -999.2500:
UWI. F10566:
~C
DEPT.M :
GR.API :
RML.OHMM :
RI. :
RXO.OHMM :
CALI.CM :
SP.MV :
DEN.GM/CC :
~A
# ...
   69.2500    62.6580    10.3300     8.2370     9.3430    24.1950   -22.1450     2.1440 
   69.3750    65.6400    10.4770     8.3730     9.3950    24.1940   -22.0330     2.1340 
   69.5000    67.4890    10.6830     8.4960     9.6690    24.1920   -21.9850     2.1330 
   69.6250    66.1960    10.9130     8.5820     9.9880    24.1900   -21.8780     2.1390 
   69.7500    64.9000    11.0980     8.6230    10.1600    24.1900   -21.7660     2.1490 
   69.8750    66.5860    11.1670     8.6090    10.1130    24.1930   -21.6130     2.1570 
   70.0000    68.5320    11.0640     8.5270    10.0080    24.1990   -21.4460     2.1610 
   70.1250    65.0890    10.7560     8.3680     9.6880    24.2020   -21.1920     2.1590 
   70.2500    61.5190    10.3530     8.1670     9.3370    24.2030   -20.9620     2.1570 
   70.3750    63.6030     9.9790     7.9670     8.8610    24.2030   -20.7440     2.1580 
   70.5000    68.8320     9.7490     7.8190     8.4660    24.2030   -20.5040     2.1640 
   70.6250    69.9900     9.7590     7.7760     8.3070    24.2230   -20.2570     2.1750 
   70.7500    67.5550     9.9320     7.8140     8.5730    24.2750   -20.0290     2.1860 
   70.8750    65.8600    10.1520     7.8840     8.9790    24.3380   -19.8210     2.1930 
   71.0000    66.8640    10.2780     7.9210     9.1650    24.3700   -19.6080     2.1970 
   71.1250    67.0870    10.1630     7.8580     9.2140    24.3740   -19.4320     2.2020 
   71.2500    66.3060     9.8370     7.7070     9.1150    24.3720   -19.2240     2.2080 
   71.3750    67.6750     9.3940     7.5120     8.6150    24.3680   -19.0090     2.2140 
   71.5000    72.1160     8.9710     7.3300     7.7430    24.3590   -18.7580     2.2150 
   71.6250    74.7020     8.7270     7.2270     7.6880    24.3540   -18.5290     2.2020 
   71.7500    72.3820     8.7060     7.2210     7.6550    24.3510   -18.2600     2.1800 
   71.8750    68.6840     8.9050     7.3180     7.7250    24.3460   -18.0100     2.1540 
   72.0000    67.7850     9.2880     7.5090     7.9220    24.3410   -17.7340     2.1340 
   72.1250    69.5840     9.7940     7.7790     8.0670    24.3320   -17.4850     2.1290 
   72.2500    70.2800    10.3010     8.0660     8.1640    24.2740   -17.2310     2.1380 
   72.3750    68.6710    10.6790     8.3030     8.2120    24.1480   -16.9560     2.1610 
   72.5000    67.8440    10.7840     8.4060     8.4570    24.0220   -16.6180     2.1940 
   72.6250    70.2620    10.4460     8.2700     8.6460    23.9740   -16.2570     2.2280 
   72.7500    73.7020     9.7750     7.9340     8.7150    23.9650   -15.8680     2.2550 
   72.8750    77.1830     8.9740     7.4930     8.5170    23.9630   -15.4650     2.2730 
   73.0000    79.8020     8.3180     7.0990     7.7760    23.9580   -15.0900     2.2860 
   73.1250    80.8320     8.1700     6.9660     6.8090    23.9540   -14.7150     2.3000 
   73.2500    80.5690     8.6590     7.2120     6.9060    23.9640   -14.3670     2.3180 
   73.3750    80.2440     9.8840     7.9490     8.5590    24.0030   -14.0470     2.3450 
   73.5000    80.0150    11.8210     9.2370    12.2590    24.0580   -13.7820     2.3880 
   73.6250    78.0540    14.1570    10.9910    18.2050    24.0140   -13.5050     2.4450 
   73.7500    74.4520    16.0050    12.6320    18.5930    23.9340   -13.3020     2.4970 
   73.8750    72.5900    16.5220    13.5130    19.5070    23.8950   -13.0920     2.5220 
   74.0000    76.4910    15.3520    13.1960    27.9680    23.8830   -12.9140     2.5030 
   74.1250    85.2250    12.8750    11.6820    26.6510    23.8640   -12.7740     2.4410 
   74.2500    90.3000    10.3100     9.8060    14.8360    23.8320   -12.6390     2.3710 
   74.3750    89.5000     8.2560     8.1200     7.9590    23.7870   -12.5120     2.3160 
   74.5000    86.4640     6.8910     6.9010     6.3720    23.7400   -12.4110     2.2820 
   74.6250    85.4800     6.1870     6.2620     6.5680    23.6960   -12.3910     2.2720 
   74.7500    85.1090     6.1180     6.0130     6.5990    23.6680   -12.3660     2.2740 
   74.8750    85.6140     6.3540     6.0150     6.6620    23.5860   -12.3890     2.2860 
   75.0000    88.9640     6.5850     6.1270     6.7700    23.4450   -12.3480     2.3030 
   75.1250    92.1480     6.5940     6.2240     6.5510    23.3810   -12.3210     2.3180 
   75.2500    92.4610     6.4660     6.2580     6.4730    23.4130   -12.3030     2.3230 
   75.3750    90.8520     6.3530     6.2430     6.5670    23.5430   -12.3260     2.3170 
   75.5000    90.5480     6.3180     6.2170     6.5290    23.7740   -12.3680     2.2990 
   75.6250    90.9420     6.3530     6.2350     6.4490    24.0520   -12.4160     2.2750 
   75.7500    88.5320     6.4630     6.3280     6.3650    24.3250   -12.4550     2.2530 
   75.8750    83.4180     6.6910     6.5080     6.3650    24.4990   -12.4810     2.2370 
   76.0000    77.2910     6.9710     6.7620     6.3680    24.5170   -12.5610     2.2290 
   76.1250    73.7510     7.3800     7.0360     6.6320    24.4120   -12.6000     2.2320 
   76.2500    72.8810     7.6790     7.2350     7.2070    24.3120   -12.6170     2.2390 
   76.3750    75.8670     7.6900     7.2740     7.5110    24.2700   -12.5850     2.2480 
   76.5000    82.7710     7.4120     7.1150     7.4760    24.2640   -12.5070     2.2530 
   76.6250    89.6140     7.0830     6.7930     7.2520    24.2730   -12.4070     2.2520 
   76.7500    93.1980     6.9080     6.4680     6.8260    24.2920   -12.3060     2.2470 
   76.8750    93.0550     6.7250     6.2680     6.2540    24.3130   -12.1920     2.2400 
   77.0000    88.7800     6.6700     6.2850     6.4100    24.3470   -12.0600     2.2340 
   77.1250    80.5930     6.9210     6.5910     7.8060    24.4290   -11.9620     2.2250 
   77.2500    74.9620     7.5090     7.1010     9.4500    24.5400   -11.9050     2.2140 
   77.3750    74.3400     8.2940     7.7080     9.4460    24.6040   -11.8550     2.2030 
   77.5000    75.1890     8.9500     8.2520     8.9540    24.6260   -11.8320     2.1990 
   77.6250    73.9240     9.1030     8.5040     8.9540    24.6330   -11.7270     2.2130 
   77.7500    74.8110     8.7970     8.4320     9.5630    24.6290   -11.6450     2.2390 
   77.8750    80.5020     8.2300     8.1240    10.2420    24.6210   -11.5560     2.2680 
   78.0000    87.0880     7.6990     7.7620     9.8320    24.6180   -11.4850     2.2850 
   78.1250    86.7960     7.5820     7.6090     7.9450    24.6210   -11.3960     2.2780 
   78.2500    81.9440     8.0310     7.8170     7.5980    24.6250   -11.2940     2.2540 
   78.3750    78.7550     9.0930     8.4560     9.4650    24.6220   -11.1840     2.2210 
   78.5000    77.9710    10.6570     9.4840    11.8550    24.6120   -11.0380     2.1900 
   78.6250    76.0070    12.2140    10.7230    12.5770    24.6000   -10.9350     2.1780 
   78.7500    72.5840    13.2180    11.8510    12.4400    24.5830   -10.8050     2.1940 
   78.8750    70.5070    13.7140    12.6830    12.0300    24.5670   -10.6540     2.2340 
   79.0000    70.3160    14.1740    13.2200    11.3880    24.5660   -10.5080     2.2840 
   79.1250    69.8710    14.8940    13.6670    12.5470    24.5700   -10.3620     2.3150 
   79.2500    68.9620    15.8350    14.2690    15.1920    24.5760   -10.1840     2.3150 
   79.3750    67.7880    16.9960    15.1120    16.6760    24.5950   -10.0050     2.2870 
   79.5000    65.9250    18.4020    16.1620    15.7240    24.6410    -9.8410     2.2480 
   79.6250    64.8460    19.9100    17.2790    15.4450    24.6900    -9.6630     2.2150 
   79.7500    65.6240    21.2240    18.2640    15.5000    24.7720    -9.5030     2.1880 
   79.8750    66.5840    22.1320    18.9670    15.6650    24.8810    -9.3630     2.1630 
   80.0000    65.9330    22.5120    19.2910    15.5910    24.9200    -9.2100     2.1380 
   80.1250    66.7600    22.2730    19.1380    15.4110    24.8570    -9.0890     2.1190 
   80.2500    70.8020    21.6480    18.6460    15.1880    24.7770    -9.0190     2.1170 
   80.3750    73.7420    20.8760    17.9630    14.4470    24.7010    -8.9620     2.1320 
