~V
VERS. 2.00: Ver 2.00
~W
STRT.M 55.0000:
STOP.M 318.0000:
STEP.M 0.1250:
NULL. -999.2500:
UWI. F10558:
~C
DEPT.M :
DEN.GM/CC :
GR.API :
RML.OHMM :
RI. :
RXO.OHMM :
CALI.CM :
SP.MV :
~A
# ...
  291.2500     2.4050    62.6110     7.1580     5.4000     7.6110    24.2790   -10.5900 
  291.3750     2.3910    62.8220     7.4980     5.7960     8.5280    24.2790   -10.6670 
  291.5000     2.3690    61.9630     7.5360     5.9960     8.5220    24.2790   -10.7540 
  291.6250     2.3480    62.7300     7.2290     5.9070     7.8900    24.2790   -10.8700 
  291.7500     2.3290    64.2930     6.7770     5.6630     6.7750    24.2790   -10.9720 
  291.8750     2.3110    65.1700     6.3300     5.3850     6.4710    24.2790   -11.0780 
  292.0000     2.2990    65.7600     5.9660     5.1470     6.6970    24.2790   -11.1660 
  292.1250     2.2910    65.3420     5.7220     4.9450     6.5680    24.2790   -11.2780 
  292.2500     2.2800    63.4700     5.5540     4.7250     6.8250    24.2790   -11.3780 
  292.3750     2.2630    61.0890     5.4370     4.4750     6.5560    24.2790   -11.4960 
  292.5000     2.2440    60.2310     5.3640     4.2470     5.9090    24.3030   -11.6270 
  292.6250     2.2310    61.7820     5.3750     4.1490     6.2060    24.3830   -11.7460 
  292.7500     2.2270    63.8110     5.5270     4.2240     6.7500    24.4990   -11.8880 
  292.8750     2.2310    66.5260     5.8980     4.4850     6.4260    24.5610   -12.0060 
  293.0000     2.2390    72.3550     6.5150     4.9180     6.6470    24.5760   -12.0880 
  293.1250     2.2380    83.3430     7.2330     5.4440     7.7920    24.5760   -12.0990 
  293.2500     2.2250    92.8270     7.6530     5.8490     9.0460    24.5750   -12.0520 
  293.3750     2.2120    92.6630     7.4500     5.9110     9.4530    24.5730   -11.9650 
  293.5000     2.2160    81.9770     6.5900     5.5150     8.5070    24.5690   -11.8400 
  293.6250     2.2430    67.8780     5.4360     4.7630     6.7180    24.5680   -11.6830 
  293.7500     2.2740    57.3370     4.5120     4.0250     5.0120    24.5700   -11.4970 
  293.8750     2.3030    50.9470     4.0180     3.5080     4.5210    24.5720   -11.3120 
  294.0000     2.3340    47.8710     3.9300     3.2690     4.5130    24.5690   -11.1720 
  294.1250     2.3660    46.6150     4.1070     3.2720     4.5180    24.5680   -11.0750 
  294.2500     2.3890    44.5560     4.2910     3.3610     4.4550    24.5710   -11.0460 
  294.3750     2.4000    42.7470     4.3530     3.4480     4.4040    24.5810   -11.0570 
  294.5000     2.4010    42.7590     4.2810     3.4960     4.4020    24.6160   -11.0900 
  294.6250     2.4000    44.1880     4.1920     3.5260     4.4930    24.6910   -11.1710 
  294.7500     2.3920    45.3930     4.2210     3.5870     4.5820    24.7420   -11.2930 
  294.8750     2.3600    47.7040     4.4050     3.7100     4.6340    24.7410   -11.4370 
  295.0000     2.3050    52.4430     4.7440     3.9270     4.7700    24.7250   -11.5750 
  295.1250     2.2570    60.0800     5.2850     4.2950     5.3780    24.7190   -11.7240 
  295.2500     2.2340    68.4600     6.0060     4.8000     6.4500    24.7190   -11.8420 
  295.3750     2.2340    75.1030     6.8610     5.3960     7.4570    24.7190   -11.9100 
  295.5000     2.2370    79.4740     7.7100     5.9780     7.8660    24.7190   -11.9510 
  295.6250     2.2340    81.7700     8.2360     6.3540     8.4340    24.7190   -11.9590 
  295.7500     2.2280    84.0060     8.2680     6.4360     8.8770    24.7190   -11.8880 
  295.8750     2.2230    85.5970     7.8140     6.2120     9.4760    24.7190   -11.7760 
  296.0000     2.2100    83.4030     7.0500     5.7460    10.2460    24.7190   -11.6550 
  296.1250     2.1930    73.8450     6.1910     5.1250     9.2180    24.7190   -11.5270 
  296.2500     2.1860    61.5190     5.4380     4.4980     6.6850    24.7190   -11.4270 
  296.3750     2.1970    52.6240     4.8840     3.9710     4.8050    24.7190   -11.3780 
  296.5000     2.2180    48.8690     4.5310     3.6150     4.1620    24.6990   -11.3650 
  296.6250     2.2390    47.4180     4.3800     3.4820     4.2220    24.5820   -11.3810 
  296.7500     2.2630    46.4790     4.4010     3.4990     4.4080    24.3560   -11.4580 
  296.8750     2.2820    45.5940     4.5580     3.5950     4.5140    24.1510   -11.5990 
  297.0000     2.2840    45.2420     4.7610     3.7000     4.4490    24.0600   -11.7830 
  297.1250     2.2670    45.6750     4.9120     3.7650     4.3400    24.0500   -12.0070 
  297.2500     2.2560    46.6820     5.0210     3.8050     4.3600    24.0500   -12.2450 
  297.3750     2.2620    47.6110     5.1450     3.8440     4.5400    24.0500   -12.4890 
  297.5000     2.2710    46.8460     5.3160     3.9110     4.7410    24.0520   -12.7320 
  297.6250     2.2650    45.1140     5.5300     4.0360     5.0350    24.0450   -12.9920 
  297.7500     2.2550    46.5760     5.7220     4.2190     5.2330    24.0200   -13.2490 
  297.8750     2.2550    53.1380     5.8820     4.4600     5.2710    23.9940   -13.4750 
  298.0000     2.2660    61.2030     6.1020     4.7560     5.3940    23.9830   -13.6570 
  298.1250     2.2730    67.2740     6.4950     5.0990     5.9340    23.9820   -13.7680 
  298.2500     2.2660    73.2760     6.9470     5.4370     6.7160    23.9810   -13.8080 
  298.3750     2.2540    79.5570     7.2350     5.6910     7.6860    23.9790   -13.7660 
  298.5000     2.2530    83.1260     7.1890     5.7680     8.2730    23.9810   -13.6480 
  298.6250     2.2740    80.1330     6.7890     5.5640     7.9840    23.9820   -13.4550 
  298.7500     2.3050    73.5150     6.2910     5.1710     6.7330    23.9820   -13.2040 
  298.8750     2.3280    66.7730     5.8960     4.7250     5.7350    23.9810   -12.8930 
  299.0000     2.3360    61.8120     5.6840     4.3560     5.2830    23.9780   -12.5460 
  299.1250     2.3250    58.1410     5.5890     4.1480     5.2330    23.9770   -12.1750 
  299.2500     2.3020    56.2670     5.4690     4.0450     5.3890    23.9740   -11.8310 
  299.3750     2.2850    56.6840     5.2420     3.9710     5.6150    23.9730   -11.5230 
  299.5000     2.2880    56.6380     4.8680     3.8560     5.4680    23.9730   -11.2490 
  299.6250     2.3090    52.2830     4.3800     3.6710     4.8510    23.9730   -11.0210 
  299.7500     2.3320    46.5020     3.9790     3.4740     4.4050    23.9740   -10.8480 
  299.8750     2.3440    42.9570     3.8570     3.3270     4.2310    23.9750   -10.7250 
  300.0000     2.3370    41.6120     4.0770     3.2720     4.2040    23.9770   -10.6730 
  300.1250     2.3130    41.5770     4.5720     3.3470     4.3090    23.9750   -10.6810 
  300.2500     2.2900    42.6490     5.1210     3.5130     4.3350    23.9740   -10.6990 
  300.3750     2.2800    44.0510     5.5670     3.7280     4.4080    23.9690   -10.7300 
  300.5000     2.2850    45.3220     5.8430     3.9450     4.6080    23.9570   -10.7730 
  300.6250     2.2850    47.4520     5.9530     4.1170     4.9530    23.9300   -10.8030 
  300.7500     2.2620    51.8060     5.9490     4.2270     5.3670    23.9130   -10.7960 
  300.8750     2.2230    56.1910     5.8050     4.2570     5.7720    23.9160   -10.7850 
  301.0000     2.1910    57.2120     5.5110     4.1920     5.4770    23.9360   -10.7460 
  301.1250     2.1890    55.0580     5.1360     4.0400     4.7500    23.9560   -10.7100 
  301.2500     2.2120    52.9670     4.8240     3.8790     4.3810    23.9360   -10.6800 
  301.3750     2.2420    50.9600     4.6520     3.7730     4.3170    23.8910   -10.6320 
  301.5000     2.2570    46.8610     4.6250     3.7530     4.5910    23.8750   -10.5660 
  301.6250     2.2390    40.3050     4.6730     3.7880     4.9280    23.9070   -10.5030 
  301.7500     2.2090    35.3790     4.6730     3.7900     4.8740    23.9950   -10.4700 
  301.8750     2.1950    33.6830     4.5720     3.7140     4.5500    24.1670   -10.4370 
  302.0000     2.2110    34.1930     4.3850     3.5740     4.2900    24.3930   -10.3980 
  302.1250     2.2510    33.5580     4.2070     3.4320     4.1820    24.5480   -10.3350 
  302.2500     2.2910    31.7650     4.1270     3.3430     4.1060    24.7190   -10.2780 
  302.3750     2.3170    32.1430     4.1660     3.3310     4.0330    24.9210   -10.2530 
