~V
VERS. 2.00: Ver 2.00
~W
STRT.M 59.0000:
STOP.M 201.0000:
STEP.M 0.1250:
NULL. -999.2500:
UWI. F10560:
~C
DEPT.M :
DEN.GM/CC :
SP.MV :
GR.API :
RML.OHMM :
RI. :
RXO.OHMM :
CALI.CM :
~A
# ...
   81.5000     2.3020   -31.6210    96.7400    10.4370     8.5640     9.2240    23.6000 
   81.6250     2.2750   -31.5330    98.8310     9.9800     8.2150     8.8620    23.6850 
   81.7500     2.2620   -31.3900   100.3130     9.6840     7.9380     8.9880    23.7160 
   81.8750     2.2580   -31.1880   101.6720     9.5480     7.8020     8.9170    23.6960 
   82.0000     2.2580   -30.9520   102.2160     9.5450     7.8200     8.5740    23.6740 
   82.1250     2.2590   -30.6660   100.3160     9.6770     7.9910     8.1270    23.6650 
   82.2500     2.2610   -30.3670    96.0170     9.9420     8.2510     8.1650    23.6520 
   82.3750     2.2630   -30.0590    92.3520    10.3430     8.5610     8.4740    23.6240 
   82.5000     2.2660   -29.7640    92.4760    10.8040     8.8560     8.9870    23.6030 
   82.6250     2.2690   -29.4390    96.0560    11.1000     8.9860     9.3440    23.5880 
   82.7500     2.2760   -29.1090    99.7690    11.0470     8.8500     9.1590    23.5210 
   82.8750     2.2840   -28.7730   103.1020    10.6020     8.4310     8.5900    23.3630 
   83.0000     2.2870   -28.4410   107.2030     9.9150     7.8370     8.1770    23.1980 
   83.1250     2.2800   -28.1090   111.3290     9.3210     7.2950     7.6750    23.1610 
   83.2500     2.2680   -27.7830   110.9980     9.1310     7.0220     7.3780    23.2790 
   83.3750     2.2540   -27.4800   105.7310     9.6120     7.1870     7.9480    23.5660 
   83.5000     2.2400   -27.1800    99.6790    11.0280     7.9580     9.5620    23.9420 
   83.6250     2.2280   -26.9210    97.1410    13.9430     9.7470    12.7250    24.1470 
   83.7500     2.2170   -26.6930    93.2290    18.5050    12.7800    18.1980    24.2700 
   83.8750     2.1990   -26.5150    85.4610    24.8890    17.3880    25.2950    24.4060 
   84.0000     2.1700   -26.3700    78.6400    32.8670    23.6570    35.2220    24.6460 
   84.1250     2.1330   -26.2780    76.5590    41.4620    31.1030    43.8650    25.0180 
   84.2500     2.1020   -26.1910    74.8200    49.0100    38.2200    54.9880    25.4450 
   84.3750     2.0860   -26.1190    71.7430    54.5320    43.9480    62.4540    25.7850 
   84.5000     2.0850   -26.0790    70.3870    57.9360    47.9320    58.6450    25.9810 
   84.6250     2.0960   -26.0510    71.9500    59.6720    50.2830    54.7180    26.0230 
   84.7500     2.1100   -26.0410    71.5360    60.6060    51.7000    57.0670    25.9760 
   84.8750     2.1230   -26.0400    69.3570    60.8590    52.3820    65.3090    25.9220 
   85.0000     2.1270   -26.0630    68.1870    60.3540    52.3900    65.7450    25.9750 
   85.1250     2.1180   -26.0990    68.2860    59.0340    51.7570    59.4290    26.2360 
   85.2500     2.1010   -26.1710    67.6050    57.3220    50.8180    53.1250    26.5260 
   85.3750     2.0850   -26.2570    66.6130    55.5170    49.7720    50.4580    26.6210 
   85.5000     2.0780   -26.3460    66.9390    53.7380    48.6970    49.1960    26.5180 
   85.6250     2.0890   -26.4530    68.6880    51.7150    47.3770    52.9170    26.3400 
   85.7500     2.1070   -26.5730    69.8980    49.0120    45.4520    51.6740    26.1550 
   85.8750     2.1180   -26.6920    69.7750    45.3600    42.6480    45.0700    26.0480 
   86.0000     2.1200   -26.7880    68.9880    40.9410    39.0620    38.0870    25.9800 
   86.1250     2.1290   -26.8460    68.7010    36.4660    35.2480    33.1130    25.8130 
   86.2500     2.1490   -26.8680    69.2350    32.7040    31.9040    28.6840    25.5450 
   86.3750     2.1740   -26.8720    71.2400    30.0250    29.3950    24.6250    25.2450 
   86.5000     2.1900   -26.8510    73.9790    28.4960    27.8360    21.9190    25.0690 
   86.6250     2.1820   -26.8160    75.6700    28.0330    27.2260    23.7220    25.1220 
   86.7500     2.1580   -26.7360    75.1070    27.9870    27.0550    26.8110    25.4390 
   86.8750     2.1300   -26.6280    74.3010    27.8560    26.9010    27.8300    25.9250 
   87.0000     2.1110   -26.5050    74.0620    27.3250    26.4630    27.0480    26.2250 
   87.1250     2.1120   -26.3620    72.7030    26.4260    25.7000    25.0960    26.2920 
   87.2500     2.1230   -26.2070    72.2030    25.6770    24.9930    22.8070    26.3640 
   87.3750     2.1350   -26.0380    74.0760    25.5620    24.7350    21.5600    26.4620 
   87.5000     2.1410   -25.8600    74.4780    26.3370    25.1900    24.0010    26.5590 
   87.6250     2.1450   -25.6700    70.2670    27.9160    26.4190    28.8730    26.7580 
   87.7500     2.1510   -25.4950    66.7870    29.5790    27.8970    32.3800    27.0300 
   87.8750     2.1540   -25.3200    68.1020    30.7320    29.1070    34.1280    27.1650 
   88.0000     2.1580   -25.1600    71.8570    31.0390    29.6490    34.0710    27.0110 
   88.1250     2.1600   -25.0290    73.9610    30.5510    29.3990    31.7080    26.7960 
   88.2500     2.1590   -24.9080    73.6560    29.9220    28.8810    28.7030    26.8000 
   88.3750     2.1540   -24.8000    71.0710    29.6110    28.5200    28.0160    27.0480 
   88.5000     2.1460   -24.6980    66.8820    29.8130    28.5410    29.8460    27.4640 
   88.6250     2.1330   -24.6030    63.9810    30.5140    28.9820    31.0390    27.6880 
   88.7500     2.1170   -24.4980    64.5760    31.3980    29.5990    30.8720    27.7590 
   88.8750     2.1010   -24.3980    66.1940    32.2030    30.1770    29.9960    27.7280 
   89.0000     2.0900   -24.2790    64.8420    32.7210    30.5430    29.5900    27.6200 
   89.1250     2.0880   -24.1670    60.1260    32.8300    30.6120    29.4570    27.3930 
   89.2500     2.0950   -24.0700    59.0900    32.7200    30.5280    29.8160    27.2930 
   89.3750     2.1050   -23.9770    62.8120    32.5940    30.4090    30.1300    27.2680 
   89.5000     2.1130   -23.8850    66.4930    32.6100    30.3360    30.1680    27.2700 
   89.6250     2.1160   -23.8000    67.3060    32.8650    30.3630    30.2920    27.2630 
   89.7500     2.1180   -23.7360    66.5330    33.2430    30.4760    30.6680    27.2240 
   89.8750     2.1200   -23.7180    64.9610    33.5900    30.6470    31.3540    27.1390 
   90.0000     2.1220   -23.7400    64.2730    33.7870    30.8420    32.6780    27.0760 
   90.1250     2.1200   -23.7990    65.6180    33.7910    31.0220    33.6390    26.9870 
   90.2500     2.1170   -23.8660    67.4240    33.7100    31.1700    34.5180    26.7830 
   90.3750     2.1160   -23.9660    68.1530    33.6460    31.2850    35.0990    26.4910 
   90.5000     2.1220   -24.0840    68.8470    33.6830    31.3920    35.2320    26.3150 
   90.6250     2.1330   -24.2310    70.7180    33.9030    31.5510    34.8230    26.2760 
   90.7500     2.1430   -24.3930    71.2970    34.3010    31.8060    35.0800    26.2760 
   90.8750     2.1480   -24.5600    69.7740    34.8450    32.1720    35.7020    26.2760 
   91.0000     2.1490   -24.7330    66.5720    35.4470    32.6000    36.1210    26.2760 
   91.1250     2.1480   -24.9210    63.9290    35.8980    32.9370    36.0400    26.2650 
   91.2500     2.1430   -25.1490    63.9420    35.9980    33.0430    35.9140    26.2280 
   91.3750     2.1360   -25.4000    65.2200    35.5830    32.8470    35.5820    26.1470 
   91.5000     2.1310   -25.7060    64.5440    34.5610    32.3250    34.5000    25.9970 
   91.6250     2.1340   -26.0620    61.5890    33.0100    31.4700    32.7570    25.8070 
   91.7500     2.1550   -26.4600    60.4740    31.4780    30.5270    31.8450    25.6650 
   91.8750     2.1990   -26.8680    64.5150    30.5320    29.8280    31.5200    25.5310 
   92.0000     2.2660   -27.3070    71.5170    30.7310    29.8110    30.1850    25.2620 
   92.1250     2.3340   -27.7450    77.3670    32.7360    31.1300    28.4290    24.7550 
   92.2500     2.3760   -28.1720    79.4670    35.9670    33.6000    29.8730    24.2880 
   92.3750     2.3920   -28.5610    77.7280    39.0880    36.2940    36.3980    24.0650 
   92.5000     2.4000   -28.9080    74.8090    39.8560    37.2510    44.2470    24.0130 
   92.6250     2.3980   -29.1770    74.5640    35.6400    33.8350    48.3060    24.0130 
