~V
VERS. 2.00: Ver 2.00
~W
STRT.M 60.0000:
STOP.M 200.0000:
STEP.M 0.1250:
NULL. -999.2500:
UWI. F10576:
~C
DEPT.M :
GR.API :
RML.OHMM :
RI. :
RXO.OHMM :
CALI.CM :
DEN.GM/CC :
SP.MV :
~A
# ...
  150.0000    65.6530    28.6440    28.6480    27.5240    24.0000     2.3840   -30.0660 
  150.1250    66.4160    29.6680    29.6100    29.0800    23.9530     2.3450   -30.0810 
  150.2500    67.3160    30.6030    30.5430    30.7690    23.9300     2.3050   -30.1300 
  150.3750    66.6350    31.2720    31.2420    31.4330    23.9230     2.2750   -30.2020 
  150.5000    65.2270    31.6020    31.6120    31.5040    23.9260     2.2580   -30.2980 
  150.6250    64.9580    31.6280    31.6510    31.3360    23.9220     2.2550   -30.3980 
  150.7500    64.3860    31.6150    31.5810    29.8970    23.9060     2.2600   -30.4960 
  150.8750    63.6590    31.7980    31.6120    28.7150    23.8790     2.2680   -30.5890 
  151.0000    64.3790    32.3530    31.9310    28.6290    23.8450     2.2760   -30.7310 
  151.1250    66.8570    33.3780    32.6820    29.7610    23.8150     2.2780   -30.8440 
  151.2500    69.3800    34.6460    33.7070    30.8490    23.8160     2.2750   -30.9260 
  151.3750    69.9480    35.8880    34.7810    32.9910    23.8890     2.2710   -31.0130 
  151.5000    67.7420    36.7890    35.6170    37.1460    23.9200     2.2660   -31.0970 
  151.6250    64.7290    36.9550    35.8480    38.1810    23.9170     2.2640   -31.1430 
  151.7500    63.7940    36.3930    35.4280    35.0250    23.9240     2.2610   -31.2040 
  151.8750    64.2140    35.2150    34.3980    31.5240    23.9760     2.2580   -31.2560 
  152.0000    64.7250    33.6340    32.9130    31.4550    24.0790     2.2590   -31.2620 
  152.1250    65.2960    31.8940    31.1910    32.4590    24.0840     2.2690   -31.2790 
  152.2500    65.6190    30.2390    29.5320    31.4710    24.0750     2.2840   -31.2930 
  152.3750    64.8520    28.8170    28.1260    28.7490    24.0560     2.2960   -31.2830 
  152.5000    64.8470    27.7310    27.0930    25.9480    24.0440     2.2970   -31.2740 
  152.6250    68.5800    27.0980    26.5380    25.4980    24.0400     2.2840   -31.3030 
  152.7500    71.4980    26.8450    26.3670    26.5930    24.0390     2.2650   -31.3290 
  152.8750    69.3740    26.9370    26.5420    27.6590    24.0380     2.2560   -31.3780 
  153.0000    63.5760    27.3520    27.0330    28.0560    24.0410     2.2660   -31.4510 
  153.1250    59.3370    28.1110    27.8500    26.9790    24.0390     2.3040   -31.5470 
  153.2500    58.2950    29.0630    28.8500    26.6490    24.0140     2.3500   -31.6860 
  153.3750    59.1590    29.9950    29.8580    28.8340    23.9440     2.3860   -31.8710 
  153.5000    61.5220    30.6160    30.6190    33.1340    23.8540     2.3960   -32.0620 
  153.6250    65.1440    30.5520    30.7730    34.4790    23.8240     2.3740   -32.2550 
  153.7500    67.9110    29.8590    30.3040    29.2030    23.8500     2.3380   -32.4520 
  153.8750    69.4090    28.7300    29.3400    26.1960    23.8890     2.3060   -32.6220 
  154.0000    70.3830    27.4490    28.1240    25.3630    23.9060     2.2860   -32.7700 
  154.1250    70.9780    26.2750    26.9040    25.4560    23.8770     2.2800   -32.9070 
  154.2500    72.7740    25.2680    25.7910    25.9120    23.8630     2.2790   -33.0200 
  154.3750    76.8520    24.3840    24.7710    25.6540    23.8580     2.2840   -33.0920 
  154.5000    80.3360    23.5640    23.8180    24.6160    23.8580     2.2910   -33.1600 
  154.6250    79.6270    22.8230    22.9760    22.8980    23.8590     2.2980   -33.2270 
  154.7500    76.4210    22.2470    22.3290    21.6580    23.8610     2.3010   -33.2850 
  154.8750    73.0760    21.9570    21.9900    20.8380    23.8630     2.3020   -33.3480 
  155.0000    70.8200    22.0220    22.0240    21.1910    23.8620     2.3120   -33.4040 
  155.1250    69.6380    22.4160    22.4170    22.1860    23.8650     2.3520   -33.4180 
  155.2500    67.2920    22.8710    22.9030    22.1060    23.8720     2.4130   -33.4470 
  155.3750    63.0240    23.1420    23.2270    22.7090    23.9110     2.4750   -33.4990 
  155.5000    60.8570    23.0480    23.1880    26.3730    23.9840     2.5070   -33.5390 
  155.6250    64.5240    22.5250    22.6860    27.3710    24.0680     2.4870   -33.5750 
  155.7500    69.1430    21.8560    21.9810    23.0450    24.0300     2.4340   -33.6150 
  155.8750    71.0470    21.3230    21.3390    20.4040    23.9790     2.3750   -33.6550 
  156.0000    69.7940    21.1470    20.9780    19.9730    23.9490     2.3300   -33.6850 
  156.1250    68.6060    21.4730    21.0640    20.9320    23.9360     2.3060   -33.6880 
  156.2500    70.0100    22.1250    21.4790    22.6560    23.9240     2.2950   -33.6580 
  156.3750    71.6650    22.9230    22.0840    23.8280    23.9200     2.2890   -33.6040 
  156.5000    71.5320    23.7110    22.7350    24.0990    23.9190     2.2870   -33.5510 
  156.6250    70.8310    24.4240    23.3510    24.0300    23.9230     2.2920   -33.4940 
  156.7500    70.6760    25.1430    23.9760    24.5050    23.9470     2.3050   -33.4380 
  156.8750    69.3630    25.9720    24.6900    25.6080    24.0180     2.3220   -33.3630 
  157.0000    67.4450    27.0000    25.5670    27.0950    24.0910     2.3350   -33.3190 
  157.1250    67.5900    28.3070    26.6730    27.6070    24.1100     2.3350   -33.3330 
  157.2500    67.8880    29.8190    27.9480    28.4790    24.0230     2.3250   -33.3830 
  157.3750    67.1860    31.4500    29.3290    30.3770    23.9630     2.3090   -33.4560 
  157.5000    67.5250    33.1010    30.7260    32.0810    23.9240     2.2920   -33.5270 
  157.6250    70.0030    34.6520    32.0240    33.1690    23.9040     2.2800   -33.6350 
  157.7500    70.0830    36.0570    33.1710    34.0450    23.9030     2.2740   -33.7620 
  157.8750    66.2980    37.3220    34.1680    34.8640    23.8980     2.2720   -33.9290 
  158.0000    62.2150    38.5260    35.0790    34.6690    23.8780     2.2710   -34.1490 
  158.1250    64.8660    39.8630    36.0620    34.5030    23.8670     2.2640   -34.4020 
  158.2500    70.5450    41.5330    37.2960    34.9170    23.8680     2.2540   -34.6530 
  158.3750    72.3600    43.6940    38.9370    36.3450    23.8850     2.2470   -34.8940 
  158.5000    67.9820    46.4160    41.0720    38.5150    23.9110     2.2560   -35.1930 
  158.6250    61.5760    49.6970    43.7020    41.1780    23.9300     2.2880   -35.4750 
  158.7500    58.9800    53.1740    46.4800    45.5970    23.9290     2.3290   -35.7390 
  158.8750    60.3870    56.4430    49.0440    53.3900    23.9070     2.3620   -36.0120 
  159.0000    62.8870    59.0480    51.0400    62.6770    23.9600     2.3790   -36.2490 
  159.1250    63.4450    60.4540    52.0860    59.4260    24.0830     2.3830   -36.4840 
  159.2500    61.7570    60.8100    52.3310    54.1230    24.1450     2.3870   -36.7190 
  159.3750    60.4790    60.3830    51.9980    53.9620    24.0880     2.3910   -36.9770 
  159.5000    61.1960    59.5530    51.4040    56.0940    24.0390     2.3870   -37.2250 
  159.6250    63.2410    58.7560    50.9450    56.7450    23.9650     2.3650   -37.4630 
  159.7500    65.5530    58.3690    50.9340    51.8370    23.9290     2.3340   -37.6920 
  159.8750    67.2000    58.6200    51.5680    52.6690    23.9180     2.3130   -37.8660 
  160.0000    67.1840    59.4780    52.8410    55.9730    23.9120     2.3210   -38.0060 
  160.1250    63.7530    60.3700    54.3110    58.0420    23.9060     2.3740   -38.1100 
  160.2500    58.8130    60.3330    55.0820    59.6570    23.8910     2.4560   -38.1590 
  160.3750    56.5820    58.7460    54.4760    65.1170    23.8860     2.5500   -38.1530 
  160.5000    57.3830    55.5760    52.3080    72.1220    23.8910     2.6340   -38.0550 
  160.6250    59.4400    50.9780    48.6630    66.0470    23.8980     2.6830   -37.8650 
  160.7500    63.4970    45.2700    43.9460    46.7860    23.9270     2.6960   -37.5790 
  160.8750    71.7660    38.3630    38.0540    36.5770    23.9670     2.6800   -37.2250 
  161.0000    82.1730    30.5330    31.0600    40.3350    24.0260     2.6480   -36.8350 
  161.1250    85.8640    22.8380    23.7290    40.9650    23.9790     2.6130   -36.3880 
