~V
VERS. 2.00: Ver 2.00
~W
STRT.M 55.0000:
STOP.M 211.0000:
STEP.M 0.1250:
NULL. -999.2500:
UWI. F10586:
~C
DEPT.M :
GR.API :
RML.OHMM :
RI. :
RXO.OHMM :
CALI.CM :
DEN.GM/CC :
SP.MV :
~A
# ...
  145.0000    79.0030    16.9060    13.9510    13.8210    23.9900     2.4090   -17.2660 
  145.1250    79.2160    19.5600    16.2610    17.2070    23.7610     2.3900   -17.1770 
  145.2500    77.7700    21.9200    18.4950    21.0740    23.6010     2.3720   -16.9510 
  145.3750    74.9210    23.2720    20.0070    24.5890    23.6100     2.3590   -16.6250 
  145.5000    72.7100    23.0130    20.1800    27.1610    23.7490     2.3510   -16.1790 
  145.6250    73.4520    20.7260    18.5050    26.4390    23.8890     2.3510   -15.6160 
  145.7500    77.3280    17.3270    15.7160    22.3960    23.9050     2.3550   -14.9880 
  145.8750    81.5610    13.7290    12.6180    17.6780    23.8310     2.3610   -14.2390 
  146.0000    80.7640    10.6920     9.8930    13.1520    23.7100     2.3680   -13.4090 
  146.1250    73.2670     8.7210     7.9920     9.3490    23.5660     2.3730   -12.6260 
  146.2500    64.6370     7.5990     6.7900     6.9100    23.4160     2.3780   -11.9260 
  146.3750    56.5180     7.1030     6.1460     5.9280    23.2640     2.3800   -11.3170 
  146.5000    49.3370     6.9890     5.8970     5.6530    23.1600     2.3810   -10.8640 
  146.6250    46.7960     7.0560     5.9070     5.5930    23.0900     2.3780   -10.5180 
  146.7500    47.8980     7.1290     5.9970     5.5510    23.0280     2.3750   -10.2540 
  146.8750    49.6540     7.1500     6.0880     5.5110    22.9900     2.3730   -10.1300 
  147.0000    49.4940     7.1180     6.1420     5.4450    22.9790     2.3770   -10.0970 
  147.1250    48.5010     7.0550     6.1490     5.3720    22.9790     2.3860   -10.0890 
  147.2500    47.5310     6.9880     6.1290     5.3180    22.9790     2.3980   -10.0620 
  147.3750    46.4010     6.9250     6.0920     5.3170    22.9790     2.4090   -10.0180 
  147.5000    45.2330     6.8670     6.0410     5.3570    22.9790     2.4140    -9.9240 
  147.6250    44.0350     6.8160     5.9780     5.3750    22.9790     2.4110    -9.8240 
  147.7500    44.1240     6.7790     5.9070     5.3280    22.9780     2.4040    -9.7500 
  147.8750    44.4540     6.7580     5.8360     5.2120    22.9770     2.3950    -9.6660 
  148.0000    45.4770     6.7570     5.7770     5.0640    22.9750     2.3890    -9.5810 
  148.1250    47.3520     6.7740     5.7400     4.9560    22.9710     2.3880    -9.4890 
  148.2500    49.9510     6.8000     5.7230     4.9300    22.9710     2.3940    -9.4260 
  148.3750    53.3070     6.8220     5.7140     4.9830    22.9710     2.4030    -9.3760 
  148.5000    56.9940     6.8240     5.7000     5.0760    22.9730     2.4130    -9.3380 
  148.6250    62.4630     6.7850     5.6620     5.1750    22.9760     2.4200    -9.3110 
  148.7500    69.2960     6.7120     5.6020     5.2660    22.9760     2.4210    -9.3090 
  148.8750    75.4140     6.6220     5.5280     5.3180    22.9770     2.4150    -9.3520 
  149.0000    77.8950     6.5490     5.4580     5.3210    22.9780     2.4050    -9.4130 
  149.1250    76.8580     6.5350     5.4170     5.3680    22.9780     2.3940    -9.5540 
  149.2500    75.7060     6.5890     5.4130     5.5300    22.9800     2.3830    -9.7110 
  149.3750    73.6220     6.7040     5.4460     5.7850    22.9930     2.3760    -9.8870 
  149.5000    70.0390     6.8600     5.5120     6.0110    23.0280     2.3720   -10.1370 
  149.6250    68.5700     7.0260     5.6000     6.1320    23.1190     2.3730   -10.4630 
  149.7500    71.2130     7.1700     5.6870     6.2120    23.2830     2.3760   -10.7800 
  149.8750    74.9120     7.2800     5.7610     6.3430    23.4770     2.3800   -11.0900 
  150.0000    76.3560     7.3600     5.8200     6.6130    23.5830     2.3860   -11.4080 
  150.1250    75.6780     7.4550     5.8890     6.7860    23.5890     2.3930   -11.6770 
  150.2500    77.1080     7.6370     6.0160     6.8250    23.5770     2.4010   -11.9150 
  150.3750    81.7330     7.9810     6.2590     6.8000    23.5680     2.4100   -12.1090 
  150.5000    85.2190     8.5420     6.6630     7.0850    23.5560     2.4170   -12.2150 
  150.6250    81.0100     9.3450     7.2680     7.8990    23.5420     2.4230   -12.2170 
  150.7500    73.0120    10.2490     7.9940     8.9190    23.5410     2.4260   -12.1490 
  150.8750    69.4570    11.0940     8.7360    10.1350    23.5550     2.4280   -11.9870 
  151.0000    71.3980    11.7130     9.3660    11.4490    23.5850     2.4250   -11.7270 
  151.1250    72.6090    11.9570     9.7380    12.0600    23.6380     2.4120   -11.3570 
  151.2500    72.8390    11.9290     9.8810    12.2040    23.6870     2.3950   -10.9020 
  151.3750    75.4840    11.7760     9.8780    11.9980    23.7150     2.3830   -10.4050 
  151.5000    80.3170    11.6580     9.8460    11.1870    23.7200     2.3840    -9.8630 
  151.6250    81.3560    11.7030     9.8940    10.7810    23.7110     2.3990    -9.2610 
  151.7500    79.2980    11.8640    10.0240    10.8390    23.6930     2.4140    -8.6760 
  151.8750    76.1250    12.0370    10.1740    11.1120    23.6600     2.4190    -8.1500 
  152.0000    73.1360    12.0980    10.2570    11.1990    23.6160     2.4080    -7.7030 
  152.1250    72.5030    11.9360    10.1750    10.9620    23.6090     2.3860    -7.3330 
  152.2500    74.8400    11.6130     9.9520    10.5790    23.6250     2.3640    -7.0420 
  152.3750    79.2030    11.2540     9.6630    10.2130    23.6440     2.3530    -6.7950 
  152.5000    81.6780    11.0070     9.4200     9.9690    23.6450     2.3570    -6.5930 
  152.6250    78.5350    11.0140     9.3410     9.6750    23.6260     2.3820    -6.4530 
  152.7500    72.9880    11.2230     9.4220     9.4680    23.5840     2.4190    -6.3410 
  152.8750    69.5610    11.5320     9.6120     9.3770    23.5150     2.4510    -6.2560 
  153.0000    70.2470    11.8210     9.8360     9.4300    23.4340     2.4600    -6.1340 
  153.1250    72.2340    12.0080    10.0340     9.6370    23.3970     2.4300    -5.9980 
  153.2500    72.6890    12.1880    10.2370    10.0520    23.4450     2.3810    -5.8790 
  153.3750    71.7000    12.5780    10.5750    10.6980    23.5550     2.3320    -5.7820 
  153.5000    70.6670    13.4810    11.2680    11.7900    23.6430     2.2970    -5.6810 
  153.6250    70.8880    15.3880    12.7420    13.7240    23.6620     2.2800    -5.6340 
  153.7500    70.4860    18.3170    15.1320    16.4950    23.6380     2.2680    -5.6100 
  153.8750    68.3870    22.0470    18.3830    19.9980    23.6030     2.2560    -5.5530 
  154.0000    65.4330    25.9190    22.0340    24.1650    23.5550     2.2390    -5.5290 
  154.1250    63.7670    28.5440    24.9220    27.9440    23.4910     2.2250    -5.5060 
  154.2500    64.2690    28.9180    25.9450    30.4860    23.4720     2.2220    -5.4320 
  154.3750    65.0470    26.6770    24.5350    30.9570    23.5210     2.2390    -5.3290 
  154.5000    64.5310    22.4440    21.0730    28.0650    23.6400     2.2760    -5.2360 
  154.6250    65.0820    17.7050    16.8410    22.7060    23.7440     2.3290    -5.0990 
  154.7500    68.4710    13.8890    13.2400    17.1890    23.7810     2.3790    -4.9090 
  154.8750    72.4090    11.4610    10.7420    12.0810    23.7840     2.4070    -4.7150 
  155.0000    73.7680    10.3570     9.3520     8.8900    23.7820     2.4040    -4.4810 
  155.1250    72.6570    10.3800     8.9940     8.7510    23.7810     2.3720    -4.2490 
  155.2500    70.2550    10.9970     9.2700     9.8200    23.7780     2.3350    -4.0670 
  155.3750    67.9680    11.9680     9.9980    11.2850    23.7700     2.3120    -3.8980 
  155.5000    67.6890    13.1670    11.0510    12.4400    23.7540     2.3160    -3.7100 
  155.6250    67.6870    14.6520    12.4410    13.1060    23.7210     2.3570    -3.5680 
  155.7500    66.1620    16.4990    14.1820    13.6660    23.6790     2.4120    -3.4870 
  155.8750    64.2890    18.7570    16.3270    15.8660    23.6450     2.4570    -3.4450 
  156.0000    62.7200    21.3000    18.8100    19.3050    23.6120     2.4690    -3.4610 
  156.1250    59.0930    23.7430    21.3350    22.8160    23.5720     2.4410    -3.5090 
