~V
VERS. 2.00: Ver 2.00
~W
STRT.M 60.0000:
STOP.M 207.0000:
STEP.M 0.1250:
NULL. -999.2500:
UWI. F10577:
~C
DEPT.M :
DEN.GM/CC :
SP.MV :
GR.API :
RML.OHMM :
RI. :
RXO.OHMM :
CALI.CM :
~A
# ...
  138.7500     2.3890   -15.7710    63.3060    20.0150    16.8800    13.7230    21.6630 
  138.8750     2.3840   -15.6140    64.5180    20.1660    17.1170    14.1460    21.4010 
  139.0000     2.3890   -15.4600    63.8840    20.6710    17.5810    13.9810    21.2360 
  139.1250     2.4050   -15.3300    62.5690    21.6300    18.3060    14.5520    21.2310 
  139.2500     2.4210   -15.2160    61.4960    22.7710    19.1060    15.6930    21.3830 
  139.3750     2.4300   -15.1340    62.0160    23.7220    19.7230    17.5380    21.6280 
  139.5000     2.4300   -15.0700    64.6460    24.0920    19.8920    18.9410    21.8460 
  139.6250     2.4320   -15.0340    67.2990    23.5340    19.4060    17.1400    22.0130 
  139.7500     2.4400   -15.0270    67.6380    22.3460    18.5120    14.4170    22.1600 
  139.8750     2.4490   -15.0560    66.3460    20.9110    17.4750    13.5460    22.3190 
  140.0000     2.4570   -15.1180    64.2590    19.5970    16.5280    14.6540    22.4440 
  140.1250     2.4590   -15.2220    62.3280    18.6690    15.8430    15.8420    22.4910 
  140.2500     2.4460   -15.3470    61.5540    18.0590    15.3830    15.1880    22.5030 
  140.3750     2.4180   -15.4820    61.2690    17.6590    15.0830    14.1830    22.4900 
  140.5000     2.3890   -15.6130    59.9920    17.3450    14.8620    13.9670    22.4450 
  140.6250     2.3810   -15.7320    58.2430    17.0230    14.6640    13.7870    22.3620 
  140.7500     2.3880   -15.8320    57.8200    16.7110    14.4780    13.2850    22.3180 
  140.8750     2.4020   -15.9100    58.3950    16.4640    14.3270    12.6790    22.3010 
  141.0000     2.4160   -15.9670    58.9400    16.3190    14.2270    12.3020    22.3160 
  141.1250     2.4240   -16.0110    60.3270    16.2750    14.1830    12.7380    22.4580 
  141.2500     2.4220   -16.0400    62.3660    16.2640    14.1660    13.6030    22.8100 
  141.3750     2.4110   -16.0510    62.1720    16.2300    14.1500    14.5740    23.2680 
  141.5000     2.3930   -16.0520    58.1730    16.1370    14.1060    14.9840    23.5500 
  141.6250     2.3730   -16.0510    54.4400    15.9760    14.0050    14.0630    23.6220 
  141.7500     2.3610   -16.0340    54.5180    15.7980    13.8640    12.9860    23.6220 
  141.8750     2.3660   -15.9990    56.5520    15.6330    13.7020    12.6650    23.6220 
  142.0000     2.3890   -15.9420    56.9710    15.4600    13.5120    12.8740    23.6210 
  142.1250     2.4200   -15.8970    55.2160    15.1980    13.2530    13.0140    23.6240 
  142.2500     2.4420   -15.8540    55.5360    14.8160    12.8990    12.5940    23.6230 
  142.3750     2.4470   -15.8160    59.5510    14.3290    12.4550    11.6970    23.6210 
  142.5000     2.4380   -15.7840    63.9830    13.8140    11.9810    10.8350    23.6200 
  142.6250     2.4210   -15.7550    63.7640    13.4380    11.6190    10.2640    23.6230 
  142.7500     2.4030   -15.7410    62.0100    13.2990    11.4540    10.2680    23.6250 
  142.8750     2.3870   -15.7320    61.7090    13.4150    11.5130    10.7840    23.6210 
  143.0000     2.3740   -15.7290    60.3850    13.7140    11.7530    11.5800    23.6080 
  143.1250     2.3650   -15.7230    57.9740    14.0580    12.0730    12.3360    23.5760 
  143.2500     2.3620   -15.7260    58.2710    14.3060    12.3380    12.5270    23.5420 
  143.3750     2.3680   -15.7290    59.7060    14.3850    12.4720    12.1580    23.4870 
  143.5000     2.3780   -15.7470    58.8060    14.2880    12.4510    11.6930    23.4380 
  143.6250     2.3800   -15.7790    57.3460    14.0430    12.2900    11.6430    23.4200 
  143.7500     2.3730   -15.8170    58.8370    13.7310    12.0710    11.8530    23.4170 
  143.8750     2.3620   -15.8690    59.8760    13.3910    11.8350    11.7240    23.4170 
  144.0000     2.3480   -15.9420    56.3480    13.0540    11.6020    11.2790    23.4170 
  144.1250     2.3290   -16.0350    50.9190    12.7860    11.3940    10.8640    23.4150 
  144.2500     2.3030   -16.1350    49.0240    12.6410    11.2430    10.4700    23.3990 
  144.3750     2.2780   -16.2520    51.7880    12.6650    11.1940    10.0380    23.3380 
  144.5000     2.2680   -16.3760    56.6520    12.8810    11.2780     9.8250    23.2210 
  144.6250     2.2830   -16.5390    60.8740    13.2720    11.5100    10.2250    23.0640 
  144.7500     2.3030   -16.7170    63.9030    13.6990    11.8030    11.0800    22.9580 
  144.8750     2.3110   -16.9100    65.7420    14.0410    12.0660    11.8160    22.9010 
  145.0000     2.3100   -17.0960    66.8210    14.2030    12.2190    11.8430    22.8710 
  145.1250     2.3100   -17.2520    69.2790    14.1470    12.2160    11.6040    22.9290 
  145.2500     2.3100   -17.3830    74.7320    14.0160    12.1420    11.5950    23.1490 
  145.3750     2.3070   -17.4820    80.5870    13.9680    12.1080    11.6240    23.5150 
  145.5000     2.2980   -17.5410    83.0450    14.1400    12.2280    11.9370    23.8700 
  145.6250     2.2790   -17.5430    81.7750    14.6530    12.6270    12.6390    24.0340 
  145.7500     2.2490   -17.5110    81.9330    15.4370    13.2810    13.9310    24.0850 
  145.8750     2.2090   -17.4560    84.5300    16.4070    14.1370    15.6660    24.1100 
  146.0000     2.1710   -17.3830    86.8290    17.4160    15.0810    17.4280    24.1300 
  146.1250     2.1470   -17.3020    87.2370    18.2380    15.9220    17.2600    24.1490 
  146.2500     2.1340   -17.2390    86.0700    18.7650    16.5290    17.0410    24.1730 
  146.3750     2.1340   -17.1950    84.0050    18.9960    16.8670    16.9730    24.1900 
  146.5000     2.1470   -17.1750    81.2530    19.0330    16.9900    16.8160    24.1960 
  146.6250     2.1720   -17.1660    80.1980    19.0560    17.0210    16.3310    24.1960 
  146.7500     2.1980   -17.1870    80.6900    19.2220    17.1120    16.1600    24.1960 
  146.8750     2.2210   -17.2230    80.2940    19.5910    17.3500    16.3670    24.1940 
  147.0000     2.2400   -17.2730    79.1410    20.1640    17.7710    17.0070    24.1890 
  147.1250     2.2540   -17.3430    77.7870    20.8590    18.3500    18.0790    24.1850 
  147.2500     2.2560   -17.4100    76.7850    21.4670    18.9030    19.0190    24.1830 
  147.3750     2.2460   -17.4730    75.7140    21.8840    19.3080    19.0990    24.1820 
  147.5000     2.2330   -17.5350    74.2550    22.2140    19.5950    19.1130    24.1900 
  147.6250     2.2270   -17.6020    72.0090    22.8690    20.0360    20.1230    24.2130 
  147.7500     2.2250   -17.6510    70.2840    24.2390    20.9480    21.4440    24.2390 
  147.8750     2.2170   -17.6820    68.9020    26.6040    22.6030    24.7410    24.2510 
  148.0000     2.1900   -17.7120    68.1750    29.9600    25.1180    32.8820    24.2540 
  148.1250     2.1480   -17.7250    68.0720    33.8440    28.3460    39.2840    24.2520 
  148.2500     2.1110   -17.7280    67.8590    37.1940    31.4810    40.9010    24.2510 
  148.3750     2.0940   -17.7260    66.4950    39.1980    33.7610    38.5880    24.2470 
  148.5000     2.0950   -17.7180    63.7390    39.6340    34.7630    35.2950    24.2350 
  148.6250     2.1070   -17.7150    62.2870    39.0420    34.6570    33.1390    24.2090 
  148.7500     2.1230   -17.7120    63.4510    38.5840    34.4050    32.7130    24.1930 
  148.8750     2.1410   -17.7230    66.4590    38.7450    34.5270    34.6000    24.1880 
  149.0000     2.1580   -17.7250    69.1520    39.4690    35.1250    37.4760    24.1860 
  149.1250     2.1710   -17.7400    69.9410    40.3550    35.9880    39.2300    24.1840 
  149.2500     2.1790   -17.7670    68.9950    40.9480    36.7150    39.1530    24.1820 
  149.3750     2.1850   -17.8180    67.1410    41.1030    37.0930    38.4100    24.1840 
  149.5000     2.1890   -17.8770    65.5810    40.9500    37.1260    38.6480    24.1850 
  149.6250     2.1930   -17.9310    66.3450    40.8610    37.0600    38.7570    24.1850 
  149.7500     2.2010   -17.9900    68.1050    41.1570    37.2260    38.5550    24.1840 
  149.8750     2.2130   -18.0680    67.9670    41.9210    37.7660    38.8460    24.1860 
