~V
VERS. 2.00: Ver 2.00
~W
STRT.M 52.0000:
STOP.M 220.0000:
STEP.M 0.1250:
NULL. -999.2500:
UWI. F10539:
~C
DEPT.M :
SP.MV :
DEN.GM/CC :
GR.API :
RML.OHMM :
RI. :
RXO.OHMM :
CALI.CM :
~A
# ...
   63.2500   -16.6850     2.2170    50.4870     9.6980     7.4770     6.8740    22.6170 
   63.3750   -16.4820     2.1980    51.7530     9.7010     7.4400     6.9750    22.6470 
   63.5000   -16.3370     2.1810    52.8950     9.7420     7.4310     6.9600    22.7190 
   63.6250   -16.2440     2.1880    53.6910     9.8480     7.4780     6.6380    22.7860 
   63.7500   -16.2020     2.2230    53.6140     9.9740     7.5580     6.4030    22.7040 
   63.8750   -16.2070     2.2760    54.4590    10.0660     7.6400     6.5110    22.5010 
   64.0000   -16.2510     2.3210    57.3710    10.0800     7.6840     6.6180    22.3200 
   64.1250   -16.3420     2.3280    60.8210     9.9900     7.6530     6.8230    22.2640 
   64.2500   -16.4150     2.3060    60.8970     9.8440     7.5600     6.7280    22.3710 
   64.3750   -16.5200     2.2770    57.8050     9.6580     7.4150     6.6010    22.6240 
   64.5000   -16.5910     2.2620    56.4320     9.4040     7.2080     6.5430    22.9160 
   64.6250   -16.6700     2.2730    60.8610     9.0060     6.9010     6.3300    23.0240 
   64.7500   -16.7190     2.2960    69.3600     8.4610     6.5020     6.0400    23.0830 
   64.8750   -16.7580     2.3150    77.8610     7.8110     6.0360     5.5120    23.2590 
   65.0000   -16.7730     2.3190    83.6000     7.1480     5.5580     5.3120    23.6610 
   65.1250   -16.7820     2.3060    85.3280     6.6010     5.1390     5.2000    23.8940 
   65.2500   -16.7910     2.2920    85.4140     6.2060     4.8100     5.1490    23.9290 
   65.3750   -16.7860     2.2900    86.0530     5.9610     4.5790     5.1290    23.7980 
   65.5000   -16.7910     2.3050    86.6700     5.8430     4.4410     5.1790    23.5110 
   65.6250   -16.7860     2.3290    85.4800     5.8440     4.3940     5.2290    22.9850 
   65.7500   -16.7630     2.3490    83.1920     5.9150     4.4010     5.1220    22.4970 
   65.8750   -16.7260     2.3610    81.9690     6.0130     4.4370     5.2010    22.3420 
   66.0000   -16.6490     2.3680    82.5050     6.0900     4.4750     5.3610    22.6690 
   66.1250   -16.5680     2.3740    83.1990     6.1380     4.5090     5.6250    23.2400 
   66.2500   -16.4900     2.3770    81.9970     6.2290     4.5740     5.7050    23.5530 
   66.3750   -16.4160     2.3660    78.5930     6.4660     4.7250     5.6960    23.6770 
   66.5000   -16.3550     2.3360    75.3660     6.9320     5.0070     5.7620    23.7080 
   66.6250   -16.2910     2.2900    73.3300     7.6640     5.4570     5.9230    23.7040 
   66.7500   -16.2780     2.2470    70.1370     8.4860     5.9940     6.9760    23.7470 
   66.8750   -16.2930     2.2180    65.0040     9.1810     6.5050     8.2510    23.8110 
   67.0000   -16.3970     2.2030    59.0360     9.5410     6.8580     9.4810    23.8180 
   67.1250   -16.5260     2.1930    54.2300     9.4390     6.9350     8.0560    23.7340 
   67.2500   -16.7050     2.1770    52.7300     9.1500     6.8470     7.0490    23.6700 
   67.3750   -16.8870     2.1550    54.4770     8.9960     6.7640     6.5370    23.6160 
   67.5000   -17.0730     2.1460    56.4790     9.2050     6.8410     6.3490    23.5640 
   67.6250   -17.2300     2.1820    54.8060     9.8090     7.1460     6.5270    23.4970 
   67.7500   -17.3410     2.2640    52.8080    10.4510     7.5090     7.0730    23.4530 
   67.8750   -17.4300     2.3650    54.2540    10.7470     7.7110     8.6660    23.4660 
   68.0000   -17.4690     2.4350    59.6850    10.4230     7.5610    10.7300    23.5600 
   68.1250   -17.4500     2.4320    66.5540     9.4680     6.9920    10.2230    23.7020 
   68.2500   -17.3650     2.3950    71.3700     8.3750     6.2650     7.1150    23.8220 
   68.3750   -17.2330     2.3640    73.3500     7.4750     5.5810     5.7400    23.8630 
   68.5000   -17.0590     2.3590    76.0380     6.9130     5.0620     5.4100    23.8360 
   68.6250   -16.8540     2.3690    80.6900     6.7160     4.7780     5.4810    23.8020 
   68.7500   -16.6560     2.3760    82.7510     6.7060     4.6610     5.4290    23.8080 
   68.8750   -16.4570     2.3720    81.6910     6.7500     4.6420     5.4510    23.8670 
   69.0000   -16.2710     2.3650    81.7590     6.7610     4.6480     5.4390    23.9290 
   69.1250   -16.1240     2.3620    84.1660     6.7340     4.6420     5.3740    23.9720 
   69.2500   -16.0320     2.3570    85.5690     6.7240     4.6410     5.4400    23.9850 
   69.3750   -16.0000     2.3410    86.8160     6.7780     4.6730     5.4910    24.0100 
   69.5000   -16.0010     2.3120    87.9600     6.9250     4.7650     5.4520    23.9920 
   69.6250   -16.0500     2.2730    84.8140     7.2190     4.9520     5.4940    23.7700 
   69.7500   -16.0860     2.2350    78.4440     7.6900     5.2430     6.0540    23.4790 
   69.8750   -16.1310     2.2080    72.6060     8.3780     5.6620     6.7270    23.2510 
   70.0000   -16.1530     2.2030    69.1960     9.2720     6.2150     7.1010    23.1090 
   70.1250   -16.1870     2.2410    67.4220    10.2140     6.8460     7.0050    22.9470 
   70.2500   -16.2010     2.3140    67.0520    10.9130     7.3810     7.1900    22.7390 
   70.3750   -16.2230     2.3980    68.3450    11.1480     7.6630     7.8160    22.5270 
   70.5000   -16.2550     2.4510    70.3160    10.8750     7.6110     7.5550    22.2930 
   70.6250   -16.3180     2.4390    70.8500    10.2380     7.2460     6.1640    22.0990 
   70.7500   -16.4130     2.3890    69.9460     9.5680     6.7700     5.2700    22.0220 
   70.8750   -16.5140     2.3360    68.1180     8.9910     6.2980     5.4800    22.0610 
   71.0000   -16.6080     2.3000    67.2640     8.4980     5.8820     6.0840    22.2290 
   71.1250   -16.6550     2.2890    69.9730     7.9890     5.5160     6.2880    22.5880 
   71.2500   -16.6630     2.2900    74.5090     7.4110     5.1610     5.9120    23.1170 
   71.3750   -16.6150     2.2950    78.4730     6.8310     4.8180     5.3930    23.6220 
   71.5000   -16.5220     2.2960    81.2900     6.4010     4.5370     5.0470    23.8640 
   71.6250   -16.3960     2.2880    84.0640     6.3360     4.4290     4.7980    23.8740 
   71.7500   -16.2130     2.2760    85.6660     6.6310     4.5180     4.7230    23.8060 
   71.8750   -16.0020     2.2640    84.6760     7.1840     4.7770     5.1320    23.6880 
   72.0000   -15.7760     2.2560    80.8660     7.7690     5.1050     6.2450    23.4830 
   72.1250   -15.5670     2.2560    77.3420     8.0080     5.3080     6.6310    23.2890 
   72.2500   -15.4150     2.2630    77.4100     7.7400     5.2580     6.1520    23.1510 
   72.3750   -15.3100     2.2740    81.8340     7.0340     4.9490     5.1600    23.1400 
   72.5000   -15.2870     2.2880    87.8490     6.1740     4.4970     4.6300    23.3170 
   72.6250   -15.3340     2.3090    93.1580     5.5620     4.1110     4.3450    23.5590 
   72.7500   -15.5150     2.3360    96.8730     5.3800     3.9390     4.2450    23.5350 
   72.8750   -15.7700     2.3630    95.9730     5.6690     4.0400     4.3810    23.1870 
   73.0000   -16.1220     2.3760    89.7050     6.3740     4.4050     5.2390    22.7630 
   73.1250   -16.5300     2.3620    81.5400     7.3310     4.9700     6.9380    22.5460 
   73.2500   -16.9360     2.3340    74.5740     8.1700     5.5300     7.5870    22.5610 
   73.3750   -17.3280     2.3030    70.6360     8.6150     5.9130     7.0270    22.6640 
   73.5000   -17.6650     2.2830    70.0880     8.5750     6.0240     6.4350    22.8450 
   73.6250   -17.9120     2.2720    71.4830     8.1780     5.8780     6.2890    23.1360 
   73.7500   -18.0580     2.2590    72.7700     7.7590     5.6570     6.1460    23.4020 
   73.8750   -18.1450     2.2410    75.0110     7.4700     5.4580     5.5900    23.5610 
   74.0000   -18.1580     2.2250    78.1800     7.3170     5.3100     5.1860    23.7400 
   74.1250   -18.1050     2.2270    78.4830     7.1880     5.1730     5.4850    23.9750 
   74.2500   -18.0420     2.2500    76.6150     6.9970     5.0120     5.8760    23.9850 
   74.3750   -17.9650     2.2890    79.2080     6.7730     4.8430     5.6920    23.9690 
