~V
VERS. 2.00: Ver 2.00
~W
STRT.M 55.0000:
STOP.M 217.0000:
STEP.M 0.1250:
NULL. -999.2500:
UWI. F10537:
~C
DEPT.M :
SP.MV :
DEN.GM/CC :
GR.API :
RML.OHMM :
RI. :
RXO.OHMM :
CALI.CM :
~A
# ...
  133.7500   -22.0470     2.2460    56.8040     8.7840     7.0520     7.8480    23.8030 
  133.8750   -22.1060     2.2390    58.7150     8.6770     6.9980     7.8120    23.8810 
  134.0000   -22.1850     2.2310    58.4290     8.5480     6.9170     7.8190    24.0130 
  134.1250   -22.2550     2.2190    56.8800     8.4240     6.8300     7.8450    24.0270 
  134.2500   -22.2980     2.2060    56.7720     8.3220     6.7550     7.7880    23.8990 
  134.3750   -22.3320     2.1940    57.4230     8.2460     6.6960     7.7670    23.7260 
  134.5000   -22.3560     2.1890    57.2390     8.1950     6.6510     7.7450    23.6130 
  134.6250   -22.3590     2.1930    55.4650     8.1650     6.6130     7.7750    23.6510 
  134.7500   -22.3350     2.2010    53.6610     8.1470     6.5780     7.7910    23.7170 
  134.8750   -22.2460     2.2080    53.1930     8.1300     6.5410     7.7680    23.7330 
  135.0000   -22.0570     2.2120    53.7940     8.0970     6.4980     7.6560    23.7390 
  135.1250   -21.8020     2.2080    53.8280     8.0250     6.4380     7.6550    23.8070 
  135.2500   -21.4380     2.2000    52.5890     7.9100     6.3540     7.6460    23.8930 
  135.3750   -20.9950     2.1900    52.2320     7.7500     6.2430     7.5680    23.9560 
  135.5000   -20.4520     2.1830    53.7070     7.5640     6.1090     7.3780    23.9350 
  135.6250   -19.8080     2.1810    54.6140     7.4160     5.9880     7.1600    23.7090 
  135.7500   -19.1220     2.1810    54.5790     7.3780     5.9420     7.0380    23.4550 
  135.8750   -18.3530     2.1800    54.0710     7.4760     6.0050     7.0090    23.3740 
  136.0000   -17.5410     2.1840    54.4270     7.6500     6.1520     7.1020    23.5060 
  136.1250   -16.7320     2.2110    56.3480     7.7420     6.2750     7.6330    23.7030 
  136.2500   -15.9690     2.2620    61.3020     7.6220     6.2530     9.1530    23.9400 
  136.3750   -15.2710     2.3210    68.1940     7.2570     6.0350    10.7480    24.1760 
  136.5000   -14.6850     2.3600    73.5650     6.7340     5.6610     8.8140    24.4740 
  136.6250   -14.2220     2.3570    75.0690     6.2280     5.2500     5.6380    24.6820 
  136.7500   -13.8760     2.3290    74.4340     5.8530     4.9110     4.7380    24.5710 
  136.8750   -13.6400     2.3000    74.5820     5.6250     4.6780     4.9400    24.2270 
  137.0000   -13.4950     2.2840    75.9680     5.5100     4.5430     5.1920    24.0260 
  137.1250   -13.4520     2.2890    76.5860     5.4570     4.4800     4.9310    24.1510 
  137.2500   -13.4730     2.3060    75.5950     5.4060     4.4370     4.6890    24.3430 
  137.3750   -13.5360     2.3260    75.6030     5.3450     4.3960     4.3860    24.4640 
  137.5000   -13.5930     2.3400    78.8240     5.2830     4.3540     4.3220    24.5360 
  137.6250   -13.6660     2.3430    81.0140     5.2220     4.3110     4.4160    24.5670 
  137.7500   -13.7150     2.3360    78.9640     5.1580     4.2630     4.4980    24.6020 
  137.8750   -13.7860     2.3260    76.3420     5.0940     4.2100     4.5010    24.6110 
  138.0000   -13.9220     2.3240    76.9750     5.0470     4.1660     4.4710    24.5870 
  138.1250   -14.0400     2.3390    79.8630     5.0440     4.1530     4.2110    24.5080 
  138.2500   -14.1630     2.3620    80.4490     5.0830     4.1740     4.2440    24.4640 
  138.3750   -14.2500     2.3790    79.7540     5.1440     4.2160     4.5280    24.4570 
  138.5000   -14.3440     2.3790    80.2550     5.2020     4.2610     4.5790    24.4720 
  138.6250   -14.4230     2.3620    81.3010     5.2450     4.2980     4.6270    24.4940 
  138.7500   -14.5020     2.3410    80.5260     5.2930     4.3370     4.7520    24.4900 
  138.8750   -14.6090     2.3250    78.9740     5.3670     4.3950     4.6980    24.4710 
  139.0000   -14.6980     2.3140    77.9460     5.4900     4.4870     4.5820    24.4620 
  139.1250   -14.8180     2.3060    77.1600     5.6680     4.6260     4.8630    24.4520 
  139.2500   -14.9660     2.2970    76.8830     5.8680     4.7900     5.1750    24.4240 
  139.3750   -15.1370     2.2880    79.3040     6.0630     4.9580     5.3600    24.4210 
  139.5000   -15.3450     2.2770    82.1580     6.2290     5.1050     5.3510    24.4480 
  139.6250   -15.5720     2.2610    79.6310     6.3410     5.2060     5.4850    24.4680 
  139.7500   -15.7850     2.2420    74.4890     6.3980     5.2550     5.6370    24.4830 
  139.8750   -15.9880     2.2270    72.3690     6.4020     5.2540     5.5740    24.5750 
  140.0000   -16.2180     2.2210    75.4800     6.3570     5.2070     5.4700    24.7850 
  140.1250   -16.4300     2.2300    77.8430     6.2720     5.1250     5.3760    24.8830 
  140.2500   -16.6610     2.2430    74.4690     6.1770     5.0300     5.2770    24.8360 
  140.3750   -16.9410     2.2530    70.1290     6.1010     4.9460     5.1710    24.6050 
  140.5000   -17.2310     2.2580    70.5620     6.0720     4.8920     5.1770    24.2750 
  140.6250   -17.5270     2.2640    74.4410     6.1300     4.8990     5.2490    23.9820 
  140.7500   -17.8630     2.2730    75.3020     6.2850     4.9760     5.3170    23.8070 
  140.8750   -18.1940     2.2790    73.1960     6.5440     5.1400     5.4350    23.7220 
  141.0000   -18.4770     2.2740    70.3380     6.9020     5.3960     5.7440    23.7220 
  141.1250   -18.7710     2.2520    66.2550     7.3410     5.7420     6.1880    23.8290 
  141.2500   -18.9890     2.2220    62.4750     7.8080     6.1300     6.7000    24.0150 
  141.3750   -19.1480     2.1930    59.5350     8.2660     6.5260     7.1510    24.1650 
  141.5000   -19.2460     2.1740    56.5750     8.6920     6.9010     7.3670    24.2070 
  141.6250   -19.2900     2.1660    53.5920     9.0690     7.2360     7.5300    24.1380 
  141.7500   -19.3040     2.1630    52.3330     9.3990     7.5300     7.7280    24.0490 
  141.8750   -19.2630     2.1650    52.6160     9.6660     7.7710     7.9390    24.0300 
  142.0000   -19.1970     2.1690    52.6180     9.8460     7.9420     8.1710    24.0920 
  142.1250   -19.1330     2.1770    52.2710     9.9040     8.0140     8.3030    24.1920 
  142.2500   -19.0840     2.1830    52.4890     9.8720     8.0100     8.3260    24.1660 
  142.3750   -19.0360     2.1860    54.2870     9.7940     7.9630     8.2570    23.9870 
  142.5000   -19.0140     2.1850    58.2670     9.7250     7.9110     8.2240    23.7980 
  142.6250   -18.9930     2.1840    60.9440     9.7110     7.8930     8.2780    23.7210 
  142.7500   -18.9930     2.1870    59.3910     9.7340     7.9040     8.4050    23.6760 
  142.8750   -19.0210     2.1910    55.8690     9.7420     7.9110     8.5260    23.6390 
  143.0000   -19.0510     2.1900    53.9200     9.6800     7.8710     8.6320    23.6130 
  143.1250   -19.0730     2.1850    54.2700     9.5080     7.7490     8.5620    23.5770 
  143.2500   -19.1000     2.1830    54.8210     9.2780     7.5760     8.2310    23.4890 
  143.3750   -19.1320     2.1890    55.6710     9.0550     7.3990     7.6060    23.4230 
  143.5000   -19.1180     2.2040    55.4170     8.9020     7.2700     7.0490    23.4950 
  143.6250   -19.1020     2.2190    52.9420     8.8650     7.2320     7.4110    23.6430 
  143.7500   -19.0090     2.2240    51.7600     8.9090     7.2680     7.8920    23.8160 
  143.8750   -18.8470     2.2200    54.1950     8.9950     7.3510     8.1430    23.9050 
  144.0000   -18.6610     2.2120    58.0020     9.0840     7.4510     8.1220    23.9320 
  144.1250   -18.3390     2.2060    59.1410     9.1460     7.5400     8.0530    23.9380 
  144.2500   -17.9220     2.1990    57.9360     9.1680     7.6010     8.0140    23.9570 
  144.3750   -17.4050     2.1910    55.6470     9.1290     7.6160     8.0130    24.0130 
  144.5000   -16.8120     2.1800    54.3520     9.0010     7.5570     7.9910    24.0410 
  144.6250   -16.1510     2.1760    56.0820     8.7500     7.3850     7.9400    23.9410 
  144.7500   -15.4420     2.1830    58.5310     8.4220     7.1260     7.7830    23.7660 
  144.8750   -14.7500     2.2010    62.2590     8.0610     6.8140     7.2230    23.7050 
