~V
VERS. 2.00: Ver 2.00
~W
STRT.M 59.0000:
STOP.M 201.0000:
STEP.M 0.1250:
NULL. -999.2500:
UWI. F10560:
~C
DEPT.M :
DEN.GM/CC :
SP.MV :
GR.API :
RML.OHMM :
RI. :
RXO.OHMM :
CALI.CM :
~A
# ...
   92.7500     2.3520   -29.3880    77.7480    28.1930    27.3550    39.2640    24.0190 
   92.8750     2.2620   -29.5580    83.8450    20.4190    20.3710    20.9560    24.0410 
   93.0000     2.1860   -29.6970    91.9950    14.4890    14.8030    11.0790    24.1180 
   93.1250     2.1780   -29.8060    99.4230    11.2140    11.4350     8.8460    24.3170 
   93.2500     2.2140   -29.9030   103.9760     9.6800     9.6060     8.3700    24.5970 
   93.3750     2.2510   -30.0090   106.7600     9.3760     8.9530     8.4920    24.7940 
   93.5000     2.2590   -30.1210   106.7200     9.8660     9.1750     9.0200    24.8630 
   93.6250     2.2420   -30.2360   101.6710    10.7160     9.9870     9.8350    24.8570 
   93.7500     2.2260   -30.3600    96.3640    11.3870    10.8400    11.7780    24.7800 
   93.8750     2.2280   -30.4750    95.9780    11.5750    11.3250    14.2020    24.5190 
   94.0000     2.2510   -30.5560   100.5080    11.2270    11.2210    13.1480    24.0280 
   94.1250     2.2830   -30.6180   104.6080    10.5440    10.5800    10.1090    23.6760 
   94.2500     2.3040   -30.6490   105.0860     9.8990     9.8170     8.7780    23.5190 
   94.3750     2.3140   -30.6520   103.6950     9.4110     9.1420     8.4210    23.4330 
   94.5000     2.3250   -30.6130   103.2190     9.0600     8.6190     8.5630    23.3230 
   94.6250     2.3410   -30.5480   104.4780     8.7880     8.2360     8.8380    23.2180 
   94.7500     2.3590   -30.4430   105.8140     8.5380     7.9280     8.7130    23.1590 
   94.8750     2.3800   -30.3340   106.5260     8.3220     7.6900     8.1580    23.0500 
   95.0000     2.4010   -30.2000   106.6760     8.2050     7.5570     7.5590    22.7970 
   95.1250     2.4110   -30.0390   103.6780     8.2770     7.5900     8.2880    22.5480 
   95.2500     2.4000   -29.8440    98.3490     8.5020     7.7550     9.4880    22.5040 
   95.3750     2.3760   -29.6170    94.2980     8.8450     8.0340     9.8700    22.6130 
   95.5000     2.3550   -29.3720    95.6670     9.2930     8.4220     8.7160    22.8040 
   95.6250     2.3400   -29.1210   101.3620     9.8400     8.9140     8.6090    23.1440 
   95.7500     2.3210   -28.8850   104.7010    10.3720     9.4040     9.5160    23.5710 
   95.8750     2.2980   -28.6530   104.9140    10.7050     9.7340    11.3940    24.0360 
   96.0000     2.2850   -28.4590   102.9750    10.6080     9.7280    13.1560    24.3000 
   96.1250     2.2940   -28.3220    99.5590     9.8940     9.2080    11.1610    24.3650 
   96.2500     2.3100   -28.2430    97.2410     8.8970     8.3730     8.3970    24.3650 
   96.3750     2.3220   -28.2100   100.5660     7.9840     7.4810     6.7680    24.3650 
   96.5000     2.3280   -28.2040   109.4390     7.4060     6.7630     6.4280    24.3650 
   96.6250     2.3360   -28.2370   114.1310     7.2810     6.3920     6.7550    24.3650 
   96.7500     2.3540   -28.2880   111.1240     7.4400     6.3060     7.1960    24.3650 
   96.8750     2.3760   -28.3480   105.5080     7.7450     6.4090     7.4700    24.3650 
   97.0000     2.3840   -28.4080   103.3580     8.0650     6.5850     7.7020    24.3650 
   97.1250     2.3650   -28.4480   104.2950     8.3050     6.7430     7.8630    24.3650 
   97.2500     2.3310   -28.4820   102.4380     8.4880     6.8770     7.7730    24.3650 
   97.3750     2.2950   -28.5210    97.2700     8.7360     7.0440     7.8690    24.3650 
   97.5000     2.2640   -28.5750    93.8480     9.2370     7.3480     8.6570    24.3650 
   97.6250     2.2360   -28.6230    94.9290    10.2530     7.9770    10.2110    24.3860 
   97.7500     2.2130   -28.6580    95.8620    11.7280     8.9640    11.5350    24.4520 
   97.8750     2.1920   -28.6750    92.4320    13.4890    10.2760    13.5980    24.5490 
   98.0000     2.1710   -28.6870    87.1150    15.2760    11.7860    18.1900    24.6210 
   98.1250     2.1580   -28.7070    86.7700    16.8560    13.3430    21.3950    24.6430 
   98.2500     2.1600   -28.7210    89.6670    18.2890    14.9010    23.5510    24.6510 
   98.3750     2.1720   -28.7360    91.1760    19.7970    16.5330    23.7070    24.6610 
   98.5000     2.1800   -28.7620    88.8270    21.6100    18.3400    21.8670    24.6810 
   98.6250     2.1790   -28.8050    84.1850    23.6140    20.2190    28.7780    24.7040 
   98.7500     2.1830   -28.8850    81.9480    24.9340    21.5310    36.6510    24.6850 
   98.8750     2.1930   -28.9970    84.2260    24.5410    21.4630    33.3070    24.5900 
   99.0000     2.2080   -29.1180    90.5520    22.0540    19.6840    23.8780    24.4100 
   99.1250     2.2330   -29.2390    97.0280    18.2470    16.7140    19.8580    24.3090 
   99.2500     2.2680   -29.3690   101.5110    14.7380    13.7610    15.7600    24.2140 
   99.3750     2.3130   -29.5040   105.1250    12.1940    11.3630    12.5690    24.0600 
   99.5000     2.3630   -29.6210   106.5220    10.6140     9.6380    10.2690    23.8360 
   99.6250     2.3990   -29.7330   104.6000     9.7080     8.4950    10.9410    23.5300 
   99.7500     2.4050   -29.8080   102.3900     9.0520     7.6440    12.1180    23.2760 
   99.8750     2.3840   -29.8650   104.4190     8.5370     6.9950    10.2670    23.1760 
  100.0000     2.3570   -29.8970   109.8470     8.1610     6.5310     8.4130    23.1630 
  100.1250     2.3400   -29.9150   111.4230     8.0100     6.3060     7.9640    23.1700 
  100.2500     2.3290   -29.9110   110.1130     8.1140     6.3190     8.2780    23.2140 
  100.3750     2.3200   -29.8880   109.3660     8.4930     6.5860     8.6100    23.3440 
  100.5000     2.3100   -29.8570   110.7880     9.0870     7.0780     9.0710    23.5490 
  100.6250     2.2970   -29.7890   111.4320     9.7770     7.7220     9.5140    23.6810 
  100.7500     2.2820   -29.6960   109.0050    10.4200     8.3630     9.8580    23.7250 
  100.8750     2.2700   -29.5850   104.1910    10.9180     8.8700     9.8170    23.7300 
  101.0000     2.2650   -29.4620   100.9090    11.1740     9.1290     9.5940    23.7280 
  101.1250     2.2740   -29.3180   101.6770    11.0700     9.0340     9.3800    23.6920 
  101.2500     2.2920   -29.1460   104.0010    10.7140     8.7030     9.3240    23.6160 
  101.3750     2.3090   -28.9370   105.9570    10.2730     8.2660     9.2560    23.5440 
  101.5000     2.3140   -28.7070   108.4490     9.9450     7.8570     9.2930    23.5140 
  101.6250     2.3060   -28.4530   111.1160     9.8870     7.5910     9.3720    23.5130 
  101.7500     2.2970   -28.1930   110.3090    10.0260     7.4770     9.2910    23.5150 
  101.8750     2.2910   -27.9090   105.7490    10.2510     7.4870     8.8510    23.5440 
  102.0000     2.2870   -27.6410   101.2380    10.4560     7.5620     8.3110    23.6330 
  102.1250     2.2870   -27.3750   100.2790    10.5530     7.6160     8.1960    23.8170 
  102.2500     2.2890   -27.1330   101.8760    10.5330     7.5990     8.1350    23.9310 
  102.3750     2.2940   -26.9040   103.1230    10.4230     7.5240     8.0600    23.9820 
  102.5000     2.3020   -26.6850   104.4900    10.3210     7.4430     7.9810    24.0170 
  102.6250     2.3050   -26.4950   105.1980    10.4360     7.4700     8.1740    24.1020 
  102.7500     2.2970   -26.3260   103.1370    10.9000     7.6940     8.7840    24.2790 
  102.8750     2.2730   -26.1800    96.8490    11.7510     8.1700    10.0310    24.5600 
  103.0000     2.2290   -26.0520    88.1420    12.8860     8.8880    12.0050    24.9400 
  103.1250     2.1760   -25.9350    81.8980    14.0380     9.7460    14.5900    25.4460 
  103.2500     2.1350   -25.8150    81.2430    14.8740    10.5140    16.4670    25.7650 
  103.3750     2.1190   -25.7050    85.8990    15.2020    11.0180    16.2780    25.7280 
  103.5000     2.1230   -25.5970    92.6650    15.0580    11.2170    15.1260    25.4910 
  103.6250     2.1340   -25.4970    96.1490    14.7670    11.2640    13.5450    25.2930 
  103.7500     2.1410   -25.4060    93.6650    14.8320    11.4630    13.7250    25.1780 
  103.8750     2.1480   -25.3420    87.9430    15.5900    12.0480    15.1810    25.1390 
