~V
VERS. 2.00: Ver 2.00
~W
STRT.M 58.0000:
STOP.M 199.0000:
STEP.M 0.1250:
NULL. -999.2500:
UWI. F10565:
~C
DEPT.M :
SP.MV :
GR.API :
RML.OHMM :
RI. :
RXO.OHMM :
CALI.CM :
DEN.GM/CC :
~A
# ...
  181.7500   -11.7640    57.5990     8.5990     7.7150     9.6600    23.3560     2.4300 
  181.8750   -12.0360    61.2270     8.4520     7.5880     9.7000    23.3830     2.4210 
  182.0000   -12.3470    65.9750     8.3710     7.4980     8.8600    23.4080     2.4040 
  182.1250   -12.6970    71.6790     8.4340     7.5270     8.0400    23.4140     2.3850 
  182.2500   -12.9700    78.5870     8.7240     7.7650     8.3680    23.3960     2.3730 
  182.3750   -13.1610    84.9330     9.1930     8.1770    10.2430    23.3810     2.3770 
  182.5000   -13.3000    87.6850     9.7610     8.7040    12.8150    23.3710     2.3750 
  182.6250   -13.2460    85.7510    10.3150     9.2590    13.9640    23.3300     2.3570 
  182.7500   -13.0370    82.6430    10.7190     9.7330    13.9760    23.2130     2.3220 
  182.8750   -12.7180    83.9470    10.9150    10.0580    12.4630    23.0590     2.2850 
  183.0000   -12.2250    87.8460    10.8620    10.1700    10.5740    22.9290     2.2630 
  183.1250   -11.5110    89.2510    10.5260    10.0120     9.9630    22.8840     2.2620 
  183.2500   -10.7090    86.0720     9.9090     9.5110    11.4030    22.9470     2.2770 
  183.3750    -9.8920    81.9000     9.1500     8.7690    11.1410    23.0560     2.3000 
  183.5000    -9.1060    77.7280     8.3200     7.9140     9.0460    23.1730     2.3240 
  183.6250    -8.4700    72.6580     7.5130     7.0980     7.2620    23.2910     2.3470 
  183.7500    -7.9410    66.4820     6.9270     6.4810     6.5910    23.3990     2.3680 
  183.8750    -7.5350    60.4030     6.6170     6.0910     6.3540    23.4680     2.3900 
  184.0000    -7.3000    56.8330     6.5360     5.9170     6.3150    23.4890     2.4130 
  184.1250    -7.2520    56.4150     6.5990     5.9060     6.3970    23.4860     2.4320 
  184.2500    -7.3550    56.3340     6.7020     5.9870     6.7610    23.4880     2.4450 
  184.3750    -7.5160    55.3940     6.7730     6.0730     7.1530    23.4990     2.4480 
  184.5000    -7.6840    54.8880     6.8030     6.1340     7.1730    23.5070     2.4440 
  184.6250    -7.8690    55.8870     6.8220     6.1680     6.9490    23.4960     2.4400 
  184.7500    -8.1020    56.6440     6.8660     6.1930     6.8310    23.4550     2.4370 
  184.8750    -8.3220    56.8920     6.9390     6.2180     6.8950    23.3970     2.4340 
  185.0000    -8.5080    57.6270     7.0120     6.2340     7.1320    23.3370     2.4290 
  185.1250    -8.7480    57.6250     7.0460     6.2230     7.3510    23.2830     2.4220 
  185.2500    -9.0180    56.5640     7.0120     6.1710     7.3210    23.2440     2.4170 
  185.3750    -9.3750    56.0750     6.9490     6.1050     7.2630    23.2290     2.4150 
  185.5000    -9.8080    57.4110     6.9140     6.0610     7.0610    23.2390     2.4110 
  185.6250   -10.2720    59.7190     6.9680     6.0790     6.8310    23.2640     2.4010 
  185.7500   -10.7760    60.2460     7.1720     6.2100     7.0740    23.2760     2.3790 
  185.8750   -11.3250    59.6300     7.4850     6.4520     7.7980    23.2660     2.3500 
  186.0000   -11.8840    59.9270     7.8460     6.7890     8.1620    23.2500     2.3210 
  186.1250   -12.3410    61.2250     8.1930     7.1810     8.0150    23.2540     2.3010 
  186.2500   -12.7110    62.3540     8.4730     7.5530     8.6490    23.2910     2.2930 
  186.3750   -12.9560    62.8270     8.6790     7.8290     9.5790    23.3330     2.2960 
  186.5000   -13.0800    62.3270     8.7980     7.9530    10.4070    23.3570     2.3030 
  186.6250   -13.1010    60.5920     8.8110     7.9020    10.9460    23.3500     2.3100 
  186.7500   -13.0250    58.1760     8.6740     7.6790    10.1410    23.3200     2.3140 
  186.8750   -12.8840    58.1280     8.4270     7.3800     9.5550    23.2870     2.3130 
  187.0000   -12.7440    60.7730     8.1290     7.0860     8.9020    23.2660     2.3080 
  187.1250   -12.6130    62.9100     7.8550     6.8610     8.5020    23.2630     2.3010 
  187.2500   -12.5060    62.2580     7.6970     6.7610     8.4190    23.2840     2.2950 
  187.3750   -12.4130    60.9140     7.6770     6.7690     8.2180    23.3260     2.2920 
  187.5000   -12.3350    60.9570     7.8020     6.8790     8.2740    23.3790     2.2950 
  187.6250   -12.2300    62.1280     8.0540     7.0830     8.6400    23.4260     2.3010 
  187.7500   -12.0300    62.6580     8.3820     7.3720     9.0030    23.4400     2.3070 
  187.8750   -11.7070    62.5340     8.6790     7.6760     9.3670    23.4290     2.3080 
  188.0000   -11.2370    61.8910     8.8440     7.9120    10.0380    23.4140     2.3060 
  188.1250   -10.6490    61.2900     8.7980     7.9940    10.6310    23.4160     2.3100 
  188.2500    -9.9790    61.2900     8.5060     7.8410    10.2410    23.4350     2.3270 
  188.3750    -9.2590    61.2900     8.0910     7.5170     9.0840    23.4600     2.3580 
  188.5000    -8.5200    61.2900     7.6620     7.1000     7.9110    23.4870     2.3880 
  188.6250    -7.7900    61.2900     7.2970     6.6780     7.2500    23.5180     2.4040 
  188.7500    -7.1350    61.2900     7.0340     6.3320     7.1630    23.5450     2.4010 
  188.8750    -6.5990    61.2900     6.8330     6.0790     7.1030    23.5590     2.3880 
  189.0000    -6.1890    61.2900     6.6680     5.9100     6.7830    23.5580     2.3850 
  189.1250    -5.9520    61.2900     6.5310     5.8030     6.5300    23.5420     2.3990 
  189.2500    -5.8320    61.2900     6.4480     5.7460     6.4740    23.5240     2.4250 
  189.3750    -5.7940    61.2900     6.4410     5.7300     6.8990    23.5150     2.4520 
  189.5000    -5.8410    61.2900     6.5280     5.7710     7.7050    23.5180     2.4700 
  189.6250    -5.9370    61.2900     6.7160     5.8860     8.0610    23.5270     2.4810 
  189.7500    -6.0550    61.2900     7.0130     6.0990     7.6840    23.5290     2.4910 
  189.8750    -6.1950    61.2900     7.3720     6.3760     7.5990    23.5220     2.5040 
  190.0000    -6.3780    61.2900     7.7390     6.6720     7.8750    23.5110     2.5120 
  190.1250    -6.5340    61.2900     8.0310     6.9250     8.5740    23.5070     2.5090 
  190.2500    -6.6800    61.2900     8.1360     7.0490     9.3640    23.5160     2.4930 
  190.3750    -6.8270    61.2900     8.0430     7.0260     9.1640    23.5290     2.4710 
  190.5000    -6.9210    61.2900     7.7870     6.8720     8.2150    23.5390     2.4550 
  190.6250    -6.9630    61.2900     7.4480     6.6300     7.5340    23.5520     2.4500 
  190.7500    -6.9920    61.2900     7.1240     6.3570     7.3860    23.5760     2.4520 
  190.8750    -7.0250    61.2900     6.8760     6.1100     7.2810    23.5900     2.4500 
  191.0000    -7.0250    61.2900     6.7130     5.9110     7.1530    23.5790     2.4410 
  191.1250    -6.9950    61.2900     6.6180     5.7690     6.9680    23.5560     2.4270 
  191.2500    -6.9340    61.2900     6.5650     5.6940     6.7900    23.5400     2.4140 
  191.3750    -6.8860    61.2900     6.5310     5.6710     6.7210    23.5340     2.4030 
  191.5000    -6.8540    61.2900     6.5230     5.6900     6.7090    23.5320     2.3960 
  191.6250    -6.8480    61.2900     6.5550     5.7290     6.7520    23.5420     2.3950 
  191.7500    -6.8360    61.2900     6.6300     5.7670     6.7540    23.5620     2.4020 
  191.8750    -6.7920    61.2900     6.7030     5.7870     6.7380    23.5770     2.4170 
  192.0000    -6.7380    61.2900     6.7320     5.7890     6.8040    23.5790     2.4320 
  192.1250    -6.6590    61.2900     6.6990     5.7780     6.9520    23.5760     2.4360 
  192.2500    -6.5460    61.2900     6.6220     5.7650     7.1450    23.5730     2.4230 
  192.3750    -6.3690    61.2900     6.5600     5.7490     7.1820    23.5640     2.3970 
  192.5000    -6.1710    61.2900     6.5410     5.7330     7.0260    23.5460     2.3720 
  192.6250    -6.0060    61.2900     6.5480     5.7240     6.9190    23.5250     2.3570 
  192.7500    -5.9020    61.2900     6.5370     5.7310     6.7620    23.5130     2.3530 
  192.8750    -5.8210    61.2900     6.4980     5.7510     6.6440    23.5100     2.3550 
