~V
VERS. 2.00: Ver 2.00
~W
STRT.M 46.0000:
STOP.M 208.0000:
STEP.M 0.1250:
NULL. -999.2500:
UWI. F10533:
~C
DEPT.M :
GR.API :
RML.OHMM :
RI. :
RXO.OHMM :
CALI.CM :
DEN.GM/CC :
SP.MV :
~A
# ...
  147.2500    64.6320     9.0950     7.2780     7.7510    23.2040     2.1940    -9.2130 
  147.3750    67.2680     9.1430     7.2990     7.6680    23.2030     2.1880    -9.3170 
  147.5000    70.7850     9.1000     7.2590     7.4690    23.1870     2.1830    -9.4120 
  147.6250    71.1080     9.0010     7.2020     7.6110    23.1570     2.1830    -9.4910 
  147.7500    69.7700     8.9110     7.1770     8.1820    23.1280     2.1850    -9.5430 
  147.8750    69.5780     8.8780     7.2070     8.9640    23.1170     2.1870    -9.5720 
  148.0000    70.9190     8.9270     7.2900     9.6860    23.1180     2.1850    -9.5760 
  148.1250    71.1210     9.0540     7.4010     9.8680    23.1350     2.1780    -9.5340 
  148.2500    68.5510     9.1940     7.5020     9.7060    23.1760     2.1690    -9.4570 
  148.3750    64.8080     9.3010     7.5670     8.9380    23.2360     2.1610    -9.3490 
  148.5000    62.7450     9.3570     7.5860     7.9810    23.2740     2.1550    -9.2220 
  148.6250    63.3210     9.3710     7.5670     7.6930    23.2860     2.1540    -9.0790 
  148.7500    64.8630     9.3710     7.5380     7.6950    23.2900     2.1540    -8.9420 
  148.8750    65.3140     9.3800     7.5280     7.7450    23.2910     2.1480    -8.8000 
  149.0000    63.3520     9.4270     7.5690     7.6760    23.2890     2.1270    -8.6670 
  149.1250    60.7910     9.6160     7.7360     7.5640    23.2850     2.0900    -8.5480 
  149.2500    60.1150    10.0450     8.0900     7.5820    23.2880     2.0610    -8.4410 
  149.3750    61.7980    10.7570     8.6750     7.7470    23.2760     2.0710    -8.3570 
  149.5000    63.6270    11.6350     9.4330     7.8800    23.2150     2.1500    -8.3070 
  149.6250    63.2020    12.2620    10.0900     7.9690    23.1180     2.2910    -8.3050 
  149.7500    61.6830    12.2180    10.2810     8.8420    23.0970     2.4120    -8.3400 
  149.8750    61.9400    11.3450     9.8070    10.5850    23.1210     2.4510    -8.4030 
  150.0000    66.6220     9.8800     8.7750    10.9420    23.1700     2.4150    -8.4840 
  150.1250    74.3270     8.3530     7.5480     7.8800    23.2740     2.3490    -8.6000 
  150.2500    81.4780     7.1700     6.4990     6.2630    23.4010     2.2990    -8.7340 
  150.3750    87.9210     6.4220     5.7540     5.8650    23.4820     2.2770    -8.8730 
  150.5000    91.4180     6.0600     5.3240     6.0340    23.5080     2.2750    -9.0030 
  150.6250    90.0360     6.0140     5.1950     6.0950    23.5080     2.2790    -9.1090 
  150.7500    87.7170     6.1140     5.2360     6.0930    23.5060     2.2790    -9.1740 
  150.8750    86.6220     6.2540     5.3640     5.9880    23.4790     2.2730    -9.2010 
  151.0000    84.7220     6.3660     5.5080     5.8610    23.3910     2.2640    -9.1800 
  151.1250    80.2570     6.4010     5.6200     5.9880    23.1860     2.2600    -9.0800 
  151.2500    79.0560     6.3670     5.6820     6.0820    23.0280     2.2630    -8.9320 
  151.3750    82.5330     6.2790     5.6890     5.9200    23.0280     2.2680    -8.7390 
  151.5000    86.0340     6.1630     5.6480     5.6780    23.2010     2.2710    -8.5020 
  151.6250    85.2590     6.0360     5.5640     5.7610    23.3200     2.2680    -8.2090 
  151.7500    83.5580     5.9160     5.4550     5.7730    23.3580     2.2640    -7.8890 
  151.8750    84.9210     5.8170     5.3400     5.6630    23.3610     2.2650    -7.5450 
  152.0000    88.5290     5.7530     5.2380     5.4910    23.3600     2.2710    -7.2140 
  152.1250    89.8160     5.7200     5.1590     5.4970    23.3580     2.2800    -6.9490 
  152.2500    87.4070     5.6820     5.0780     5.5450    23.3590     2.2860    -6.7500 
  152.3750    83.2650     5.6010     4.9660     5.8030    23.3680     2.2930    -6.6350 
  152.5000    81.8020     5.4640     4.8180     5.8200    23.3910     2.3030    -6.5980 
  152.6250    85.9550     5.3420     4.6840     5.6080    23.4550     2.3180    -6.6730 
  152.7500    90.1940     5.3820     4.6820     5.2410    23.5590     2.3430    -6.8360 
  152.8750    90.5640     5.7620     4.9540     5.4250    23.6720     2.3770    -7.0770 
  153.0000    86.1370     6.6820     5.6560     6.7590    23.7470     2.4110    -7.3610 
  153.1250    77.7140     8.4530     7.0570    10.5290    23.7690     2.4140    -7.6420 
  153.2500    69.9090    10.9910     9.1550    15.7800    23.7780     2.3760    -7.8980 
  153.3750    67.0990    14.0500    11.8340    19.8480    23.7800     2.3090    -8.1180 
  153.5000    67.7840    17.0470    14.6650    19.8290    23.7870     2.2370    -8.3070 
  153.6250    65.4230    19.0880    16.8190    18.3380    23.7770     2.1860    -8.4440 
  153.7500    62.2360    20.0810    18.0160    18.0050    23.6830     2.1650    -8.5390 
  153.8750    61.5710    20.4270    18.5060    18.3800    23.4420     2.1650    -8.6060 
  154.0000    60.6330    20.6470    18.7350    18.8100    23.1630     2.1720    -8.6430 
  154.1250    57.8910    21.0690    19.0240    19.0770    22.9440     2.1750    -8.6550 
  154.2500    59.5840    21.6490    19.3950    19.2240    22.8150     2.1730    -8.6490 
  154.3750    64.4600    22.2320    19.7460    19.3880    22.7730     2.1690    -8.6150 
  154.5000    65.1680    22.6680    19.9750    19.1470    22.8240     2.1680    -8.5630 
  154.6250    61.1340    22.9040    20.0550    17.9390    22.9810     2.1700    -8.5110 
  154.7500    59.7630    23.1180    20.1210    17.2060    23.1350     2.1650    -8.4630 
  154.8750    61.9020    23.5360    20.3300    17.8190    23.3510     2.1490    -8.4000 
  155.0000    64.1890    24.3690    20.8350    19.3800    23.5660     2.1280    -8.3560 
  155.1250    65.0500    25.8110    21.8100    21.6170    23.7660     2.1210    -8.3280 
  155.2500    65.8320    27.6760    23.1630    24.0330    23.8960     2.1350    -8.3160 
  155.3750    66.2240    29.7270    24.7520    25.7500    23.9440     2.1650    -8.3270 
  155.5000    65.5970    31.6810    26.3560    27.6210    23.9500     2.1890    -8.3680 
  155.6250    65.8160    33.2300    27.7030    26.4130    23.9500     2.1900    -8.4110 
  155.7500    67.4710    34.3560    28.7090    26.0840    23.9500     2.1740    -8.4380 
  155.8750    67.5910    35.1280    29.3980    26.5870    23.9500     2.1580    -8.4610 
  156.0000    64.3940    35.6520    29.8540    27.3120    23.9500     2.1500    -8.4530 
  156.1250    60.6610    36.0150    30.1710    27.5700    23.9480     2.1490    -8.4320 
  156.2500    58.6760    36.3300    30.4690    27.6990    23.9440     2.1510    -8.3860 
  156.3750    56.6900    36.6590    30.8260    27.9550    23.9450     2.1560    -8.3310 
  156.5000    53.5960    37.0350    31.2970    28.2130    23.9480     2.1650    -8.2460 
  156.6250    51.7130    37.4160    31.8670    28.9670    23.9500     2.1710    -8.1530 
  156.7500    52.1910    37.6770    32.3790    29.4860    23.9460     2.1660    -8.0510 
  156.8750    53.2790    37.7250    32.6760    29.4330    23.9380     2.1460    -7.9350 
  157.0000    54.4050    37.4900    32.6570    30.9430    23.9270     2.1150    -7.8250 
  157.1250    55.9280    36.6200    32.0690    30.3150    23.8560     2.0880    -7.7030 
  157.2500    56.6960    34.5970    30.5540    27.6210    23.6320     2.0790    -7.5770 
  157.3750    55.9510    30.9310    27.6800    25.5790    23.2520     2.0940    -7.4390 
  157.5000    55.5340    25.7920    23.4920    24.1400    22.8930     2.1320    -7.3000 
  157.6250    59.7920    20.2730    18.7910    18.8030    22.7700     2.1840    -7.1690 
  157.7500    66.9130    15.6550    14.6860    12.6500    22.8140     2.2340    -7.0650 
  157.8750    73.0430    12.4150    11.6410     8.9410    22.9920     2.2700    -6.9890 
  158.0000    75.1350    10.5330     9.7180     7.8220    23.1630     2.2890    -6.9340 
  158.1250    71.5730     9.9880     8.9540     7.9960    23.2570     2.2870    -6.9170 
  158.2500    66.5730    10.4740     9.1070     8.6870    23.2860     2.2720    -6.9370 
  158.3750    63.3860    11.9540    10.1780    10.6620    23.3020     2.2460    -6.9980 
