~V
VERS. 2.00: Ver 2.00
~W
STRT.M 58.0000:
STOP.M 215.0000:
STEP.M 0.1250:
NULL. -999.2500:
UWI. F10587:
~C
DEPT.M :
DEN.GM/CC :
GR.API :
RML.OHMM :
RI. :
RXO.OHMM :
CALI.CM :
SP.MV :
~A
# ...
  170.5000     2.3650    93.6310    10.4160     9.2180    12.6090    25.4590   -16.4640 
  170.6250     2.3520    86.2070    12.7380    11.2730    19.1980    25.4150   -16.4760 
  170.7500     2.3460    78.9880    16.2140    14.3490    30.1580    25.4430   -16.4910 
  170.8750     2.3500    73.0240    20.7330    18.3480    38.1560    25.4990   -16.5430 
  171.0000     2.3580    68.5090    25.7530    22.7900    40.2420    25.5220   -16.5800 
  171.1250     2.3620    65.2900    30.2310    26.7530    40.6130    25.5020   -16.5520 
  171.2500     2.3580    61.4020    33.5900    29.7260    42.3680    25.4590   -16.5150 
  171.3750     2.3480    57.6220    35.8870    31.7590    46.1510    25.4050   -16.4970 
  171.5000     2.3420    56.4410    37.4930    33.1800    49.9670    25.3730   -16.4450 
  171.6250     2.3420    58.4320    38.6710    34.2220    50.2650    25.3620   -16.3430 
  171.7500     2.3440    60.0090    39.6090    35.0520    49.5070    25.3550   -16.2260 
  171.8750     2.3430    60.5900    40.3900    35.7440    48.5920    25.3540   -16.0900 
  172.0000     2.3400    62.7830    41.1110    36.3810    49.8400    25.3510   -15.8960 
  172.1250     2.3380    66.8910    41.7740    36.9680    50.6000    25.3510   -15.6730 
  172.2500     2.3410    68.1880    42.2440    37.3840    52.1850    25.3450   -15.4600 
  172.3750     2.3450    64.7540    42.2960    37.4300    57.9730    25.3410   -15.1590 
  172.5000     2.3460    59.0080    41.7580    36.9540    61.8600    25.3290   -14.7790 
  172.6250     2.3420    56.9060    40.6240    35.9510    55.5820    25.2740   -14.3790 
  172.7500     2.3360    59.2040    39.3260    34.8020    47.8700    25.2180   -13.9000 
  172.8750     2.3210    61.2540    38.0460    33.6690    45.4880    25.1840   -13.3290 
  173.0000     2.2910    60.8180    36.3500    32.1680    43.9230    25.1340   -12.7160 
  173.1250     2.2560    59.6630    32.4960    28.7570    41.5600    25.0450   -12.0290 
  173.2500     2.2400    59.9180    26.1140    23.1090    38.5900    24.9310   -11.2790 
  173.3750     2.2520    60.0790    18.7860    16.6250    36.1040    24.8780   -10.5780 
  173.5000     2.2850    57.7640    12.6160    11.1650    34.9890    24.9680    -9.9820 
  173.6250     2.3110    51.7630     8.8390     7.8220    36.1980    25.2060    -9.4840 
  173.7500     2.3110    46.3280     6.9220     6.1260    44.4040    25.4350    -9.1910 
  173.8750     2.2890    46.4190     6.6200     5.8590    58.2150    25.6950    -9.1590 
  174.0000     2.2660    51.0620     7.9680     7.0520    67.4320    25.9200    -9.3710 
  174.1250     2.2640    53.4860    11.6700    10.3270    69.3500    26.0310    -9.8700 
  174.2500     2.2680    53.4920    17.3760    15.3770    66.1520    26.0580   -10.6070 
  174.3750     2.2560    55.2580    23.5830    20.8700    54.1590    26.0520   -11.5230 
  174.5000     2.2260    61.3960    27.9890    24.7690    39.6470    25.9790   -12.5390 
  174.6250     2.2010    67.9190    30.0600    26.6020    32.0190    25.8290   -13.6670 
  174.7500     2.2040    69.2230    32.1620    28.4620    29.2710    25.6650   -14.8490 
  174.8750     2.2420    64.7980    35.8920    31.7630    33.1390    25.6200   -15.9950 
  175.0000     2.2930    59.1410    42.1600    37.3100    48.9430    25.6930   -17.0800 
  175.1250     2.3190    55.8380    51.4100    45.4960    69.1600    25.6540   -18.1530 
  175.2500     2.3130    52.4130    61.7250    54.6240    79.8050    25.4130   -19.1770 
  175.3750     2.2960    49.1170    70.7780    62.6360    81.3510    25.2630   -20.0910 
  175.5000     2.2790    47.8490    76.7990    67.9640    88.8990    25.2610   -20.9250 
  175.6250     2.2580    50.2680    79.3510    70.2220    89.8590    25.4240   -21.6120 
  175.7500     2.2310    53.0910    80.2510    71.0180    79.1950    25.6360   -22.1310 
  175.8750     2.2090    53.4150    80.3110    71.0720    67.3650    25.7260   -22.5530 
  176.0000     2.2030    51.4170    79.4770    70.3340    85.7550    25.6550   -22.9090 
  176.1250     2.2250    50.0830    77.1600    68.2830   117.0950    25.5560   -23.1100 
  176.2500     2.2570    51.0520    73.8660    65.3680   114.2330    25.6270   -23.2290 
  176.3750     2.2800    53.9820    70.5020    62.3910    84.4360    25.8080   -23.3350 
  176.5000     2.2850    56.8420    68.1180    60.2820    66.5060    25.9770   -23.3850 
  176.6250     2.2720    56.9270    68.1890    60.3450    66.7580    26.0590   -23.4520 
  176.7500     2.2540    54.1350    71.1780    62.9890    85.1550    26.1120   -23.5890 
  176.8750     2.2400    50.8690    77.2110    68.3290    96.8510    26.1610   -23.7400 
  177.0000     2.2340    51.2750    85.7740    75.9060    91.1880    26.1720   -23.8850 
  177.1250     2.2340    54.7360    95.8560    84.8280   103.8080    26.0490   -24.0940 
  177.2500     2.2340    55.7890   105.7950    93.6240   121.1620    25.8750   -24.3490 
  177.3750     2.2320    53.2950   114.5070   101.3340   135.8210    25.7610   -24.6040 
  177.5000     2.2290    49.9220   121.1860   107.2440   128.1980    25.7520   -24.8860 
  177.6250     2.2300    49.3520   124.6740   110.3310   112.4220    25.7620   -25.2170 
  177.7500     2.2390    51.1970   124.8800   110.5130   126.7990    25.6840   -25.5580 
  177.8750     2.2560    53.7570   121.7780   107.7680   138.6460    25.5160   -25.8840 
  178.0000     2.2760    54.5380   116.0790   102.7250   136.1730    25.3750   -26.2230 
  178.1250     2.2900    52.8560   109.2930    96.7200   128.4400    25.3430   -26.5400 
  178.2500     2.2940    52.7400   103.5890    91.6710   112.9250    25.3860   -26.7660 
  178.3750     2.2910    56.4580   100.2160    88.6870   100.8500    25.3930   -26.9830 
  178.5000     2.2810    60.3740    99.3950    87.9600    90.5340    25.1440   -27.1930 
  178.6250     2.2700    59.3790   100.2740    88.7380    92.9190    24.4990   -27.3340 
  178.7500     2.2670    56.4850   100.7420    89.1520   117.6640    23.7720   -27.4500 
  178.8750     2.2780    55.8000    99.3550    87.9250   136.1940    23.3980   -27.5340 
  179.0000     2.3000    58.1830    95.5690    84.5750   119.1290    23.3630   -27.5540 
  179.1250     2.3260    62.1470    89.7310    79.4080    89.6710    23.5140   -27.5540 
  179.2500     2.3450    66.1050    83.3120    73.7270    82.8790    23.6820   -27.5780 
  179.3750     2.3530    69.0010    77.0570    68.1920    90.0470    23.8480   -27.5430 
  179.5000     2.3530    70.4430    70.7490    62.6090    85.4340    24.0110   -27.4250 
  179.6250     2.3460    72.8460    62.1560    55.0060    71.6460    24.1170   -27.2770 
  179.7500     2.3290    76.4940    50.1450    44.3760    59.5700    24.1260   -27.0560 
  179.8750     2.3000    77.2900    36.4390    32.2470    51.2880    24.0210   -26.7660 
  180.0000     2.2670    72.4870    24.2900    21.4950    41.8730    23.9480   -26.4490 
  180.1250     2.2570    64.9840    16.1780    14.3170    25.6010    24.1010   -26.1210 
  180.2500     2.2830    60.3150    11.2060     9.9430    11.9960    24.4920   -25.7900 
  180.3750     2.3390    58.4100     8.5120     7.5570     7.0560    24.8460   -25.4720 
  180.5000     2.3950    56.8940     7.2880     6.4440     6.5280    24.9280   -25.2400 
  180.6250     2.4160    55.1830     7.0320     6.2110     7.0790    24.7530   -25.0740 
  180.7500     2.4070    54.2340     7.2410     6.4010     6.9560    24.4330   -24.9260 
  180.8750     2.3870    54.1000     7.6420     6.7660     6.4230    24.1590   -24.8510 
  181.0000     2.3700    54.7840     7.9890     7.0810     6.4140    24.0930   -24.8800 
  181.1250     2.3520    55.8450     8.0990     7.1810     6.9430    24.2560   -24.8970 
  181.2500     2.3300    56.1430     7.9950     7.0860     7.6260    24.3590   -24.9110 
  181.3750     2.3070    54.9320     7.7120     6.8290     7.8520    24.3030   -24.9660 
  181.5000     2.2960    53.8150     7.2950     6.4500     6.9560    24.0400   -24.9660 
  181.6250     2.3060    52.6600     6.7890     5.9900     5.9210    23.6550   -24.9030 
