~V
VERS. 2.00: Ver 2.00
~W
STRT.M 58.0000:
STOP.M 215.0000:
STEP.M 0.1250:
NULL. -999.2500:
UWI. F10587:
~C
DEPT.M :
DEN.GM/CC :
GR.API :
RML.OHMM :
RI. :
RXO.OHMM :
CALI.CM :
SP.MV :
~A
# ...
   80.5000     2.1540    57.3620    34.7180    26.9960    18.5320    22.2230   -21.3890 
   80.6250     2.1540    55.6430    33.1970    25.8770    19.1210    22.8770   -21.1980 
   80.7500     2.1570    53.5630    31.8420    24.8140    19.7640    23.4330   -21.0320 
   80.8750     2.1540    52.2660    30.8760    23.9880    19.7020    23.6470   -20.8380 
   81.0000     2.1440    52.5260    30.4310    23.5190    19.6470    23.6800   -20.6380 
   81.1250     2.1380    52.3960    30.5770    23.5100    20.0270    23.6940   -20.4580 
   81.2500     2.1450    51.3590    31.0460    23.8120    20.5010    23.7500   -20.2930 
   81.3750     2.1630    51.5180    31.6000    24.2710    20.6600    23.7950   -20.1420 
   81.5000     2.1810    52.4120    32.0440    24.7250    20.6840    23.7970   -20.0220 
   81.6250     2.1830    52.8750    32.2830    25.0510    20.7050    23.7180   -19.9240 
   81.7500     2.1700    51.9240    32.4380    25.2820    20.8130    23.6280   -19.8450 
   81.8750     2.1480    51.9140    32.6570    25.5090    20.7760    23.5880   -19.7980 
   82.0000     2.1280    53.1470    33.0490    25.8190    20.4490    23.6750   -19.7900 
   82.1250     2.1200    53.6550    33.5880    26.2290    20.4130    23.8180   -19.8200 
   82.2500     2.1250    53.0660    34.0300    26.5980    20.7540    23.9290   -19.8660 
   82.3750     2.1370    53.6550    34.1150    26.7480    21.2290    23.9530   -19.9350 
   82.5000     2.1480    56.4440    33.6470    26.5280    21.1480    23.8870   -20.0040 
   82.6250     2.1470    58.1160    32.5470    25.8310    20.0340    23.7530   -20.0940 
   82.7500     2.1350    56.9630    31.2030    24.8880    19.1530    23.6750   -20.1410 
   82.8750     2.1200    56.0250    30.0070    23.9600    18.8560    23.7050   -20.1930 
   83.0000     2.1190    57.3450    29.2790    23.3000    18.8910    23.7820   -20.2230 
   83.1250     2.1410    57.9240    29.2080    23.1100    18.8430    23.8340   -20.2140 
   83.2500     2.1710    55.8140    29.5060    23.2560    18.8220    23.8350   -20.2170 
   83.3750     2.1910    54.2750    29.8280    23.5210    19.1130    23.6990   -20.1790 
   83.5000     2.1880    56.1480    29.8240    23.6400    19.8940    23.5070   -20.1130 
   83.6250     2.1680    59.5930    29.2450    23.3610    20.1330    23.3280   -19.9900 
   83.7500     2.1540    59.5700    28.3200    22.7700    19.3580    23.2640   -19.8600 
   83.8750     2.1570    56.7700    27.3480    22.0480    18.2160    23.2500   -19.7210 
   84.0000     2.1750    55.1330    26.6010    21.4060    17.6960    23.2500   -19.5640 
   84.1250     2.1900    56.2120    26.2690    21.0310    17.6480    23.2510   -19.3980 
   84.2500     2.1920    57.0510    26.2190    20.8930    17.6470    23.2560   -19.2440 
   84.3750     2.1790    56.7220    26.2680    20.8920    17.7720    23.2440   -19.1170 
   84.5000     2.1610    56.9800    26.2270    20.8890    17.9360    23.1510   -19.0450 
   84.6250     2.1460    57.1510    25.9450    20.7420    18.2030    23.0300   -19.0590 
   84.7500     2.1400    56.3340    25.4740    20.4470    18.0760    22.9620   -19.1430 
   84.8750     2.1390    55.2340    24.9080    20.0580    17.5770    22.9720   -19.2540 
   85.0000     2.1390    55.5020    24.3570    19.6560    17.0910    23.0170   -19.3990 
   85.1250     2.1370    56.2140    23.9220    19.3270    16.7860    23.0580   -19.6040 
   85.2500     2.1330    55.7320    23.5990    19.0860    16.5800    23.0690   -19.8110 
   85.3750     2.1300    55.0430    23.3440    18.9060    16.4250    23.0510   -20.0460 
   85.5000     2.1320    56.4030    23.0870    18.7390    16.3670    22.9900   -20.2480 
   85.6250     2.1380    60.4090    22.7500    18.5210    16.2610    22.9490   -20.4290 
   85.7500     2.1480    63.1770    22.3190    18.2300    15.8590    22.9430   -20.5500 
   85.8750     2.1590    63.7950    21.8270    17.8780    15.3470    22.9750   -20.6520 
   86.0000     2.1700    61.9070    21.3470    17.5070    15.1000    22.9930   -20.7600 
   86.1250     2.1760    60.0390    20.9760    17.1800    14.8320    23.0100   -20.7790 
   86.2500     2.1780    60.2700    20.7410    16.9320    14.5470    22.9780   -20.7630 
   86.3750     2.1760    61.3350    20.6270    16.7710    14.2290    22.9490   -20.6890 
   86.5000     2.1730    60.7400    20.5610    16.6660    14.0890    22.9450   -20.5960 
   86.6250     2.1780    57.6310    20.4370    16.5440    14.2510    22.9500   -20.4570 
   86.7500     2.1940    55.6300    20.2500    16.3810    14.3630    22.9300   -20.3180 
   86.8750     2.2160    56.1240    20.0960    16.2300    14.3980    22.8990   -20.1520 
   87.0000     2.2300    58.1820    20.1280    16.1920    14.4390    22.8870   -19.9360 
   87.1250     2.2190    60.7280    20.5680    16.4310    14.4170    22.8840   -19.7550 
   87.2500     2.1900    61.5190    21.4390    16.9900    14.7410    22.9270   -19.5760 
   87.3750     2.1560    61.4450    22.6880    17.8650    15.6840    23.0520   -19.4160 
   87.5000     2.1350    61.3450    24.1320    18.9570    16.5450    23.2210   -19.2830 
   87.6250     2.1330    59.8810    25.4830    20.0710    16.9480    23.2510   -19.1580 
   87.7500     2.1360    56.7290    26.5090    20.9950    17.5050    23.3810   -19.0540 
   87.8750     2.1290    53.6270    27.0600    21.5790    18.0670    23.6150   -18.9550 
   88.0000     2.1070    53.0780    27.0710    21.7350    17.6810    23.8630   -18.8740 
   88.1250     2.0770    55.9790    26.5110    21.4030    17.1230    23.7360   -18.8030 
   88.2500     2.0580    59.9350    25.6140    20.7560    17.4150    23.3420   -18.7370 
   88.3750     2.0570    62.4840    24.5760    19.9380    18.2290    22.8010   -18.7080 
   88.5000     2.0760    61.3870    23.6290    19.1200    16.8620    22.5010   -18.6670 
   88.6250     2.1040    57.2850    23.0600    18.5280    15.6000    22.4610   -18.6500 
   88.7500     2.1290    54.3020    22.9070    18.2390    15.0910    22.4850   -18.5780 
   88.8750     2.1440    53.9820    23.1160    18.2570    15.2550    22.5040   -18.5110 
   89.0000     2.1490    53.8070    23.5580    18.5130    15.7330    22.5350   -18.4720 
   89.1250     2.1470    51.5240    24.0430    18.8890    16.0700    22.5360   -18.3830 
   89.2500     2.1440    49.3080    24.4110    19.2260    16.1360    22.5120   -18.3100 
   89.3750     2.1440    50.2210    24.6260    19.4570    16.0320    22.4840   -18.2050 
   89.5000     2.1490    53.3360    24.7400    19.5960    16.0240    22.4530   -18.0750 
   89.6250     2.1580    55.6620    24.8390    19.6970    16.0040    22.4110   -17.9440 
   89.7500     2.1670    55.8930    24.9770    19.8140    15.9880    22.3850   -17.8120 
   89.8750     2.1720    55.0020    25.1540    19.9600    16.0980    22.3660   -17.6860 
   90.0000     2.1760    55.4370    25.3340    20.1140    16.2380    22.3570   -17.5560 
   90.1250     2.1830    58.2030    25.4570    20.2250    16.3820    22.3570   -17.4510 
   90.2500     2.1910    59.4920    25.5030    20.2700    16.3370    22.3780   -17.3520 
   90.3750     2.1960    57.9990    25.4790    20.2500    16.2280    22.4500   -17.2710 
   90.5000     2.1950    56.2970    25.4080    20.1810    16.0930    22.5340   -17.2260 
   90.6250     2.1860    56.2070    25.3160    20.0820    15.9020    22.5610   -17.2170 
   90.7500     2.1710    57.0930    25.2270    19.9740    15.7790    22.5530   -17.2450 
   90.8750     2.1560    57.3340    25.1380    19.8630    15.8190    22.5740   -17.3130 
   91.0000     2.1470    57.6140    25.0390    19.7480    15.7910    22.6420   -17.4100 
   91.1250     2.1460    58.2780    24.9320    19.6360    15.6180    22.7630   -17.5100 
   91.2500     2.1470    57.7470    24.8400    19.5440    15.5510    22.8640   -17.6080 
   91.3750     2.1410    55.8440    24.7880    19.4900    15.5530    22.9210   -17.6960 
   91.5000     2.1280    53.2750    24.7970    19.4930    15.5030    22.9270   -17.7880 
   91.6250     2.1120    51.9150    24.9040    19.5800    15.5770    22.9300   -17.8310 
