~V
VERS. 2.00: Ver 2.00
~W
STRT.M 50.0000:
STOP.M 215.0000:
STEP.M 0.1250:
NULL. -999.2500:
UWI. F10588:
~C
DEPT.M :
DEN.GM/CC :
GR.API :
RML.OHMM :
RI. :
RXO.OHMM :
CALI.CM :
SP.MV :
~A
# ...
   72.5000     2.1630    60.4110    27.6460    22.2060    22.0920    24.8730   -20.1800 
   72.6250     2.1660    61.1880    26.7500    21.7550    20.5720    24.8450   -20.3930 
   72.7500     2.1650    61.1500    25.1260    20.7130    17.8090    24.8280   -20.6250 
   72.8750     2.1640    59.5360    22.6380    18.9420    15.2130    24.8000   -20.8660 
   73.0000     2.1680    58.8900    19.4030    16.5030    14.5050    24.7270   -21.1010 
   73.1250     2.1850    62.9820    15.9350    13.7660    14.6890    24.5420   -21.3050 
   73.2500     2.2130    70.2740    12.9610    11.3080    12.5570    24.3690   -21.4670 
   73.3750     2.2420    76.7590    10.8840     9.4520     9.3040    24.2590   -21.5550 
   73.5000     2.2610    78.8330     9.8230     8.3200     7.7010    24.2440   -21.6070 
   73.6250     2.2560    76.4590     9.8540     8.0140     7.9690    24.2810   -21.6320 
   73.7500     2.2330    73.5770    10.6260     8.3270     8.2640    24.2900   -21.6310 
   73.8750     2.2060    71.7280    11.8140     9.0860     9.0960    24.2760   -21.6330 
   74.0000     2.1920    69.7320    12.9110     9.9600    10.7500    24.2570   -21.6180 
   74.1250     2.2040    68.2750    13.2450    10.4340    13.2020    24.2560   -21.6350 
   74.2500     2.2260    69.0650    12.8410    10.3780    13.7650    24.2360   -21.6600 
   74.3750     2.2430    71.4510    12.1500    10.0190    11.5560    24.2140   -21.7500 
   74.5000     2.2440    74.5110    11.7560     9.7380     9.1480    24.2030   -21.8310 
   74.6250     2.2230    75.4440    12.2330     9.9560     9.6160    24.2030   -21.9070 
   74.7500     2.1940    73.8760    13.6150    10.7900    12.0850    24.2030   -21.9460 
   74.8750     2.1660    71.4350    15.8340    12.2840    15.0670    24.2030   -21.9450 
   75.0000     2.1460    68.7180    18.6420    14.3450    17.5930    24.2030   -21.9220 
   75.1250     2.1350    65.3800    21.5220    16.6740    18.7290    24.2030   -21.8560 
   75.2500     2.1310    62.7590    23.7680    18.6960    20.4250    24.2080   -21.7840 
   75.3750     2.1310    61.9260    24.7600    19.8850    21.7000    24.2300   -21.6850 
   75.5000     2.1370    61.4100    24.0330    19.7850    21.9590    24.2830   -21.5730 
   75.6250     2.1530    61.2180    21.2710    17.9880    20.0970    24.3260   -21.4600 
   75.7500     2.1850    62.5580    17.5300    15.2330    17.9240    24.3500   -21.3320 
   75.8750     2.2280    64.9040    13.8990    12.3520    14.7310    24.3580   -21.2220 
   76.0000     2.2650    68.5290    11.2080    10.0290    10.7360    24.3580   -21.1270 
   76.1250     2.2790    74.5970     9.9870     8.7210     8.2200    24.3610   -21.0440 
   76.2500     2.2680    78.9450     9.9900     8.3080     7.5710    24.3850   -20.9770 
   76.3750     2.2390    77.7540    11.0810     8.7340     8.5370    24.4360   -20.9460 
   76.5000     2.2010    72.8150    12.9590     9.8620    11.4020    24.4940   -20.9610 
   76.6250     2.1680    69.2790    14.7820    11.2430    12.9100    24.4820   -21.0040 
   76.7500     2.1570    68.4630    15.3080    11.9190    13.5940    24.3910   -21.1200 
   76.8750     2.1780    68.5890    13.9980    11.3080    14.0700    24.2740   -21.2580 
   77.0000     2.2300    70.6400    11.5810     9.7400    13.5100    24.1730   -21.4370 
   77.1250     2.2830    76.4930     9.5720     8.2040     9.5240    24.1420   -21.6350 
   77.2500     2.3070    82.0810     8.7270     7.3300     7.4090    24.1500   -21.8390 
   77.3750     2.2970    82.7440     9.1820     7.2900     7.1780    24.2000   -22.0160 
   77.5000     2.2700    76.3330    10.9040     8.1380     9.4920    24.3330   -22.1800 
   77.6250     2.2380    67.7670    13.8140    10.0030    15.8890    24.5180   -22.3020 
   77.7500     2.2060    63.2830    16.9550    12.3890    19.4980    24.7420   -22.3910 
   77.8750     2.1710    61.9670    19.1140    14.4760    19.1510    24.9080   -22.4290 
   78.0000     2.1330    61.8180    19.3700    15.3610    17.3590    24.9390   -22.4120 
   78.1250     2.1030    61.9100    17.9490    14.8290    15.4930    24.8150   -22.3410 
   78.2500     2.0890    63.1080    16.4450    13.9390    13.8840    24.7260   -22.2370 
   78.3750     2.0910    63.7130    15.6570    13.3340    12.8930    24.7980   -22.1150 
   78.5000     2.0980    61.2020    15.7500    13.2490    12.8000    24.9140   -21.9710 
   78.6250     2.0990    58.8520    16.4540    13.6180    14.5070    24.9720   -21.8050 
   78.7500     2.0940    58.9710    17.0570    13.9830    16.4450    24.9570   -21.6230 
   78.8750     2.0910    59.8930    17.0300    13.9420    16.5260    24.8890   -21.4320 
   79.0000     2.0970    59.7470    16.1560    13.2840    14.6030    24.7490   -21.2630 
   79.1250     2.1210    59.6900    14.6800    12.1390    12.3350    24.4950   -21.1280 
   79.2500     2.1520    61.3850    13.3220    11.0180    10.3820    24.2790   -21.0390 
   79.3750     2.1820    64.9870    12.5180    10.2440     9.4720    24.2610   -20.9870 
   79.5000     2.2010    70.4970    12.4560     9.9820     9.8650    24.4380   -20.9870 
   79.6250     2.1990    74.7150    13.2560    10.3730    10.5050    24.7300   -21.0630 
   79.7500     2.1810    73.4770    14.6800    11.2890    11.8100    24.9950   -21.1910 
   79.8750     2.1550    66.9650    16.5150    12.6250    14.3530    25.3430   -21.4110 
   80.0000     2.1300    59.1090    18.4300    14.1760    17.2740    25.8160   -21.6400 
   80.1250     2.1140    52.9090    19.9740    15.6040    19.7310    26.3000   -21.9140 
   80.2500     2.1030    48.9640    20.9750    16.6740    20.1680    26.7110   -22.1610 
   80.3750     2.0940    48.1990    21.4680    17.3250    19.6890    26.9730   -22.3850 
   80.5000     2.0840    49.9250    21.6210    17.6280    19.3040    27.1030   -22.5420 
   80.6250     2.0780    50.9190    21.5660    17.6610    18.9870    27.0780   -22.6470 
   80.7500     2.0820    50.7620    21.3510    17.5110    18.8860    26.9190   -22.7030 
   80.8750     2.0960    51.7420    20.9010    17.1510    19.1300    26.6950   -22.6960 
   81.0000     2.1170    56.2570    20.1840    16.5710    18.8090    26.4640   -22.6700 
   81.1250     2.1290    61.4130    19.2970    15.8320    17.4010    26.2700   -22.5850 
   81.2500     2.1270    62.6880    18.5190    15.1350    15.6610    26.2080   -22.4860 
   81.3750     2.1120    59.9780    18.0770    14.6500    14.8930    26.2170   -22.3730 
   81.5000     2.0930    57.1460    18.1220    14.5030    14.8310    26.2560   -22.2540 
   81.6250     2.0810    58.3860    18.7740    14.8220    15.3990    26.1750   -22.1390 
   81.7500     2.0820    59.5580    19.8390    15.5060    16.5580    25.8720   -22.0030 
   81.8750     2.0930    57.8480    21.1220    16.4400    18.3770    25.4040   -21.8720 
   82.0000     2.1070    54.7940    22.3910    17.4530    20.0740    25.1010   -21.7220 
   82.1250     2.1210    55.0500    23.3960    18.3370    21.0050    25.0050   -21.5970 
   82.2500     2.1370    57.4900    24.1060    19.0150    21.7030    24.9170   -21.5020 
   82.3750     2.1580    59.0440    24.5900    19.5100    22.1870    24.8230   -21.4530 
   82.5000     2.1790    59.3980    24.9840    19.9010    22.4210    24.7890   -21.4590 
   82.6250     2.1890    58.6630    25.4270    20.2820    22.7170    24.8420   -21.5090 
   82.7500     2.1850    57.4640    25.9510    20.6920    23.9030    24.9830   -21.6230 
   82.8750     2.1700    56.6890    26.5310    21.1290    24.8910    25.1180   -21.7650 
   83.0000     2.1520    55.7380    27.1380    21.5880    25.6150    25.1500   -21.9520 
   83.1250     2.1420    54.6990    27.7490    22.0660    25.6170    25.0810   -22.1260 
   83.2500     2.1450    55.7090    28.3410    22.5390    25.6960    25.0310   -22.3000 
   83.3750     2.1570    57.1220    28.8610    22.9670    26.5020    24.9910   -22.4550 
   83.5000     2.1690    56.2170    29.1680    23.2560    27.5500    24.9480   -22.6110 
   83.6250     2.1740    54.9720    28.9250    23.1670    28.1050    24.9170   -22.7390 
