~V
VERS. 2.00: Ver 2.00
~W
STRT.M 60.0000:
STOP.M 200.0000:
STEP.M 0.1250:
NULL. -999.2500:
UWI. F10576:
~C
DEPT.M :
GR.API :
RML.OHMM :
RI. :
RXO.OHMM :
CALI.CM :
DEN.GM/CC :
SP.MV :
~A
# ...
  161.2500    82.5170    16.4050    17.2930    24.4790    24.0500     2.5830   -35.9500 
  161.3750    75.0420    11.7290    12.4190    10.9600    24.1820     2.5550   -35.5160 
  161.5000    67.1580     8.7700     9.1990     6.1310    24.1420     2.5270   -35.1380 
  161.6250    64.2320     7.3760     7.5260     5.5040    24.0990     2.5030   -34.8600 
  161.7500    67.0450     6.9100     6.7810     5.9840    24.0920     2.4880   -34.6710 
  161.8750    72.9670     7.0690     6.6970     6.3330    24.1330     2.4830   -34.6050 
  162.0000    79.0980     7.5910     7.0550     7.3330    24.1660     2.4850   -34.6130 
  162.1250    84.8800     8.2270     7.6570     8.7260    24.1320     2.4900   -34.7120 
  162.2500    88.6300     8.7520     8.2590     8.6660    24.1210     2.4920   -34.8600 
  162.3750    88.3910     9.0750     8.7370     8.3000    24.1090     2.4900   -35.0590 
  162.5000    86.0610     9.2050     9.0510     8.2850    24.1080     2.4820   -35.2660 
  162.6250    87.2940     9.2130     9.2170     8.5440    24.0890     2.4700   -35.5070 
  162.7500    92.7540     9.2150     9.3210     8.8250    24.0710     2.4580   -35.7540 
  162.8750   100.2460     9.2550     9.3960     8.9370    24.0360     2.4490   -35.9740 
  163.0000   106.4030     9.3330     9.4440     9.0500    23.9830     2.4460   -36.1880 
  163.1250   109.4300     9.4340     9.4470     9.0680    23.9170     2.4470   -36.3860 
  163.2500   112.8030     9.5360     9.4040     9.0660    23.8800     2.4490   -36.5750 
  163.3750   116.9810     9.6190     9.3180     9.0380    23.8900     2.4490   -36.7460 
  163.5000   119.4660     9.6500     9.1840     9.0110    23.9410     2.4480   -36.9140 
  163.6250   119.1040     9.5860     8.9870     9.0980    24.0650     2.4470   -37.0500 
  163.7500   120.5060     9.4720     8.7670     9.0940    24.1690     2.4500   -37.1860 
  163.8750   123.6280     9.4260     8.6070     8.9410    24.1570     2.4560   -37.3310 
  164.0000   122.1570     9.6380     8.6480     8.6380    24.0260     2.4620   -37.5000 
  164.1250   114.0220    10.4710     9.1760     8.6940    23.9410     2.4620   -37.6780 
  164.2500   104.6380    12.1490    10.3860    10.0430    23.9260     2.4540   -37.8510 
  164.3750    96.9070    14.9410    12.5330    13.9590    23.9360     2.4380   -38.0420 
  164.5000    88.2640    19.0250    15.8360    22.0580    23.9420     2.4170   -38.2380 
  164.6250    78.6730    24.4700    20.4990    29.3290    23.9500     2.3980   -38.4200 
  164.7500    73.4200    30.4610    25.8900    35.0080    23.9450     2.3840   -38.6080 
  164.8750    72.4090    36.1270    31.2570    39.2660    23.9080     2.3770   -38.8000 
  165.0000    70.4920    40.6960    35.8320    41.9500    23.8710     2.3770   -38.9530 
  165.1250    65.6690    43.6390    38.9820    45.1360    23.8580     2.3820   -39.0520 
  165.2500    63.6000    45.4220    40.9930    48.5540    23.8580     2.3890   -39.1450 
  165.3750    65.7060    46.3890    42.1400    48.8080    23.8560     2.3930   -39.2200 
  165.5000    67.7130    46.8470    42.7160    47.7320    23.8540     2.3930   -39.2940 
  165.6250    66.3380    47.1040    43.0130    49.9240    23.8490     2.3870   -39.3610 
  165.7500    64.4000    47.5400    43.4140    49.8560    23.8630     2.3770   -39.4160 
  165.8750    63.5940    48.4330    44.2030    45.8170    23.8770     2.3670   -39.4620 
  166.0000    64.7720    49.9840    45.5910    40.6430    23.8770     2.3600   -39.5200 
  166.1250    66.9640    52.3320    47.7380    44.3740    23.8460     2.3560   -39.6000 
  166.2500    67.9060    55.1220    50.3510    52.6470    23.8260     2.3520   -39.6540 
  166.3750    68.2270    57.9690    53.1160    59.9880    23.8240     2.3460   -39.7090 
  166.5000    68.0900    60.4990    55.7170    64.6840    23.8400     2.3380   -39.7580 
  166.6250    68.3810    62.4370    57.8930    65.6580    23.8910     2.3330   -39.7830 
  166.7500    68.5930    63.9690    59.7120    63.3510    23.9620     2.3320   -39.8160 
  166.8750    66.6350    65.2320    61.2410    59.8520    23.9980     2.3330   -39.8360 
  167.0000    63.4310    66.1660    62.4300    64.9460    23.9960     2.3330   -39.8190 
  167.1250    61.2200    66.3610    62.9470    72.8520    23.8880     2.3320   -39.7990 
  167.2500    60.9410    65.7480    62.7210    69.6140    23.8380     2.3320   -39.7860 
  167.3750    61.3130    64.5280    61.8920    62.7260    23.8200     2.3350   -39.7220 
  167.5000    61.7160    63.1620    60.8590    54.4240    23.7890     2.3420   -39.5870 
  167.6250    63.3310    62.8120    60.2300    50.3120    23.7310     2.3470   -39.4380 
  167.7500    64.7490    63.8890    60.3020    52.8400    23.6850     2.3470   -39.2610 
  167.8750    65.7540    65.5960    61.0700    56.0470    23.6370     2.3410   -39.0650 
  168.0000    66.8090    66.9340    62.2980    53.2750    23.5460     2.3310   -38.8490 
  168.1250    66.3290    67.8140    63.6930    46.0920    23.4070     2.3190   -38.6550 
  168.2500    64.5600    68.7150    65.0900    42.7950    23.3540     2.3070   -38.4670 
  168.3750    64.8760    69.7580    66.5320    41.8260    23.3530     2.2950   -38.2840 
  168.5000    68.4750    70.9530    68.0100    41.6450    23.3830     2.2850   -38.1410 
  168.6250    69.4880    71.6630    69.0480    43.9000    23.4480     2.2790   -37.9850 
  168.7500    66.7040    70.8520    68.8620    51.4790    23.5740     2.2790   -37.8480 
  168.8750    65.8580    67.7930    66.7880    62.7380    23.7640     2.2850   -37.7150 
  169.0000    69.3360    62.7110    62.7910    70.9480    23.9980     2.2960   -37.5670 
  169.1250    71.0680    56.8230    57.5890    61.6020    24.0990     2.3100   -37.3440 
  169.2500    69.7000    51.5710    52.5280    45.8830    24.1240     2.3220   -37.1340 
  169.3750    68.6860    47.4170    48.2420    37.4200    24.1230     2.3300   -36.9640 
  169.5000    68.2930    44.3030    44.9060    40.3420    24.1280     2.3330   -36.8290 
  169.6250    67.7520    42.2330    42.6540    52.3720    24.1430     2.3350   -36.7570 
  169.7500    68.9400    41.2290    41.4960    64.9440    24.1510     2.3340   -36.7030 
  169.8750    70.5440    41.7810    41.9480    71.2200    24.1510     2.3280   -36.6640 
  170.0000    68.2030    44.6370    44.9250    64.7550    24.1590     2.3160   -36.6880 
  170.1250    62.1830    51.4850    52.4140    76.1900    24.1690     2.3000   -36.7770 
  170.2500    58.6560    63.0490    64.9060   111.9710    24.1730     2.2840   -36.8800 
  170.3750    58.3770    80.2330    82.6050   131.3390    24.1890     2.2710   -36.9660 
  170.5000    60.2140   102.8860   104.5640   128.5670    24.1800     2.2630   -37.0360 
  170.6250    61.7580   129.0050   128.7310   132.6010    24.1910     2.2550   -37.1000 
  170.7500    61.2340   153.6860   152.0050   147.4420    24.1960     2.2450   -37.1490 
  170.8750    59.2440   171.7590   171.3540   183.2340    24.2700     2.2350   -37.2120 
  171.0000    57.3380   176.3470   181.7220   231.4240    24.3610     2.2330   -37.2440 
  171.1250    56.9090   158.5760   173.6130   261.5520    24.4070     2.2530   -37.2420 
  171.2500    56.1740   126.9230   148.7920   269.0910    24.3700     2.2920   -37.2410 
  171.3750    56.6770    93.6450   115.2010   226.1420    24.2770     2.3370   -37.2480 
  171.5000    59.5690    67.7990    83.4520   128.6920    24.2110     2.3690   -37.2620 
  171.6250    64.2570    53.0600    62.0720    71.3940    24.2280     2.3720   -37.2540 
  171.7500    68.4840    46.0080    50.1580    50.0320    24.1480     2.3560   -37.2130 
  171.8750    70.2020    44.4390    45.4080    52.9580    24.0740     2.3340   -37.1580 
  172.0000    70.3260    45.2990    45.2360    59.8690    24.0580     2.3210   -37.1150 
  172.1250    69.2930    46.5530    47.0370    63.4840    24.0570     2.3320   -37.0540 
  172.2500    67.6720    45.9920    47.2950    66.1620    24.0530     2.3680   -36.9080 
  172.3750    65.0350    41.3960    43.6180    66.4340    24.0390     2.4230   -36.7110 
