~V
VERS. 2.00: Ver 2.00
~W
STRT.M 42.0000:
STOP.M 223.0000:
STEP.M 0.1250:
NULL. -999.2500:
UWI. F10538:
~C
DEPT.M :
DEN.GM/CC :
SP.MV :
GR.API :
RML.OHMM :
RI. :
RXO.OHMM :
CALI.CM :
~A
# ...
  177.0000     2.5300   -30.6280    86.2150    20.9220    19.0310    20.2310    24.4380 
  177.1250     2.5480   -30.6760    83.8890    21.5960    20.0960    19.8290    24.4250 
  177.2500     2.5590   -30.7370    84.1510    21.2390    20.2100    19.7280    24.3970 
  177.3750     2.5680   -30.7550    82.3220    20.6200    19.8790    19.0560    24.3840 
  177.5000     2.5760   -30.7790    80.2260    20.2990    19.6970    18.9530    24.3780 
  177.6250     2.5820   -30.7890    79.2230    20.1420    19.6380    19.4010    24.3780 
  177.7500     2.5830   -30.8330    78.3990    19.8250    19.4430    19.6430    24.3790 
  177.8750     2.5800   -30.8990    78.2440    19.0960    18.8610    18.9650    24.3960 
  178.0000     2.5760   -30.9580    81.6330    18.0350    17.9360    18.3250    24.4690 
  178.1250     2.5730   -31.0450    84.5360    16.7800    16.7770    17.6430    24.6200 
  178.2500     2.5670   -31.1370    82.7480    15.4880    15.5290    17.2420    24.8010 
  178.3750     2.5530   -31.2850    77.5890    14.2930    14.3250    15.9300    24.8770 
  178.5000     2.5300   -31.4510    75.0290    13.2320    13.2310    13.6810    24.8960 
  178.6250     2.5060   -31.6720    79.0430    12.3640    12.3040    11.5460    24.8960 
  178.7500     2.4920   -31.9050    85.9450    11.7920    11.6370    10.7630    24.8960 
  178.8750     2.4970   -32.1600    87.1250    11.6850    11.3920    11.0760    24.8950 
  179.0000     2.5100   -32.4510    81.5610    11.9640    11.5250    11.8860    24.8820 
  179.1250     2.5150   -32.7560    74.3470    12.4790    11.9340    13.3850    24.8280 
  179.2500     2.5010   -33.0940    71.0560    12.9810    12.4090    15.1760    24.7070 
  179.3750     2.4660   -33.3840    70.6080    13.1760    12.6550    14.5750    24.6220 
  179.5000     2.4320   -33.6580    70.2980    13.0660    12.6020    13.1040    24.5710 
  179.6250     2.4140   -33.8690    70.3900    12.8320    12.3730    12.0830    24.5420 
  179.7500     2.4120   -34.0390    70.8780    12.7270    12.1850    11.8460    24.5270 
  179.8750     2.4170   -34.1790    70.7910    13.0030    12.2790    12.3920    24.5270 
  180.0000     2.4250   -34.2490    70.0170    13.6330    12.6840    13.1610    24.5280 
  180.1250     2.4360   -34.2740    69.3840    14.4980    13.3330    13.9930    24.5290 
  180.2500     2.4520   -34.2270    69.5120    15.4220    14.0960    14.9210    24.5290 
  180.3750     2.4710   -34.1360    68.6790    16.2350    14.8290    15.6400    24.5290 
  180.5000     2.4870   -33.9890    66.2160    16.9020    15.4740    16.6160    24.5290 
  180.6250     2.4980   -33.8190    64.8890    17.4510    16.0410    17.6450    24.5290 
  180.7500     2.5040   -33.6100    68.0130    17.9120    16.5440    18.4930    24.5290 
  180.8750     2.5070   -33.3270    72.6770    18.2370    16.9440    17.8230    24.5280 
  181.0000     2.5110   -33.0200    71.2210    18.3640    17.1770    18.5070    24.5300 
  181.1250     2.5160   -32.6630    65.8110    18.2000    17.1490    20.0300    24.5420 
  181.2500     2.5230   -32.2970    65.6740    17.6650    16.7710    22.0900    24.5730 
  181.3750     2.5290   -31.9090    73.3380    16.6820    15.9420    19.4400    24.5890 
  181.5000     2.5240   -31.5360    78.2460    15.4450    14.8230    14.3720    24.5940 
  181.6250     2.5070   -31.1820    77.5220    14.1980    13.6250    11.2700    24.5940 
  181.7500     2.4880   -30.8670    76.1250    13.2100    12.5950    10.8270    24.5940 
  181.8750     2.4820   -30.6590    75.0050    12.7790    12.0060    11.5790    24.5940 
  182.0000     2.4870   -30.5000    72.0450    12.9110    11.8950    11.9870    24.5940 
  182.1250     2.4970   -30.4330    69.3180    13.5780    12.2700    12.4130    24.5940 
  182.2500     2.5090   -30.4140    69.0440    14.6740    13.0760    13.6570    24.5940 
  182.3750     2.5180   -30.4800    70.0720    16.0230    14.2150    15.2580    24.5940 
  182.5000     2.5220   -30.5820    70.6220    17.3220    15.4260    16.7120    24.5940 
  182.6250     2.5260   -30.6970    70.4940    18.3520    16.4930    17.6560    24.5940 
  182.7500     2.5360   -30.8410    70.3540    18.9900    17.2530    17.7200    24.5940 
  182.8750     2.5550   -30.9360    71.4910    19.2100    17.6120    17.6920    24.5940 
  183.0000     2.5740   -31.0440    74.3200    19.2270    17.7250    17.4450    24.5940 
  183.1250     2.5860   -31.1200    76.7820    19.1750    17.7080    17.5040    24.5940 
  183.2500     2.5930   -31.1870    76.8980    19.1320    17.6380    17.7380    24.5940 
  183.3750     2.6000   -31.2630    75.3220    19.1230    17.5590    18.5830    24.5940 
  183.5000     2.6030   -31.3000    76.6490    19.0850    17.4520    19.3830    24.5940 
  183.6250     2.5900   -31.3270    80.9610    18.9300    17.2560    18.7520    24.6020 
  183.7500     2.5620   -31.3390    82.5730    18.6150    16.9340    16.6230    24.6350 
  183.8750     2.5300   -31.3630    78.1800    18.2000    16.5150    14.9040    24.7150 
  184.0000     2.5080   -31.3380    74.7400    17.8740    16.1490    14.5000    24.7850 
  184.1250     2.5030   -31.3090    75.7950    17.7970    15.9760    14.6710    24.8120 
  184.2500     2.5100   -31.2770    77.2520    18.0520    16.0860    15.2030    24.8250 
  184.3750     2.5250   -31.1920    75.5110    18.6540    16.5350    15.6470    24.8510 
  184.5000     2.5310   -31.1330    74.1010    19.4060    17.1840    16.6810    24.8750 
  184.6250     2.5250   -31.0590    75.7380    20.1170    17.8830    17.6030    24.8850 
  184.7500     2.5140   -30.9830    79.1040    20.5840    18.4440    17.5730    24.8860 
  184.8750     2.5070   -30.9120    80.4160    20.5700    18.6190    17.4340    24.8860 
  185.0000     2.5040   -30.8660    80.2180    20.1280    18.3960    17.6730    24.8860 
  185.1250     2.5020   -30.7970    81.8010    19.3900    17.8600    17.5960    24.8860 
  185.2500     2.4980   -30.7070    84.5540    18.5840    17.1950    16.2910    24.8860 
  185.3750     2.4970   -30.6610    84.0590    18.0170    16.6640    16.1060    24.8860 
  185.5000     2.5000   -30.6180    80.6500    17.8050    16.4090    16.9790    24.8860 
  185.6250     2.5090   -30.5930    77.4870    17.9230    16.4420    17.7450    24.8860 
  185.7500     2.5250   -30.5650    77.6890    18.2400    16.6830    17.0730    24.8860 
  185.8750     2.5440   -30.5570    81.7610    18.5740    16.9960    16.2740    24.8870 
  186.0000     2.5560   -30.5430    84.7870    18.8120    17.2550    16.1690    24.8880 
  186.1250     2.5600   -30.5610    84.5530    18.9620    17.4400    16.7640    24.8900 
  186.2500     2.5620   -30.6010    82.5530    19.0890    17.5910    17.8910    24.8880 
  186.3750     2.5660   -30.5960    80.8390    19.2250    17.7370    17.8410    24.8870 
  186.5000     2.5670   -30.5970    79.4220    19.3160    17.8470    17.6090    24.8860 
  186.6250     2.5640   -30.5980    79.2250    19.3100    17.8820    17.5260    24.8860 
  186.7500     2.5640   -30.6000    79.3690    19.1960    17.8300    17.8870    24.8860 
  186.8750     2.5690   -30.5630    78.1000    18.9990    17.7060    17.8460    24.8860 
  187.0000     2.5730   -30.5290    77.8150    18.7960    17.5720    17.4370    24.8860 
  187.1250     2.5690   -30.4720    79.2010    18.6390    17.4780    17.0860    24.8860 
  187.2500     2.5580   -30.3970    79.2720    18.5390    17.4540    17.0790    24.8860 
  187.3750     2.5450   -30.3300    76.5810    18.4640    17.5020    17.0340    24.8890 
  187.5000     2.5350   -30.2290    73.8540    18.3520    17.5660    17.2600    24.9040 
  187.6250     2.5250   -30.1230    72.6240    18.1660    17.6030    17.8950    24.9340 
  187.7500     2.5120   -29.9990    74.0080    17.8900    17.5790    18.6930    24.9550 
  187.8750     2.4920   -29.8860    79.9570    17.5540    17.4880    18.3780    24.9650 
  188.0000     2.4720   -29.7640    85.4140    17.2460    17.3850    16.7220    24.9910 
  188.1250     2.4540   -29.6550    86.1160    17.0340    17.3290    15.7990    25.0590 
