~V
VERS. 2.00: Ver 2.00
~W
STRT.M 50.0000:
STOP.M 199.0000:
STEP.M 0.1250:
NULL. -999.2500:
UWI. F10575:
~C
DEPT.M :
DEN.GM/CC :
SP.MV :
GR.API :
RML.OHMM :
RI. :
RXO.OHMM :
CALI.CM :
~A
# ...
   83.7500     2.1360   -29.3610    36.1700    12.3650    10.6990     8.6550    38.2190 
   83.8750     2.1500   -29.3730    37.7690    12.4800    10.8220     8.7920    38.2190 
   84.0000     2.1670   -29.3880    40.9360    12.6290    10.9100     8.8040    38.2190 
   84.1250     2.1700   -29.3610    42.5410    12.7860    10.9420     8.9530    38.2190 
   84.2500     2.1570   -29.3330    40.3790    12.8490    10.9460     9.1730    38.2190 
   84.3750     2.1370   -29.3470    36.9460    12.7490    10.9510     9.3000    38.2190 
   84.5000     2.1180   -29.3580    35.6050    12.5300    10.9740     9.1870    38.2190 
   84.6250     2.1070   -29.3520    36.2970    12.3430    11.0050     8.8210    38.2190 
   84.7500     2.1010   -29.3610    36.3370    12.2900    11.0260     8.4480    38.2190 
   84.8750     2.1010   -29.3880    34.8800    12.3520    11.0380     8.1950    38.2190 
   85.0000     2.1120   -29.4190    32.8520    12.4400    11.0600     8.1770    38.2190 
   85.1250     2.1330   -29.4680    31.9750    12.4970    11.1050     8.4760    38.2190 
   85.2500     2.1540   -29.5290    33.5880    12.5660    11.1470     8.7830    38.2190 
   85.3750     2.1680   -29.5900    36.1650    12.6980    11.1520     8.9500    38.2190 
   85.5000     2.1740   -29.6510    36.8680    12.8970    11.0970     9.0110    38.2190 
   85.6250     2.1690   -29.7470    36.7100    13.1040    10.9920     9.0780    38.2190 
   85.7500     2.1600   -29.8460    37.2090    13.2520    10.8840     8.8800    38.2190 
   85.8750     2.1550   -29.8950    36.9570    13.3200    10.8060     8.6280    38.2190 
   86.0000     2.1570   -29.9190    35.2710    13.3240    10.7720     8.5550    38.2190 
   86.1250     2.1610   -29.9540    34.1850    13.2860    10.7760     8.6250    38.2190 
   86.2500     2.1600   -29.9620    35.4930    13.2150    10.7830     8.5540    38.2190 
   86.3750     2.1500   -29.9290    38.2590    13.0940    10.7600     8.3410    38.2190 
   86.5000     2.1330   -29.8580    40.2330    12.9270    10.6780     8.0260    38.2190 
   86.6250     2.1100   -29.7640    39.7510    12.7410    10.5140     7.6660    38.2190 
   86.7500     2.0890   -29.6600    37.3220    12.5450    10.2930     7.3710    38.2190 
   86.8750     2.0720   -29.5750    35.9350    12.3330    10.0410     7.1940    38.2190 
   87.0000     2.0590   -29.4800    37.5050    12.1130     9.7840     7.2030    38.2190 
   87.1250     2.0520   -29.3580    37.9900    11.9250     9.5610     7.3650    38.2190 
   87.2500     2.0470   -29.2330    35.6000    11.8090     9.3950     7.3960    38.2190 
   87.3750     2.0420   -29.0890    33.3540    11.7700     9.2920     7.2190    38.2190 
   87.5000     2.0390   -28.9180    34.4240    11.7570     9.2350     7.0710    38.2190 
   87.6250     2.0510   -28.7150    36.9460    11.7250     9.1780     7.5500    38.2190 
   87.7500     2.0790   -28.4730    36.6930    11.8500     9.0620     8.3810    38.2190 
   87.8750     2.1150   -28.1800    35.9200    11.8500     8.8610     8.6480    38.2190 
   88.0000     2.1400   -27.9050    36.8900    11.8500     8.5850     8.2770    38.2190 
   88.1250     2.1450   -27.6170    37.7680    11.8500     8.2830     7.9340    38.2190 
   88.2500     2.1360   -27.3220    36.7220    11.8500     8.0270     7.9240    38.2190 
   88.3750     2.1170   -27.0920    34.7390    11.8500     7.8610     8.3800    38.2190 
   88.5000     2.0910   -26.9100    34.4990    11.8500     7.8060     8.9500    38.2190 
   88.6250     2.0660   -26.7180    36.3710    11.8500     7.8730     8.9460    38.2190 
   88.7500     2.0530   -26.5440    37.6200    11.8440     8.0150     8.7990    38.2190 
   88.8750     2.0530   -26.4300    37.4350    11.8100     8.2030     8.7470    38.2190 
   89.0000     2.0600   -26.3060    36.8440    11.7440     8.4070     8.6690    38.2190 
   89.1250     2.0670   -26.1500    38.0130    11.6430     8.5900     8.7090    38.2190 
   89.2500     2.0760   -25.9610    40.7550    11.5240     8.7020     8.8140    38.2190 
   89.3750     2.0900   -25.6990    42.9540    11.3940     8.6870     8.7310    38.2190 
   89.5000     2.1060   -25.3600    43.5690    11.2520     8.5070     8.2680    38.2190 
   89.6250     2.1270   -24.9540    44.4710    11.0720     8.1560     7.5000    37.9070 
   89.7500     2.1540   -24.5030    47.0810    10.7420     7.7450     6.8650    37.1240 
   89.8750     2.1790   -24.0460    50.6770    10.2220     7.3770     6.7130    36.2310 
   90.0000     2.1880   -23.6210    52.3480     9.8330     7.1440     6.7840    35.7310 
   90.1250     2.1810   -23.2850    51.3320     9.7530     7.1400     6.9690    35.1550 
   90.2500     2.1770   -23.0220    50.0200     9.9370     7.3280     7.2080    33.8520 
   90.3750     2.1830   -22.8060    49.4280    10.3410     7.6590     7.5040    32.1680 
   90.5000     2.1920   -22.6810    49.3020    10.9150     8.0600     8.0500    30.9330 
   90.6250     2.1880   -22.6610    50.5660    11.5670     8.4320     8.8410    30.2950 
   90.7500     2.1760   -22.6750    53.7830    12.1750     8.7070     9.2430    29.8320 
   90.8750     2.1670   -22.6240    56.3990    12.6480     8.8460     9.4050    29.3800 
   91.0000     2.1650   -22.4790    56.5180    12.9070     8.8280     9.6630    28.9360 
   91.1250     2.1670   -22.2350    55.9150    12.8120     8.6040     9.8490    28.5050 
   91.2500     2.1700   -21.9020    56.3690    12.3360     8.2010     9.9450    28.1030 
   91.3750     2.1760   -21.4970    57.5540    11.5110     7.6790     9.6290    27.7020 
   91.5000     2.1870   -21.0270    59.4740    10.5660     7.1860     8.8960    27.2990 
   91.6250     2.2090   -20.4820    62.4110    10.0740     7.0100     9.3540    26.9820 
   91.7500     2.2460   -19.8940    62.9380    10.6200     7.4050    10.2110    26.8300 
   91.8750     2.3000   -19.3440    59.7550    12.8190     8.7160    11.9000    26.7900 
   92.0000     2.3730   -18.8600    54.8870    17.1690    11.3640    16.4880    26.7880 
   92.1250     2.4640   -18.4280    51.0530    23.8660    15.9370    32.3790    26.7860 
   92.2500     2.5590   -18.0820    48.6550    30.6580    21.4840    53.4510    26.7590 
   92.3750     2.6330   -17.8630    48.0020    34.0090    25.5890    64.6050    26.6780 
   92.5000     2.6640   -17.7490    49.4890    31.2690    25.3760    49.0950    26.5280 
   92.6250     2.6370   -17.7380    52.4970    23.9400    20.7580    27.1170    26.3480 
   92.7500     2.5730   -17.8340    56.9530    17.0470    15.6390    13.5970    26.2040 
   92.8750     2.4830   -17.9670    62.5400    12.2650    11.6740     9.1530    26.1380 
   93.0000     2.3840   -18.1030    68.3440     9.4880     9.0950     7.8320    26.1770 
   93.1250     2.3090   -18.2360    73.5140     8.2450     7.7480     7.0960    26.3230 
   93.2500     2.2690   -18.3350    76.3200     7.7850     7.1210     6.4320    26.4400 
   93.3750     2.2570   -18.3880    75.2540     7.8380     6.9850     6.2050    26.4170 
   93.5000     2.2570   -18.4020    71.7420     8.2080     7.1420     6.4960    26.3810 
   93.6250     2.2580   -18.3620    70.4820     8.6950     7.4010     6.7420    26.4780 
   93.7500     2.2610   -18.2740    70.9480     9.0560     7.5710     6.8010    26.7070 
   93.8750     2.2750   -18.1620    69.3100     9.1480     7.5630     6.7330    26.9110 
   94.0000     2.3050   -18.0360    66.7450     8.9550     7.3770     6.4610    26.9960 
   94.1250     2.3430   -17.8990    68.6750     8.5620     7.0780     5.9320    26.9040 
   94.2500     2.3670   -17.7670    73.0810     8.1530     6.7790     5.4510    26.5400 
   94.3750     2.3650   -17.6450    74.4580     7.8050     6.5320     5.3960    25.8200 
   94.5000     2.3440   -17.4990    72.7280     7.5170     6.3410     5.6020    24.9610 
   94.6250     2.3170   -17.3680    73.6630     7.2550     6.1870     5.5260    24.4250 
   94.7500     2.2940   -17.2640    77.8680     7.0330     6.0640     5.5230    24.2330 
   94.8750     2.2760   -17.1830    81.9880     6.9450     6.0130     5.6770    24.1650 
