~V
VERS. 2.00: Ver 2.00
~W
STRT.M 52.0000:
STOP.M 208.0000:
STEP.M 0.1250:
NULL. -999.2500:
UWI. F10572:
~C
DEPT.M :
GR.API :
RML.OHMM :
RI. :
RXO.OHMM :
CALI.CM :
DEN.GM/CC :
SP.MV :
~A
# ...
   97.0000    70.8610    12.6940     9.9670     8.1640    23.1960     2.2150   -25.1530 
   97.1250    69.1740    14.3550    11.3560     8.9210    23.3010     2.3320   -25.2680 
   97.2500    68.4770    14.8180    12.0210     9.1120    23.2840     2.4210   -25.3510 
   97.3750    69.0280    13.7620    11.5290     8.3550    23.1980     2.4380   -25.4150 
   97.5000    72.9050    11.7790    10.1720     7.0930    23.0400     2.3990   -25.4760 
   97.6250    81.7440     9.8400     8.6380     5.9510    22.8140     2.3490   -25.5050 
   97.7500    87.6200     8.4310     7.4060     5.0790    22.6230     2.3130   -25.4910 
   97.8750    85.6940     7.5870     6.5800     4.6830    22.5290     2.2950   -25.4870 
   98.0000    81.3490     7.2240     6.1440     4.5750    22.4660     2.2970   -25.5190 
   98.1250    82.7190     7.3600     6.1220     4.6240    22.3730     2.3200   -25.5360 
   98.2500    85.2910     7.9500     6.4570     4.7340    22.1970     2.3610   -25.5250 
   98.3750    83.8090     9.0120     7.1610     5.0120    22.0030     2.4050   -25.5230 
   98.5000    78.9550    10.4490     8.1920     6.0320    21.9660     2.4290   -25.5550 
   98.6250    74.3210    11.8930     9.3420     8.6400    22.1450     2.4130   -25.6320 
   98.7500    71.4990    12.7550    10.1670    11.6220    22.3350     2.3680   -25.7350 
   98.8750    72.9160    12.6440    10.3020    11.0960    22.4530     2.3070   -25.8070 
   99.0000    78.4260    11.6380     9.6930     8.0360    22.4570     2.2520   -25.8300 
   99.1250    83.2720    10.2470     8.6370     5.9310    22.3170     2.2290   -25.8670 
   99.2500    84.7500     9.0620     7.6250     5.4240    22.1220     2.2360   -25.9220 
   99.3750    84.5870     8.3080     6.8770     5.4900    21.9850     2.2600   -25.9350 
   99.5000    84.8700     8.0390     6.4830     5.4750    21.8230     2.2870   -25.8790 
   99.6250    86.4440     8.3090     6.5170     5.2040    21.5350     2.3000   -25.7720 
   99.7500    86.9080     9.0260     6.9100     5.1570    21.1300     2.3020   -25.6070 
   99.8750    84.7320    10.1910     7.6620     5.6880    20.7520     2.2910   -25.3650 
  100.0000    79.5950    11.7830     8.7630     7.0490    20.5400     2.2600   -25.0790 
  100.1250    73.2750    13.7860    10.2260     8.9040    20.5360     2.2000   -24.7590 
  100.2500    68.5810    16.0380    11.9350    10.1210    20.6580     2.1360   -24.4020 
  100.3750    67.1290    18.4660    13.8260    10.6950    20.9580     2.0950   -24.0310 
  100.5000    68.0410    21.0780    15.8690    11.9120    21.2470     2.1000   -23.6510 
  100.6250    67.9390    24.1070    18.1960    13.3820    21.1940     2.1560   -23.2450 
  100.7500    66.7370    27.7030    20.9320    17.2390    20.8490     2.2170   -22.8610 
  100.8750    66.3280    31.8990    24.1400    18.6250    20.3680     2.2390   -22.5720 
  101.0000    66.9790    36.4720    27.7030    15.2010    19.8550     2.2150   -22.3450 
  101.1250    67.7120    40.6640    31.1710    10.9680    19.0340     2.1730   -22.1250 
  101.2500    67.8750    43.1630    33.6530     8.8210    18.1250     2.1420   -21.9180 
  101.3750    67.9250    42.5590    34.0920     9.1540    17.5030     2.1280   -21.7560 
  101.5000    67.7880    38.3610    31.8730    10.9320    17.4180     2.1280   -21.6920 
  101.6250    67.3950    31.5140    27.2040    11.5070    17.6210     2.1410   -21.7270 
  101.7500    67.6310    24.5400    21.8740    10.6360    17.9600     2.1610   -21.7710 
  101.8750    69.9470    18.7620    17.0740     9.5210    18.5710     2.1890   -21.7880 
  102.0000    73.7190    14.5810    13.3790     8.3680    19.5160     2.2230   -21.8140 
  102.1250    78.4300    11.9240    10.9200     8.8430    20.5680     2.2600   -21.8840 
  102.2500    84.5200    10.1220     9.2180     8.1990    21.3650     2.2930   -21.9480 
  102.3750    89.4810     8.8980     8.0520     7.0770    21.8080     2.3180   -21.9440 
  102.5000    89.4750     8.0840     7.2810     6.4700    21.9830     2.3310   -21.8380 
  102.6250    84.5530     7.6340     6.8650     5.5180    22.0350     2.3350   -21.6770 
  102.7500    81.5280     7.4450     6.6930     4.9520    22.0350     2.3350   -21.4970 
  102.8750    82.1470     7.4800     6.7230     4.9890    22.0140     2.3340   -21.2620 
  103.0000    83.2080     7.7050     6.9190     5.4190    21.9960     2.3340   -20.9410 
  103.1250    82.2620     8.1580     7.2980     5.8920    21.9910     2.3370   -20.5210 
  103.2500    81.6200     8.8890     7.8830     6.1210    21.9920     2.3360   -20.0710 
  103.3750    82.6900    10.0390     8.7640     6.6040    21.9960     2.3190   -19.6300 
  103.5000    82.4800    11.7710    10.0580     7.8520    22.0040     2.2810   -19.1770 
  103.6250    77.5980    14.3230    11.9620    10.9070    22.0240     2.2240   -18.6540 
  103.7500    71.9570    17.4760    14.3610    15.4560    22.0700     2.1640   -18.1270 
  103.8750    67.9480    20.8760    17.0180    19.2700    22.1550     2.1130   -17.6560 
  104.0000    65.3570    24.0150    19.5370    21.4760    22.2660     2.0770   -17.2360 
  104.1250    64.5980    26.3800    21.4550    22.1070    22.1870     2.0590   -16.8320 
  104.2500    65.8780    28.1770    22.8460    22.3960    21.9810     2.0510   -16.4340 
  104.3750    67.3200    29.8330    24.0100    22.9950    21.8860     2.0490   -16.0670 
  104.5000    67.1060    31.7700    25.2890    25.7530    21.9530     2.0570   -15.7780 
  104.6250    65.5010    34.2420    26.9430    30.4350    21.9730     2.0820   -15.5960 
  104.7500    63.3980    37.0400    28.8970    33.7010    21.9220     2.1180   -15.4510 
  104.8750    62.2480    39.9070    31.0070    35.3440    21.9030     2.1540   -15.2920 
  105.0000    62.7930    42.5730    33.0820    37.2380    21.9640     2.1790   -15.1120 
  105.1250    62.7650    44.6860    34.8580    40.6700    22.1020     2.1850   -14.9800 
  105.2500    61.5060    46.0600    36.1580    44.7740    22.2240     2.1740   -14.9080 
  105.3750    60.2750    46.4930    36.8090    45.8360    22.3270     2.1530   -14.8500 
  105.5000    59.2920    45.9060    36.7190    44.6340    22.4140     2.1340   -14.7640 
  105.6250    57.7720    44.4290    35.9030    43.2680    22.5760     2.1360   -14.6760 
  105.7500    56.7970    42.7850    34.8280    40.0360    22.8130     2.1620   -14.5970 
  105.8750    57.4320    41.5950    33.9430    35.7730    23.0280     2.1940   -14.5130 
  106.0000    58.8460    41.3430    33.6620    33.7740    23.1150     2.2080   -14.4470 
  106.1250    58.5380    42.4860    34.4260    34.2220    23.1820     2.1870   -14.4070 
  106.2500    57.4310    44.7860    36.1570    35.5390    23.3800     2.1440   -14.3550 
  106.3750    56.7930    47.9370    38.6970    38.8320    23.7600     2.0990   -14.2940 
  106.5000    56.3910    51.3930    41.6660    44.5660    24.1770     2.0650   -14.2270 
  106.6250    55.8050    54.3270    44.4120    47.9250    24.2960     2.0570   -14.1160 
  106.7500    55.9900    56.2710    46.4320    48.5660    24.1170     2.0650   -14.0080 
  106.8750    56.9550    57.1510    47.5460    43.5590    23.7050     2.0830   -13.9770 
  107.0000    55.2930    57.2450    47.8900    40.0070    23.3360     2.1030   -13.9950 
  107.1250    50.8310    56.9530    47.7390    37.3750    23.1310     2.1170   -13.9800 
  107.2500    49.1000    56.4640    47.3410    34.3630    23.0740     2.1230   -13.9340 
  107.3750    50.3410    55.4810    46.5280    31.7940    23.0630     2.1260   -13.9110 
  107.5000    51.8640    53.5730    44.9910    31.7420    23.0760     2.1290   -13.9400 
  107.6250    52.7990    50.3680    42.4200    33.8020    23.1130     2.1330   -14.0170 
  107.7500    54.1820    46.3890    39.1920    32.4290    23.1360     2.1370   -14.0690 
  107.8750    55.7390    42.3160    35.8160    27.5630    23.0830     2.1430   -14.0330 
  108.0000    57.2640    38.9090    32.8980    25.6980    23.0160     2.1490   -13.9460 
  108.1250    57.9820    37.0250    31.1310    26.9190    22.9300     2.1510   -13.8810 
