~V
VERS. 2.00: Ver 2.00
~W
STRT.M 40.0000:
STOP.M 191.0000:
STEP.M 0.1250:
NULL. -999.2500:
UWI. F10585:
~C
DEPT.M :
DEN.GM/CC :
SP.MV :
GR.API :
RML.OHMM :
RI. :
RXO.OHMM :
CALI.CM :
~A
# ...
   62.5000     2.1930   -11.7790   107.8390     8.7750     7.5090     6.6170    23.6060 
   62.6250     2.1820   -12.1700   109.1110     8.1730     6.9430     7.2010    23.7690 
   62.7500     2.1810   -12.5000   103.9890     8.2420     6.9510     7.5220    24.0260 
   62.8750     2.1970   -12.7890    98.1990     9.1830     7.6690     7.6890    24.2310 
   63.0000     2.2420   -13.0320    94.6730    11.2380     9.3030     8.9150    24.3240 
   63.1250     2.3290   -13.2290    90.5200    14.7550    12.2000    14.0810    24.3250 
   63.2500     2.4250   -13.3890    84.1510    19.0030    15.8440    25.1060    24.2250 
   63.3750     2.4760   -13.5540    79.4820    22.2340    18.9240    37.9510    24.0140 
   63.5000     2.4550   -13.7290    80.0920    22.0830    19.4910    41.9370    23.7940 
   63.6250     2.3900   -13.8340    86.3170    18.0750    16.6530    27.3550    23.6770 
   63.7500     2.3340   -13.8940    92.7210    13.5940    12.8870    14.1800    23.7190 
   63.8750     2.3050   -13.9180    99.6590    10.2810     9.7390     8.6070    23.8200 
   64.0000     2.3010   -13.9560   107.7890     8.3830     7.6790     7.2460    23.8980 
   64.1250     2.3170   -13.9850   112.9910     7.7320     6.7250     7.3160    23.9160 
   64.2500     2.3480   -14.0210   111.5480     7.7590     6.4530     7.6510    23.9090 
   64.3750     2.3860   -14.0470   106.5290     8.1740     6.6290     8.8310    23.8800 
   64.5000     2.4120   -14.0550   102.7890     8.7260     7.0240    10.7970    23.8580 
   64.6250     2.3900   -14.1160    99.7810     9.2140     7.4310    11.1170    23.8590 
   64.7500     2.3260   -14.1900    97.0720     9.5500     7.7280    10.0080    23.9160 
   64.8750     2.2490   -14.2960    95.7950     9.6910     7.8800     8.6500    24.0620 
   65.0000     2.1920   -14.4040    93.6930     9.6220     7.8890     8.2980    24.2410 
   65.1250     2.1760   -14.5340    89.0120     9.3450     7.7940     8.9040    24.3180 
   65.2500     2.1920   -14.6710    84.9360     9.0070     7.7060     9.0790    24.3350 
   65.3750     2.2330   -14.8340    84.1220     8.8080     7.7360     8.8770    24.3350 
   65.5000     2.2930   -15.0160    85.7580     8.9860     8.0090     8.9590    24.3350 
   65.6250     2.3710   -15.1690    86.5940     9.8590     8.7220    10.0510    24.3350 
   65.7500     2.4510   -15.3310    85.8510    11.3670     9.8720    12.0750    24.3350 
   65.8750     2.5090   -15.4840    83.7320    13.2290    11.3270    15.4500    24.3350 
   66.0000     2.5180   -15.6100    81.6210    14.7750    12.6750    18.6570    24.3350 
   66.1250     2.4720   -15.7110    81.6210    14.8640    13.0600    19.2730    24.3350 
   66.2500     2.4040   -15.7690    83.0260    13.4240    12.2310    16.9030    24.3350 
   66.3750     2.3380   -15.7630    85.6370    11.1360    10.5350    12.0840    24.3350 
   66.5000     2.2900   -15.7390    89.1760     8.9400     8.6520     8.1130    24.3350 
   66.6250     2.2690   -15.6820    93.9520     7.5590     7.1960     7.0270    24.3360 
   66.7500     2.2650   -15.6060    97.9780     6.9480     6.2880     6.5970    24.3380 
   66.8750     2.2670   -15.5120    98.3550     6.9410     5.9090     6.3180    24.3370 
   67.0000     2.2710   -15.4360    94.7940     7.3320     5.9990     7.1160    24.3360 
   67.1250     2.2860   -15.3660    89.6470     7.9940     6.5660     9.2180    24.3240 
   67.2500     2.3170   -15.3170    85.5860     8.8890     7.5150    11.1330    24.2810 
   67.3750     2.3710   -15.3100    82.6460    10.1930     8.8820    11.3030    24.1920 
   67.5000     2.4460   -15.3030    80.6070    12.1600    10.7670    12.7490    24.0730 
   67.6250     2.5240   -15.3350    80.4600    15.0820    13.3940    18.9420    23.9680 
   67.7500     2.5720   -15.3800    80.0290    18.5560    16.5800    28.1000    23.8900 
   67.8750     2.5820   -15.4240    77.4150    21.7640    19.7850    34.9710    23.8990 
   68.0000     2.5750   -15.4570    73.2610    23.5180    21.8910    37.2980    24.0040 
   68.1250     2.5590   -15.4600    70.0920    22.5630    21.3770    37.5130    24.1670 
   68.2500     2.5220   -15.4390    70.8060    19.7420    18.9040    32.2660    24.2490 
   68.3750     2.4530   -15.3770    76.1530    16.2890    15.7160    24.2030    24.2780 
   68.5000     2.3620   -15.2930    84.7720    13.3090    12.8500    15.7980    24.3040 
   68.6250     2.2820   -15.2140    90.9050    11.4850    10.9080    11.3190    24.3580 
   68.7500     2.2340   -15.1230    92.0610    10.6430     9.7920    10.3310    24.3930 
   68.8750     2.2120   -15.0270    89.9730    10.6030     9.3980    10.5870    24.4060 
   69.0000     2.1980   -14.9230    86.7620    11.1270     9.6030    11.0970    24.4070 
   69.1250     2.1820   -14.8360    84.4690    11.9270    10.2990    11.8370    24.4040 
   69.2500     2.1670   -14.7770    83.9710    12.6540    11.1730    12.3740    24.3900 
   69.3750     2.1560   -14.7450    82.8480    13.1860    12.0020    12.5190    24.3620 
   69.5000     2.1460   -14.7410    78.5630    13.5620    12.6360    12.3100    24.3410 
   69.6250     2.1330   -14.7240    74.0940    13.9110    13.0250    12.0180    24.3350 
   69.7500     2.1270   -14.7170    73.9160    14.3320    13.2780    11.9320    24.3320 
   69.8750     2.1330   -14.7100    76.5320    14.7520    13.4230    11.9360    24.3360 
   70.0000     2.1480   -14.6810    78.6320    14.9410    13.3560    12.0180    24.3480 
   70.1250     2.1560   -14.6540    78.8380    14.5120    12.7860    11.7570    24.3870 
   70.2500     2.1640   -14.6090    78.5410    13.4550    11.7260    11.3860    24.3510 
   70.3750     2.1910   -14.5310    80.7900    12.0120    10.3920    10.4310    24.2840 
   70.5000     2.2380   -14.4200    88.6900    10.6270     9.1310     8.7730    24.2220 
   70.6250     2.2720   -14.3210    99.4930     9.8400     8.3390     7.8510    24.1990 
   70.7500     2.2590   -14.2100   102.8130     9.7990     8.1320     8.8650    24.2120 
   70.8750     2.2100   -14.0630    96.3240    10.5210     8.5640    10.8120    24.2960 
   71.0000     2.1530   -13.9210    85.5130    11.8910     9.6230    12.6030    24.4890 
   71.1250     2.1140   -13.7690    78.3320    13.6660    11.2300    13.8570    24.6570 
   71.2500     2.0900   -13.6350    76.1430    15.3440    12.9470    14.8070    24.7510 
   71.3750     2.0760   -13.5330    76.2450    16.5310    14.3670    15.5870    24.8090 
   71.5000     2.0650   -13.4470    76.2040    17.0160    15.2230    16.1180    24.8630 
   71.6250     2.0610   -13.3660    76.5380    16.8270    15.4250    16.0120    24.8830 
   71.7500     2.0870   -13.3340    78.0740    16.4500    15.2870    15.9690    24.8480 
   71.8750     2.1700   -13.3900    79.4700    16.2700    15.0870    17.9340    24.7070 
   72.0000     2.3090   -13.4910    79.2450    16.5600    15.1030    22.1320    24.4290 
   72.1250     2.4440   -13.5930    78.2770    17.4640    15.5830    24.9110    24.1950 
   72.2500     2.5140   -13.6750    78.2160    18.5680    16.3650    22.8240    24.0260 
   72.3750     2.5260   -13.7330    77.9660    19.1970    17.0380    22.0690    23.9270 
   72.5000     2.5100   -13.7910    77.8090    18.6230    16.9860    23.9990    23.8690 
   72.6250     2.4670   -13.8130    78.0370    16.4680    15.6060    22.0330    23.8530 
   72.7500     2.4020   -13.7400    80.0540    13.6910    13.4220    15.8570    23.8490 
   72.8750     2.3300   -13.5890    83.8190    11.1400    11.1110    10.6940    23.8480 
   73.0000     2.2690   -13.4080    87.8360     9.3100     9.2040     7.9520    23.8490 
   73.1250     2.2380   -13.1960    90.6910     8.4050     8.0230     7.7620    23.8460 
   73.2500     2.2300   -12.9630    91.5330     8.0560     7.4210     8.1100    23.8220 
   73.3750     2.2320   -12.7260    92.0370     7.9670     7.2400     7.9290    23.7610 
   73.5000     2.2340   -12.4760    93.1750     7.9110     7.2730     7.6280    23.6880 
   73.6250     2.2340   -12.2490    94.5640     7.7950     7.3170     7.1510    23.5610 
