~V
VERS. 2.00: Ver 2.00
~W
STRT.M 58.0000:
STOP.M 214.0000:
STEP.M 0.1250:
NULL. -999.2500:
UWI. F10594:
~C
DEPT.M :
GR.API :
RML.OHMM :
RI. :
RXO.OHMM :
CALI.CM :
DEN.GM/CC :
SP.MV :
~A
# ...
  148.0000    49.9320    16.6810    13.1320    14.2490    23.5600     2.4010   -24.2940 
  148.1250    50.5200    16.6990    13.1000    14.0140    23.6030     2.3870   -24.2370 
  148.2500    49.6620    16.8760    13.1810    14.3060    23.6330     2.3900   -24.1580 
  148.3750    48.6980    17.1680    13.3580    15.1880    23.7030     2.4060   -24.0650 
  148.5000    48.8420    17.4840    13.5770    15.6380    23.8040     2.4260   -23.9650 
  148.6250    48.6410    17.6820    13.7420    15.6240    23.8530     2.4360   -23.8620 
  148.7500    46.0960    17.6770    13.7770    15.7990    23.8660     2.4320   -23.7620 
  148.8750    42.0240    17.4530    13.6530    15.8860    23.8670     2.4250   -23.6690 
  149.0000    38.6250    17.0820    13.4070    15.6170    23.8670     2.4250   -23.5860 
  149.1250    38.6880    16.7160    13.1340    14.7430    23.8670     2.4440   -23.5190 
  149.2500    40.4790    16.4990    12.9460    14.0220    23.8670     2.4750   -23.4700 
  149.3750    41.6580    16.4790    12.8940    13.8240    23.8670     2.4990   -23.4410 
  149.5000    41.8550    16.6090    12.9590    14.2570    23.8670     2.5020   -23.4330 
  149.6250    42.3230    16.7200    13.0410    14.7600    23.8670     2.4830   -23.4510 
  149.7500    45.0110    16.6270    12.9970    15.1140    23.8620     2.4570   -23.4880 
  149.8750    48.3880    16.2510    12.7510    15.0690    23.8400     2.4360   -23.5430 
  150.0000    49.4240    15.6570    12.3260    13.9060    23.7930     2.4260   -23.6180 
  150.1250    47.8580    15.0520    11.8520    12.6360    23.7690     2.4240   -23.7150 
  150.2500    47.1800    14.6560    11.4940    11.6670    23.7760     2.4220   -23.8290 
  150.3750    47.8840    14.5870    11.3520    11.3700    23.7990     2.4210   -23.9490 
  150.5000    47.7440    14.8600    11.4610    11.8650    23.8230     2.4260   -24.0690 
  150.6250    44.8580    15.4130    11.8150    12.7150    23.8360     2.4380   -24.1800 
  150.7500    42.2040    16.0310    12.2740    13.5750    23.8330     2.4420   -24.2850 
  150.8750    41.8040    16.5650    12.7300    14.3950    23.8080     2.4320   -24.3890 
  151.0000    42.9380    16.9260    13.0980    15.2590    23.7340     2.4110   -24.4900 
  151.1250    43.6610    17.0920    13.3250    15.3620    23.6600     2.3900   -24.5830 
  151.2500    43.5860    17.1810    13.4620    15.0480    23.6140     2.3800   -24.6680 
  151.3750    44.0410    17.2730    13.5580    14.5800    23.5770     2.3800   -24.7490 
  151.5000    45.3930    17.3840    13.6390    14.5010    23.5030     2.3840   -24.8300 
  151.6250    45.9660    17.4070    13.6550    14.4800    23.3190     2.3840   -24.9180 
  151.7500    45.8440    17.1750    13.5060    14.5060    23.0820     2.3820   -25.0160 
  151.8750    46.7910    16.5500    13.0870    14.5170    23.0160     2.3800   -25.1240 
  152.0000    49.5200    15.5270    12.3700    14.4280    23.2630     2.3800   -25.2390 
  152.1250    54.1260    14.3010    11.4640    13.3950    23.4800     2.3840   -25.3590 
  152.2500    60.7800    13.2250    10.6200    12.0860    23.5950     2.3910   -25.4780 
  152.3750    69.0340    12.5240    10.0110    10.9320    23.6190     2.4010   -25.5980 
  152.5000    75.8030    12.3120     9.7410    10.1020    23.6130     2.4120   -25.7190 
  152.6250    75.0330    12.6290     9.8860    10.9960    23.5870     2.4170   -25.8310 
  152.7500    70.8040    13.2150    10.3020    12.3530    23.5530     2.4080   -25.9260 
  152.8750    68.2510    13.8320    10.8350    13.3550    23.5680     2.3840   -25.9970 
  153.0000    68.5530    14.2550    11.3100    14.2520    23.7450     2.3500   -26.0450 
  153.1250    70.1130    14.3010    11.5470    14.9600    24.3720     2.3150   -26.0710 
  153.2500    71.6300    14.0800    11.5570    14.0610    25.0890     2.2890   -26.0840 
  153.3750    74.7090    13.7500    11.4250    12.5100    25.1600     2.2710   -26.0840 
  153.5000    77.8070    13.4560    11.2540    12.0460    24.5900     2.2600   -26.0730 
  153.6250    78.9730    13.2970    11.1240    12.3110    24.1610     2.2510   -26.0590 
  153.7500    78.2190    13.2640    11.0570    12.4640    24.0600     2.2430   -26.0480 
  153.8750    75.6740    13.3100    11.0410    12.1700    24.1560     2.2360   -26.0460 
  154.0000    72.2590    13.3250    11.0110    11.9210    24.3730     2.2280   -26.0530 
  154.1250    69.1400    13.1280    10.8340    12.1320    24.5100     2.2260   -26.0660 
  154.2500    68.9150    12.7050    10.4760    12.4960    24.3390     2.2350   -26.0800 
  154.3750    71.5140    12.1640    10.0040    12.5620    24.0840     2.2620   -26.0870 
  154.5000    74.8810    11.7150     9.5690    12.3060    24.0350     2.3100   -26.0820 
  154.6250    77.1880    11.6920     9.4070    10.5220    24.1560     2.3660   -26.0560 
  154.7500    76.7670    12.2580     9.6500     9.9790    24.0640     2.4010   -26.0100 
  154.8750    72.8340    13.5110    10.3960    11.4980    23.7140     2.3940   -25.9470 
  155.0000    65.6120    15.4130    11.6670    14.7350    23.3200     2.3500   -25.8740 
  155.1250    58.9270    17.7640    13.4040    15.9950    23.0970     2.2950   -25.7980 
  155.2500    56.2240    19.9860    15.1980    17.5740    23.2760     2.2600   -25.7330 
  155.3750    56.3230    21.5650    16.6170    19.6730    23.9020     2.2610   -25.6920 
  155.5000    56.1070    22.2330    17.3560    21.3620    24.6850     2.2930   -25.6830 
  155.6250    55.8670    22.0920    17.3820    20.2370    24.7090     2.3260   -25.7220 
  155.7500    57.8660    21.7790    17.1560    18.2040    24.1420     2.3330   -25.8010 
  155.8750    61.6200    21.7000    16.9960    17.0660    23.5360     2.3140   -25.9170 
  156.0000    64.1590    22.1060    17.1130    16.6070    22.9930     2.2820   -26.0620 
  156.1250    63.7390    23.2140    17.7010    17.3590    22.3540     2.2540   -26.2260 
  156.2500    62.6540    24.8910    18.7110    18.0860    21.7530     2.2460   -26.3900 
  156.3750    63.0550    27.0230    20.0880    18.6590    21.4460     2.2610   -26.5360 
  156.5000    65.0970    29.4160    21.7230    20.0860    21.4250     2.2910   -26.6500 
  156.6250    64.5060    31.6730    23.3850    22.6750    21.5170     2.3080   -26.7130 
  156.7500    60.3500    33.3060    24.7170    26.2510    21.7480     2.3000   -26.7310 
  156.8750    56.3190    33.9420    25.4110    28.6700    22.2300     2.2710   -26.7070 
  157.0000    55.3670    33.5040    25.3360    29.4070    22.8460     2.2460   -26.6480 
  157.1250    55.8910    32.2520    24.5880    28.4890    23.3150     2.2500   -26.5550 
  157.2500    55.1990    30.9530    23.6910    25.4490    23.4420     2.2830   -26.4430 
  157.3750    53.6250    30.1090    23.0230    23.2670    23.3580     2.3220   -26.3220 
  157.5000    52.7220    29.9420    22.7970    23.7830    23.1900     2.3450   -26.2070 
  157.6250    54.2280    30.4490    23.0870    25.5810    23.2340     2.3380   -26.1170 
  157.7500    57.5160    31.2690    23.6780    27.2320    23.3820     2.3130   -26.0520 
  157.8750    59.8820    32.1650    24.4190    28.2760    23.4460     2.2810   -26.0140 
  158.0000    59.3440    32.9470    25.1600    28.1560    23.4460     2.2500   -26.0010 
  158.1250    56.3820    33.4390    25.7300    28.2090    23.4500     2.2240   -26.0170 
  158.2500    52.9950    33.6500    26.0700    28.4880    23.4070     2.2060   -26.0570 
  158.3750    50.6250    33.6130    26.1780    29.6050    23.3600     2.2000   -26.1200 
  158.5000    49.9820    33.3810    26.0950    30.3490    23.4460     2.2120   -26.2000 
  158.6250    50.7600    32.9750    25.8600    28.2530    23.4980     2.2380   -26.2890 
  158.7500    52.1370    32.4090    25.5140    25.3360    23.4630     2.2590   -26.3800 
  158.8750    52.8980    31.6370    25.0260    25.5130    23.3190     2.2660   -26.4660 
  159.0000    53.1000    30.6350    24.3640    28.3960    23.1300     2.2610   -26.5440 
  159.1250    55.2320    29.4550    23.5450    28.5340    23.0190     2.2580   -26.6120 
