~V
VERS. 2.00: Ver 2.00
~W
STRT.M 58.0000:
STOP.M 199.0000:
STEP.M 0.1250:
NULL. -999.2500:
UWI. F10565:
~C
DEPT.M :
SP.MV :
GR.API :
RML.OHMM :
RI. :
RXO.OHMM :
CALI.CM :
DEN.GM/CC :
~A
# ...
  114.2500    -3.1650    60.9840    47.4300    46.0730    40.2230    23.1020     2.4430 
  114.3750    -3.0940    58.3950    47.3570    46.0490    39.6020    23.1030     2.4430 
  114.5000    -3.0470    57.3640    46.9920    45.7180    38.7330    23.1260     2.4420 
  114.6250    -3.0210    58.7950    46.4520    45.1940    37.8640    23.1890     2.4400 
  114.7500    -2.9970    58.5020    45.9110    44.6400    37.9230    23.2900     2.4380 
  114.8750    -2.9690    56.9570    45.5760    44.2430    38.5610    23.3940     2.4390 
  115.0000    -2.9600    56.3530    45.6510    44.1840    38.5400    23.4800     2.4510 
  115.1250    -2.9850    56.3850    46.2890    44.6200    38.8780    23.5450     2.4750 
  115.2500    -3.0320    55.7320    47.5440    45.6450    39.9410    23.5880     2.5070 
  115.3750    -3.0850    54.7270    48.9730    46.8960    42.6320    23.6170     2.5310 
  115.5000    -3.1300    53.6990    50.0170    47.8810    46.6300    23.6460     2.5330 
  115.6250    -3.1560    53.2820    50.0930    48.0600    51.9060    23.6980     2.5020 
  115.7500    -3.1780    54.1080    48.7560    46.9650    51.9430    23.8090     2.4400 
  115.8750    -3.1980    55.5810    46.6400    45.0830    45.9170    23.9760     2.3720 
  116.0000    -3.2040    56.1020    44.5160    43.0770    38.3560    24.1650     2.3180 
  116.1250    -3.1800    55.2540    43.1150    41.6350    33.8280    24.3030     2.2950 
  116.2500    -3.1340    52.9420    43.0550    41.4010    34.1100    24.2910     2.3120 
  116.3750    -3.0850    50.5190    44.0620    42.2200    37.3890    24.1550     2.3580 
  116.5000    -3.0360    49.9940    45.6720    43.7260    41.6860    23.9760     2.4200 
  116.6250    -3.0030    52.5360    47.2160    45.3220    39.9930    23.8300     2.4830 
  116.7500    -2.9690    55.9840    47.8420    46.2180    35.4830    23.7350     2.5290 
  116.8750    -2.9210    56.5620    47.3240    46.1130    34.3860    23.6520     2.5500 
  117.0000    -2.8760    54.5790    45.7990    45.0540    34.3520    23.5740     2.5480 
  117.1250    -2.8560    53.4300    43.7100    43.3750    33.7140    23.5260     2.5280 
  117.2500    -2.8640    55.4660    41.6580    41.5610    31.7390    23.5350     2.5000 
  117.3750    -2.8720    58.2990    40.0730    40.0340    29.2560    23.5790     2.4760 
  117.5000    -2.8790    58.9680    39.1200    38.9870    27.9250    23.6280     2.4600 
  117.6250    -2.8930    56.7860    38.7880    38.4670    28.7830    23.6570     2.4560 
  117.7500    -2.9190    55.1220    38.9620    38.4410    30.5860    23.6700     2.4700 
  117.8750    -2.9630    56.2140    39.2820    38.6060    31.4000    23.7330     2.4920 
  118.0000    -3.0210    58.2930    39.5320    38.7540    30.8390    23.9180     2.5130 
  118.1250    -3.0940    58.5260    39.6380    38.7910    30.3610    24.2360     2.5220 
  118.2500    -3.1810    56.7970    39.7880    38.8650    31.1230    24.5740     2.5160 
  118.3750    -3.2840    55.4510    40.3620    39.3190    31.0180    24.7510     2.5080 
  118.5000    -3.3950    54.6080    41.6910    40.4710    30.8140    24.6990     2.5100 
  118.6250    -3.5030    54.4230    43.8920    42.4530    30.0800    24.4910     2.5260 
  118.7500    -3.6120    54.8230    46.6690    45.0540    33.4580    24.2930     2.5500 
  118.8750    -3.7260    55.4050    49.0340    47.4090    43.1830    24.1830     2.5690 
  119.0000    -3.8360    55.7210    50.0500    48.6640    52.0770    24.1370     2.5810 
  119.1250    -3.9310    55.3060    49.1360    48.2040    51.3320    24.1090     2.5870 
  119.2500    -4.0210    54.7310    46.2210    45.7640    42.7690    24.0720     2.5870 
  119.3750    -4.1020    54.1420    42.4790    42.3170    34.0090    24.0060     2.5770 
  119.5000    -4.1780    53.7330    38.7480    38.6530    29.7730    23.9140     2.5500 
  119.6250    -4.2540    53.9540    35.5550    35.3680    29.3710    23.8570     2.5060 
  119.7500    -4.3090    55.1650    33.2470    32.8970    27.1280    23.9780     2.4570 
  119.8750    -4.3300    57.2400    31.7460    31.2230    24.9680    24.2490     2.4230 
  120.0000    -4.3380    58.4270    31.0810    30.3760    23.6240    24.4670     2.4170 
  120.1250    -4.3460    57.2300    31.2770    30.3730    22.3260    24.4190     2.4410 
  120.2500    -4.3380    54.6980    32.3880    31.2800    22.3820    24.1040     2.4880 
  120.3750    -4.3370    52.0300    33.9800    32.7000    24.1880    23.8020     2.5370 
  120.5000    -4.3440    51.2570    35.5340    34.1670    28.8970    23.6340     2.5790 
  120.6250    -4.3520    53.5510    36.4200    35.0950    32.3640    23.5750     2.6080 
  120.7500    -4.3790    55.4500    35.9440    34.8050    32.0890    23.5870     2.6180 
  120.8750    -4.4310    54.7690    34.3320    33.4300    28.9180    23.6940     2.6110 
  121.0000    -4.4830    54.4600    32.0630    31.3540    25.2280    23.9340     2.5890 
  121.1250    -4.5100    57.1600    29.7530    29.1330    22.7890    24.2590     2.5570 
  121.2500    -4.5170    59.6280    28.0070    27.3580    21.1240    24.5110     2.5230 
  121.3750    -4.5140    59.1830    26.9640    26.2280    20.7960    24.6110     2.4970 
  121.5000    -4.4970    58.6780    26.6170    25.7720    21.6940    24.6070     2.4840 
  121.6250    -4.4680    59.2000    26.8540    25.8930    23.3740    24.5910     2.4890 
  121.7500    -4.4460    60.0700    27.4970    26.4140    23.6050    24.6070     2.5130 
  121.8750    -4.4340    60.6590    28.1340    26.9250    22.3850    24.6340     2.5500 
  122.0000    -4.4360    60.4880    28.4020    27.0780    22.9030    24.6510     2.5880 
  122.1250    -4.4620    58.7750    28.0180    26.6060    25.2770    24.6490     2.6150 
  122.2500    -4.4970    56.4830    26.8180    25.3580    26.2900    24.6310     2.6210 
  122.3750    -4.5170    55.1780    25.1900    23.6890    23.8790    24.6060     2.6100 
  122.5000    -4.5360    54.9390    23.5280    21.9590    20.9490    24.5730     2.5910 
  122.6250    -4.5590    55.5120    22.0990    20.5040    19.0230    24.5070     2.5640 
  122.7500    -4.5780    55.7340    21.1400    19.6530    19.3110    24.3320     2.5300 
  122.8750    -4.6110    54.6900    20.6910    19.3930    18.3710    24.0430     2.4880 
  123.0000    -4.6490    53.0630    20.9600    19.6580    17.3890    23.7290     2.4470 
  123.1250    -4.6870    51.4380    21.6650    20.2860    16.9850    23.5270     2.4170 
  123.2500    -4.7360    49.9750    22.4110    21.0440    18.3130    23.5220     2.4060 
  123.3750    -4.7940    49.1300    22.9590    21.6750    19.9250    23.6000     2.4100 
  123.5000    -4.8290    49.3430    23.2340    22.0510    21.3970    23.6630     2.4220 
  123.6250    -4.8340    49.4140    23.2630    22.1520    20.9120    23.6750     2.4380 
  123.7500    -4.8140    47.5670    23.1400    22.0330    19.5980    23.6430     2.4570 
  123.8750    -4.7730    45.8680    23.0070    21.8500    18.7850    23.6010     2.4780 
  124.0000    -4.7360    46.5020    22.8900    21.6660    19.7350    23.5630     2.4990 
  124.1250    -4.7240    48.4840    22.7150    21.4430    21.6540    23.5330     2.5190 
  124.2500    -4.7230    51.9390    22.2500    21.0010    22.0990    23.5040     2.5350 
  124.3750    -4.7180    56.5490    21.3710    20.2290    20.9340    23.4760     2.5430 
  124.5000    -4.7320    60.6160    20.0770    19.1150    20.2240    23.4690     2.5400 
  124.6250    -4.7730    60.9300    18.5270    17.7810    18.2500    23.5110     2.5280 
  124.7500    -4.8420    57.3700    17.0270    16.4660    15.0920    23.6100     2.5140 
  124.8750    -4.9070    56.3660    15.8510    15.3960    13.5910    23.7430     2.5070 
  125.0000    -4.9590    58.4500    15.1260    14.6970    13.7680    23.9120     2.5100 
  125.1250    -4.9870    60.4770    14.8500    14.3940    14.7100    24.1110     2.5180 
  125.2500    -5.0050    59.4860    14.9290    14.4410    13.8270    24.2980     2.5210 
  125.3750    -5.0380    59.0940    15.0970    14.5990    13.2130    24.4460     2.5090 
