~V
VERS. 2.00: Ver 2.00
~W
STRT.M 58.0000:
STOP.M 197.0000:
STEP.M 0.1250:
NULL. -999.2500:
UWI. F10573:
~C
DEPT.M :
SP.MV :
GR.API :
RML.OHMM :
RI. :
RXO.OHMM :
CALI.CM :
DEN.GM/CC :
~A
# ...
  125.5000   -22.7310    50.1840    31.0620    29.6670    41.2660    24.3560     2.6950 
  125.6250   -22.6120    50.8570    26.9260    25.9340    32.6070    24.3290     2.6980 
  125.7500   -22.5230    51.3330    23.0370    22.3430    22.1060    24.3490     2.6820 
  125.8750   -22.4620    52.1640    20.1930    19.6370    17.2780    24.3690     2.6510 
  126.0000   -22.3640    53.7270    18.5990    18.0280    16.5760    24.3630     2.6140 
  126.1250   -22.2070    52.9000    18.2200    17.5350    17.9590    24.3170     2.5710 
  126.2500   -22.0350    49.1360    18.5010    17.7110    19.9760    24.3610     2.5280 
  126.3750   -21.8940    45.5930    19.0790    18.2530    21.5740    24.4120     2.4860 
  126.5000   -21.8210    46.1250    19.6580    18.8680    22.0280    24.4350     2.4550 
  126.6250   -21.7890    50.3350    20.0620    19.3350    20.8640    24.4230     2.4430 
  126.7500   -21.7480    52.7460    20.3370    19.6430    20.4560    24.4270     2.4420 
  126.8750   -21.6980    51.3580    20.5190    19.8180    19.8980    24.4200     2.4440 
  127.0000   -21.6380    48.9640    20.5580    19.8290    19.8480    24.3960     2.4470 
  127.1250   -21.5880    48.6900    20.2610    19.5130    21.3280    24.3760     2.4550 
  127.2500   -21.5560    48.1910    19.5840    18.8380    22.1820    24.3610     2.4770 
  127.3750   -21.5420    46.4750    18.6160    17.8780    20.7160    24.3410     2.5120 
  127.5000   -21.5040    46.5520    17.5980    16.8470    16.9700    24.3530     2.5430 
  127.6250   -21.3760    49.4780    16.9360    16.1040    14.9750    24.3690     2.5470 
  127.7500   -21.2200    50.9490    16.8530    15.8690    14.8130    24.3320     2.5300 
  127.8750   -21.0600    50.6510    17.4080    16.2280    15.6860    24.1310     2.5100 
  128.0000   -20.9060    50.9040    18.4530    17.1010    16.8340    23.6710     2.5070 
  128.1250   -20.7330    52.1970    19.5680    18.1650    18.8270    23.1940     2.5300 
  128.2500   -20.5300    52.6110    20.1650    18.8430    21.2590    22.9710     2.5600 
  128.3750   -20.2770    52.3000    19.8610    18.7160    21.9400    23.0020     2.5730 
  128.5000   -19.9900    51.1470    18.6410    17.7030    19.8190    23.0800     2.5580 
  128.6250   -19.7380    50.5640    16.8570    16.0960    15.7560    23.1160     2.5220 
  128.7500   -19.4840    50.8550    15.1460    14.4870    13.6290    23.2250     2.4870 
  128.8750   -19.2290    52.6880    13.8320    13.1850    12.4610    23.4630     2.4630 
  129.0000   -18.9830    55.3190    13.0500    12.3300    11.7220    23.6060     2.4530 
  129.1250   -18.8030    56.1500    12.8730    12.0050    11.1900    23.5140     2.4540 
  129.2500   -18.6810    54.6860    13.1300    12.0720    11.4790    23.3670     2.4580 
  129.3750   -18.6090    52.9630    13.7350    12.4680    12.4760    23.3680     2.4650 
  129.5000   -18.5860    52.6220    14.5830    13.1130    13.8040    23.5460     2.4750 
  129.6250   -18.6090    52.4680    15.5380    13.9060    15.0440    23.7120     2.4870 
  129.7500   -18.6720    51.8790    16.4300    14.6820    15.6600    23.7750     2.4970 
  129.8750   -18.7570    52.2150    17.1650    15.3410    16.0910    23.7700     2.5020 
  130.0000   -18.8670    54.2240    17.7170    15.8320    15.0000    23.5930     2.5020 
  130.1250   -18.9820    56.5570    18.1200    16.1520    13.5050    23.4660     2.4960 
  130.2500   -19.0990    57.1360    18.4870    16.3970    14.1200    23.5010     2.4840 
  130.3750   -19.2260    56.0740    18.8990    16.6400    15.9290    23.6990     2.4710 
  130.5000   -19.3680    55.6940    19.4280    16.9600    17.0410    23.8770     2.4600 
  130.6250   -19.5110    58.0900    20.1320    17.4370    17.0300    23.9180     2.4520 
  130.7500   -19.6420    60.6130    20.8990    18.0060    16.9310    23.8910     2.4460 
  130.8750   -19.7550    59.8800    21.5170    18.5040    17.6470    23.8110     2.4440 
  131.0000   -19.8560    56.5990    21.7070    18.6960    18.9280    23.7640     2.4450 
  131.1250   -19.9350    53.3700    21.1210    18.2690    19.1050    23.8670     2.4530 
  131.2500   -19.9870    50.8330    19.8940    17.2910    18.0260    23.9630     2.4620 
  131.3750   -20.0110    48.4280    18.3140    15.9680    15.9290    24.0120     2.4700 
  131.5000   -20.0020    47.1870    16.7680    14.6050    14.1980    24.0320     2.4730 
  131.6250   -19.9790    49.5840    15.6480    13.5290    13.0120    24.0430     2.4700 
  131.7500   -19.9630    52.5770    15.0270    12.8430    12.4720    24.0630     2.4640 
  131.8750   -19.9690    53.2720    14.8820    12.5610    12.3750    24.0880     2.4590 
  132.0000   -19.9840    51.7610    15.1280    12.6340    13.1770    24.1150     2.4570 
  132.1250   -20.0110    49.6650    15.7120    13.0290    14.4210    24.1240     2.4620 
  132.2500   -20.0660    48.4740    16.5030    13.6240    15.5770    24.1010     2.4680 
  132.3750   -20.1440    49.0600    17.4010    14.3390    16.3810    24.0440     2.4740 
  132.5000   -20.2400    51.1660    18.2330    15.0380    17.4630    24.0340     2.4740 
  132.6250   -20.3520    51.8540    18.6740    15.4560    18.4120    24.1190     2.4650 
  132.7500   -20.4910    50.3950    18.5570    15.4290    20.0330    24.2570     2.4520 
  132.8750   -20.6520    49.4600    17.8550    14.9170    19.8470    24.3350     2.4390 
  133.0000   -20.8390    50.0260    16.7430    14.0430    16.7500    24.3680     2.4300 
  133.1250   -21.0350    48.6950    15.5650    13.0660    13.3940    24.3740     2.4300 
  133.2500   -21.2200    45.3720    14.6590    12.2630    11.9480    24.3710     2.4350 
  133.3750   -21.3860    44.4930    14.1850    11.7710    11.9200    24.3780     2.4470 
  133.5000   -21.5400    47.6760    14.1560    11.6270    12.7390    24.4000     2.4630 
  133.6250   -21.6820    51.0480    14.4440    11.7810    13.4790    24.4320     2.4810 
  133.7500   -21.8000    51.9450    14.6870    11.9680    14.1930    24.4390     2.4920 
  133.8750   -21.8720    54.4300    14.5940    11.9450    14.8160    24.4190     2.4860 
  134.0000   -21.8940    62.0690    13.9850    11.5340    14.5950    24.4090     2.4600 
  134.1250   -21.8640    70.9240    12.8190    10.6540    13.5500    24.4600     2.4260 
  134.2500   -21.7910    75.1840    11.4170     9.5390    11.9240    24.4960     2.4050 
  134.3750   -21.6810    74.7120    10.0280     8.3880    10.1980    24.4620     2.4060 
  134.5000   -21.5340    71.3480     8.8340     7.3580     9.0090    24.4070     2.4230 
  134.6250   -21.3530    64.8750     7.9700     6.5730     7.5980    24.3760     2.4350 
  134.7500   -21.1410    56.9400     7.3970     6.0220     6.6610    24.3400     2.4300 
  134.8750   -20.9330    50.3740     7.0890     5.6920     6.2320    24.2420     2.4140 
  135.0000   -20.7530    46.5620     7.0070     5.5590     6.0400    24.1520     2.4020 
  135.1250   -20.6080    45.2820     7.1290     5.6120     5.9230    24.0870     2.4090 
  135.2500   -20.5090    45.2040     7.3540     5.7710     6.1300    24.1300     2.4290 
  135.3750   -20.4510    46.1140     7.6030     5.9770     6.7250    24.2380     2.4440 
  135.5000   -20.4300    47.6210     7.7890     6.1610     7.4710    24.3660     2.4460 
  135.6250   -20.4300    47.1400     7.8290     6.2500     7.5630    24.4270     2.4330 
  135.7500   -20.4270    43.6220     7.7370     6.2350     7.2770    24.4410     2.4170 
  135.8750   -20.4100    39.9320     7.5580     6.1340     6.8960    24.4320     2.4010 
  136.0000   -20.3750    38.4870     7.3550     5.9820     6.5450    24.4080     2.3870 
  136.1250   -20.3260    38.2620     7.1890     5.8240     6.2630    24.3700     2.3770 
  136.2500   -20.2620    37.3700     7.0790     5.6840     6.0920    24.2950     2.3760 
  136.3750   -20.1880    36.3950     7.0130     5.5670     5.9090    24.1970     2.3860 
  136.5000   -20.1000    36.8640     6.9610     5.4650     5.7350    24.1020     2.4010 
  136.6250   -20.0100    37.0790     6.8920     5.3710     5.5580    23.9700     2.4130 
