~V
VERS. 2.00: Ver 2.00
~W
STRT.M 50.0000:
STOP.M 233.0000:
STEP.M 0.1250:
NULL. -999.2500:
UWI. F10598:
~C
DEPT.M :
DEN.GM/CC :
SP.MV :
GR.API :
RML.OHMM :
RI. :
RXO.OHMM :
CALI.CM :
~A
   50.0000     0.0000    48.2660    57.1970    13.5810     0.4710  1314.5280    24.1740 
   50.1250     0.0000    47.7510    54.8350    17.1510     0.5010  1314.5280    24.1860 
   50.2500     1.2910    47.4490    53.0250    18.4700     0.5330  1314.5280    24.2190 
   50.3750     2.5540    47.4350    51.3850    17.3590     0.5460  1314.5280    24.2720 
   50.5000     2.4880    47.4910    50.1590    15.3720     0.5250  1314.5280    24.3560 
   50.6250     2.3920    47.3690    51.5000    12.6610     0.4850  1004.9630    24.5100 
   50.7500     2.2920    47.0950    52.9930     9.4550     0.4690    44.8730    24.7130 
   50.8750     2.2080    46.7560    52.2770     6.7370     0.4910     4.7670    24.8660 
   51.0000     2.1400    46.3990    49.2330     5.2750     0.5400     0.6190    24.9240 
   51.1250     2.0760    45.9750    46.6380     5.3850     0.5730     0.4420    24.9290 
   51.2500     2.0090    45.5290    45.4300     6.8510     0.5600     0.6340    24.9290 
   51.3750     1.9440    45.1060    44.1960     9.9450     0.5050     0.7240    24.9300 
   51.5000     1.8930    44.8000    43.3750    14.9450     0.4350     1.1940    24.9320 
   51.6250     1.8740    44.6810    43.9940    21.0430     0.3880     0.3590    24.9300 
   51.7500     1.8820    44.6810    44.8560    25.2980     0.3680     0.1050    24.9270 
   51.8750     1.9030    44.6990    46.0150    26.0690     0.3690     0.0500    24.9270 
   52.0000     1.9180    44.7140    49.1100    24.5530     0.3870     0.2010    24.9700 
   52.1250     1.9230    44.8580    53.0950    21.9910     0.4110     0.5260    25.0890 
   52.2500     1.9190    45.1990    54.7400    18.8610     0.4310     0.9930    25.2340 
   52.3750     1.9050    45.8390    54.2240    15.1900     0.4490     2.4870    25.2940 
   52.5000     1.8860    46.8080    53.3040    11.8390     0.4620     3.8100    25.2990 
   52.6250     1.8710    48.0590    52.0000     9.8570     0.4680    10.1810    25.2980 
   52.7500     1.8620    49.4290    49.9280     9.1570     0.4650     9.1440    25.2990 
   52.8750     1.8550    50.8500    48.7210     9.4160     0.4560     5.3570    25.3000 
   53.0000     1.8470    52.2460    49.1980    10.0730     0.4490     1.6320    25.3020 
   53.1250     1.8370    53.4500    50.4500    10.4810     0.4490     1.1100    25.3010 
   53.2500     1.8260    54.2780    51.0670    10.5940     0.4560     3.2060    25.3040 
   53.3750     1.8200    54.5670    51.2420    10.7360     0.4630   987.1150    25.3050 
   53.5000     1.8190    54.2720    51.8930    10.7260     0.4640  1314.5280    25.3060 
   53.6250     1.8230    53.5310    52.1020     9.8140     0.4610  1314.5280    25.3060 
   53.7500     1.8260    52.6490    51.2620     8.2850     0.4620  1314.5280    25.3060 
   53.8750     1.8250    51.7530    51.5890     6.7320     0.4760  1314.5280    25.3060 
   54.0000     1.8170    50.8540    53.5910     5.4890     0.5110  1314.5280    25.3060 
   54.1250     1.7990    49.9770    53.5890     4.6260     0.5640  1314.5280    25.2940 
   54.2500     1.7790    49.1670    50.3340     4.1140     0.6100  1314.5280    25.2670 
   54.3750     1.7630    48.4940    47.0380     4.0310     0.6200  1314.5280    25.2400 
   54.5000     1.7520    47.9430    46.1940     4.4450     0.5850  1314.5280    25.2280 
   54.6250     1.7440    47.4710    46.8790     5.3710     0.5220     9.3060    25.2280 
   54.7500     1.7350    46.9880    47.4090     6.3870     0.4700     3.5300    25.2280 
   54.8750     1.7240    46.4490    47.2630     7.0160     0.4420     5.1060    25.2290 
   55.0000     1.7110    45.8560    46.8370     7.1180     0.4330    14.8470    25.2310 
   55.1250     1.6940    45.2120    47.6940     7.1060     0.4250     6.3270    25.2340 
   55.2500     1.6760    44.5920    51.4120     7.2960     0.4080     2.6920    25.2340 
   55.3750     1.6620    43.9960    57.0940     7.6120     0.3770     2.5450    25.2320 
   55.5000     1.6540    43.4690    61.7310     7.9510     0.3360     2.8800    25.2200 
   55.6250     1.6560    42.9720    65.5410     8.4240     0.2920     2.2750    25.1960 
   55.7500     1.6630    42.4620    68.9120     9.2740     0.2610     2.9080    25.1680 
   55.8750     1.6760    41.9390    69.3210    10.4920     0.2490     4.9010    25.1570 
   56.0000     1.6960    41.4060    65.8480    11.6250     0.2480     3.9140    25.1580 
   56.1250     1.7150    40.8430    63.3990    11.7360     0.2430    11.7360    25.1570 
   56.2500     1.7250    40.2530    66.1810    10.8120     0.2300    58.2160    25.1570 
   56.3750     1.7260    39.6390    68.6910     9.5010     0.2230    29.3680    25.1570 
   56.5000     1.7230    38.9950    66.3640     8.4600     0.2350     3.1700    25.1470 
   56.6250     1.7230    38.3670    62.6230     8.1460     0.2680     1.8040    25.1230 
   56.7500     1.7230    37.7780    62.9000     8.4070     0.3100     3.6830    25.0930 
   56.8750     1.7240    37.2390    66.0610     8.9770     0.3480    24.9440    25.0800 
   57.0000     1.7320    36.7610    67.9870     9.5170     0.3700    60.1620    25.0750 
   57.1250     1.7540    36.4270    67.8340     9.5720     0.3620  1314.5280    25.0740 
   57.2500     1.7810    36.2400    65.9260     9.2700     0.3330  1314.5280    25.0730 
   57.3750     1.8070    36.1750    64.4500     9.1310     0.3040  1314.5280    25.0730 
   57.5000     1.8360    36.1450    66.4830     9.5160     0.2950  1314.5280    25.0730 
   57.6250     1.8740    35.9890    70.9830    10.2710     0.3200  1314.5280    25.0630 
   57.7500     1.9100    35.6690    72.5020    10.7930     0.3630  1314.5280    25.0390 
   57.8750     1.9340    35.1610    69.4070    10.7890     0.3940  1314.5280    25.0140 
   58.0000     1.9430    34.4850    67.1960    10.3990     0.3930  1314.5280    25.0010 
   58.1250     1.9320    33.6140    69.9950     9.9480     0.3550  1314.5280    24.9900 
   58.2500     1.9040    32.5440    71.1610     9.7270     0.3050  1314.5280    24.9620 
   58.3750     1.8650    31.2820    65.8460     9.7490     0.2590  1314.5280    24.9190 
   58.5000     1.8250    29.8400    57.2750     9.8220     0.2260  1314.5280    24.8580 
   58.6250     1.7960    28.2000    52.9480     9.8580     0.2080  1314.5280    24.7910 
   58.7500     1.7830    26.4400    50.7000     9.8620     0.1980  1314.5280    24.7390 
   58.8750     1.7840    24.6490    47.4410     9.7960     0.1930  1314.5280    24.7060 
   59.0000     1.7950    22.9310    45.1140     9.7470     0.1910  1314.5280    24.6890 
   59.1250     1.8130    21.4390    46.6880     9.9880     0.1930    15.7090    24.6710 
   59.2500     1.8370    20.2730    49.2590    10.5070     0.1940     6.5670    24.6450 
   59.3750     1.8710    19.5420    51.4220    10.9860     0.1860     5.2960    24.6260 
   59.5000     1.9200    19.3110    53.7170    11.0250     0.1620     5.5500    24.6080 
   59.6250     1.9890    19.5790    55.4440    10.5230     0.1200     5.5900    24.5760 
   59.7500     2.0840    20.1170    55.1110     8.8570     0.0740     3.8930    24.5560 
   59.8750     2.2050    20.7470    53.2020     6.0190     0.0370     6.8360    24.5350 
   60.0000     2.3490    21.2100    52.1670     3.4660     0.0180    10.2470    24.4930 
   60.1250     2.4900    21.0600    55.5220     2.0370     0.0170    11.2650    24.4140 
   60.2500     2.5670    20.0130    63.3100     1.3860     0.0280    11.5710    24.2360 
   60.3750     2.5280    17.8360    72.7230     1.3190     0.0640    10.1410    23.9630 
   60.5000     2.3950    14.5690    81.6490     1.8120     0.1530     6.4220    23.7120 
   60.6250     2.2520    10.4750    87.9550     3.1200     0.3900     7.2120    23.5880 
   60.7500     2.1520     6.0030    91.6950     5.2060     0.8640     7.8780    23.5160 
   60.8750     2.0940     1.3520    93.2960     7.7000     1.6650     8.1370    23.4900 
   61.0000     2.0650    -3.2840    91.5900     9.5100     2.7380     8.1280    23.4650 
   61.1250     2.0550    -7.5770    87.2100     9.4390     3.7810     8.1440    23.3860 
