~V
VERS. 2.00: Ver 2.00
~W
STRT.M 42.0000:
STOP.M 223.0000:
STEP.M 0.1250:
NULL. -999.2500:
UWI. F10538:
~C
DEPT.M :
DEN.GM/CC :
SP.MV :
GR.API :
RML.OHMM :
RI. :
RXO.OHMM :
CALI.CM :
~A
# ...
   53.2500    94.2630    79.1530    58.7890     3.7970     0.1240     5.1710    25.4670 
   53.3750   -10.0160    79.6330    63.7720     3.8930     0.1280    11.4150    25.4670 
   53.5000     1.9680    79.9330    67.1880     3.9870     0.1320    17.9670    25.4670 
   53.6250     1.9820    80.0730    67.9500     4.0680     0.1350    14.0110    25.4670 
   53.7500     1.9960    80.0910    65.6910     4.1340     0.1330    14.4390    25.4670 
   53.8750     2.0060    80.0030    63.6230     4.1770     0.1300    12.9140    25.4670 
   54.0000     2.0190    79.8670    63.5810     4.1910     0.1270    12.9580    25.4670 
   54.1250     2.0370    79.7990    64.5150     4.1630     0.1270     7.9330    25.4670 
   54.2500     2.0570    79.8870    63.3780     4.0940     0.1300     4.1870    25.4670 
   54.3750     2.0810    80.1960    58.1940     3.9910     0.1340     2.1330    25.4670 
   54.5000     2.1070    80.6920    52.2030     3.8900     0.1390     1.0950    25.4670 
   54.6250     2.1360    81.3200    49.0580     3.8090     0.1460     0.7460    25.4670 
   54.7500     2.1620    81.9790    49.1070     3.7350     0.1550     0.7360    25.4670 
   54.8750     2.1760    82.5530    49.5830     3.6000     0.1610     0.8170    25.4670 
   55.0000     2.1770    83.0000    50.6020     3.3530     0.1600     0.8240    25.4670 
   55.1250     2.1660    83.2960    52.9870     3.0110     0.1470     0.7400    25.4670 
   55.2500     2.1440    83.3990    54.2670     2.6450     0.1250     0.6050    25.4670 
   55.3750     2.1010    83.2790    52.7780     2.3390     0.0990     0.5240    25.4670 
   55.5000     2.0440    83.0260    52.2660     2.1220     0.0760     0.5460    25.4670 
   55.6250     1.9900    82.7670    54.6960     2.0030     0.0600     0.7080    25.4670 
   55.7500     1.9600    82.6280    55.6460     1.9850     0.0500     0.8430    25.4670 
   55.8750     1.9670    82.8200    52.1970     2.0600     0.0490     0.8780    25.4670 
   56.0000     1.9970    83.4420    50.4590     2.1780     0.0560     0.8740    25.4670 
   56.1250     2.0450    84.5400    51.7540     2.3410     0.0710     0.8510    25.4670 
   56.2500     2.1080    86.1540    52.8290     2.5830     0.0910     0.7850    25.4670 
   56.3750     2.1860    88.3820    51.8660     2.9600     0.1130     0.6030    25.4670 
   56.5000     2.2730    90.9960    52.9870     3.3950     0.1330     0.3380    25.4670 
   56.6250     2.3590    93.8010    56.6120     3.7080     0.1490     0.2530    25.4670 
   56.7500     2.4250    96.6920    59.1260     3.7030     0.1610     0.4940    25.4670 
   56.8750     2.4510    99.4900    59.4890     3.3690     0.1670     2.0390    25.4670 
   57.0000     2.4580   101.9830    59.1780     2.9920     0.1670     1.7870    25.4670 
   57.1250     2.4590   103.9860    57.8320     2.6880     0.1570     0.6120    25.4670 
   57.2500     2.4540   105.3030    55.5690     2.4430     0.1400     0.3120    25.4670 
   57.3750     2.4270   105.5450    53.0130     2.2430     0.1180     0.2960    25.4670 
   57.5000     2.3820   104.7160    52.0290     2.0850     0.0940     0.3160    25.4670 
   57.6250     2.3280   102.8610    51.7120     1.9600     0.0700     0.3960    25.4670 
   57.7500     2.2770   100.1860    50.8230     1.8520     0.0480     0.5350    25.4670 
   57.8750     2.2440    96.8970    48.8760     1.7610     0.0300     1.1020    25.4670 
   58.0000     2.2390    93.3550    46.5820     1.7070     0.0180     7.4070    25.4670 
   58.1250     2.2640    89.8080    45.6790     1.7030     0.0160   974.4770    25.4670 
   58.2500     2.3080    86.5060    46.4810     1.7390     0.0240  1294.9900    25.4070 
   58.3750     2.3430    83.8570    48.8290     1.7700     0.0400  1294.9900    25.1310 
   58.5000     2.3700    82.0560    48.8160     1.7560     0.0600  1294.9900    24.7210 
   58.6250     2.4060    81.1470    45.8400     1.7000     0.0820  1294.9900    24.3660 
   58.7500     2.4620    80.9740    43.7260     1.6220     0.1010  1294.9900    24.1250 
   58.8750     2.5180    81.4220    45.8560     1.5170     0.1120   186.1060    23.9070 
   59.0000     2.5540    82.3340    48.9450     1.3720     0.1100     6.2510    23.6360 
   59.1250     2.5670    83.6220    50.5100     1.1940     0.0970     1.2150    23.4580 
   59.2500     2.5660    85.1230    51.2850     1.0190     0.0810     0.5000    23.4000 
   59.3750     2.5600    86.4790    50.7550     0.9050     0.0670     0.4410    23.4160 
   59.5000     2.5500    87.3830    48.0870     0.8640     0.0570     0.5420    23.4830 
   59.6250     2.5370    87.6880    46.4470     0.8830     0.0490     0.5890    23.6400 
   59.7500     2.5200    87.3360    48.7630     0.9380     0.0380     0.6640    23.8960 
   59.8750     2.5030    86.1240    52.9940     0.9960     0.0260     1.4320    24.2370 
   60.0000     2.4910    83.9510    54.3720     1.0330     0.0140     2.3650    24.6010 
   60.1250     2.4840    80.5230    52.9970     1.0410     0.0060     1.6240    24.8800 
   60.2500     2.4800    75.5970    50.0910     1.0220     0.0020     1.1370    24.9960 
   60.3750     2.4800    68.8940    46.4490     1.0620     0.0170     1.2140    25.0060 
   60.5000     2.4780    60.7650    43.8000     1.3310     0.1340     1.4680    25.0190 
   60.6250     2.4320    51.4180    44.7760     2.0610     0.5400     2.0130    25.1210 
   60.7500     2.3000    41.2750    49.0760     3.7110     1.6470     3.1150    25.3660 
   60.8750     2.1250    30.8100    52.9450     8.5190     5.7760     4.3690    25.6970 
   61.0000     1.9950    20.5040    54.8330    21.9620    18.5680     4.5670    26.0420 
   61.1250     1.9260    10.7330    56.2510    40.3950    44.0480     4.3240    26.7620 
   61.2500     1.8910     1.9610    57.9520    29.2200    50.2790     4.7500    27.7190 
   61.3750     1.8880    -5.2240    59.4860    15.4450    30.5120     5.3890    27.9540 
   61.5000     1.9230   -10.8090    59.5450     9.7720    17.6750     5.7050    27.3440 
   61.6250     1.9830   -14.8420    58.0550     7.3310    11.1210     5.4940    26.5220 
   61.7500     2.0290   -17.6700    56.6530     6.2760     8.0200     4.7330    25.6600 
   61.8750     2.0340   -19.6190    57.4210     5.9500     7.0600     4.2220    24.9310 
   62.0000     2.0250   -21.0920    58.3900     5.8580     6.8510     4.1570    24.4780 
   62.1250     2.0110   -22.2310    57.8980     5.8060     6.7740     4.1600    24.3080 
   62.2500     1.9960   -23.1770    58.5610     5.7470     6.6890     3.9050    24.2870 
   62.3750     1.9910   -24.0630    63.2440     5.7540     6.6430     3.7060    24.3710 
   62.5000     1.9910   -24.9850    66.7000     5.8740     6.6720     3.7560    24.6520 
   62.6250     1.9790   -25.9900    65.7780     6.1190     6.7900     3.8600    25.1270 
   62.7500     1.9520   -26.9880    63.3320     6.4750     6.9930     3.8010    25.4400 
   62.8750     1.9450   -27.9270    64.6330     6.9090     7.2620     4.4170    25.0530 
   63.0000     1.9810   -28.8510    67.8540     7.3370     7.5370     5.6240    24.5440 
   63.1250     2.0470   -29.7060    70.8030     7.6840     7.7600     6.8640    24.3310 
   63.2500     2.1120   -30.4810    74.5970     7.9050     7.8920     7.6580    24.3690 
   63.3750     2.1490   -31.1160    76.8690     8.0060     7.9250     7.9160    24.4980 
   63.5000     2.1670   -31.6600    74.9010     8.0890     7.9280     7.8910    24.5530 
   63.6250     2.1710   -32.0660    71.0580     8.2220     7.9580     8.0750    24.5660 
   63.7500     2.1630   -32.4120    70.9190     8.4210     8.0420     8.3470    24.5660 
   63.8750     2.1500   -32.7800    75.4980     8.6380     8.1620     8.5870    24.5660 
   64.0000     2.1410   -33.1210    79.6640     8.8050     8.2640     8.6740    24.5660 
   64.1250     2.1410   -33.4480    81.2040     8.8930     8.3180     8.6900    24.5660 
   64.2500     2.1480   -33.7570    80.5240     8.9060     8.3220     8.7450    24.5660 
   64.3750     2.1550   -34.0360    78.2630     8.8470     8.2800     8.7880    24.5660 
