~V
VERS. 2.00: Ver 2.00
~W
STRT.M 50.0000:
STOP.M 233.0000:
STEP.M 0.1250:
NULL. -999.2500:
UWI. F10598:
~C
DEPT.M :
DEN.GM/CC :
SP.MV :
GR.API :
RML.OHMM :
RI. :
RXO.OHMM :
CALI.CM :
~A
# ...
   95.0000     2.0310   -20.3860    82.0500     7.9430     6.6200     7.9460    25.2900 
   95.1250     2.0100   -20.5990    83.7780     8.3790     6.7790     8.0940    25.3580 
   95.2500     2.0010   -20.7980    80.5530     8.7080     6.8640     8.4030    25.3530 
   95.3750     2.0060   -20.9870    78.0900     8.8700     6.8590     8.7140    25.2820 
   95.5000     2.0220   -21.1910    78.5590     8.8980     6.7870     8.8730    25.0540 
   95.6250     2.0480   -21.3790    76.6460     8.8730     6.6980     8.8150    24.6600 
   95.7500     2.0760   -21.5850    71.9600     8.8670     6.6410     8.7830    24.2890 
   95.8750     2.0970   -21.7770    68.9960     8.8800     6.6290     8.8730    24.0490 
   96.0000     2.1000   -21.9660    69.1590     8.8780     6.6720     8.9450    23.9510 
   96.1250     2.0810   -22.1330    69.9220     8.8180     6.7900     8.8800    23.9320 
   96.2500     2.0620   -22.3050    71.6820     8.7290     6.9560     8.9530    23.9240 
   96.3750     2.0580   -22.4820    74.9100     8.6490     7.1370     9.1780    23.8820 
   96.5000     2.0710   -22.6380    77.6670     8.5930     7.2990     9.4280    23.7800 
   96.6250     2.0870   -22.7720    77.0600     8.5880     7.4030     9.4880    23.6960 
   96.7500     2.0930   -22.8640    75.2140     8.6310     7.4570     9.4720    23.7120 
   96.8750     2.0910   -22.9460    74.4390     8.6950     7.4880     9.3950    23.8020 
   97.0000     2.0930   -22.9920    75.4190     8.7370     7.5230     9.3390    23.8830 
   97.1250     2.1060   -23.0640    76.5720     8.7300     7.5780     9.4110    23.9210 
   97.2500     2.1250   -23.0990    76.1780     8.7120     7.6550     9.6140    23.9470 
   97.3750     2.1440   -23.1060    74.5180     8.7530     7.7640     9.9660    23.9970 
   97.5000     2.1550   -23.1020    73.4350     8.9300     7.9060    10.1590    24.0560 
   97.6250     2.1560   -23.0910    73.9510     9.2600     8.0500    10.2750    24.0810 
   97.7500     2.1520   -23.0470    74.7210     9.5780     8.1590    10.3190    24.0870 
   97.8750     2.1490   -22.9750    75.1660     9.7580     8.2030    10.3560    24.0850 
   98.0000     2.1520   -22.9130    75.2590     9.7840     8.1650    10.3000    24.0650 
   98.1250     2.1580   -22.8030    74.0570     9.7180     8.0600    10.0870    24.0020 
   98.2500     2.1610   -22.7140    71.5340     9.6660     7.9550     9.9850    23.9160 
   98.3750     2.1580   -22.6070    70.1690     9.6740     7.9030     9.9300    23.8670 
   98.5000     2.1480   -22.4850    71.7810     9.7470     7.9450     9.9390    23.8200 
   98.6250     2.1370   -22.3240    73.8440     9.9050     8.1320    10.4220    23.6210 
   98.7500     2.1250   -22.1650    74.1570    10.1470     8.4260    11.1910    23.2620 
   98.8750     2.1100   -21.9970    72.9560    10.4160     8.7630    11.3320    22.9810 
   99.0000     2.0940   -21.8080    71.4090    10.5790     9.0710    11.1370    22.8880 
   99.1250     2.0840   -21.5940    71.1650    10.5290     9.2690    11.2040    22.9780 
   99.2500     2.0850   -21.3040    72.9650    10.3810     9.3460    11.3500    23.2580 
   99.3750     2.0870   -20.9690    75.4320    10.2870     9.3300    11.2710    23.7670 
   99.5000     2.0840   -20.5570    77.9320    10.3600     9.2850    11.0470    24.4080 
   99.6250     2.0810   -20.0910    79.9490    10.6090     9.2730    10.6920    24.6670 
   99.7500     2.0900   -19.5800    81.0190    10.8580     9.2760    10.4140    24.7110 
   99.8750     2.1200   -19.0320    80.3190    10.9390     9.2390    10.5040    24.6620 
  100.0000     2.1690   -18.4450    78.4990    10.7840     9.1040    11.5380    24.6010 
  100.1250     2.2220   -17.8730    78.6810    10.4070     8.8180    12.8050    24.5540 
  100.2500     2.2510   -17.3430    80.6820     9.9050     8.4340    11.9730    24.5360 
  100.3750     2.2390   -16.8820    82.8240     9.3600     8.0090     9.3720    24.5540 
  100.5000     2.2020   -16.5160    83.2380     8.8520     7.5860     8.1610    24.6290 
  100.6250     2.1780   -16.2060    85.1940     8.5090     7.2400     8.9970    24.7810 
  100.7500     2.1890   -15.9480    91.0290     8.4480     7.0600     8.9740    24.8560 
  100.8750     2.2290   -15.7360    96.7520     8.7430     7.1250     8.3140    24.7990 
  101.0000     2.2710   -15.6130    98.0660     9.3400     7.4530     8.1470    24.5980 
  101.1250     2.2930   -15.5140    94.3050     9.9780     7.9800     9.6610    24.3400 
  101.2500     2.2940   -15.4570    91.1740    10.2980     8.4560    12.5520    24.1080 
  101.3750     2.2790   -15.3960    91.1910    10.0840     8.6160    13.5340    23.8960 
  101.5000     2.2560   -15.3320    94.3380     9.3760     8.3020    10.3490    23.7530 
  101.6250     2.2430   -15.3000    97.5650     8.4810     7.5760     7.5700    23.7100 
  101.7500     2.2440   -15.2710    99.3420     7.7490     6.7910     6.5180    23.7060 
  101.8750     2.2560   -15.2470   101.9760     7.2820     6.1620     6.3800    23.7030 
  102.0000     2.2690   -15.1920   106.3890     7.0540     5.7870     6.4320    23.7060 
  102.1250     2.2680   -15.1530   110.6070     6.9840     5.6670     6.5300    23.7470 
  102.2500     2.2540   -15.0700   112.4940     6.9570     5.6530     6.2080    23.8300 
  102.3750     2.2300   -14.9810   111.6000     6.9270     5.6630     6.0280    23.9110 
  102.5000     2.2000   -14.8930   108.1110     6.8800     5.6500     6.0590    23.9870 
  102.6250     2.1700   -14.8100   105.8850     6.8030     5.5890     5.9830    24.1690 
  102.7500     2.1520   -14.7700   107.3240     6.6970     5.4970     6.0370    24.4940 
  102.8750     2.1480   -14.7720   108.1340     6.5950     5.4120     6.1090    24.8720 
  103.0000     2.1430   -14.8250   106.2510     6.5460     5.3800     6.2250    25.0880 
  103.1250     2.1160   -14.8970   105.6870     6.6370     5.4760     6.4430    25.1410 
  103.2500     2.0700   -15.0210   105.8240     6.9160     5.7360     6.8700    25.1410 
  103.3750     2.0220   -15.1630   102.2650     7.4030     6.1580     7.3150    25.1400 
  103.5000     1.9900   -15.3200    95.3690     8.0130     6.6640     7.5950    25.1230 
  103.6250     1.9860   -15.4140    91.7560     8.4680     7.0740     8.0430    25.0290 
  103.7500     2.0090   -15.4390    91.9010     8.5070     7.2190     8.2910    24.8340 
  103.8750     2.0550   -15.3760    93.1990     8.0630     7.0230     8.1950    24.6090 
  104.0000     2.1180   -15.2470    94.5670     7.3090     6.5560     7.4890    24.4490 
  104.1250     2.1810   -15.0850    96.5540     6.5840     6.0090     6.3100    24.3240 
  104.2500     2.2260   -14.8930    99.8570     6.1180     5.5610     5.7820    24.2200 
  104.3750     2.2490   -14.7140   103.6470     5.9490     5.2690     5.7400    24.1600 
  104.5000     2.2570   -14.5260   105.9430     6.0260     5.1240     5.8680    24.1270 
  104.6250     2.2520   -14.3970   108.1420     6.2700     5.0930     6.0020    24.0920 
  104.7500     2.2400   -14.3040   112.0660     6.4900     5.0970     6.0090    24.0550 
  104.8750     2.2310   -14.2560   116.1680     6.5410     5.1010     5.8850    24.0090 
  105.0000     2.2310   -14.2390   117.7870     6.3970     5.0960     5.7170    23.9580 
  105.1250     2.2390   -14.2290   117.2060     6.2150     5.0900     5.6560    23.9380 
  105.2500     2.2480   -14.2210   115.8230     6.2050     5.0980     5.8330    23.9320 
  105.3750     2.2540   -14.1860   113.0930     6.4520     5.1450     6.1260    23.9320 
  105.5000     2.2540   -14.1600   111.5290     6.9160     5.2500     6.2630    23.9320 
  105.6250     2.2460   -14.1140   114.1520     7.4100     5.4140     6.3630    23.9320 
  105.7500     2.2330   -14.0660   115.1090     7.7380     5.5930     6.5900    23.9390 
  105.8750     2.2240   -13.9890   109.4200     7.8390     5.7400     7.1840    23.9570 
  106.0000     2.2240   -13.8730    99.9040     7.7470     5.8110     7.6210    23.9870 
  106.1250     2.2320   -13.6930    98.5490     7.5430     5.7700     7.2460    23.9990 
