~V
VERS. 2.00: Ver 2.00
~W
STRT.M 50.0000:
STOP.M 233.0000:
STEP.M 0.1250:
NULL. -999.2500:
UWI. F10598:
~C
DEPT.M :
DEN.GM/CC :
SP.MV :
GR.API :
RML.OHMM :
RI. :
RXO.OHMM :
CALI.CM :
~A
# ...
  140.0000     2.5430    -8.2460    69.1710    26.2500    26.5920    21.7100    22.6360 
  140.1250     2.5340    -8.1120    69.1050    26.2610    26.6140    23.5120    22.6770 
  140.2500     2.5160    -7.9680    69.0570    26.1840    26.7420    24.5610    22.8440 
  140.3750     2.4950    -7.8610    70.0780    26.0270    26.8590    24.7360    23.2080 
  140.5000     2.4820    -7.7450    70.1020    25.9280    26.9110    25.5420    23.6960 
  140.6250     2.4790    -7.6580    67.1150    26.0500    26.9720    26.3530    24.0210 
  140.7500     2.4780    -7.5840    65.2130    26.3980    27.2180    26.1680    24.1760 
  140.8750     2.4820    -7.5360    66.4170    27.0640    27.7840    26.4900    24.3160 
  141.0000     2.5040    -7.5380    69.3460    28.1850    28.7070    28.0720    24.4960 
  141.1250     2.5470    -7.5740    70.1420    29.8110    29.8880    29.6420    24.5850 
  141.2500     2.5900    -7.6630    67.5780    31.4780    30.9490    31.2270    24.6270 
  141.3750     2.6150    -7.7560    63.3730    32.5370    31.4870    32.5540    24.6580 
  141.5000     2.6170    -7.8980    59.2250    32.3120    31.2390    32.6360    24.6880 
  141.6250     2.5870    -8.0310    57.6010    30.5010    30.1550    30.3030    24.7250 
  141.7500     2.5330    -8.1850    60.4160    28.1380    28.7370    25.7490    24.7410 
  141.8750     2.4720    -8.3070    65.6160    26.0880    27.4050    22.1530    24.7440 
  142.0000     2.4240    -8.3620    69.2980    24.8190    26.4780    21.7540    24.7520 
  142.1250     2.3960    -8.3620    68.8720    24.5520    26.1960    24.3170    24.7750 
  142.2500     2.3850    -8.3010    66.1140    25.0750    26.4370    27.0220    24.8060 
  142.3750     2.3930    -8.2210    62.5880    26.3020    27.1060    28.5220    24.8190 
  142.5000     2.4200    -8.0930    59.7430    28.0230    28.0300    28.5940    24.8200 
  142.6250     2.4570    -8.0000    57.9230    29.7240    28.8950    29.8520    24.8180 
  142.7500     2.4970    -7.8980    56.1150    30.7140    29.4300    31.8080    24.8200 
  142.8750     2.5390    -7.8320    55.1400    30.6270    29.4800    32.8570    24.8220 
  143.0000     2.5780    -7.8060    56.3770    29.6340    28.9880    30.8970    24.8220 
  143.1250     2.6000    -7.8230    58.5520    28.2930    28.0510    28.1640    24.8220 
  143.2500     2.6030    -7.8640    60.0230    27.2110    27.0970    26.6990    24.8210 
  143.3750     2.5960    -7.8920    60.0750    26.6140    26.4320    26.2430    24.8200 
  143.5000     2.5890    -7.9350    59.0850    26.5470    26.1880    25.0570    24.8180 
  143.6250     2.5870    -7.9500    58.7360    27.0110    26.3190    25.9280    24.8200 
  143.7500     2.5850    -7.9620    58.7930    27.6600    26.4840    27.9900    24.8190 
  143.8750     2.5800    -7.9600    58.5960    28.1130    26.3950    28.1950    24.8170 
  144.0000     2.5700    -7.9710    59.7900    28.0100    25.8950    27.5390    24.8130 
  144.1250     2.5500    -7.9820    64.1810    27.1490    25.0300    24.8220    24.7880 
  144.2500     2.5190    -8.0230    66.4610    25.9430    24.0770    22.7620    24.7260 
  144.3750     2.4860    -8.1010    64.5490    24.7220    23.1660    21.1710    24.6490 
  144.5000     2.4580    -8.2210    62.4170    23.6230    22.3230    19.7860    24.5850 
  144.6250     2.4390    -8.3630    64.4630    22.6170    21.5130    19.3740    24.5400 
  144.7500     2.4320    -8.5110    67.2680    21.6610    20.7290    19.8520    24.5210 
  144.8750     2.4400    -8.6910    68.4580    20.8800    20.0430    19.3770    24.5160 
  145.0000     2.4620    -8.8500    69.7090    20.4400    19.5830    17.8920    24.5180 
  145.1250     2.4900    -9.0060    70.8610    20.4900    19.5120    17.3670    24.5250 
  145.2500     2.5090    -9.1400    70.6750    20.8390    19.7140    18.5490    24.5770 
  145.3750     2.5080    -9.2610    69.8570    21.1990    19.9970    19.8770    24.7040 
  145.5000     2.4810    -9.3020    69.4980    21.2620    20.1160    20.4470    24.8370 
  145.6250     2.4350    -9.3020    71.2650    20.7920    19.8130    21.3340    24.9080 
  145.7500     2.3930    -9.2740    73.4490    19.9860    19.1810    21.1990    24.9460 
  145.8750     2.3680    -9.2060    74.2410    19.1420    18.4570    19.4690    24.9630 
  146.0000     2.3560    -9.1550    71.9540    18.5600    17.9370    17.6710    24.9670 
  146.1250     2.3530    -9.0620    67.2500    18.5130    17.9370    17.5280    24.9670 
  146.2500     2.3560    -8.9630    64.6560    18.9320    18.4630    18.4510    24.9670 
  146.3750     2.3660    -8.8550    66.1420    19.7130    19.4320    19.7090    24.9670 
  146.5000     2.3830    -8.7770    69.5280    20.7080    20.6090    21.3630    24.9670 
  146.6250     2.4020    -8.7420    69.1830    21.6380    21.5360    22.8900    24.9670 
  146.7500     2.4210    -8.7400    66.3940    22.1470    21.8340    23.1260    24.9670 
  146.8750     2.4310    -8.7710    64.3260    21.9560    21.3580    22.4560    24.9670 
  147.0000     2.4270    -8.7770    64.4950    20.9650    20.2560    21.7740    24.9650 
  147.1250     2.4040    -8.8260    64.8910    19.3310    18.8510    20.0820    24.9040 
  147.2500     2.3740    -8.8710    63.9420    17.6710    17.5370    17.4510    24.6850 
  147.3750     2.3530    -8.9080    63.2660    16.3960    16.5260    15.0670    24.2500 
  147.5000     2.3510    -8.9660    64.3350    15.6630    15.9130    14.1410    23.7070 
  147.6250     2.3670    -8.9860    67.1180    15.4110    15.6750    13.6800    23.1590 
  147.7500     2.3870    -8.9840    68.9410    15.2710    15.5260    12.6860    22.7820 
  147.8750     2.4010    -8.9420    70.0160    14.9820    15.2190    11.9900    22.6040 
  148.0000     2.4050    -8.8870    71.5940    14.4140    14.6070    11.4600    22.5580 
  148.1250     2.3970    -8.8200    72.5200    13.6420    13.7140    10.2430    22.5580 
  148.2500     2.3840    -8.7280    73.0860    12.9570    12.8090     9.1620    22.5580 
  148.3750     2.3740    -8.6360    74.0320    12.5360    12.0850     8.7770    22.5580 
  148.5000     2.3720    -8.5390    74.2290    12.4090    11.6300     9.0150    22.5580 
  148.6250     2.3780    -8.4410    71.9710    12.4730    11.4730     9.4390    22.5580 
  148.7500     2.3820    -8.3470    69.1250    12.4910    11.4900     9.5480    22.5590 
  148.8750     2.3820    -8.2610    68.0580    12.3550    11.5840     9.3170    22.5700 
  149.0000     2.3840    -8.2030    67.7110    12.1420    11.6690     9.1520    22.6730 
  149.1250     2.3940    -8.1090    66.4250    12.0820    11.6970     9.4360    23.0650 
  149.2500     2.4090    -8.0050    64.7130    12.2660    11.7430    10.0200    23.7510 
  149.3750     2.4240    -7.8740    62.7150    12.6630    11.9070    10.6790    24.4790 
  149.5000     2.4320    -7.7030    63.5870    13.2150    12.2720    11.5390    25.0510 
  149.6250     2.4350    -7.5450    68.9240    13.9120    12.8980    12.8200    25.3850 
  149.7500     2.4340    -7.3760    73.6550    14.7300    13.6840    14.4760    25.5400 
  149.8750     2.4300    -7.2200    74.2550    15.6320    14.4990    16.2260    25.6370 
  150.0000     2.4140    -7.0430    71.6210    16.5220    15.1860    17.4120    25.7840 
  150.1250     2.3780    -6.9340    69.7030    17.1880    15.6120    17.5450    25.9250 
  150.2500     2.3330    -6.8790    68.8930    17.6100    15.8520    17.1230    25.9880 
  150.3750     2.2990    -6.8690    69.5570    17.9160    16.0210    16.7750    25.9020 
  150.5000     2.2960    -6.9270    70.2010    18.2530    16.2270    16.9240    25.5300 
  150.6250     2.3310    -7.0010    69.8800    18.6420    16.4970    18.1960    24.7940 
  150.7500     2.3760    -7.1040    70.8690    18.9560    16.6930    18.8470    24.1030 
  150.8750     2.4070    -7.2360    72.8850    19.0280    16.6580    18.2720    23.7310 
  151.0000     2.4230    -7.4040    73.6270    18.7130    16.3270    17.2760    23.6220 
  151.1250     2.4320    -7.5810    72.5800    18.0210    15.7860    15.7420    23.6120 
