~V
VERS. 2.00: Ver 2.00
~W
STRT.M 42.0000:
STOP.M 195.0000:
STEP.M 0.1250:
NULL. -999.2500:
UWI. F10590:
~C
DEPT.M :
GR.API :
RML.OHMM :
RI. :
RXO.OHMM :
CALI.CM :
DEN.GM/CC :
SP.MV :
~A
   42.0000  -999.2500  -999.2500  -999.2500  -999.2500  -999.2500  -999.2500    92.9140 
   42.1250  -999.2500  -999.2500  -999.2500  -999.2500  -999.2500  -999.2500    85.4890 
   42.2500  -999.2500  -999.2500  -999.2500  -999.2500  -999.2500  -999.2500    84.9650 
   42.3750  -999.2500  -999.2500  -999.2500  -999.2500  -999.2500  -999.2500    84.3620 
   42.5000  -999.2500  -999.2500  -999.2500  -999.2500  -999.2500  -999.2500    83.6620 
   42.6250  -999.2500  -999.2500  -999.2500  -999.2500  -999.2500  -999.2500    82.9200 
   42.7500  -999.2500  -999.2500  -999.2500  -999.2500  -999.2500  -999.2500    82.1270 
   42.8750  -999.2500  -999.2500  -999.2500  -999.2500  -999.2500  -999.2500    81.2920 
   43.0000  -999.2500  -999.2500  -999.2500  -999.2500  -999.2500  -999.2500    80.3960 
   43.1250  -999.2500  -999.2500  -999.2500  -999.2500  -999.2500  -999.2500    79.4750 
   43.2500  -999.2500  -999.2500  -999.2500  -999.2500  -999.2500  -999.2500    78.5990 
   43.3750  -999.2500  -999.2500  -999.2500  -999.2500  -999.2500  -999.2500    77.7460 
   43.5000  -999.2500  -999.2500  -999.2500  -999.2500  -999.2500  -999.2500    76.9420 
   43.6250  -999.2500  -999.2500  -999.2500  -999.2500  -999.2500  -999.2500    76.1370 
   43.7500  -999.2500  -999.2500  -999.2500  -999.2500  -999.2500  -999.2500    75.3890 
   43.8750  -999.2500  -999.2500  -999.2500  -999.2500  -999.2500  -999.2500    74.7650 
   44.0000  -999.2500  -999.2500  -999.2500  -999.2500  -999.2500  -999.2500    74.2570 
   44.1250  -999.2500  -999.2500  -999.2500  -999.2500  -999.2500  -999.2500    73.8400 
   44.2500  -999.2500  -999.2500  -999.2500  -999.2500  -999.2500  -999.2500    73.4910 
   44.3750  -999.2500  -999.2500  -999.2500  -999.2500  -999.2500  -999.2500    73.1640 
   44.5000  -999.2500  -999.2500  -999.2500  -999.2500  -999.2500  -999.2500    72.8230 
   44.6250  -999.2500  -999.2500  -999.2500  -999.2500  -999.2500  -999.2500    72.4870 
   44.7500  -999.2500  -999.2500  -999.2500  -999.2500  -999.2500  -999.2500    72.1450 
   44.8750  -999.2500  -999.2500  -999.2500  -999.2500  -999.2500  -999.2500    71.7900 
   45.0000  -999.2500  -999.2500  -999.2500  -999.2500  -999.2500  -999.2500    71.5720 
   45.1250  -999.2500  -999.2500  -999.2500  -999.2500  -999.2500  -999.2500    71.7180 
   45.2500  -999.2500  -999.2500  -999.2500  -999.2500  -999.2500  -999.2500    72.2070 
   45.3750  -999.2500  -999.2500  -999.2500  -999.2500  -999.2500  -999.2500    73.0570 
   45.5000     0.0000     0.0000     0.0000     0.0000     0.0000  -999.2500    74.2330 
   45.6250     0.0000     0.0000     0.0000     0.0000     0.0000  -999.2500    75.6840 
   45.7500    25.1110     0.4370     0.4210     0.3140    12.1750  -999.2500    77.3250 
   45.8750    50.5170     0.8730     1.0440     0.6330    24.3550  -999.2500    79.0840 
   46.0000    50.5870     0.8710     1.2270     0.6420    24.3430  -999.2500    80.8370 
   46.1250    48.0300     0.8690     1.1700     0.6850    24.1980  -999.2500    82.4090 
   46.2500    47.8820     0.8700     0.9210     0.6590    24.2160  -999.2500    83.7270 
   46.3750    50.1900     0.8750     0.6610     0.6120    24.3430  -999.2500    84.7990 
   46.5000    50.1420     0.8820     0.5270     0.6000    24.3490  -999.2500    85.6410 
   46.6250    48.7980     0.8840     0.5110     0.5750    24.3720  -999.2500    86.2880 
   46.7500    48.1320     0.8810     0.5110     0.5620    24.3910  -999.2500    86.7980 
   46.8750    49.3960     0.8710     0.5150     0.5610    24.3980  -999.2500    87.1700 
   47.0000    50.6800     0.8560     0.5220     0.5620    24.3990  -999.2500    87.4050 
   47.1250    50.3220     0.8440     0.5290     0.5640    24.3990  -999.2500    87.4460 
   47.2500    50.1370     0.8370     0.5330     0.5690    24.4030  -999.2500    87.3620 
   47.3750    50.1340     0.8340     0.5340     0.5880    24.4520  -999.2500    87.1640 
   47.5000    47.9230     0.8340     0.5330     0.6880    24.6180  -999.2500    86.9110 
   47.6250    44.5410     0.8360     0.5330     0.8070    24.9280  -999.2500    86.6500 
   47.7500    45.3760     0.8400     0.5320     0.8410    25.1460  -999.2500    86.4410 
   47.8750    48.8840     0.8440     0.5310     0.8430    25.1890  -999.2500    86.3190 
   48.0000    49.9020     0.8450     0.5300     0.8310    25.0510  -999.2500    86.2830 
   48.1250    46.9790     0.8410     0.5290     0.7600    24.7470  -999.2500    86.3650 
   48.2500    45.3870     0.8370     0.5280     0.7390    24.4660  -999.2500    86.4990 
   48.3750    45.6450     0.8370     0.5260     0.7160    24.3540  -999.2500    86.6930 
   48.5000    46.1390     0.8420     0.5210     0.6930    24.3400  -999.2500    86.9300 
   48.6250    46.2890     0.8560     0.5140     0.6660    24.3430  -999.2500    87.2060 
   48.7500    46.0970     0.8750     0.5090     0.6350    24.3440  -999.2500    87.4640 
   48.8750    45.7560     0.8970     0.5060     0.5700    24.3440  -999.2500    87.7080 
   49.0000    45.2030     0.9210     0.5020     0.5380    24.3440  -999.2500    87.9490 
   49.1250    44.3860     0.9490     0.4960     0.5260    24.3440  -999.2500    88.2180 
   49.2500    43.0520     0.9760     0.4830     0.5180    24.3420     2.5670    88.4990 
   49.3750    42.0860     0.9910     0.4650     0.5120    24.3420     2.5670    88.7430 
   49.5000    42.8660     0.9910     0.4670     0.5130    24.3420     2.5670    88.8950 
   49.6250    44.7990     0.9780     0.5080     0.5160    24.3420     2.5690    88.8540 
   49.7500    45.5510     0.9680     0.5660     0.5200    24.3430     2.5770    88.6030 
   49.8750    44.7700     0.9650     0.5930     0.5240    24.3440     2.5760    88.0990 
   50.0000    44.4500     0.9670     0.5860     0.5270    24.3440     2.5620    87.3520 
   50.1250    45.3760     0.9700     0.5560     0.5370    24.3440     2.5320    86.2640 
   50.2500    45.9820     0.9700     0.5360     0.5470    24.3440     2.4940    84.9220 
   50.3750    45.4600     0.9670     0.5280     0.5580    24.3440     2.4570    83.3390 
   50.5000    43.9800     0.9620     0.5260     0.5740    24.3790     2.4340    81.5530 
   50.6250    42.6770     0.9550     0.5260     0.5760    24.5080     2.4380    79.5900 
   50.7500    42.6070     0.9420     0.5260     0.5750    24.7150     2.4660    77.5680 
   50.8750    43.2490     0.9210     0.5260     0.5650    24.8670     2.5090    75.4730 
   51.0000    43.0800     0.8860     0.5230     0.5610    24.9270     2.5520    73.3200 
   51.1250    42.8590     0.8620     0.5170     0.5620    24.9380     2.5820    71.1750 
   51.2500    43.6330     0.8450     0.5070     0.5650    24.9380     2.5990    69.1210 
   51.3750    43.6200     0.8330     0.5040     0.5670    24.9430     2.6100    67.2690 
   51.5000    41.4470     0.8210     0.5100     0.5700    24.9640     2.6200    65.6970 
   51.6250    39.2330     0.8080     0.5260     0.5740    25.0110     2.6280    64.5590 
   51.7500    38.5240     0.7970     0.5450     0.5820    25.0460     2.6330    63.8170 
   51.8750    39.8710     0.7920     0.5660     0.6150    25.0590     2.6370    63.5560 
   52.0000    42.2650     0.7930     0.5830     0.6330    25.0600     2.6410    63.7870 
   52.1250    42.7210     0.7950     0.5860     0.6480    25.0600     2.6450    64.5820 
   52.2500    40.7010     0.7960     0.5800     0.6410    25.0600     2.6490    65.8160 
   52.3750    38.4210     0.7960     0.5690     0.6240    25.0590     2.6510    67.3900 
   52.5000    38.6160     0.7960     0.5560     0.6030    25.0580     2.6540    69.2500 
   52.6250    40.2370     0.7960     0.5390     0.5820    25.0590     2.6560    71.2970 
   52.7500    41.4600     0.7960     0.5200     0.5620    25.0590     2.6560    73.3450 
   52.8750    43.0290     0.7960     0.4990     0.5540    25.0580     2.6530    75.2830 
   53.0000    45.5110     0.7940     0.4830     0.5530    25.0590     2.6470    76.9830 
   53.1250    47.2070     0.7870     0.4740     0.5610    25.0600     2.6390    78.3910 
