~V
VERS. 2.00: Ver 2.00
~W
STRT.M 54.0000:
STOP.M 217.0000:
STEP.M 0.1250:
NULL. -999.2500:
UWI. F10593:
~C
DEPT.M :
SP.MV :
GR.API :
RML.OHMM :
RI. :
RXO.OHMM :
CALI.CM :
DEN.GM/CC :
~A
# ...
  121.5000    -9.4150    50.3890    48.2830    46.0320    35.0110    23.4990     2.5400 
  121.6250    -9.4680    51.6650    48.7400    46.3090    33.7060    23.4970     2.5410 
  121.7500    -9.5270    53.8890    50.0080    47.3360    36.0020    23.4870     2.5590 
  121.8750    -9.6260    54.7950    51.6970    48.8850    40.9160    23.4730     2.5850 
  122.0000    -9.7030    55.8280    53.0500    50.3270    45.0690    23.4710     2.6010 
  122.1250    -9.7330    57.9950    53.5590    51.1790    45.1800    23.4690     2.5940 
  122.2500    -9.7870    60.2050    53.1080    51.2110    43.4370    23.4510     2.5670 
  122.3750    -9.8360    60.7760    52.0040    50.5130    43.2950    23.4080     2.5370 
  122.5000    -9.8780    59.7340    50.9180    49.6380    43.5080    23.3810     2.5230 
  122.6250    -9.9470    58.8310    50.1650    48.9270    41.9590    23.3530     2.5260 
  122.7500   -10.0330    58.7390    49.7490    48.4990    41.0480    23.3270     2.5360 
  122.8750   -10.0870    57.7040    49.3660    48.2000    43.3170    23.3040     2.5390 
  123.0000   -10.1730    55.2630    48.5990    47.6610    40.3980    23.2760     2.5350 
  123.1250   -10.2750    53.3770    47.2160    46.6090    35.5800    23.2570     2.5320 
  123.2500   -10.3340    54.2190    45.2100    44.9410    34.6640    23.2560     2.5390 
  123.3750   -10.4200    56.9090    42.7970    42.7600    34.4140    23.3450     2.5560 
  123.5000   -10.5420    59.3970    40.4610    40.5240    30.5910    23.3760     2.5700 
  123.6250   -10.6630    60.2380    38.5410    38.5930    26.8040    23.3490     2.5750 
  123.7500   -10.7700    59.1280    37.2250    37.1980    24.2040    23.3110     2.5650 
  123.8750   -10.8960    58.4670    36.5960    36.4760    24.5020    23.2590     2.5440 
  124.0000   -11.0220    58.8720    36.3580    36.1870    26.5960    23.1720     2.5200 
  124.1250   -11.1170    58.7150    36.2570    36.1080    28.7000    23.0540     2.4990 
  124.2500   -11.2120    57.3030    36.0590    36.0040    28.2510    22.9820     2.4830 
  124.3750   -11.2960    56.7170    35.6350    35.6960    26.9760    22.9620     2.4710 
  124.5000   -11.4120    57.9070    35.1150    35.2370    26.7570    22.9580     2.4650 
  124.6250   -11.5220    59.1690    34.6630    34.7660    27.7990    22.9510     2.4630 
  124.7500   -11.5980    58.9070    34.4180    34.4380    29.0840    22.9250     2.4660 
  124.8750   -11.6440    58.3410    34.4500    34.3730    29.2240    22.8360     2.4720 
  125.0000   -11.6720    58.8430    34.6000    34.4620    27.5550    22.7810     2.4770 
  125.1250   -11.7470    59.6220    34.6810    34.5410    26.9500    22.8550     2.4750 
  125.2500   -11.8370    59.2060    34.5240    34.4370    26.9520    23.0980     2.4640 
  125.3750   -11.8980    59.4840    34.0190    34.0190    30.1660    23.2710     2.4460 
  125.5000   -11.9170    61.2280    33.3370    33.4080    28.4210    23.2770     2.4280 
  125.6250   -11.9470    60.9630    32.7000    32.7900    26.2860    23.2040     2.4180 
  125.7500   -11.9910    57.6550    32.3430    32.3800    25.4390    23.1560     2.4210 
  125.8750   -12.0050    55.4430    32.4600    32.3750    26.2900    23.1510     2.4390 
  126.0000   -12.0050    55.7400    32.8700    32.6510    27.2020    23.1800     2.4630 
  126.1250   -12.0000    56.5730    33.2820    32.9700    28.7730    23.2430     2.4850 
  126.2500   -12.0050    55.9510    33.3420    33.0180    30.1270    23.3030     2.4990 
  126.3750   -12.0140    55.9490    32.6780    32.4330    29.1660    23.3580     2.5010 
  126.5000   -12.0300    58.0650    31.4240    31.2880    26.3000    23.3390     2.4960 
  126.6250   -12.0400    60.1570    29.8680    29.8070    24.0830    23.2260     2.4860 
  126.7500   -12.0260    59.6430    28.3890    28.3330    22.0660    23.0730     2.4740 
  126.8750   -12.0750    56.7380    27.4190    27.2850    20.9880    22.9830     2.4680 
  127.0000   -12.1800    55.1220    27.0320    26.7850    20.7420    22.9160     2.4740 
  127.1250   -12.2750    54.9260    27.1440    26.7830    21.0510    22.8400     2.4930 
  127.2500   -12.3350    54.7180    27.5290    27.0790    20.4300    22.7630     2.5150 
  127.3750   -12.4020    53.5660    27.8960    27.3940    20.5840    22.7230     2.5250 
  127.5000   -12.4750    53.0650    28.0940    27.5590    20.4150    22.7040     2.5160 
  127.6250   -12.5170    54.6150    28.1880    27.6060    19.0340    22.7160     2.4940 
  127.7500   -12.5520    57.7010    28.3790    27.7030    17.8300    22.7270     2.4730 
  127.8750   -12.6020    57.7430    28.9350    28.0990    18.0020    22.7600     2.4660 
  128.0000   -12.6160    55.0800    29.8200    28.8040    19.9420    22.8730     2.4760 
  128.1250   -12.5880    53.7220    30.7960    29.6420    23.9400    23.0460     2.5000 
  128.2500   -12.6020    55.6740    31.4710    30.2850    28.5490    23.1600     2.5310 
  128.3750   -12.6540    58.9590    31.3760    30.2910    29.6080    23.1440     2.5630 
  128.5000   -12.6680    60.9310    30.6050    29.6660    26.2980    23.0850     2.5880 
  128.6250   -12.7030    61.8020    29.4760    28.6280    22.2630    23.0640     2.5990 
  128.7500   -12.7700    61.1720    28.4330    27.5480    20.3160    23.0630     2.5970 
  128.8750   -12.7960    59.3900    27.9540    26.8610    20.4690    23.0260     2.5840 
  129.0000   -12.8400    57.7120    28.0690    26.6720    21.0840    22.9380     2.5720 
  129.1250   -12.9210    56.1220    28.6130    26.8900    21.3940    22.8360     2.5630 
  129.2500   -12.9810    55.3370    29.2630    27.2740    21.2010    22.7250     2.5580 
  129.3750   -13.0070    57.3030    29.5440    27.4440    22.1020    22.6470     2.5540 
  129.5000   -13.0370    59.7920    29.2250    27.1720    23.2450    22.6080     2.5520 
  129.6250   -13.0770    60.4900    28.3220    26.4320    22.7270    22.5850     2.5490 
  129.7500   -13.1280    60.7280    27.0820    25.3960    20.4980    22.5610     2.5460 
  129.8750   -13.1930    63.5310    25.9310    24.3950    18.9510    22.5350     2.5360 
  130.0000   -13.2330    66.2310    25.2290    23.7410    18.9410    22.5030     2.5180 
  130.1250   -13.2840    65.7830    25.1920    23.6320    19.6160    22.5090     2.4960 
  130.2500   -13.3460    62.3000    25.8760    24.1430    20.4550    22.5590     2.4770 
  130.3750   -13.3970    59.2230    27.1200    25.1680    20.9150    22.6270     2.4750 
  130.5000   -13.4790    58.3400    28.2830    26.1590    21.0780    22.6740     2.4930 
  130.6250   -13.5560    58.3890    28.7230    26.5540    22.8800    22.7200     2.5270 
  130.7500   -13.6190    56.5240    27.9620    25.9200    25.8230    22.7520     2.5670 
  130.8750   -13.6740    54.6390    25.8670    24.0990    24.6400    22.8010     2.5930 
  131.0000   -13.7810    55.9710    23.2840    21.7930    20.5520    22.8610     2.5950 
  131.1250   -13.8720    59.5700    20.9340    19.6230    16.8990    22.9220     2.5710 
  131.2500   -13.9420    61.9500    19.3170    18.0460    15.4040    22.9650     2.5300 
  131.3750   -14.0320    60.7690    18.7420    17.3730    15.9070    23.0000     2.4880 
  131.5000   -14.0790    56.8180    18.9020    17.3900    15.9800    23.0340     2.4590 
  131.6250   -14.0900    53.1960    19.4900    17.8640    16.4040    23.0820     2.4480 
  131.7500   -14.1110    53.9940    20.1360    18.4900    16.7220    23.1170     2.4500 
  131.8750   -14.1510    58.2020    20.4360    18.9040    16.2480    23.0880     2.4600 
  132.0000   -14.1280    59.9640    20.2770    18.9330    15.5500    22.9800     2.4670 
  132.1250   -14.0950    58.0550    19.7180    18.5680    15.4880    22.8200     2.4670 
  132.2500   -14.0620    56.6320    18.9260    17.9160    15.7810    22.6800     2.4600 
  132.3750   -14.0020    57.7500    18.1040    17.1360    15.1770    22.6470     2.4480 
  132.5000   -13.9740    57.3740    17.4070    16.3990    14.2460    22.6620     2.4420 
  132.6250   -14.0040    55.8350    16.8920    15.7850    13.8260    22.6650     2.4460 
