~V
VERS. 2.00: Ver 2.00
~W
STRT.M 58.0000:
STOP.M 193.0000:
STEP.M 0.1250:
NULL. -999.2500:
UWI. F10563:
~C
DEPT.M :
GR.API :
RML.OHMM :
RI. :
RXO.OHMM :
CALI.CM :
DEN.GM/CC :
SP.MV :
~A
# ...
  159.2500    64.5900    39.9180    38.4700    60.4800    24.3190     2.3100   -18.5420 
  159.3750    71.2770    36.9990    35.8990    61.3890    24.2940     2.3020   -18.1780 
  159.5000    82.9160    33.2400    32.5090    46.8030    24.2390     2.3040   -17.8160 
  159.6250    94.7650    29.6020    29.0730    33.3080    24.2100     2.3170   -17.4820 
  159.7500   102.8990    26.7660    26.2520    25.2910    24.2300     2.3300   -17.0870 
  159.8750   106.7210    24.7990    24.1600    25.8350    24.2610     2.3410   -16.7140 
  160.0000   107.1790    23.3490    22.5250    26.7070    24.2870     2.3500   -16.3630 
  160.1250   107.2880    21.8010    20.8420    27.1500    24.3100     2.3620   -15.9010 
  160.2500   108.8060    19.7590    18.7740    24.9940    24.3210     2.3760   -15.4880 
  160.3750   109.7730    17.2560    16.3240    20.0850    24.3280     2.3880   -15.2210 
  160.5000   109.1110    14.6280    13.7460    13.6910    24.3400     2.3900   -14.8500 
  160.6250   105.9100    12.3520    11.4410    10.1950    24.3750     2.3800   -14.3170 
  160.7500    99.6870    10.5160     9.6080     8.3890    24.4240     2.3620   -13.9100 
  160.8750    94.0550     9.0160     8.2990     7.6720    24.4710     2.3400   -13.6030 
  161.0000    92.3780     7.8160     7.4760     7.3710    24.4940     2.3210   -13.2810 
  161.1250    94.0190     7.3080     7.0970     7.1160    24.4960     2.3120   -12.9070 
  161.2500    94.5370     7.1900     6.9720     6.9060    24.4910     2.3170   -12.4970 
  161.3750    90.0770     7.2470     6.9910     7.0070    24.4690     2.3370   -12.1090 
  161.5000    79.8750     7.3170     7.0540     7.4140    24.4220     2.3680   -11.8650 
  161.6250    66.8850     7.3060     7.0530     7.7200    24.4050     2.3980   -11.7890 
  161.7500    57.5780     7.1850     6.9360     7.4560    24.4160     2.4200   -11.6640 
  161.8750    53.6020     6.9630     6.7020     7.1450    24.4370     2.4290   -11.4380 
  162.0000    52.4220     6.6830     6.3980     6.6620    24.4620     2.4280   -11.2790 
  162.1250    52.3140     6.4090     6.1030     6.6140    24.4980     2.4200   -11.3200 
  162.2500    51.4780     6.1890     5.8750     6.3720    24.5340     2.4090   -11.3560 
  162.3750    48.3740     6.0440     5.7280     5.9400    24.5530     2.4010   -11.2530 
  162.5000    43.3550     5.9810     5.6540     5.8500    24.5500     2.4020   -11.1080 
  162.6250    39.0770     6.0030     5.6380     6.1170    24.5280     2.4160   -11.0170 
  162.7500    37.2400     6.0760     5.6570     6.2550    24.4910     2.4360   -10.9710 
  162.8750    36.8550     6.1710     5.6970     6.1910    24.4740     2.4540   -10.9660 
  163.0000    36.9310     6.2550     5.7420     6.0040    24.4720     2.4670   -10.9250 
  163.1250    37.7330     6.2880     5.7620     6.0690    24.4720     2.4710   -10.7330 
  163.2500    37.9350     6.2580     5.7360     6.1050    24.4710     2.4700   -10.6450 
  163.3750    36.5120     6.1720     5.6580     6.0700    24.4660     2.4660   -10.6700 
  163.5000    34.2970     6.0560     5.5440     5.9300    24.4520     2.4640   -10.5830 
  163.6250    34.0390     5.9480     5.4250     5.5290    24.4230     2.4650   -10.4870 
  163.7500    34.9570     5.8660     5.3270     5.3100    24.3940     2.4710   -10.3760 
  163.8750    35.5090     5.8050     5.2550     5.2180    24.3600     2.4820   -10.2330 
  164.0000    35.1830     5.7470     5.1960     5.2410    24.3240     2.4910   -10.1870 
  164.1250    33.5030     5.6620     5.1250     5.3120    24.2920     2.4880   -10.2780 
  164.2500    31.6730     5.5510     5.0340     5.1010    24.2680     2.4680   -10.3480 
  164.3750    30.6120     5.4320     4.9300     4.8480    24.2510     2.4350   -10.4370 
  164.5000    30.9050     5.3310     4.8310     4.7900    24.2460     2.4020   -10.6380 
  164.6250    32.5430     5.2830     4.7530     4.8410    24.2480     2.3850   -10.7070 
  164.7500    35.3990     5.2880     4.7000     4.9150    24.2570     2.3890   -10.7180 
  164.8750    38.6330     5.3440     4.6730     5.0100    24.2810     2.4070   -10.8570 
  165.0000    40.7710     5.4460     4.6750     5.0800    24.3320     2.4260   -11.1080 
  165.1250    41.6450     5.5930     4.7170     5.1520    24.3820     2.4340   -11.2750 
  165.2500    42.3620     5.7600     4.7900     5.3000    24.4210     2.4330   -11.3490 
  165.3750    43.8750     5.9170     4.8810     5.5670    24.4370     2.4310   -11.4880 
  165.5000    45.7580     6.0400     4.9760     6.1600    24.4410     2.4340   -11.6760 
  165.6250    46.7500     6.1230     5.0750     6.6550    24.4400     2.4440   -11.8440 
  165.7500    48.1980     6.2210     5.1960     6.0970    24.4330     2.4500   -12.0210 
  165.8750    52.7280     6.3900     5.3670     5.7330    24.4060     2.4420   -12.2020 
  166.0000    61.1300     6.6660     5.6000     5.9980    24.3480     2.4190   -12.3530 
  166.1250    68.5910     7.0350     5.8790     6.8830    24.2730     2.3880   -12.6100 
  166.2500    70.3980     7.3860     6.1350     7.6140    24.2210     2.3640   -12.8510 
  166.3750    68.3700     7.6190     6.3060     8.3410    24.1940     2.3570   -12.9130 
  166.5000    65.9870     7.6800     6.3570     8.3540    24.1670     2.3660   -12.9760 
  166.6250    65.7370     7.6030     6.3060     7.8140    24.1210     2.3810   -13.1390 
  166.7500    68.0270     7.5560     6.2610     6.7050    24.1080     2.3880   -13.2540 
  166.8750    73.0550     7.6650     6.3150     6.5000    24.1300     2.3820   -13.2770 
  167.0000    78.0050     7.9690     6.5140     6.9190    24.1910     2.3630   -13.2020 
  167.1250    80.0170     8.3790     6.8260     7.3320    24.2220     2.3430   -13.0840 
  167.2500    81.8800     8.6850     7.1130     7.9800    24.2320     2.3300   -13.0740 
  167.3750    83.2480     8.7580     7.2770     9.6850    24.2320     2.3280   -13.1680 
  167.5000    80.4210     8.6180     7.2940    10.5930    24.2320     2.3380   -13.1410 
  167.6250    74.0200     8.4690     7.2640     8.8120    24.2320     2.3520   -12.9640 
  167.7500    72.2730     8.5400     7.3470     7.2450    24.2320     2.3620   -12.9060 
  167.8750    76.5680     8.8850     7.6060     7.8750    24.2320     2.3610   -12.9440 
  168.0000    81.3700     9.3660     7.9740    10.1130    24.2320     2.3520   -12.8840 
  168.1250    80.5560     9.6160     8.2110    13.4740    24.2280     2.3410   -12.7120 
  168.2500    75.8500     9.3740     8.1070    14.9570    24.2100     2.3370   -12.5150 
  168.3750    70.8260     8.6380     7.6130    11.9230    24.1750     2.3390   -12.3050 
  168.5000    66.1220     7.6610     6.8620     7.4000    24.1380     2.3440   -12.1280 
  168.6250    62.8390     6.8230     6.1100     6.0210    24.0960     2.3480   -11.9920 
  168.7500    62.1750     6.2910     5.5390     5.8400    24.0510     2.3500   -11.7430 
  168.8750    61.9560     6.0490     5.1900     5.9720    24.0310     2.3550   -11.4390 
  169.0000    59.4830     5.9950     5.0240     5.7640    24.0280     2.3680   -11.3280 
  169.1250    55.5420     6.0090     4.9770     5.4250    24.0290     2.3860   -11.2300 
  169.2500    53.4790     6.0070     4.9640     5.3300    24.0290     2.4000   -11.0840 
  169.3750    54.1120     5.9930     4.9650     5.3310    24.0290     2.4040   -11.0240 
  169.5000    58.1660     6.0010     4.9890     5.3490    24.0290     2.4010   -10.9500 
  169.6250    65.7610     6.0720     5.0600     5.4150    24.0290     2.3970   -10.9570 
  169.7500    71.7230     6.1980     5.1750     5.5840    24.0290     2.3950   -11.1450 
  169.8750    73.2790     6.3680     5.3240     6.0090    24.0420     2.3900   -11.4430 
  170.0000    72.3750     6.5740     5.4970     6.6600    24.0900     2.3780   -11.7130 
  170.1250    73.1450     6.8360     5.6970     6.8630    24.1860     2.3550   -12.0360 
  170.2500    77.4190     7.1670     5.9410     6.6220    24.2530     2.3260   -12.3290 
  170.3750    84.0430     7.5800     6.2470     6.7900    24.2700     2.2950   -12.4570 
