~V
VERS. 2.00: Ver 2.00
~W
STRT.M 58.0000:
STOP.M 197.0000:
STEP.M 0.1250:
NULL. -999.2500:
UWI. F10573:
~C
DEPT.M :
SP.MV :
GR.API :
RML.OHMM :
RI. :
RXO.OHMM :
CALI.CM :
DEN.GM/CC :
~A
# ...
  148.0000   -19.8920    50.9220    34.7910    32.4830    33.1290    24.3670     2.3750 
  148.1250   -20.0450    53.4860    32.4980    30.4130    28.2650    24.3680     2.3450 
  148.2500   -20.1880    53.9340    31.1970    29.1500    26.7780    24.3690     2.3210 
  148.3750   -20.3040    52.4570    30.8490    28.7230    27.8800    24.3820     2.3070 
  148.5000   -20.3750    50.5950    31.1560    28.9190    31.0120    24.4050     2.2990 
  148.6250   -20.3470    51.0930    31.6520    29.3520    34.8140    24.4040     2.2930 
  148.7500   -20.2560    53.5560    31.8900    29.5930    35.6380    24.3940     2.2850 
  148.8750   -20.1230    56.1350    31.7690    29.5160    34.2280    24.3700     2.2740 
  149.0000   -19.9600    56.7660    31.4540    29.2380    30.6150    24.3240     2.2640 
  149.1250   -19.7670    54.9270    31.3080    29.0610    27.5560    24.2000     2.2590 
  149.2500   -19.5230    53.4700    31.5630    29.2170    27.7790    24.0050     2.2600 
  149.3750   -19.2420    55.0860    32.2450    29.7640    30.4610    23.8110     2.2650 
  149.5000   -18.9590    58.7490    33.1950    30.6030    32.9340    23.6490     2.2670 
  149.6250   -18.7220    60.6520    34.0940    31.4890    32.8190    23.5690     2.2620 
  149.7500   -18.5280    60.0550    34.6330    32.1180    31.8160    23.5280     2.2500 
  149.8750   -18.3760    57.7390    34.6220    32.2760    31.1070    23.5180     2.2360 
  150.0000   -18.2810    54.7340    34.0170    31.8810    30.0250    23.5010     2.2270 
  150.1250   -18.2580    52.5840    32.9130    30.9850    27.5870    23.4150     2.2310 
  150.2500   -18.3300    53.3020    31.6820    29.9290    24.4160    23.2710     2.2490 
  150.3750   -18.4840    56.6750    30.5910    28.9550    21.8970    23.1670     2.2700 
  150.5000   -18.6900    59.3860    29.8150    28.2350    20.3900    23.1330     2.2810 
  150.6250   -18.9480    58.1300    29.3760    27.8330    19.3610    23.1670     2.2730 
  150.7500   -19.2330    54.3030    28.9650    27.5060    20.1550    23.3020     2.2530 
  150.8750   -19.5140    51.8070    28.3020    27.0030    22.9310    23.5890     2.2290 
  151.0000   -19.7640    53.5460    27.2600    26.1930    24.9660    23.9270     2.2120 
  151.1250   -19.9600    56.8270    25.9590    25.1400    23.5990    23.9740     2.2190 
  151.2500   -20.0910    58.5570    24.7740    24.1420    19.5290    23.6450     2.2510 
  151.3750   -20.1720    58.2320    23.9770    23.4330    17.0140    23.1510     2.3000 
  151.5000   -20.2220    56.0410    23.6820    23.1340    17.4520    22.7820     2.3510 
  151.6250   -20.2420    53.2300    23.8340    23.2470    20.1700    22.6860     2.3790 
  151.7500   -20.2460    51.1090    24.1060    23.5080    21.1890    22.7560     2.3800 
  151.8750   -20.2460    51.7830    24.2660    23.7050    20.5800    22.8680     2.3630 
  152.0000   -20.2460    55.7670    24.1640    23.6710    20.8060    23.0420     2.3410 
  152.1250   -20.2750    60.9910    23.7720    23.3250    22.2360    23.3960     2.3150 
  152.2500   -20.3380    64.1910    23.3320    22.8690    23.7140    23.8160     2.2870 
  152.3750   -20.4280    64.8730    23.0940    22.5350    24.3180    24.1850     2.2590 
  152.5000   -20.5330    63.8750    23.2890    22.5550    24.9070    24.4350     2.2360 
  152.6250   -20.6420    62.3120    24.1960    23.2100    25.4500    24.5400     2.2230 
  152.7500   -20.7650    60.9850    25.7240    24.4760    28.0320    24.5860     2.2160 
  152.8750   -20.9160    61.3550    27.6370    26.2060    31.3800    24.6120     2.2110 
  153.0000   -21.1010    61.9010    29.4570    28.0050    35.3740    24.6410     2.2050 
  153.1250   -21.3190    59.9720    30.3820    29.1290    37.8430    24.6500     2.2010 
  153.2500   -21.5680    58.3720    30.1210    29.1780    38.8140    24.6620     2.2030 
  153.3750   -21.8350    57.4650    28.8040    28.1750    36.5100    24.6620     2.2110 
  153.5000   -22.0960    57.0980    26.9380    26.5410    31.8620    24.6500     2.2220 
  153.6250   -22.3430    56.7650    25.1980    24.8830    27.0910    24.6260     2.2310 
  153.7500   -22.5570    56.1560    23.9790    23.6230    25.6110    24.6290     2.2360 
  153.8750   -22.7240    55.6960    23.3960    22.9060    25.5970    24.6400     2.2380 
  154.0000   -22.8340    55.4990    23.4320    22.7510    26.3660    24.6640     2.2340 
  154.1250   -22.8790    55.0510    24.0750    23.1870    26.4790    24.7060     2.2250 
  154.2500   -22.8650    52.8900    25.1020    24.0310    26.7460    24.7450     2.2200 
  154.3750   -22.8050    50.5010    26.3630    25.1660    28.2700    24.7060     2.2230 
  154.5000   -22.7180    50.1970    27.6830    26.4460    31.2420    24.5790     2.2340 
  154.6250   -22.5930    52.0610    28.8060    27.6400    34.3190    24.4790     2.2440 
  154.7500   -22.4590    55.0680    29.5530    28.5310    34.7840    24.4440     2.2490 
  154.8750   -22.3340    58.9600    29.8380    28.9900    34.2180    24.4430     2.2470 
  155.0000   -22.2180    60.1900    29.6980    29.0070    33.7820    24.4500     2.2440 
  155.1250   -22.1020    56.4150    29.2610    28.6780    33.5620    24.4490     2.2430 
  155.2500   -21.9800    53.3600    28.7590    28.2480    32.8060    24.4430     2.2440 
  155.3750   -21.8620    54.8790    28.2570    27.8050    31.4870    24.4420     2.2470 
  155.5000   -21.7660    59.0490    27.6850    27.2960    30.7000    24.4460     2.2490 
  155.6250   -21.7100    60.8820    26.8390    26.5200    30.5500    24.4600     2.2450 
  155.7500   -21.6750    59.7600    25.6590    25.4030    30.9040    24.4900     2.2410 
  155.8750   -21.6530    57.1490    24.2050    23.9900    29.3920    24.4920     2.2420 
  156.0000   -21.6560    56.7070    22.6690    22.4590    24.7590    24.4130     2.2490 
  156.1250   -21.6910    60.5940    21.3730    21.1020    19.1300    24.2660     2.2630 
  156.2500   -21.7540    64.7570    20.5300    20.1240    17.3910    24.1690     2.2750 
  156.3750   -21.8440    65.8950    20.2760    19.6500    18.7470    24.2470     2.2810 
  156.5000   -21.9490    65.0720    20.6940    19.7520    20.7670    24.3750     2.2800 
  156.6250   -22.0550    63.2210    21.9480    20.5770    21.9140    24.4190     2.2790 
  156.7500   -22.1480    60.4970    23.9000    22.0190    22.7060    24.3990     2.2790 
  156.8750   -22.2090    59.9090    26.4790    24.0320    25.0690    24.3800     2.2750 
  157.0000   -22.2240    61.6060    29.5490    26.5180    30.2220    24.4130     2.2640 
  157.1250   -22.1950    59.9990    32.9100    29.3250    36.7960    24.4280     2.2470 
  157.2500   -22.1320    54.0860    36.2080    32.1220    39.3960    24.3990     2.2290 
  157.3750   -22.0520    49.3460    39.1740    34.6370    37.6040    24.2960     2.2150 
  157.5000   -21.9740    49.6650    41.6280    36.6740    34.7520    24.1100     2.2070 
  157.6250   -21.9160    53.5900    43.4480    38.0640    34.3020    23.8970     2.2050 
  157.7500   -21.8730    56.4440    44.8400    38.9700    34.3260    23.7060     2.2130 
  157.8750   -21.8620    56.1920    45.9370    39.5100    30.9840    23.5620     2.2400 
  158.0000   -21.9070    52.7170    46.8070    39.7900    26.3760    23.4620     2.2950 
  158.1250   -22.0070    47.3940    47.3870    39.8420    27.4280    23.4220     2.3810 
  158.2500   -22.1570    43.4370    47.6560    39.7210    34.7290    23.4760     2.4750 
  158.3750   -22.3250    43.2360    47.6030    39.4450    41.6620    23.6150     2.5500 
  158.5000   -22.4800    45.1330    47.3050    39.0750    43.7810    23.8750     2.5930 
  158.6250   -22.6250    46.7830    46.9850    38.7800    47.0590    24.2040     2.5960 
  158.7500   -22.7730    49.0750    47.0010    38.7960    47.2420    24.3390     2.5680 
  158.8750   -22.9210    52.8910    47.7360    39.3970    46.6420    24.3630     2.5210 
  159.0000   -23.0660    56.2470    49.5180    40.8410    47.2020    24.3790     2.4770 
  159.1250   -23.2100    55.6740    52.5030    43.3380    48.5390    24.4250     2.4750 
