~V
VERS. 2.00: Ver 2.00
~W
STRT.M 58.0000:
STOP.M 197.0000:
STEP.M 0.1250:
NULL. -999.2500:
UWI. F10573:
~C
DEPT.M :
SP.MV :
GR.API :
RML.OHMM :
RI. :
RXO.OHMM :
CALI.CM :
DEN.GM/CC :
~A
# ...
   80.5000    -7.7400    54.8050    28.4600    25.6600    27.9480    24.3990     2.0740 
   80.6250    -8.1450    56.6330    28.4010    25.5400    28.3860    24.4010     2.0750 
   80.7500    -8.5400    57.8060    28.4490    25.5230    27.6520    24.3660     2.1000 
   80.8750    -8.9260    59.3870    28.4470    25.5190    25.7950    24.3490     2.1460 
   81.0000    -9.3270    61.2010    28.1260    25.3140    24.1330    24.3680     2.2060 
   81.1250    -9.6800    60.3880    27.1690    24.6090    24.5840    24.3240     2.2670 
   81.2500    -9.9710    60.0400    25.7160    23.4610    26.4370    24.1560     2.3100 
   81.3750   -10.2350    62.5400    24.0590    22.0810    25.2970    23.9180     2.3230 
   81.5000   -10.4260    66.4490    22.5810    20.7750    20.9190    23.8170     2.3060 
   81.6250   -10.5240    67.6070    21.7010    19.8930    17.7570    23.9390     2.2730 
   81.7500   -10.5660    65.9540    21.4340    19.5020    18.7700    24.1320     2.2380 
   81.8750   -10.5360    64.0590    21.6840    19.5720    19.0880    24.2440     2.2050 
   82.0000   -10.4200    63.3680    22.2290    19.9690    18.5600    24.2840     2.1730 
   82.1250   -10.2960    64.4130    22.7550    20.4590    19.0350    24.3090     2.1410 
   82.2500   -10.1880    65.5340    23.0650    20.8170    20.3810    24.2920     2.1200 
   82.3750   -10.0570    64.3990    23.1830    21.0020    20.7010    24.1620     2.1220 
   82.5000    -9.9440    60.9060    23.2670    21.1090    19.9390    23.9200     2.1520 
   82.6250    -9.8610    58.3990    23.5160    21.2960    19.3110    23.7740     2.1890 
   82.7500    -9.7970    58.6530    23.9780    21.6280    21.0270    23.9080     2.2060 
   82.8750    -9.7840    60.6740    24.6050    22.0930    23.6370    24.1780     2.1970 
   83.0000    -9.8220    61.0290    25.2540    22.6020    24.9670    24.3750     2.1770 
   83.1250    -9.9120    58.1810    25.6400    22.9470    24.1860    24.4130     2.1680 
   83.2500   -10.0350    55.3810    25.5530    22.9360    23.3170    24.3360     2.1700 
   83.3750   -10.2000    56.9550    24.9090    22.4630    22.9250    24.2080     2.1750 
   83.5000   -10.4320    62.2760    23.8110    21.5760    22.5090    24.1600     2.1780 
   83.6250   -10.7140    64.7290    22.5430    20.4800    21.2970    24.0990     2.1860 
   83.7500   -10.9970    63.3470    21.4730    19.5000    19.3960    23.9050     2.2030 
   83.8750   -11.3020    62.0520    20.8180    18.8360    18.3900    23.7910     2.2240 
   84.0000   -11.6280    63.6860    20.6710    18.5900    18.6690    23.9300     2.2350 
   84.1250   -11.8890    66.8120    21.0340    18.8040    19.5300    24.2260     2.2220 
   84.2500   -12.1170    67.7750    21.5660    19.2270    20.7950    24.4250     2.1950 
   84.3750   -12.3120    65.1670    21.8910    19.5580    22.8830    24.5380     2.1640 
   84.5000   -12.4950    60.6090    21.6600    19.4780    23.7350    24.5880     2.1420 
   84.6250   -12.6340    59.4100    20.7160    18.7900    21.3580    24.5220     2.1440 
   84.7500   -12.7480    63.2890    19.5360    17.8430    18.7630    24.3350     2.1700 
   84.8750   -12.8440    68.1850    18.6000    17.0260    16.3820    24.1040     2.2100 
   85.0000   -12.9340    70.0500    18.2370    16.6330    14.2210    23.9360     2.2470 
   85.1250   -13.0760    68.6960    18.5510    16.8160    15.4480    23.9830     2.2600 
   85.2500   -13.1910    66.2740    19.0970    17.2690    18.6920    24.2250     2.2500 
   85.3750   -13.3050    61.9020    19.4030    17.6110    22.5010    24.6190     2.2270 
   85.5000   -13.4590    57.2360    19.0880    17.4820    23.0570    24.9380     2.2050 
   85.6250   -13.6390    56.9570    18.0260    16.6990    19.1170    24.9610     2.2000 
   85.7500   -13.8470    61.5690    16.7240    15.6380    15.8240    24.8010     2.2090 
   85.8750   -14.0870    67.3360    15.6310    14.6680    14.1510    24.6110     2.2270 
   86.0000   -14.3440    71.2520    15.0270    14.0450    13.5470    24.5040     2.2450 
   86.1250   -14.5810    71.9560    15.0040    13.9020    14.0420    24.4870     2.2540 
   86.2500   -14.7840    69.4680    15.2560    14.0350    14.2610    24.5440     2.2560 
   86.3750   -14.9780    66.1590    15.4830    14.2110    14.0820    24.6700     2.2520 
   86.5000   -15.1070    64.9280    15.4020    14.1730    14.3370    24.8150     2.2460 
   86.6250   -15.1330    66.3470    14.8060    13.6840    14.6470    24.8510     2.2410 
   86.7500   -15.1350    67.2690    13.9170    12.8880    14.6410    24.7670     2.2430 
   86.8750   -15.0770    67.1740    13.0180    12.0180    13.5740    24.6460     2.2530 
   87.0000   -14.8940    68.8030    12.3690    11.3130    11.4220    24.5250     2.2650 
   87.1250   -14.6010    72.8110    12.2140    11.0070    10.4070    24.4350     2.2670 
   87.2500   -14.2350    74.8430    12.5350    11.1110    10.9220    24.3310     2.2560 
   87.3750   -13.7720    73.1850    13.2980    11.6180    12.5310    24.1830     2.2360 
   87.5000   -13.2270    70.8950    14.4230    12.4680    13.5990    24.0330     2.2150 
   87.6250   -12.6140    68.9360    15.7860    13.5780    14.4190    23.9740     2.1980 
   87.7500   -11.9400    65.4500    17.1250    14.7210    16.4490    24.0010     2.1820 
   87.8750   -11.2380    61.7000    18.2310    15.7010    17.5590    24.0500     2.1710 
   88.0000   -10.5660    60.5100    18.9790    16.3860    18.1090    24.0750     2.1710 
   88.1250    -9.9130    61.9620    19.3530    16.7270    18.6180    24.0640     2.1870 
   88.2500    -9.3030    62.3040    19.6000    16.9060    18.4320    24.0360     2.2050 
   88.3750    -8.7750    61.1690    19.9410    17.0920    17.8050    24.0080     2.2110 
   88.5000    -8.2900    59.7480    20.5200    17.4150    18.5800    23.9990     2.1970 
   88.6250    -7.8700    59.7960    21.3440    17.9100    20.5620    24.0030     2.1680 
   88.7500    -7.5390    60.9320    22.1740    18.4220    21.9800    23.9960     2.1420 
   88.8750    -7.2950    61.0950    22.7950    18.7950    22.5920    24.0190     2.1300 
   89.0000    -7.1420    60.3360    23.0780    18.9280    22.4570    24.1160     2.1350 
   89.1250    -7.1010    59.5940    23.0410    18.8190    21.2130    24.2820     2.1530 
   89.2500    -7.1270    58.7770    22.9530    18.6640    19.9610    24.3520     2.1730 
   89.3750    -7.2120    57.2040    23.0020    18.6120    19.6690    24.4100     2.1870 
   89.5000    -7.3560    54.7950    23.2720    18.7390    20.3130    24.5380     2.1920 
   89.6250    -7.5710    54.0310    23.7570    19.0700    21.0540    24.5990     2.1870 
   89.7500    -7.8230    54.0560    24.3180    19.5140    21.5330    24.5400     2.1790 
   89.8750    -8.0610    53.8320    24.8540    20.0040    21.6580    24.3990     2.1710 
   90.0000    -8.3140    52.4550    25.3080    20.4860    21.3010    24.2120     2.1640 
   90.1250    -8.6250    50.5390    25.6240    20.8980    20.8950    24.0640     2.1630 
   90.2500    -8.9730    50.4700    25.7400    21.1650    20.7870    24.1070     2.1670 
   90.3750    -9.3720    51.8630    25.4910    21.1510    20.9210    24.2210     2.1730 
   90.5000    -9.8340    55.0420    24.6820    20.6930    20.5770    24.2200     2.1750 
   90.6250   -10.3510    60.4010    23.1100    19.6030    19.6070    24.2520     2.1710 
   90.7500   -10.9200    64.1290    21.0490    18.0620    18.2090    24.3440     2.1660 
   90.8750   -11.5860    64.0040    18.8330    16.3140    16.4950    24.3830     2.1680 
   91.0000   -12.3060    61.9040    16.8210    14.6460    13.8320    24.2670     2.1850 
   91.1250   -13.0020    62.3190    15.3530    13.3560    11.7140    23.8390     2.2150 
   91.2500   -13.6580    65.0770    14.4280    12.4900    10.6930    23.2670     2.2440 
   91.3750   -14.2590    68.0760    14.0130    12.0440     9.8510    22.8710     2.2610 
   91.5000   -14.7960    70.5540    14.0420    11.9830     9.8230    22.7860     2.2630 
   91.6250   -15.2510    70.8260    14.4900    12.3060    10.8840    23.1460     2.2510 
