~V
VERS. 2.00: Ver 2.00
~W
STRT.M 50.0000:
STOP.M 215.0000:
STEP.M 0.1250:
NULL. -999.2500:
UWI. F10588:
~C
DEPT.M :
DEN.GM/CC :
GR.API :
RML.OHMM :
RI. :
RXO.OHMM :
CALI.CM :
SP.MV :
~A
# ...
  151.2500     2.3800    51.4450    37.4240    30.6480    33.7960    23.2930   -16.8510 
  151.3750     2.3220    53.1220    37.9100    31.1290    34.9800    23.2990   -17.0110 
  151.5000     2.2820    54.3690    38.1640    31.4810    35.8560    23.2910   -17.1380 
  151.6250     2.2710    53.2560    37.8930    31.4400    35.5330    23.3050   -17.2120 
  151.7500     2.2860    52.3130    37.1760    31.0100    34.5890    23.3430   -17.2380 
  151.8750     2.3250    52.5440    36.1720    30.2870    32.2690    23.3430   -17.2040 
  152.0000     2.3850    52.8660    35.0810    29.4310    29.4100    23.2900   -17.1310 
  152.1250     2.4470    52.7250    34.0550    28.5990    29.1070    23.2130   -17.0100 
  152.2500     2.4790    51.6740    33.0690    27.8240    30.2820    23.1730   -16.8980 
  152.3750     2.4620    51.0730    32.0120    27.0370    29.8560    23.1500   -16.7640 
  152.5000     2.4000    51.8970    30.8350    26.1760    27.7890    23.1330   -16.6720 
  152.6250     2.3230    53.9120    29.6850    25.3070    26.1910    23.1390   -16.5740 
  152.7500     2.2650    56.0350    28.8380    24.6190    24.6700    23.1640   -16.5220 
  152.8750     2.2360    58.1450    28.5340    24.2970    23.4050    23.2000   -16.5070 
  153.0000     2.2310    60.4080    28.8920    24.4650    23.3830    23.2360   -16.5310 
  153.1250     2.2400    61.1230    29.8700    25.1690    26.0920    23.2530   -16.6090 
  153.2500     2.2520    58.2720    30.9890    26.0890    28.9210    23.2560   -16.7050 
  153.3750     2.2630    52.7840    31.8040    26.8830    29.6730    23.2520   -16.8690 
  153.5000     2.2680    48.4930    31.9790    27.2290    29.4530    23.2490   -17.0250 
  153.6250     2.2560    49.6380    31.3830    26.9170    28.7010    23.2500   -17.2230 
  153.7500     2.2330    54.0180    30.4860    26.2560    27.7360    23.2550   -17.4240 
  153.8750     2.2090    59.1450    29.6930    25.5760    26.3360    23.2570   -17.6350 
  154.0000     2.1970    62.0490    29.2240    25.1050    24.8830    23.2450   -17.8360 
  154.1250     2.2110    60.0960    29.0230    24.8830    24.9470    23.1650   -18.0060 
  154.2500     2.2400    56.0990    28.7760    24.6880    26.0800    22.9930   -18.1440 
  154.3750     2.2640    54.8960    28.3140    24.3670    27.1080    22.7910   -18.2210 
  154.5000     2.2720    57.6750    27.7030    23.9190    26.5910    22.6560   -18.2560 
  154.6250     2.2670    60.5520    27.3470    23.5830    25.0580    22.9380   -18.2390 
  154.7500     2.2630    60.6400    27.6250    23.6490    23.7050    23.1750   -18.1920 
  154.8750     2.2650    58.7690    28.6780    24.2850    24.2790    23.2800   -18.1210 
  155.0000     2.2680    55.8700    30.2940    25.4410    26.4470    23.2890   -18.0170 
  155.1250     2.2650    54.1040    31.7560    26.7060    29.9030    23.2510   -17.9010 
  155.2500     2.2540    55.5620    32.2090    27.3700    32.5130    23.2240   -17.7850 
  155.3750     2.2430    58.1300    31.2010    26.9500    32.4060    23.2230   -17.6600 
  155.5000     2.2390    57.8540    28.9000    25.4190    28.9570    23.2260   -17.5710 
  155.6250     2.2430    55.2110    26.0110    23.2110    24.3580    23.2090   -17.4930 
  155.7500     2.2440    54.9370    23.4450    21.0840    21.7270    23.1990   -17.4760 
  155.8750     2.2410    58.6510    21.6190    19.4280    20.3760    23.2000   -17.4910 
  156.0000     2.2360    64.0570    20.6670    18.4150    19.2410    23.1970   -17.5580 
  156.1250     2.2350    66.6900    20.6280    18.1520    19.0060    23.1820   -17.6660 
  156.2500     2.2360    64.1750    21.1510    18.4140    18.9370    23.1550   -17.7900 
  156.3750     2.2380    59.3430    21.9840    19.0360    19.6090    23.0710   -17.9590 
  156.5000     2.2390    56.3140    22.8510    19.8100    20.2580    22.8800   -18.1130 
  156.6250     2.2340    55.5410    23.4440    20.4790    20.3040    22.7370   -18.2620 
  156.7500     2.2250    56.4260    23.6920    20.9010    20.3590    22.7250   -18.3230 
  156.8750     2.2150    58.5330    23.6800    21.0790    21.1560    22.9430   -18.3380 
  157.0000     2.2110    60.4420    23.5860    21.1180    21.6150    23.2880   -18.3130 
  157.1250     2.2160    60.1760    23.5690    21.1410    21.1220    23.5080   -18.2460 
  157.2500     2.2270    58.6660    23.5970    21.1700    21.2570    23.5950   -18.1570 
  157.3750     2.2340    57.1320    23.5460    21.1310    22.3540    23.6200   -18.0410 
  157.5000     2.2300    56.4020    23.3210    20.9450    23.0600    23.6080   -17.9040 
  157.6250     2.2170    58.6890    22.9610    20.6220    21.8030    23.5500   -17.7830 
  157.7500     2.2050    61.9060    22.6780    20.3230    19.5210    23.4240   -17.6810 
  157.8750     2.2000    63.3600    22.6420    20.1870    17.6600    23.2380   -17.5920 
  158.0000     2.2010    63.5640    22.9200    20.2850    17.3990    23.0420   -17.5000 
  158.1250     2.2000    62.6630    23.4080    20.5860    19.2720    22.9110   -17.3980 
  158.2500     2.2010    61.1430    23.7660    20.8480    20.9870    22.8780   -17.3110 
  158.3750     2.2120    59.2650    23.7160    20.8380    21.5080    22.9720   -17.2100 
  158.5000     2.2400    59.3850    23.1710    20.4440    20.9820    23.0690   -17.1520 
  158.6250     2.2790    61.3360    22.3860    19.8010    20.1270    23.0950   -17.0900 
  158.7500     2.3070    62.2090    21.9380    19.3400    19.1580    23.0790   -17.0900 
  158.8750     2.3070    60.9820    22.2580    19.4050    18.2740    23.0120   -17.1130 
  159.0000     2.2760    58.0750    23.5800    20.2220    18.2170    22.8130   -17.2000 
  159.1250     2.2290    55.0620    26.0070    21.9810    21.2570    22.6700   -17.3380 
  159.2500     2.1800    54.3180    28.9740    24.3450    26.2910    22.7790   -17.4890 
  159.3750     2.1380    55.7770    31.8520    26.8750    31.0770    23.1390   -17.6770 
  159.5000     2.1120    56.9810    33.9690    28.9860    33.2850    23.5000   -17.8520 
  159.6250     2.1080    56.9730    34.7390    30.0360    33.3080    23.6850   -18.0460 
  159.7500     2.1190    58.0030    34.5440    30.1620    32.9530    23.7260   -18.1960 
  159.8750     2.1370    58.4700    33.8680    29.7030    32.3710    23.6770   -18.3470 
  160.0000     2.1510    57.2620    33.1740    29.0610    31.6390    23.6330   -18.4550 
  160.1250     2.1520    56.1330    32.7890    28.5680    30.6120    23.6490   -18.5470 
  160.2500     2.1510    56.3200    32.7370    28.3310    30.1660    23.6840   -18.6020 
  160.3750     2.1570    57.3470    32.9810    28.3640    30.0110    23.7020   -18.6330 
  160.5000     2.1750    60.2200    33.4520    28.6380    30.0260    23.6700   -18.6560 
  160.6250     2.1960    63.7770    34.0540    29.1080    30.2800    23.6110   -18.6640 
  160.7500     2.2070    62.8770    34.6370    29.6440    31.4740    23.5860   -18.6370 
  160.8750     2.2020    58.2210    35.0940    30.1480    33.0720    23.6490   -18.5700 
  161.0000     2.1880    54.5660    35.3210    30.5210    33.2080    23.7570   -18.4540 
  161.1250     2.1780    54.5300    35.1100    30.5700    32.3730    23.8230   -18.3000 
  161.2500     2.1810    55.7290    34.4110    30.2020    31.4370    23.8280   -18.1420 
  161.3750     2.1960    58.2490    33.2430    29.3930    30.4790    23.7930   -17.9760 
  161.5000     2.2170    62.4490    31.7620    28.2520    28.7420    23.7380   -17.8180 
  161.6250     2.2350    66.0640    30.2460    26.9960    25.7790    23.6650   -17.6470 
  161.7500     2.2430    66.4740    28.9670    25.8730    23.3850    23.5950   -17.5590 
  161.8750     2.2420    63.8390    28.0610    25.0050    23.0390    23.5740   -17.5110 
  162.0000     2.2340    60.6780    27.5520    24.4310    24.1560    23.6210   -17.5550 
  162.1250     2.2270    58.6640    27.4310    24.1660    24.9680    23.7490   -17.6540 
  162.2500     2.2250    57.2050    27.5220    24.0940    24.6980    23.8690   -17.7960 
  162.3750     2.2270    57.4150    27.6810    24.1110    24.2350    23.9250   -17.9790 
