~V
VERS. 2.00: Ver 2.00
~W
STRT.M 47.0000:
STOP.M 254.0000:
STEP.M 0.1250:
NULL. -999.2500:
UWI. F10599:
~C
DEPT.M :
DEN.GM/CC :
SP.MV :
GR.API :
RML.OHMM :
RI. :
RXO.OHMM :
CALI.CM :
~A
# ...
   80.7500     2.1340   -11.5050    78.6080     8.3840     7.1980     9.1470    23.7260 
   80.8750     2.1290   -11.5190    78.1880     8.2700     6.9040     8.8870    23.7270 
   81.0000     2.1250   -11.5230    77.6880     8.0800     6.6120     8.6270    23.7270 
   81.1250     2.1250   -11.5140    76.5670     7.8480     6.3940     8.5210    23.7270 
   81.2500     2.1290   -11.4930    78.4230     7.6230     6.2620     8.4540    23.7270 
   81.3750     2.1340   -11.4560    83.0070     7.4700     6.1990     8.3420    23.7270 
   81.5000     2.1420   -11.3890    83.0370     7.3900     6.1770     8.3740    23.7250 
   81.6250     2.1490   -11.2950    80.0060     7.3570     6.1930     8.4210    23.7220 
   81.7500     2.1570   -11.1450    78.6780     7.3550     6.2760     8.4010    23.7220 
   81.8750     2.1650   -10.9420    78.8330     7.4360     6.4780     8.4370    23.7240 
   82.0000     2.1740   -10.6750    78.1500     7.6480     6.7680     8.5610    23.7240 
   82.1250     2.1860   -10.3580    79.2730     7.9720     7.0930     8.8840    23.7250 
   82.2500     2.2030    -9.9730    83.3540     8.2770     7.3570     9.3610    23.7250 
   82.3750     2.2260    -9.5080    86.0730     8.2840     7.3860     9.8360    23.7440 
   82.5000     2.2480    -9.0030    86.6140     7.9060     7.1360     9.5420    23.8110 
   82.6250     2.2640    -8.4750    89.1950     7.2510     6.6490     8.2010    23.9250 
   82.7500     2.2700    -7.9710    94.1630     6.5500     6.0430     6.8980    23.9990 
   82.8750     2.2690    -7.5180    98.0530     6.0220     5.4540     6.4030    24.0190 
   83.0000     2.2620    -7.1350   100.2890     5.6900     4.9880     6.0490    24.0110 
   83.1250     2.2530    -6.8210   101.1420     5.5270     4.6990     5.8750    23.9580 
   83.2500     2.2420    -6.6040   100.6600     5.5060     4.6120     5.9370    23.8280 
   83.3750     2.2330    -6.5150    97.3800     5.6140     4.7410     6.1140    23.6600 
   83.5000     2.2270    -6.5310    92.8420     5.7830     4.9620     6.0740    23.5770 
   83.6250     2.2270    -6.6380    89.4710     5.9690     5.1560     6.1150    23.5320 
   83.7500     2.2310    -6.8120    87.8790     6.1530     5.2430     6.2780    23.5120 
   83.8750     2.2360    -7.0390    89.5850     6.3550     5.2300     6.4550    23.5070 
   84.0000     2.2380    -7.3000    90.3660     6.6090     5.2310     6.5360    23.4900 
   84.1250     2.2360    -7.5930    89.2980     6.9350     5.3400     6.6370    23.4260 
   84.2500     2.2290    -7.8800    87.1110     7.3220     5.6060     7.0400    23.2950 
   84.3750     2.2170    -8.1180    84.8230     7.7110     6.0100     7.6460    23.2310 
   84.5000     2.2050    -8.2670    83.6070     7.9990     6.4100     7.8130    23.2090 
   84.6250     2.1950    -8.3210    82.4080     8.0710     6.6730     7.8590    23.2100 
   84.7500     2.1880    -8.2640    80.7350     7.8610     6.6850     8.0890    23.2370 
   84.8750     2.1880    -8.0900    80.4620     7.3730     6.3840     7.6190    23.3720 
   85.0000     2.1980    -7.8400    82.9790     6.8050     5.9320     6.6740    23.6330 
   85.1250     2.2150    -7.5440    88.7810     6.3120     5.4680     5.8950    23.8910 
   85.2500     2.2310    -7.2330    95.5150     5.9840     5.0870     5.6550    24.0270 
   85.3750     2.2390    -6.9520    99.0930     5.8740     4.8700     5.8260    24.0230 
   85.5000     2.2440    -6.7350    98.0190     5.9030     4.8150     6.0470    23.9830 
   85.6250     2.2500    -6.6010    95.3090     6.0040     4.9130     6.0710    23.9270 
   85.7500     2.2560    -6.5550    94.1710     6.1160     5.1200     6.0520    23.7980 
   85.8750     2.2460    -6.6090    92.4580     6.1870     5.3630     6.4460    23.4820 
   86.0000     2.2210    -6.6990    88.3500     6.2250     5.5670     6.9970    23.1450 
   86.1250     2.1950    -6.7890    85.6610     6.2380     5.6860     6.8290    22.9640 
   86.2500     2.1800    -6.8910    86.3550     6.2120     5.6860     6.3690    22.9180 
   86.3750     2.1780    -6.9900    87.6900     6.1080     5.4990     6.6380    22.9190 
   86.5000     2.1830    -7.0950    89.4860     5.9610     5.1930     7.0970    22.9390 
   86.6250     2.1970    -7.2050    93.2440     5.8570     4.9030     6.9620    23.0210 
   86.7500     2.2270    -7.3360    99.6630     5.8950     4.7940     6.1460    23.1940 
   86.8750     2.2670    -7.5290   103.1610     6.1870     5.0400     6.1640    23.3700 
   87.0000     2.3080    -7.8190   100.1580     6.7170     5.5920     7.6040    23.4600 
   87.1250     2.3390    -8.1950    92.9670     7.4370     6.3590    10.9360    23.4360 
   87.2500     2.3440    -8.6180    86.3220     8.2060     7.1580    14.2940    23.2880 
   87.3750     2.2960    -9.0290    84.6950     8.7410     7.6770    12.0390    23.0510 
   87.5000     2.2170    -9.3630    83.9530     8.8840     7.7960     9.5100    22.9720 
   87.6250     2.1480    -9.5780    83.3430     8.6340     7.5640     8.5960    23.0240 
   87.7500     2.1170    -9.6310    83.4800     8.1250     7.1420     8.4720    23.1450 
   87.8750     2.1190    -9.4540    84.6320     7.5250     6.6930     8.4180    23.2720 
   88.0000     2.1340    -9.0510    85.4910     6.9590     6.2730     8.0340    23.5420 
   88.1250     2.1600    -8.4610    89.3850     6.4530     5.8490     7.0270    24.0130 
   88.2500     2.2010    -7.7390    98.6890     6.0020     5.3960     5.5860    24.5000 
   88.3750     2.2470    -6.9920   106.8140     5.6240     4.9710     4.9620    24.6730 
   88.5000     2.2820    -6.3020   109.0290     5.3310     4.6450     4.9110    24.6680 
   88.6250     2.2970    -5.6990   107.5100     5.1470     4.4420     5.1200    24.6180 
   88.7500     2.3010    -5.2060   108.1830     5.0980     4.3400     5.4170    24.6100 
   88.8750     2.3050    -4.8480   114.5980     5.1870     4.2910     5.5330    24.6660 
   89.0000     2.3110    -4.6260   122.7740     5.3200     4.2420     5.3400    24.7500 
   89.1250     2.3170    -4.5330   128.5870     5.4170     4.1900     5.1520    24.8030 
   89.2500     2.3190    -4.5410   129.1680     5.4700     4.1670     5.1920    24.8090 
   89.3750     2.3130    -4.6230   123.8410     5.5550     4.2410     5.6790    24.7360 
   89.5000     2.3000    -4.7420   115.1650     5.7370     4.4180     6.3860    24.5620 
   89.6250     2.2790    -4.8930   104.7040     6.0050     4.6700     6.8140    24.3430 
   89.7500     2.2560    -5.0600    95.7920     6.2680     4.9280     6.8890    24.2230 
   89.8750     2.2420    -5.2030    92.2970     6.3630     5.0730     6.8340    24.2910 
   90.0000     2.2410    -5.3310    94.9640     6.2550     5.0590     6.6990    24.4820 
   90.1250     2.2490    -5.4320   102.3790     5.9940     4.9020     6.4670    24.6550 
   90.2500     2.2580    -5.5110   110.6190     5.6910     4.6760     6.0870    24.7330 
   90.3750     2.2670    -5.5590   114.8640     5.4720     4.5090     6.0750    24.7440 
   90.5000     2.2800    -5.5760   116.2100     5.4060     4.4990     6.1930    24.7440 
   90.6250     2.2990    -5.5830   115.7530     5.5370     4.7140     6.6190    24.7440 
   90.7500     2.3240    -5.5970   113.1360     5.8660     5.1740     7.6630    24.7440 
   90.8750     2.3530    -5.6560   109.4770     6.3300     5.8030     9.4050    24.7400 
   91.0000     2.3810    -5.7530   104.5620     6.7110     6.3420    11.3520    24.7040 
   91.1250     2.4020    -5.8850    99.3180     6.8060     6.5410    12.9380    24.6120 
   91.2500     2.3990    -6.0360    96.2730     6.5380     6.2900    11.6140    24.5190 
   91.3750     2.3580    -6.1800    98.5450     6.0240     5.7090     8.2170    24.5700 
   91.5000     2.3050    -6.3170   106.1710     5.5940     5.1470     6.5260    24.7530 
   91.6250     2.2650    -6.4590   114.9440     5.4190     4.7860     5.8790    24.9260 
   91.7500     2.2440    -6.6100   119.5910     5.5380     4.6770     5.9540    24.9250 
   91.8750     2.2320    -6.7810   115.9110     5.8930     4.8090     6.6350    24.6400 
