~V
VERS. 2.00: Ver 2.00
~W
STRT.M 57.0000:
STOP.M 205.0000:
STEP.M 0.1250:
NULL. -999.2500:
UWI. F10591:
~C
DEPT.M :
SP.MV :
GR.API :
RML.OHMM :
RI. :
RXO.OHMM :
CALI.CM :
DEN.GM/CC :
~A
# ...
   90.7500   -16.8580    80.8890     7.1400     5.8600     5.7880    25.3440     2.2720 
   90.8750   -16.6270    88.9140     6.3280     5.0430     5.0420    25.2170     2.3310 
   91.0000   -16.4120    92.4750     5.9160     4.5400     4.8280    25.1450     2.3620 
   91.1250   -16.2960    93.0500     5.9440     4.4060     4.8380    25.0810     2.3760 
   91.2500   -16.2230    91.7420     6.3350     4.5870     5.1040    25.0260     2.3980 
   91.3750   -16.2190    88.5820     7.0600     5.0640     5.8990    24.9550     2.4430 
   91.5000   -16.2660    83.8070     8.0500     5.7880     7.3640    24.8910     2.5000 
   91.6250   -16.4080    77.2040     9.1340     6.6490     9.3160    24.8720     2.5240 
   91.7500   -16.5980    70.8060    10.0160     7.4180    10.7470    24.8700     2.4910 
   91.8750   -16.8210    66.5540    10.4920     7.9180    10.6810    24.9000     2.4130 
   92.0000   -17.0900    63.7550    10.5550     8.1000     9.4710    25.0090     2.3210 
   92.1250   -17.3250    61.1420    10.3910     8.0540     9.0540    25.2120     2.2480 
   92.2500   -17.6020    59.5330    10.2760     7.9830     9.1020    25.3710     2.2050 
   92.3750   -17.8940    59.5150    10.3050     7.9800     9.2990    25.4300     2.1850 
   92.5000   -18.1270    58.8890    10.4610     8.0650     9.5210    25.4370     2.1760 
   92.6250   -18.2950    55.6140    10.6560     8.2010     9.6540    25.4870     2.1660 
   92.7500   -18.4540    53.6860    10.8120     8.3250     9.5560    25.5970     2.1560 
   92.8750   -18.5670    53.6160    10.9280     8.4250     9.3580    25.7080     2.1490 
   93.0000   -18.6520    54.1980    11.0290     8.5120     9.2450    25.7430     2.1460 
   93.1250   -18.7030    54.6600    11.1240     8.5930     9.3910    25.7020     2.1450 
   93.2500   -18.6830    55.3450    11.2020     8.6730     9.5680    25.6550     2.1390 
   93.3750   -18.5900    55.4500    11.2570     8.7500     9.7300    25.6220     2.1280 
   93.5000   -18.4810    54.7600    11.2920     8.8230     9.8520    25.5110     2.1170 
   93.6250   -18.3530    56.8630    11.3130     8.8810     9.8720    25.3820     2.1150 
   93.7500   -18.1670    60.0240    11.3160     8.9110     9.8910    25.2140     2.1220 
   93.8750   -17.9630    60.5460    11.2930     8.9060    10.0820    25.0800     2.1350 
   94.0000   -17.7060    57.4460    11.2530     8.8720    10.2190    25.0070     2.1510 
   94.1250   -17.4710    54.5080    11.2560     8.8470     9.9370    24.9970     2.1710 
   94.2500   -17.2420    54.2640    11.3600     8.8800     9.4420    24.9980     2.1960 
   94.3750   -17.0230    55.7060    11.5980     8.9990     9.3480    24.9900     2.2290 
   94.5000   -16.8030    57.6910    11.9450     9.1980     9.9690    24.9850     2.2590 
   94.6250   -16.6140    58.6170    12.2780     9.4100    11.1220    24.9980     2.2650 
   94.7500   -16.4610    57.2740    12.4270     9.5160    11.4880    25.0270     2.2420 
   94.8750   -16.3310    55.7400    12.3040     9.4390    11.2540    25.1360     2.1980 
   95.0000   -16.2480    55.9160    12.0050     9.2180    10.7360    25.3990     2.1470 
   95.1250   -16.1180    56.3470    11.9450     9.0970    10.2190    25.5670     2.1090 
   95.2500   -15.9580    54.7360    12.6640     9.4060    10.0060    25.4700     2.1020 
   95.3750   -15.8160    53.2830    14.7750    10.5090    10.8430    25.3560     2.1340 
   95.5000   -15.6860    54.3100    18.9650    12.8740    14.6290    25.2580     2.2070 
   95.6250   -15.4780    57.2010    26.3120    17.4920    27.4620    25.1440     2.3180 
   95.7500   -15.2680    58.0080    36.0780    24.3480    45.5270    25.0370     2.4430 
   95.8750   -15.0480    56.7080    45.7930    32.2200    55.0770    24.9900     2.5560 
   96.0000   -14.8250    55.5510    50.3160    37.4740    57.3250    24.9570     2.6360 
   96.1250   -14.6360    54.9740    44.2710    35.0480    59.4930    24.8850     2.6640 
   96.2500   -14.4810    55.3680    33.2120    27.7980    48.5330    24.7690     2.6440 
   96.3750   -14.3070    57.4350    22.9400    20.0660    29.7420    24.6320     2.5850 
   96.5000   -14.1540    60.8740    15.8610    14.2000    15.2430    24.5600     2.5060 
   96.6250   -14.0460    63.6560    12.0450    10.6960     9.9780    24.5750     2.4270 
   96.7500   -13.9430    66.1510     9.9560     8.5930     8.3810    24.6410     2.3610 
   96.8750   -13.8410    68.5760     8.8800     7.4150     8.2790    24.7000     2.3170 
   97.0000   -13.7020    70.8020     8.3530     6.8270     8.3310    24.5860     2.2980 
   97.1250   -13.5820    75.2360     8.1040     6.6110     7.6560    24.3350     2.3050 
   97.2500   -13.4340    82.6420     7.9280     6.5240     6.9640    24.1970     2.3230 
   97.3750   -13.3040    90.1560     7.7750     6.4800     6.5310    24.2070     2.3360 
   97.5000   -13.1900    94.1350     7.6360     6.4450     6.4660    24.3460     2.3370 
   97.6250   -13.0720    92.2330     7.5050     6.4060     6.2560    24.6510     2.3260 
   97.7500   -12.9670    87.6010     7.3680     6.3550     6.0410    24.9890     2.3140 
   97.8750   -12.8800    83.4410     7.2200     6.2820     5.9880    25.1760     2.3050 
   98.0000   -12.8600    83.0140     7.0570     6.1780     6.0640    25.2350     2.2980 
   98.1250   -12.8450    85.5450     6.8760     6.0310     6.1970    25.2200     2.2920 
   98.2500   -12.8910    85.5180     6.6890     5.8530     5.7500    25.1070     2.2880 
   98.3750   -12.9730    86.1790     6.5150     5.6690     5.3940    24.8880     2.2890 
   98.5000   -13.0370    91.5580     6.3870     5.5130     5.3710    24.6650     2.3020 
   98.6250   -13.1260    97.3690     6.3640     5.4440     5.4750    24.5420     2.3250 
   98.7500   -13.2080    97.0560     6.4630     5.4830     5.4820    24.5040     2.3410 
   98.8750   -13.2900    93.0000     6.6800     5.6330     5.6620    24.5220     2.3370 
   99.0000   -13.3360    89.5120     6.9750     5.8690     6.0890    24.4970     2.3110 
   99.1250   -13.3500    84.9550     7.2650     6.1210     6.5230    24.2930     2.2770 
   99.2500   -13.3150    81.5800     7.4690     6.3050     6.5520    23.9700     2.2560 
   99.3750   -13.2570    83.6300     7.5710     6.3890     6.5510    23.7940     2.2550 
   99.5000   -13.1590    89.2540     7.6120     6.4000     6.3660    23.9390     2.2640 
   99.6250   -13.0400    90.7000     7.6820     6.3980     6.2500    24.3070     2.2670 
   99.7500   -12.9150    85.6740     7.8440     6.4450     6.3800    24.6500     2.2600 
   99.8750   -12.7580    77.8380     8.1030     6.5580     7.1440    24.7780     2.2500 
  100.0000   -12.6220    72.8720     8.3970     6.7150     8.3990    24.6450     2.2420 
  100.1250   -12.5140    74.3110     8.5910     6.8370     9.1540    24.3570     2.2400 
  100.2500   -12.3930    77.6040     8.6470     6.8790     8.2160    24.2270     2.2380 
  100.3750   -12.2860    80.1410     8.6680     6.8900     8.1280    24.1990     2.2350 
  100.5000   -12.2130    81.1630     8.8830     7.0150     8.6440    24.2030     2.2290 
  100.6250   -12.1490    81.8920     9.7690     7.5580     7.9810    24.2030     2.2160 
  100.7500   -12.1090    82.2540    11.6910     8.7580     8.8420    24.2060     2.1950 
  100.8750   -12.0790    80.2560    15.0530    10.9250    13.1240    24.2250     2.1720 
  101.0000   -12.0610    74.0790    20.0760    14.3530    23.5090    24.2650     2.1530 
  101.1250   -12.0910    65.6600    26.4370    19.2080    33.5360    24.2970     2.1450 
  101.2500   -12.1490    59.5310    32.0260    24.1470    35.5030    24.2820     2.1430 
  101.3750   -12.2020    57.1160    34.2080    26.9600    36.0070    24.1480     2.1460 
  101.5000   -12.2860    58.0580    31.6150    25.9730    40.8700    23.8650     2.1520 
  101.6250   -12.3660    61.9540    25.9450    21.9870    40.0610    23.5250     2.1610 
  101.7500   -12.4240    65.8580    20.9430    18.0190    25.7040    23.3590     2.1700 
  101.8750   -12.4820    67.4170    18.0740    15.3240    13.8770    23.3510     2.1750 
