~V
VERS. 2.00: Ver 2.00
~W
STRT.M 50.0000:
STOP.M 199.0000:
STEP.M 0.1250:
NULL. -999.2500:
UWI. F10575:
~C
DEPT.M :
DEN.GM/CC :
SP.MV :
GR.API :
RML.OHMM :
RI. :
RXO.OHMM :
CALI.CM :
~A
# ...
  106.2500     2.1150   -16.6630    56.1450    42.0570    34.9320    39.3610    26.4090 
  106.3750     2.1050   -16.5250    53.2770    40.6570    34.2120    43.2930    26.1640 
  106.5000     2.1050   -16.4000    55.8240    33.3960    28.9270    37.1760    25.6680 
  106.6250     2.1240   -16.3270    65.7310    23.7920    21.6610    22.1520    24.9730 
  106.7500     2.1660   -16.2960    75.9930    16.2270    15.7200    11.7170    24.1310 
  106.8750     2.2290   -16.2660    82.3330    11.6780    11.9100     8.1130    23.4970 
  107.0000     2.2960   -16.2720    85.3330     9.6920    10.0110     7.8110    23.2150 
  107.1250     2.3370   -16.3240    86.9270     9.7320     9.7670     9.1360    23.1530 
  107.2500     2.3600   -16.3940    86.9800    10.8080    10.5380    10.5850    23.1050 
  107.3750     2.3820   -16.4370    85.6780    12.3220    11.9040    12.0950    23.0460 
  107.5000     2.4060   -16.4730    83.7500    13.5930    13.2500    13.5060    22.9990 
  107.6250     2.4160   -16.5100    80.4450    13.9660    13.8690    13.9280    22.9740 
  107.7500     2.4060   -16.4890    78.4530    13.7550    13.8950    12.7930    23.0330 
  107.8750     2.3820   -16.4210    81.2960    13.5860    13.8050    10.7640    23.1880 
  108.0000     2.3550   -16.3330    86.0990    13.9500    14.0050     9.9130    23.3830 
  108.1250     2.3310   -16.2490    85.0470    14.9080    14.6050    12.0150    23.6480 
  108.2500     2.3140   -16.1620    79.1440    15.8640    15.2290    17.7700    23.8760 
  108.3750     2.3170   -16.0610    73.8690    16.3090    15.5280    23.1830    23.8560 
  108.5000     2.3420   -15.9300    73.6690    16.1290    15.4090    20.5640    23.7030 
  108.6250     2.3700   -15.7970    77.4420    15.9580    15.2380    14.5360    23.5820 
  108.7500     2.3910   -15.7040    78.9340    16.7950    15.6400    13.4160    23.5610 
  108.8750     2.4190   -15.6710    74.8630    19.2900    17.1080    17.5770    23.6430 
  109.0000     2.4630   -15.6680    67.6030    23.5920    19.9420    27.7800    23.8620 
  109.1250     2.5060   -15.6830    62.0820    29.2160    24.1960    37.2750    24.0840 
  109.2500     2.5180   -15.7130    57.5340    34.3710    28.6750    40.6200    24.1920 
  109.3750     2.4970   -15.8170    54.4860    37.5450    32.0120    36.1520    24.2180 
  109.5000     2.4590   -15.9910    53.7340    38.3990    33.4650    32.2320    24.2290 
  109.6250     2.4330   -16.1620    54.1080    37.9800    33.4640    29.4840    24.2520 
  109.7500     2.4270   -16.3600    53.5890    37.8410    33.3860    32.4320    24.2670 
  109.8750     2.4420   -16.5910    52.3620    38.4510    33.8330    37.7580    24.2260 
  110.0000     2.4690   -16.8270    53.0940    39.8320    34.9410    39.0720    24.1300 
  110.1250     2.4970   -17.0300    55.2090    41.9280    36.6220    37.0490    24.0820 
  110.2500     2.5180   -17.2300    56.3220    44.3320    38.5170    37.0520    24.0680 
  110.3750     2.5340   -17.4440    54.3250    46.7180    40.4330    40.4470    24.0670 
  110.5000     2.5480   -17.6510    49.7380    48.7730    42.2490    47.8270    24.0580 
  110.6250     2.5590   -17.9020    46.6840    50.1720    43.8040    50.1450    24.0220 
  110.7500     2.5650   -18.1820    46.8370    50.9850    44.9670    50.5140    23.9610 
  110.8750     2.5680   -18.4950    49.1140    51.3260    45.5960    51.6830    23.8890 
  111.0000     2.5710   -18.8660    51.6590    51.2830    45.6340    53.7660    23.7800 
  111.1250     2.5670   -19.3270    52.6410    50.6770    45.0240    50.6130    23.6230 
  111.2500     2.5550   -19.8270    52.4680    49.4890    43.9430    44.6550    23.4770 
  111.3750     2.5370   -20.3090    51.9850    47.8340    42.5330    41.0670    23.3310 
  111.5000     2.5210   -20.7890    53.1150    45.9370    40.9920    38.0700    23.2150 
  111.6250     2.5130   -21.2260    56.0560    44.1420    39.6380    35.2800    23.1270 
  111.7500     2.5070   -21.5760    58.4540    42.8470    38.8100    32.9330    23.0970 
  111.8750     2.4990   -21.7930    58.0420    42.4340    38.7900    33.3170    23.0910 
  112.0000     2.4940   -21.8930    54.4230    43.1140    39.6930    35.2010    23.1130 
  112.1250     2.5000   -21.8870    50.3470    44.9470    41.5260    37.2920    23.1780 
  112.2500     2.5120   -21.7990    48.6640    47.3470    43.7500    42.3060    23.2450 
  112.3750     2.5260   -21.6230    49.3290    49.5810    45.7520    47.4400    23.2220 
  112.5000     2.5390   -21.3810    49.4010    50.7850    46.8760    44.0820    23.1400 
  112.6250     2.5400   -21.1410    48.6400    50.3200    46.6410    42.4310    23.1010 
  112.7500     2.5300   -20.9320    50.2770    48.8200    45.6030    43.8710    23.0780 
  112.8750     2.5160   -20.7690    54.0810    46.9820    44.3370    45.9320    23.0260 
  113.0000     2.5070   -20.6360    55.9320    45.4760    43.3650    40.5360    22.9100 
  113.1250     2.5070   -20.5210    53.3020    44.9370    43.1050    38.3600    22.8260 
  113.2500     2.5110   -20.4710    52.0980    45.2780    43.3910    39.6670    22.7950 
  113.3750     2.5170   -20.5310    53.5960    46.1110    43.9330    41.2810    22.8080 
  113.5000     2.5190   -20.6420    54.0400    46.9160    44.4230    42.0600    22.8580 
  113.6250     2.5150   -20.7290    51.4560    47.0820    44.5440    42.5720    22.9580 
  113.7500     2.5090   -20.8400    50.5690    46.4860    44.2180    38.8050    23.0020 
  113.8750     2.5020   -20.9560    53.5070    45.4170    43.5620    34.4780    23.0130 
  114.0000     2.4950   -21.0390    55.6510    44.4670    42.9260    32.7720    23.0130 
  114.1250     2.4900   -21.1150    54.1580    44.4140    42.8540    34.2770    23.0050 
  114.2500     2.4900   -21.1700    53.8450    45.3800    43.4960    36.5500    22.9510 
  114.3750     2.4970   -21.1560    55.9860    47.1280    44.7010    38.5210    22.8130 
  114.5000     2.5100   -21.1300    57.9910    49.0190    46.0360    42.7280    22.6360 
  114.6250     2.5250   -21.1530    56.3470    49.9820    46.7960    45.9400    22.5230 
  114.7500     2.5350   -21.1820    53.7780    49.6580    46.7280    46.8680    22.4760 
  114.8750     2.5330   -21.2520    52.2030    48.3420    46.0120    42.2530    22.4420 
  115.0000     2.5190   -21.3810    51.4850    46.7420    45.0790    38.1460    22.4200 
  115.1250     2.5040   -21.5670    51.1440    45.5370    44.3280    36.8820    22.4140 
  115.2500     2.4970   -21.7710    52.7170    44.7280    43.7230    38.6090    22.4140 
  115.3750     2.4950   -21.9990    56.2070    43.9330    42.9840    42.5820    22.4140 
  115.5000     2.4870   -22.2530    58.6530    42.7030    41.8370    43.2850    22.4340 
  115.6250     2.4650   -22.5040    56.0280    40.8700    40.2200    39.2060    22.6970 
  115.7500     2.4380   -22.6960    51.2250    38.9680    38.6030    33.2250    23.2320 
  115.8750     2.4220   -22.8420    48.4880    37.5310    37.4150    30.8850    23.6170 
  116.0000     2.4300   -22.9550    48.9600    36.8550    36.8820    31.0680    23.5110 
  116.1250     2.4530   -22.9860    50.7150    36.8960    36.9780    33.3990    23.2750 
  116.2500     2.4670   -22.9980    50.4730    37.0520    37.1850    36.3470    23.2740 
  116.3750     2.4640   -23.0330    49.3810    36.8400    37.0850    37.1120    23.2020 
  116.5000     2.4480   -23.0530    50.0070    36.0110    36.4270    33.9120    22.9480 
  116.6250     2.4300   -23.0590    52.4160    34.6590    35.1980    27.9630    22.7130 
  116.7500     2.4190   -23.0470    54.7030    33.3120    33.8550    24.7070    22.5840 
  116.8750     2.4220   -23.0030    54.8900    32.3450    32.7990    23.9060    22.5350 
  117.0000     2.4350   -22.9670    53.0180    31.9480    32.3220    23.1980    22.4920 
  117.1250     2.4450   -22.9660    51.6720    32.1280    32.5660    22.4980    22.3730 
  117.2500     2.4480   -22.9310    51.5850    32.4920    33.1450    23.6310    22.2500 
  117.3750     2.4550   -22.8450    51.3120    32.7150    33.6560    27.6410    22.2190 
