~V
VERS. 2.00: Ver 2.00
~W
STRT.M 50.0000:
STOP.M 215.0000:
STEP.M 0.1250:
NULL. -999.2500:
UWI. F10588:
~C
DEPT.M :
DEN.GM/CC :
GR.API :
RML.OHMM :
RI. :
RXO.OHMM :
CALI.CM :
SP.MV :
~A
# ...
  128.7500     2.5220    55.0560    29.8510    25.5050    25.6370    23.3360   -17.6050 
  128.8750     2.5300    54.0530    31.4590    26.6140    30.1930    23.3110   -17.1700 
  129.0000     2.5350    52.3930    33.6060    28.3480    34.9540    23.2870   -16.7620 
  129.1250     2.5360    50.2000    35.7020    30.2880    34.4410    23.2780   -16.4050 
  129.2500     2.5350    48.0050    37.0910    31.7980    34.5490    23.2800   -16.1150 
  129.3750     2.5370    46.7730    37.2970    32.3580    36.1570    23.2900   -15.9530 
  129.5000     2.5450    47.2560    36.1360    31.6980    36.2180    23.3080   -15.8950 
  129.6250     2.5630    49.1600    33.6390    29.7740    33.1270    23.3050   -15.9540 
  129.7500     2.5750    50.6810    30.4980    27.2010    28.3450    23.2900   -16.0470 
  129.8750     2.5700    50.6080    27.2280    24.4390    22.9200    23.2760   -16.2180 
  130.0000     2.5420    49.5310    24.2710    21.8770    19.6980    23.2770   -16.4010 
  130.1250     2.4980    49.3780    22.0060    19.8470    19.1970    23.2790   -16.6560 
  130.2500     2.4570    49.2450    20.4030    18.3510    18.0820    23.2170   -16.9220 
  130.3750     2.4280    48.4150    19.4200    17.3670    17.0610    23.0790   -17.1850 
  130.5000     2.4170    48.6840    18.9820    16.8430    16.2540    23.0180   -17.4440 
  130.6250     2.4220    52.3570    19.0930    16.7920    16.2080    23.1490   -17.6680 
  130.7500     2.4290    54.8380    19.6070    17.0950    16.3070    23.2310   -17.8740 
  130.8750     2.4320    53.2540    20.4200    17.6830    16.7940    23.2540   -18.0290 
  131.0000     2.4230    49.7020    21.3590    18.4260    17.8240    23.2570   -18.1450 
  131.1250     2.4030    47.5930    22.1380    19.1060    19.3760    23.2600   -18.1920 
  131.2500     2.3840    47.8430    22.5540    19.5300    21.0300    23.2610   -18.1930 
  131.3750     2.3750    48.7050    22.5400    19.6120    22.2810    23.2540   -18.1580 
  131.5000     2.3850    49.4060    22.2080    19.4000    21.5910    23.2020   -18.0650 
  131.6250     2.4140    50.2230    21.8900    19.1070    20.8010    23.0520   -17.9490 
  131.7500     2.4500    51.7690    21.9740    19.0430    20.9790    22.8500   -17.7930 
  131.8750     2.4860    53.9870    22.6820    19.4190    22.7080    22.6430   -17.6190 
  132.0000     2.5190    55.5640    23.9720    20.2790    23.4900    22.3340   -17.4110 
  132.1250     2.5450    53.8990    25.3960    21.3730    22.2540    21.9160   -17.1640 
  132.2500     2.5560    49.9320    26.1850    22.0870    21.1190    21.5230   -16.8980 
  132.3750     2.5500    46.1080    25.7830    21.9050    19.9300    20.9950   -16.6320 
  132.5000     2.5250    44.3580    24.1110    20.6730    17.4440    20.3930   -16.4150 
  132.6250     2.4880    44.3710    21.6350    18.7020    13.9260    19.9920   -16.2440 
  132.7500     2.4520    46.4560    19.2670    16.7270    11.0270    19.6070   -16.1370 
  132.8750     2.4250    50.6180    17.4490    15.1200     9.9160    19.1310   -16.0530 
  133.0000     2.4100    53.4630    16.2960    14.0120     9.5490    18.6510   -16.0420 
  133.1250     2.4070    52.2530    15.7940    13.4500     9.4610    18.4940   -16.0990 
  133.2500     2.4100    51.7280    15.6720    13.2540     9.7430    18.6090   -16.2250 
  133.3750     2.4170    54.4090    15.8170    13.3370    10.2530    18.9740   -16.3700 
  133.5000     2.4280    58.1890    16.1950    13.6450    10.8430    19.5400   -16.5120 
  133.6250     2.4360    58.6000    16.8530    14.1870    11.1920    20.1590   -16.6150 
  133.7500     2.4410    56.1550    17.6910    14.8740    12.2220    20.7240   -16.6850 
  133.8750     2.4420    53.6970    18.5330    15.5780    14.2490    21.2920   -16.7410 
  134.0000     2.4440    53.3150    19.1390    16.1130    16.2400    21.8220   -16.7550 
  134.1250     2.4520    55.2560    19.2170    16.2370    17.1850    22.1320   -16.7140 
  134.2500     2.4630    56.0500    18.8290    15.9690    17.3850    22.2540   -16.6330 
  134.3750     2.4720    55.5210    18.1800    15.4480    16.5330    22.2940   -16.5240 
  134.5000     2.4740    56.3830    17.5670    14.8990    15.9370    22.3290   -16.3880 
  134.6250     2.4700    59.3150    17.3060    14.5700    16.1440    22.3600   -16.2320 
  134.7500     2.4670    59.5860    17.4540    14.5330    16.0310    22.3790   -16.0670 
  134.8750     2.4640    55.4240    17.9890    14.7910    16.3180    22.3840   -15.8750 
  135.0000     2.4620    50.7070    18.8360    15.3030    17.7700    22.3810   -15.7100 
  135.1250     2.4590    49.4270    19.8770    16.0080    17.7730    22.3770   -15.5550 
  135.2500     2.4580    48.5050    20.8760    16.7370    17.4670    22.4240   -15.4260 
  135.3750     2.4600    47.1500    21.5830    17.3020    17.7730    22.4920   -15.3230 
  135.5000     2.4630    46.8110    21.7390    17.4930    19.2070    22.5510   -15.2630 
  135.6250     2.4660    48.5280    21.0720    17.0780    19.4700    22.5720   -15.2510 
  135.7500     2.4640    50.8240    19.8330    16.2080    17.7360    22.5820   -15.2630 
  135.8750     2.4610    52.0280    18.3700    15.1230    15.3890    22.5970   -15.3350 
  136.0000     2.4590    51.7620    17.0910    14.1110    14.0760    22.6280   -15.4090 
  136.1250     2.4610    49.9050    16.4050    13.4780    13.8040    22.6570   -15.5490 
  136.2500     2.4650    47.4620    16.3490    13.2930    13.9910    22.6990   -15.6870 
  136.3750     2.4700    45.9860    16.8900    13.5710    14.7290    22.7480   -15.8470 
  136.5000     2.4730    45.2460    17.9080    14.2580    16.1030    22.7910   -15.9880 
  136.6250     2.4710    45.1520    19.2500    15.2690    16.8300    22.8400   -16.0890 
  136.7500     2.4640    46.1950    20.6160    16.3690    17.3820    22.9350   -16.1650 
  136.8750     2.4560    47.6940    21.7250    17.3360    18.4790    23.0540   -16.2140 
  137.0000     2.4490    48.8360    22.2480    17.9010    18.7130    23.1460   -16.2680 
  137.1250     2.4440    49.1510    21.7350    17.6780    18.5660    23.1960   -16.2770 
  137.2500     2.4360    49.6070    20.3250    16.7170    18.0420    23.2160   -16.2710 
  137.3750     2.4240    49.7740    18.3620    15.2430    16.1920    23.2250   -16.2460 
  137.5000     2.4100    48.7920    16.4020    13.6610    13.7610    23.2310   -16.2430 
  137.6250     2.4040    46.4520    15.1050    12.4610    11.8330    23.2310   -16.3070 
  137.7500     2.4120    44.9130    14.6400    11.8260    10.6500    23.2130   -16.4140 
  137.8750     2.4330    45.6360    14.9890    11.7900    10.8320    23.1870   -16.5750 
  138.0000     2.4530    49.4480    15.9980    12.3000    12.7060    23.1580   -16.7550 
  138.1250     2.4550    55.0500    17.4700    13.2820    16.3300    23.1630   -17.0340 
  138.2500     2.4340    58.3550    19.1490    14.5110    18.5140    23.1740   -17.3930 
  138.3750     2.3940    58.6360    21.1350    15.9670    18.5910    23.2030   -17.8240 
  138.5000     2.3460    58.0610    23.7540    17.8100    19.4340    23.2830   -18.2740 
  138.6250     2.3080    61.1280    27.2760    20.2950    23.9010    23.4210   -18.7300 
  138.7500     2.2950    67.4490    30.8590    23.0000    29.7490    23.5320   -19.1620 
  138.8750     2.3070    72.6160    32.9320    24.8950    37.2360    23.5780   -19.5250 
  139.0000     2.3280    74.1780    31.7270    24.5820    47.5610    23.5850   -19.8240 
  139.1250     2.3330    74.5990    26.5280    21.2130    46.3930    23.5780   -19.9740 
  139.2500     2.3130    76.6660    20.1950    16.7130    29.4940    23.5810   -19.9880 
  139.3750     2.2790    79.1630    14.8220    12.6260    15.0220    23.6000   -19.8550 
  139.5000     2.2540    79.1220    11.1660     9.6080     9.4730    23.6350   -19.6150 
  139.6250     2.2610    72.9770     9.2010     7.7700     8.0790    23.6360   -19.2700 
  139.7500     2.2970    62.2110     8.1800     6.6730     7.1430    23.5690   -18.8610 
  139.8750     2.3410    51.1100     7.7350     6.1040     6.3890    23.4350   -18.4340 
