~V
VERS. 2.00: Ver 2.00
~W
STRT.M 58.0000:
STOP.M 199.0000:
STEP.M 0.1250:
NULL. -999.2500:
UWI. F10565:
~C
DEPT.M :
SP.MV :
GR.API :
RML.OHMM :
RI. :
RXO.OHMM :
CALI.CM :
DEN.GM/CC :
~A
# ...
  125.5000    -5.0810    62.5210    15.1730    14.6840    13.9030    24.5840     2.4780 
  125.6250    -5.1270    66.6280    15.0520    14.5730    15.0860    24.7650     2.4330 
  125.7500    -5.1480    65.8130    14.7180    14.2300    13.6700    25.0170     2.3810 
  125.8750    -5.1640    60.8290    14.3200    13.8030    12.3460    25.2880     2.3330 
  126.0000    -5.1700    55.7810    13.9760    13.4150    12.2590    25.5010     2.2980 
  126.1250    -5.1570    54.0590    13.7720    13.1610    12.7150    25.5720     2.2840 
  126.2500    -5.1300    56.1350    13.7750    13.1150    13.1960    25.3810     2.2940 
  126.3750    -5.0750    57.8380    13.9510    13.2320    13.0550    24.9400     2.3150 
  126.5000    -5.0020    57.1910    14.2420    13.4740    12.2900    24.3370     2.3370 
  126.6250    -4.9320    55.9810    14.5860    13.8050    11.1300    23.7590     2.3510 
  126.7500    -4.8900    56.2550    14.8990    14.1900    10.0090    23.4170     2.3580 
  126.8750    -4.8710    55.9480    15.3240    14.5600    10.1830    23.2880     2.3670 
  127.0000    -4.8690    54.5240    15.7110    14.8380    11.0820    23.2660     2.3830 
  127.1250    -4.8950    54.2420    15.9290    14.9500    12.2320    23.2590     2.4060 
  127.2500    -4.9350    56.0290    15.8930    14.8270    12.8590    23.2190     2.4300 
  127.3750    -4.9840    56.4420    15.6820    14.5300    12.5130    23.1390     2.4470 
  127.5000    -5.0410    55.3730    15.3670    14.1270    12.0420    23.0220     2.4550 
  127.6250    -5.0960    55.6130    15.0250    13.6980    12.1430    22.8980     2.4540 
  127.7500    -5.1320    56.9040    14.7470    13.3380    12.2720    22.8270     2.4470 
  127.8750    -5.1510    57.4440    14.6080    13.1190    12.1790    22.8380     2.4450 
  128.0000    -5.1570    57.7350    14.6910    13.1160    12.1060    22.9100     2.4510 
  128.1250    -5.1510    58.8110    15.0660    13.3970    12.6880    22.9960     2.4660 
  128.2500    -5.1530    60.0150    15.8120    14.0530    13.8060    23.0430     2.4850 
  128.3750    -5.1640    61.1900    16.8140    14.9960    15.5850    23.0480     2.5010 
  128.5000    -5.1740    61.9150    17.9460    16.1200    17.3860    23.0400     2.5110 
  128.6250    -5.1760    60.1020    19.0460    17.2740    18.4710    23.0630     2.5160 
  128.7500    -5.1670    55.9570    19.9110    18.2530    18.4780    23.1530     2.5220 
  128.8750    -5.1510    54.2880    20.4420    18.9330    17.9520    23.2950     2.5300 
  129.0000    -5.1360    55.3300    20.5580    19.2130    17.8940    23.4830     2.5320 
  129.1250    -5.1210    55.6800    20.2110    19.0310    18.9070    23.7250     2.5150 
  129.2500    -5.0980    53.9900    19.3600    18.3190    20.2090    23.9970     2.4740 
  129.3750    -5.0780    53.1300    18.2260    17.2800    19.4990    24.2300     2.4200 
  129.5000    -5.0670    54.4370    17.0160    16.1070    16.7280    24.3960     2.3680 
  129.6250    -5.0660    56.2750    15.9370    15.0000    14.6480    24.5280     2.3270 
  129.7500    -5.0750    56.8790    15.1800    14.1590    14.2670    24.6820     2.3030 
  129.8750    -5.0930    56.0470    14.7250    13.5990    14.1550    24.8650     2.2920 
  130.0000    -5.1300    53.5470    14.5140    13.2910    13.8160    25.0520     2.2970 
  130.1250    -5.1760    51.2130    14.4580    13.1710    13.4440    25.2210     2.3190 
  130.2500    -5.2230    52.2070    14.4720    13.1780    13.6380    25.3590     2.3550 
  130.3750    -5.2760    54.7930    14.4840    13.2310    13.5430    25.4600     2.3890 
  130.5000    -5.3340    53.9490    14.4750    13.2940    13.1340    25.5100     2.4090 
  130.6250    -5.3950    50.4690    14.4510    13.3470    12.9680    25.5000     2.4130 
  130.7500    -5.4570    50.1410    14.4370    13.3770    12.9410    25.4360     2.4090 
  130.8750    -5.5150    52.2330    14.4620    13.4000    13.0840    25.3680     2.4080 
  131.0000    -5.5540    54.3380    14.5500    13.4410    13.3650    25.3450     2.4150 
  131.1250    -5.5790    56.1440    14.7170    13.5230    14.1080    25.4010     2.4290 
  131.2500    -5.6010    57.1590    14.9770    13.6660    14.0560    25.5440     2.4460 
  131.3750    -5.6240    55.4920    15.2920    13.8500    14.2430    25.7270     2.4610 
  131.5000    -5.6380    53.0660    15.6140    14.0410    14.3530    25.9290     2.4710 
  131.6250    -5.6340    53.1250    15.8790    14.1890    14.5810    26.1490     2.4730 
  131.7500    -5.6080    54.0480    16.0150    14.2270    14.6130    26.3840     2.4630 
  131.8750    -5.5660    53.6150    16.0320    14.1500    14.8480    26.5890     2.4440 
  132.0000    -5.5250    52.9060    15.9650    13.9870    15.0560    26.6970     2.4200 
  132.1250    -5.4930    52.5580    15.8730    13.8070    15.0710    26.6580     2.3930 
  132.2500    -5.4700    52.2880    15.8450    13.7210    15.2920    26.4520     2.3620 
  132.3750    -5.4440    52.3610    15.9390    13.7920    14.9070    26.1370     2.3290 
  132.5000    -5.4230    52.9370    16.1810    14.0400    14.9440    25.7530     2.3010 
  132.6250    -5.4260    54.8090    16.5560    14.4300    15.0790    25.3690     2.2910 
  132.7500    -5.4630    58.3030    17.0010    14.8890    15.7040    25.0920     2.3130 
  132.8750    -5.5300    60.4540    17.4030    15.3060    16.5150    24.9280     2.3570 
  133.0000    -5.5970    59.7360    17.6860    15.6090    16.4580    24.7880     2.4080 
  133.1250    -5.6460    56.5220    17.8190    15.7590    15.0750    24.5640     2.4510 
  133.2500    -5.6730    53.3210    17.8170    15.7440    14.3370    24.2710     2.4740 
  133.3750    -5.6880    52.2320    17.7640    15.6310    14.1950    24.1320     2.4830 
  133.5000    -5.6950    53.1520    17.7030    15.4610    14.3890    24.2840     2.4820 
  133.6250    -5.6820    53.8810    17.6510    15.2550    14.4740    24.6390     2.4760 
  133.7500    -5.6560    52.8300    17.6000    15.0230    14.5070    24.9350     2.4690 
  133.8750    -5.6150    52.1790    17.5440    14.7830    14.6320    25.0570     2.4640 
  134.0000    -5.5740    52.0790    17.4820    14.5700    14.5420    25.0610     2.4620 
  134.1250    -5.5420    52.2880    17.4140    14.4190    14.1710    25.0020     2.4620 
  134.2500    -5.5110    53.9700    17.3160    14.3590    14.2910    24.8550     2.4600 
  134.3750    -5.4780    55.2480    17.1690    14.3500    14.6220    24.6380     2.4570 
  134.5000    -5.4440    53.5630    16.9630    14.3530    14.2120    24.4220     2.4560 
  134.6250    -5.4380    51.0550    16.7200    14.3430    13.3100    24.2710     2.4580 
  134.7500    -5.4750    51.4990    16.5050    14.3330    13.0380    24.1350     2.4660 
  134.8750    -5.5480    51.8570    16.3850    14.3630    13.1540    23.9150     2.4770 
  135.0000    -5.6530    49.7650    16.3770    14.4550    12.8690    23.6440     2.4860 
  135.1250    -5.7800    47.6220    16.4080    14.5700    12.4410    23.4750     2.4850 
  135.2500    -5.9280    49.2740    16.2480    14.5340    12.2170    23.5590     2.4640 
  135.3750    -6.0970    51.6630    15.6860    14.1590    12.9760    23.7650     2.4260 
  135.5000    -6.2940    53.8250    14.6180    13.3250    14.1740    23.9040     2.3830 
  135.6250    -6.4940    58.9130    13.1600    12.0600    13.5050    23.8750     2.3520 
  135.7500    -6.6850    68.7400    11.6000    10.5420    10.8570    23.7320     2.3430 
  135.8750    -6.8690    78.7490    10.2260     9.0900     8.4710    23.6120     2.3520 
  136.0000    -7.0360    84.7350     9.0910     7.8910     7.6520    23.5450     2.3670 
  136.1250    -7.1900    86.3600     8.2920     7.0330     6.9240    23.5060     2.3790 
  136.2500    -7.3440    85.4510     7.8870     6.5610     6.6640    23.4830     2.3840 
  136.3750    -7.5070    84.2950     7.7170     6.3480     6.6760    23.4850     2.3840 
  136.5000    -7.6710    83.1500     7.6850     6.3130     6.8230    23.5080     2.3800 
  136.6250    -7.8370    82.0320     7.7290     6.3880     6.6880    23.5340     2.3740 
