~V
VERS. 2.00: Ver 2.00
~W
STRT.M 52.0000:
STOP.M 220.0000:
STEP.M 0.1250:
NULL. -999.2500:
UWI. F10539:
~C
DEPT.M :
SP.MV :
DEN.GM/CC :
GR.API :
RML.OHMM :
RI. :
RXO.OHMM :
CALI.CM :
~A
# ...
  153.2500   -15.3250     2.2460    72.2930     6.9000     5.7400     7.1920    23.7550 
  153.3750   -15.2810     2.2620    71.7880     6.7010     5.6030     6.3950    23.8510 
  153.5000   -15.1960     2.2890    72.3050     6.6560     5.5610     5.8920    23.8860 
  153.6250   -15.0450     2.3080    73.3000     6.8620     5.6980     6.5750    23.7700 
  153.7500   -14.8600     2.3080    72.6840     7.2460     5.9770     9.2710    23.5740 
  153.8750   -14.6480     2.2900    70.4020     7.7180     6.3410    12.6180    23.4320 
  154.0000   -14.4260     2.2640    69.6370     8.1630     6.7140    12.5660    23.4860 
  154.1250   -14.1960     2.2490    71.4830     8.4450     6.9940     9.7470    23.5770 
  154.2500   -13.9620     2.2610    72.5270     8.5350     7.1410     8.0150    23.6960 
  154.3750   -13.7560     2.3040    70.4850     8.4440     7.1450     7.8990    23.8240 
  154.5000   -13.5520     2.3610    68.7230     8.2060     7.0210     9.0950    23.8330 
  154.6250   -13.3970     2.3980    71.8600     7.8490     6.7810     9.9620    23.6320 
  154.7500   -13.2930     2.3980    77.6390     7.4480     6.4890     9.3130    23.4470 
  154.8750   -13.2430     2.3670    81.6730     7.0660     6.1920     9.1130    23.3380 
  155.0000   -13.2460     2.3270    81.6790     6.7810     5.9430     7.8730    23.4060 
  155.1250   -13.2660     2.2990    80.2700     6.6950     5.8170     6.7400    23.5980 
  155.2500   -13.3250     2.2820    79.9970     6.7840     5.8270     6.4990    23.7430 
  155.3750   -13.3610     2.2760    80.1810     6.9730     5.9410     6.6790    23.7740 
  155.5000   -13.4340     2.2840    78.8350     7.1430     6.0860     6.5410    23.7760 
  155.6250   -13.4950     2.3150    76.3900     7.1720     6.1580     6.8290    23.8050 
  155.7500   -13.5620     2.3570    73.9360     7.0480     6.1140     6.9730    23.8390 
  155.8750   -13.6060     2.3900    71.9590     6.8090     5.9650     6.6770    23.8430 
  156.0000   -13.6290     2.3980    71.1880     6.5210     5.7660     6.3900    23.8510 
  156.1250   -13.6300     2.3790    72.6490     6.2620     5.5940     6.1900    23.8270 
  156.2500   -13.6100     2.3540    74.9430     6.0860     5.4960     6.3360    23.7660 
  156.3750   -13.5850     2.3350    76.0000     6.0280     5.4920     6.7560    23.7060 
  156.5000   -13.5360     2.3230    74.6530     6.0970     5.5880     6.6290    23.7020 
  156.6250   -13.4530     2.3140    72.4170     6.2720     5.7710     6.4000    23.7420 
  156.7500   -13.3340     2.3050    71.8470     6.4650     5.9770     6.1590    23.7690 
  156.8750   -13.1780     2.2970    73.3720     6.6060     6.1540     6.4500    23.7000 
  157.0000   -13.0040     2.2930    75.9110     6.6410     6.2540     7.2480    23.5660 
  157.1250   -12.8160     2.2990    78.5090     6.5200     6.2240     7.0660    23.5690 
  157.2500   -12.6190     2.3200    80.5540     6.2840     6.0750     6.4660    23.7370 
  157.3750   -12.4360     2.3570    81.3520     5.9810     5.8320     6.0390    23.9060 
  157.5000   -12.2520     2.4020    81.1420     5.6620     5.5350     6.0900    23.9620 
  157.6250   -12.1250     2.4380    83.0450     5.3680     5.2250     6.1010    23.9290 
  157.7500   -12.0350     2.4520    87.8610     5.0990     4.9280     5.9600    23.8610 
  157.8750   -12.0180     2.4450    91.2650     4.8290     4.6390     5.6870    23.7680 
  158.0000   -12.0440     2.4260    91.8590     4.5550     4.3590     5.2720    23.6700 
  158.1250   -12.1650     2.4030    92.3890     4.3520     4.1430     5.1240    23.5860 
  158.2500   -12.3240     2.3830    93.4150     4.3530     4.0900     5.1800    23.5060 
  158.3750   -12.5330     2.3740    91.4160     4.7310     4.3300     5.2300    23.4560 
  158.5000   -12.7630     2.3830    85.7190     5.7270     5.0400     5.6030    23.4210 
  158.6250   -12.9880     2.4310    79.5530     7.8770     6.6300     8.4260    23.4240 
  158.7500   -13.2110     2.5100    71.2290    11.3860     9.3420    16.9670    23.4890 
  158.8750   -13.4010     2.5870    60.1570    16.3340    13.4390    32.6690    23.6250 
  159.0000   -13.5670     2.6080    50.8670    22.2680    18.8010    43.3180    23.8200 
  159.1250   -13.6720     2.5400    49.3120    27.8220    24.3460    40.5540    24.0530 
  159.2500   -13.7560     2.4290    52.4340    31.6990    28.4670    36.6870    24.3440 
  159.3750   -13.7890     2.3160    54.8090    33.6780    30.6320    36.5080    24.5320 
  159.5000   -13.7860     2.2290    54.2060    34.4480    31.3890    38.0630    24.5830 
  159.6250   -13.7540     2.1870    52.3230    34.8550    31.5540    38.6500    24.5640 
  159.7500   -13.6820     2.1740    52.0390    35.3470    31.6850    38.4720    24.5370 
  159.8750   -13.6050     2.1750    52.1670    35.8850    31.8370    36.6030    24.5220 
  160.0000   -13.5170     2.1760    50.7600    36.2950    31.9280    34.0780    24.5540 
  160.1250   -13.4030     2.1760    49.1330    36.3410    31.8230    33.1070    24.5560 
  160.2500   -13.2900     2.1770    49.7690    36.0050    31.5070    34.9950    24.4620 
  160.3750   -13.1540     2.1830    51.8200    35.3620    31.0160    35.2500    24.3160 
  160.5000   -13.0460     2.1940    53.9100    34.5690    30.4510    33.5250    24.2020 
  160.6250   -12.9520     2.2050    54.5790    33.8120    29.9560    31.6710    24.1790 
  160.7500   -12.9020     2.2130    53.2770    33.2130    29.6150    31.0980    24.1800 
  160.8750   -12.8650     2.2170    51.7480    32.8190    29.4470    30.7300    24.1760 
  161.0000   -12.8610     2.2160    52.8020    32.6230    29.4170    30.7030    24.1660 
  161.1250   -12.9100     2.2120    56.6950    32.6080    29.4700    31.2080    24.1500 
  161.2500   -12.9620     2.2110    59.7040    32.6490    29.5020    30.6490    24.1140 
  161.3750   -13.0590     2.2120    60.6290    32.4890    29.3220    29.3110    24.0670 
  161.5000   -13.1590     2.2150    59.1400    31.7070    28.5970    28.0710    24.0340 
  161.6250   -13.2920     2.2130    56.0090    29.8810    26.9590    28.5040    24.0250 
  161.7500   -13.4000     2.2090    54.0250    27.5250    24.8300    28.0830    24.0210 
  161.8750   -13.5030     2.2130    54.8510    25.4090    22.8370    25.2200    23.9940 
  162.0000   -13.5730     2.2330    56.7120    24.3350    21.6130    21.3130    23.9360 
  162.1250   -13.6080     2.2730    56.9110    25.2590    21.8940    20.6590    23.9340 
  162.2500   -13.6190     2.3190    56.7110    28.2020    23.7870    27.9670    23.9910 
  162.3750   -13.5920     2.3600    57.2570    33.0630    27.3700    39.4720    24.0730 
  162.5000   -13.5170     2.3850    57.5030    39.3060    32.3900    47.0220    24.1090 
  162.6250   -13.4000     2.3940    56.8260    45.5360    37.8970    48.8760    24.1740 
  162.7500   -13.2640     2.3970    56.7030    49.8530    42.1440    50.7910    24.1940 
  162.8750   -13.1090     2.4020    57.3210    51.2400    43.9890    52.8190    24.1460 
  163.0000   -12.9240     2.4020    58.1620    50.1510    43.5170    55.8770    24.0360 
  163.1250   -12.7550     2.3850    59.2870    47.9180    41.7130    53.9540    24.0780 
  163.2500   -12.6060     2.3460    59.4680    45.4340    39.5340    45.2880    24.3100 
  163.3750   -12.4860     2.2910    56.8400    42.2050    36.7180    36.4910    24.5120 
  163.5000   -12.4110     2.2330    51.8810    37.3860    32.6170    33.0520    24.6040 
  163.6250   -12.3680     2.1930    49.6770    30.5450    26.8750    34.7340    24.5770 
  163.7500   -12.3700     2.1780    53.3840    23.2010    20.7320    32.3580    24.4340 
  163.8750   -12.4100     2.1890    61.9940    16.8090    15.3590    22.4700    24.1550 
  164.0000   -12.5190     2.2180    71.5260    12.1730    11.3720    11.3790    23.7500 
  164.1250   -12.6350     2.2580    76.8600     9.5180     8.9510     7.5630    23.5250 
  164.2500   -12.8030     2.2980    78.9090     8.0710     7.5250     6.1580    23.4970 
  164.3750   -12.9840     2.3330    78.3760     7.4100     6.7970     5.8510    23.6280 
