~V
VERS. 2.00: Ver 2.00
~W
STRT.M 50.0000:
STOP.M 214.0000:
STEP.M 0.1250:
NULL. -999.2500:
UWI. F10534:
~C
DEPT.M :
DEN.GM/CC :
SP.MV :
GR.API :
RML.OHMM :
RI. :
RXO.OHMM :
CALI.CM :
~A
# ...
  162.5000     2.3110   -20.9980   106.9180     6.7310     6.8870     6.2270    23.6920 
  162.6250     2.3150   -20.9320   108.5900     6.6400     6.7370     6.1640    23.6940 
  162.7500     2.3220   -20.8450   113.0060     6.6270     6.6160     5.7280    23.7070 
  162.8750     2.3320   -20.7490   117.2540     6.9390     6.6910     5.5580    23.7380 
  163.0000     2.3460   -20.6620   115.7360     7.9280     7.2100     6.1830    23.7600 
  163.1250     2.3600   -20.6010   106.9350    10.1870     8.6660     8.4360    23.7670 
  163.2500     2.3740   -20.5340    96.3780    13.6940    11.2320    12.9820    23.7580 
  163.3750     2.3960   -20.4530    88.7630    18.0630    14.8850    18.1930    23.7240 
  163.5000     2.4390   -20.3570    84.4440    22.1550    18.9160    22.7980    23.6580 
  163.6250     2.4940   -20.2790    81.5040    23.9630    21.4570    19.4190    23.6040 
  163.7500     2.5180   -20.2260    78.8450    23.6070    21.9650    16.8810    23.5150 
  163.8750     2.5010   -20.1720    77.7770    22.5960    21.5110    17.2570    23.3900 
  164.0000     2.4760   -20.1070    79.3390    22.3510    21.4200    20.0660    23.3170 
  164.1250     2.4830   -20.0200    78.7720    23.3240    22.3300    22.9830    23.3140 
  164.2500     2.5120   -19.9140    74.2030    24.6150    23.6370    22.1420    23.3220 
  164.3750     2.5390   -19.8040    71.7830    25.4520    24.6430    20.9520    23.3240 
  164.5000     2.5470   -19.6920    76.0350    25.5160    24.9420    21.0860    23.3230 
  164.6250     2.5380   -19.5570    80.1840    25.0620    24.6530    22.9620    23.3080 
  164.7500     2.5270   -19.4050    78.1060    24.5980    24.2840    23.9330    23.2620 
  164.8750     2.5130   -19.2480    74.3590    24.1760    23.9420    22.9350    23.1900 
  165.0000     2.4900   -19.0810    73.9450    23.6600    23.5280    21.1310    23.1300 
  165.1250     2.4650   -18.9240    74.0760    23.0440    22.9940    19.1020    23.1100 
  165.2500     2.4560   -18.7880    74.2650    22.6060    22.5580    18.4020    23.1070 
  165.3750     2.4690   -18.6660    77.5220    22.5540    22.4260    19.2670    23.1070 
  165.5000     2.4900   -18.5620    81.0620    22.8770    22.6450    20.7840    23.1070 
  165.6250     2.4980   -18.4820    79.0180    23.3140    23.0520    20.5490    23.1070 
  165.7500     2.4900   -18.4220    74.9410    23.5640    23.3510    19.0040    23.1070 
  165.8750     2.4710   -18.3950    73.5030    23.5990    23.4610    17.7560    23.1070 
  166.0000     2.4490   -18.3920    74.7950    23.6130    23.5130    17.5240    23.1070 
  166.1250     2.4360   -18.4100    76.9280    23.9140    23.7870    19.0170    23.1070 
  166.2500     2.4410   -18.4430    78.3540    24.4960    24.3380    21.0420    23.1070 
  166.3750     2.4620   -18.4860    78.6130    25.1550    25.0130    22.2910    23.1100 
  166.5000     2.4850   -18.5320    78.5950    25.6500    25.5810    22.4690    23.1660 
  166.6250     2.4880   -18.5880    81.4140    25.8030    25.8320    22.0860    23.3770 
  166.7500     2.4730   -18.6630    86.8520    25.7320    25.8370    21.9210    23.6970 
  166.8750     2.4480   -18.7520    92.5820    25.5570    25.7120    22.4060    23.9230 
  167.0000     2.4260   -18.8550    95.6880    25.3510    25.5430    23.6890    24.0300 
  167.1250     2.4170   -18.9680    95.8760    25.1080    25.3400    25.9010    24.1000 
  167.2500     2.4190   -19.0750    95.0620    24.7790    25.0560    27.5830    24.1290 
  167.3750     2.4220   -19.1870    92.9550    24.3260    24.6420    27.4040    24.1360 
  167.5000     2.4190   -19.3130    89.8000    23.7540    24.0870    25.5790    24.1360 
  167.6250     2.4140   -19.4350    88.1550    23.1610    23.4600    24.4460    24.1340 
  167.7500     2.4180   -19.5480    88.3450    22.7320    22.9410    24.2990    24.1140 
  167.8750     2.4320   -19.6290    88.7960    22.5900    22.6630    23.8940    24.0550 
  168.0000     2.4450   -19.6920    89.2470    22.7280    22.6490    22.8760    23.9690 
  168.1250     2.4430   -19.7430    89.8030    22.9550    22.7680    22.5010    23.9070 
  168.2500     2.4380   -19.7830    89.7250    22.9380    22.7340    23.6550    23.8340 
  168.3750     2.4400   -19.8000    90.9830    22.4680    22.3400    24.4740    23.7470 
  168.5000     2.4530   -19.8010    93.6960    21.5500    21.5450    23.0150    23.6800 
  168.6250     2.4690   -19.8000    91.9220    20.4280    20.5160    20.9290    23.6260 
  168.7500     2.4840   -19.7920    86.1500    19.4750    19.5880    19.9020    23.6320 
  168.8750     2.4970   -19.7890    82.0470    18.8850    18.9700    19.9340    23.7980 
  169.0000     2.5090   -19.7770    81.4930    18.6910    18.7380    20.9470    24.1260 
  169.1250     2.5230   -19.7450    80.3110    18.7810    18.8430    22.0340    24.3440 
  169.2500     2.5410   -19.7100    78.0280    18.8780    19.0110    21.4300    24.4200 
  169.3750     2.5600   -19.6840    76.2560    18.7960    19.0260    21.0180    24.4290 
  169.5000     2.5740   -19.6610    74.6500    18.4210    18.7320    20.5500    24.4290 
  169.6250     2.5820   -19.6340    74.5360    17.6780    18.0200    20.7030    24.4290 
  169.7500     2.5880   -19.5790    75.5390    16.6810    17.0140    19.8090    24.4290 
  169.8750     2.5950   -19.5050    75.5160    15.5240    15.8260    18.7240    24.4290 
  170.0000     2.5990   -19.4290    73.9720    14.3150    14.5740    16.5800    24.4290 
  170.1250     2.5880   -19.3360    72.7570    13.2730    13.4530    13.8170    24.4290 
  170.2500     2.5630   -19.2310    72.8840    12.6140    12.6570    12.6360    24.4290 
  170.3750     2.5340   -19.1070    74.1380    12.4630    12.3100    13.1990    24.4290 
  170.5000     2.5170   -18.9650    75.2920    12.7890    12.4200    14.4620    24.4290 
  170.6250     2.5160   -18.8140    75.7150    13.4190    12.8850    13.9890    24.4290 
  170.7500     2.5160   -18.6750    75.3560    14.0650    13.4350    13.0120    24.4290 
  170.8750     2.5130   -18.5460    75.0540    14.6310    13.9580    12.8090    24.4290 
  171.0000     2.5170   -18.4280    73.3820    15.1560    14.4650    13.7550    24.4290 
  171.1250     2.5370   -18.3230    70.2450    15.7170    15.0330    14.5490    24.4290 
  171.2500     2.5580   -18.2270    67.3350    16.2490    15.6120    15.6010    24.4290 
  171.3750     2.5700   -18.1440    64.5360    16.5860    16.0320    17.1280    24.4290 
  171.5000     2.5710   -18.0740    61.6000    16.5900    16.1300    17.6750    24.4290 
  171.6250     2.5660   -17.9920    60.4890    16.2190    15.8340    17.3710    24.4290 
  171.7500     2.5570   -17.9190    61.1110    15.6700    15.3410    16.0900    24.4290 
  171.8750     2.5460   -17.8590    61.3920    15.0810    14.7880    14.9560    24.4290 
  172.0000     2.5370   -17.8180    61.8670    14.5570    14.2740    13.9750    24.4290 
  172.1250     2.5270   -17.8130    64.7760    14.1820    13.8680    13.9540    24.4290 
  172.2500     2.5160   -17.8240    66.9700    13.9030    13.5390    13.9230    24.4290 
  172.3750     2.5090   -17.8480    66.6190    13.6350    13.2180    13.2920    24.4270 
  172.5000     2.5080   -17.8850    65.3220    13.3110    12.8510    12.2640    24.4250 
  172.6250     2.5060   -17.9640    65.8460    12.9370    12.4390    11.6940    24.4250 
  172.7500     2.4970   -18.0650    67.2190    12.6210    12.0680    11.1390    24.4030 
  172.8750     2.4830   -18.1890    67.4440    12.4870    11.8540    10.9510    24.3220 
  173.0000     2.4730   -18.3120    66.3770    12.6340    11.8980    11.5440    24.1590 
  173.1250     2.4710   -18.4450    64.5960    13.1140    12.2720    12.3990    24.0810 
  173.2500     2.4750   -18.5960    64.6700    13.7840    12.8590    13.3080    24.0570 
  173.3750     2.4840   -18.7470    67.1970    14.5070    13.5280    14.4240    24.0570 
  173.5000     2.4960   -18.8740    70.1730    15.1370    14.1270    14.7000    24.0580 
  173.6250     2.5080   -18.9520    72.3870    15.4970    14.4810    15.6460    24.0560 
