~V
VERS. 2.00: Ver 2.00
~W
STRT.M 50.0000:
STOP.M 214.0000:
STEP.M 0.1250:
NULL. -999.2500:
UWI. F10534:
~C
DEPT.M :
DEN.GM/CC :
SP.MV :
GR.API :
RML.OHMM :
RI. :
RXO.OHMM :
CALI.CM :
~A
# ...
  196.2500     2.2620   -17.7550    71.9670    58.3360    57.9640    55.2240    24.9310 
  196.3750     2.2660   -17.6700    71.8910    63.4230    62.4450    62.1320    24.9430 
  196.5000     2.2680   -17.5780    71.7520    67.2930    65.7530    64.5940    24.9740 
  196.6250     2.2710   -17.4940    72.9570    69.5500    67.6230    61.7820    24.9900 
  196.7500     2.2740   -17.4040    73.7210    70.8440    68.7820    60.3040    24.9960 
  196.8750     2.2730   -17.3000    72.3840    72.0950    70.1310    62.3850    24.9960 
  197.0000     2.2730   -17.2060    70.8790    74.1020    72.3620    65.0390    24.9960 
  197.1250     2.2720   -17.1100    71.0210    77.1510    75.6380    67.4860    24.9870 
  197.2500     2.2700   -17.0040    70.4640    80.5600    79.2090    71.3800    24.9510 
  197.3750     2.2640   -16.9170    65.8660    83.6400    82.3850    72.8680    24.9340 
  197.5000     2.2540   -16.8270    61.5280    85.9230    84.7630    67.0980    25.0800 
  197.6250     2.2360   -16.7190    63.4190    87.6780    86.7510    57.9530    25.4170 
  197.7500     2.2190   -16.6140    67.1390    90.4240    89.8550    48.8840    25.7060 
  197.8750     2.2080   -16.5270    68.7640    95.9950    95.7450    46.9730    25.9180 
  198.0000     2.2000   -16.4370    67.8810   106.0740   105.8520    56.2140    26.0190 
  198.1250     2.1840   -16.4030    66.3870   122.0850   121.4280    80.9690    25.9630 
  198.2500     2.1690   -16.4150    64.5470   141.3540   140.0480    98.4880    25.8420 
  198.3750     2.1650   -16.4230    63.9640   160.2230   158.1330   103.0700    25.9150 
  198.5000     2.1660   -16.4490    64.4210   174.6470   171.4140   115.0070    26.2890 
  198.6250     2.1580   -16.5110    62.7230   180.7580   175.7640   126.9680    26.6420 
  198.7500     2.1440   -16.5740    60.3840   179.7030   172.7480   132.3620    26.5380 
  198.8750     2.1400   -16.6230    59.9990   172.8690   164.2180   124.7150    26.0450 
  199.0000     2.1550   -16.6750    62.2090   162.2540   152.5160   111.0850    25.6100 
  199.1250     2.1820   -16.6760    64.8380   150.5240   140.5200   102.7130    25.4120 
  199.2500     2.2050   -16.6050    65.9650   140.5340   130.6410   102.0680    25.3480 
  199.3750     2.2150   -16.4730    65.6870   133.6700   123.7960   100.0760    25.2810 
  199.5000     2.2140   -16.2900    65.1800   130.1040   119.8320    94.0050    25.1990 
  199.6250     2.2010   -16.0610    63.9210   129.3240   118.0940    89.4600    25.1500 
  199.7500     2.1890   -15.7900    62.0010   129.4220   116.8760    93.4430    25.1170 
  199.8750     2.1860   -15.4720    60.5330   128.7540   114.7330   106.5850    25.0710 
  200.0000     2.1940   -15.0880    59.6050   125.7400   110.3780   117.0680    25.0150 
  200.1250     2.2060   -14.6760    58.5990   118.9110   102.8830   111.9050    24.9950 
  200.2500     2.2260   -14.2580    58.3960   109.5070    93.7320    95.3120    25.0040 
  200.3750     2.2560   -13.8350    60.4860    99.3890    84.7050    82.7260    25.0340 
  200.5000     2.2930   -13.3790    63.6880    90.5430    77.3730    81.5980    25.0550 
  200.6250     2.3250   -12.8570    65.4920    84.8060    73.0730    81.2280    25.0970 
  200.7500     2.3480   -12.3170    66.7290    82.1760    71.5500    82.3830    25.2360 
  200.8750     2.3550   -11.7720    69.1590    82.7120    72.8140    78.5800    25.5500 
  201.0000     2.3430   -11.2060    70.9020    86.6240    77.0560    74.7490    26.0300 
  201.1250     2.3210   -10.5590    67.1200    94.5720    85.0030    75.6660    26.2610 
  201.2500     2.3210    -9.8820    60.6600   104.5990    95.1860    85.2500    26.0120 
  201.3750     2.3630    -9.1720    57.5970   112.9070   104.1770   115.5400    25.4010 
  201.5000     2.4510    -8.4530    58.9700   113.7470   105.9130   184.0930    24.8480 
  201.6250     2.5600    -7.7240    59.6230   101.0980    93.8260   257.7240    24.6540 
  201.7500     2.6380    -6.9850    57.7380    80.1680    73.8590   206.0450    24.6180 
  201.8750     2.6640    -6.2700    55.3150    58.0470    53.4030    92.2460    24.6240 
  202.0000     2.6590    -5.6030    53.8500    40.0200    37.0040    40.1440    24.6410 
  202.1250     2.6610    -4.9960    54.0490    28.3060    26.2280    29.8310    24.6750 
  202.2500     2.6740    -4.4130    55.8840    20.6570    19.0860    28.6950    24.6900 
  202.3750     2.6920    -3.8710    57.6380    15.5650    14.3230    27.1550    24.6930 
  202.5000     2.7060    -3.3450    57.9270    11.9470    10.9580    20.9440    24.6930 
  202.6250     2.7060    -2.8200    56.8950     9.2980     8.4960    14.3140    24.6970 
  202.7500     2.6820    -2.2800    55.7300     7.2700     6.6340     8.6980    24.7360 
  202.8750     2.6290    -1.6940    54.3340     5.8670     5.4130     5.7080    24.8710 
  203.0000     2.5560    -1.1110    53.2680     5.0970     4.8460     4.9690    25.1840 
  203.1250     2.4840    -0.5450    54.1080     4.9050     4.9610     4.9640    26.0850 
  203.2500     2.4350    -0.0180    55.8470     5.2590     5.1590     5.0960    27.7510 
  203.3750     2.4150     0.4810    56.7210     5.6270     5.4350     5.2530    29.1690 
  203.5000     2.4200     0.9580    56.6800     5.7560     5.5440     5.3730    28.9400 
  203.6250     2.4260     1.3530    56.9930     5.5050     5.3290     5.1270    27.4860 
  203.7500     2.4050     1.6880    57.5350     5.0760     4.9290     4.4670    27.2380 
  203.8750     2.3550     1.9390    57.5350     4.6670     4.5100     3.7800    27.6920 
  204.0000     2.3010     2.1300    57.5350     4.4330     4.2240     3.3500    27.8040 
  204.1250     2.2730     2.2570    57.5350     4.4940     4.2060     3.3170    27.5740 
  204.2500     2.2670     2.3680    57.5350     4.8010     4.4380     3.6370    27.8650 
  204.3750     2.2660     2.4520    57.5350     5.2890     4.8620     4.0090    28.1500 
  204.5000     2.2540     2.4960    57.5350     5.8430     5.3680     4.3010    28.1180 
  204.6250     2.2330     2.5240    57.5350     6.2950     5.7860     4.4080    28.7960 
  204.7500     2.2010     2.5300    57.5350     6.5470     6.0160     4.3390    30.3630 
  204.8750     2.1580     2.5270    57.5350     6.5810     6.0420     4.0700    32.2010 
  205.0000     2.1130     2.5210    57.5350     6.4520     5.9210     3.8700    33.8320 
  205.1250     2.0810     2.5440    57.5350     6.2660     5.7470     4.0350    35.3000 
  205.2500     2.0480     2.5630    57.5350     6.1390     5.6080     4.4900    36.1780 
  205.3750     1.9950     2.5740    57.5350     6.1190     5.5380     4.8830    35.3810 
  205.5000     1.9250     2.5700    57.5350     6.1910     5.5290     4.9940    34.3970 
  205.6250     1.8680     2.5740    57.5350     6.2910     5.5450     4.9190    35.2900 
  205.7500     1.8330     2.5670    57.5350     6.3580     5.5530     4.9100    36.6940 
  205.8750     1.8020     2.5630    57.5350     6.3740     5.5450     4.9840    36.9170 
  206.0000     1.7560     2.5760    57.5350     6.3500     5.5220     4.9560    36.0020 
  206.1250     1.7110     2.5570    57.5350     6.3150     5.4910     4.7420    36.3080 
  206.2500     1.7100     2.5300    57.5350     6.3150     5.4710     4.4830    36.7880 
  206.3750     1.7770     2.5070    57.5350     6.3830     5.4850     4.2630    37.5700 
  206.5000     1.9030     2.4900    57.5350     6.5370     5.5560     4.1130    38.0270 
  206.6250     2.0460     2.4280    57.5350     6.7760     5.7010     4.0920    38.1230 
  206.7500     2.1470     2.3070    57.5350     7.0520     5.8930     4.3070    38.0310 
  206.8750     2.1860     2.1360    57.5350     7.3240     6.1010     4.4700    37.3590 
  207.0000     2.1910     1.9230    57.5350     7.5700     6.2970     4.5010    35.4930 
  207.1250     2.2050     1.6400    57.5350     7.7800     6.4600     4.9590    33.0460 
  207.2500     2.2320     1.3210    57.5350     7.9570     6.5870     5.5410    32.1760 
  207.3750     2.2440     0.9700    57.5350     8.0910     6.6760     5.7840    32.5410 
