~V
VERS. 2.00: Ver 2.00
~W
STRT.M 58.0000:
STOP.M 208.0000:
STEP.M 0.1250:
NULL. -999.2500:
UWI. F10592:
~C
DEPT.M :
GR.API :
RML.OHMM :
RI. :
RXO.OHMM :
CALI.CM :
DEN.GM/CC :
SP.MV :
~A
# ...
  159.2500    63.5060    23.6040    23.1260    23.5740    24.2480     2.2460    -2.0920 
  159.3750    63.3150    23.9660    23.5540    24.6010    24.2350     2.2610    -2.0770 
  159.5000    64.3550    23.9630    23.6670    23.9520    24.2150     2.2670    -2.0680 
  159.6250    63.0250    23.6470    23.4780    23.1470    24.1850     2.2600    -2.0590 
  159.7500    59.0130    23.1560    23.0640    20.8240    24.1180     2.2390    -2.0690 
  159.8750    57.2560    22.6620    22.5510    18.8140    24.0090     2.2130    -2.0950 
  160.0000    60.4470    22.2660    22.0830    18.3240    23.8880     2.1950    -2.1060 
  160.1250    65.0110    21.9640    21.7170    19.6550    23.7010     2.1970    -2.1120 
  160.2500    65.3610    21.7180    21.4500    20.4060    23.4550     2.2190    -2.1250 
  160.3750    61.4430    21.5130    21.2660    20.3920    23.5400     2.2500    -2.1570 
  160.5000    59.5880    21.3540    21.1310    21.1370    23.9130     2.2720    -2.2020 
  160.6250    61.4180    21.2560    21.0420    21.0620    24.2300     2.2780    -2.2330 
  160.7500    64.0380    21.2170    21.0090    19.2950    24.3470     2.2710    -2.2240 
  160.8750    64.7550    21.2340    21.0530    18.8270    24.3520     2.2580    -2.2170 
  161.0000    64.3180    21.2960    21.1600    19.3630    24.3580     2.2480    -2.2550 
  161.1250    64.6950    21.4170    21.3210    20.2350    24.3740     2.2410    -2.3030 
  161.2500    65.7420    21.6190    21.5350    20.4750    24.4010     2.2360    -2.3350 
  161.3750    64.3570    21.9260    21.8300    20.0010    24.4140     2.2330    -2.3860 
  161.5000    61.5880    22.3120    22.2060    19.4920    24.4180     2.2340    -2.4610 
  161.6250    59.9600    22.7590    22.6530    19.8220    24.4180     2.2380    -2.5320 
  161.7500    60.5580    23.2410    23.1320    20.8580    24.4180     2.2420    -2.5990 
  161.8750    64.2660    23.7050    23.5520    21.9540    24.4180     2.2420    -2.6960 
  162.0000    68.4860    24.0930    23.8540    22.0580    24.4170     2.2360    -2.8080 
  162.1250    69.2850    24.3480    24.0290    21.4690    24.4140     2.2270    -2.8870 
  162.2500    64.6730    24.4320    24.1150    20.9060    24.4120     2.2190    -2.9670 
  162.3750    58.7720    24.4390    24.1520    20.4170    24.4110     2.2190    -3.0710 
  162.5000    56.2430    24.4830    24.1710    21.3150    24.4110     2.2240    -3.1570 
  162.6250    55.7810    24.6010    24.1780    21.6480    24.4110     2.2270    -3.2200 
  162.7500    55.5870    24.7760    24.2070    21.0010    24.4120     2.2240    -3.2920 
  162.8750    57.0210    24.8340    24.4130    18.8330    24.4110     2.2090    -3.3470 
  163.0000    59.2160    25.4110    24.9790    18.3830    24.4030     2.1940    -3.3900 
  163.1250    60.3950    26.8710    26.0920    19.8880    24.3830     2.1910    -3.4470 
  163.2500    60.2490    29.0780    27.8510    22.1190    24.3540     2.2070    -3.4890 
  163.3750    61.3580    31.8660    30.2760    27.4530    24.3390     2.2360    -3.4940 
  163.5000    63.4960    34.8160    32.9900    34.9840    24.3450     2.2630    -3.4930 
  163.6250    64.3260    37.5890    35.6320    38.9340    24.3500     2.2790    -3.4820 
  163.7500    63.4380    39.8620    37.8700    36.9940    24.3500     2.2830    -3.4780 
  163.8750    61.1560    41.4540    39.4370    35.9770    24.3350     2.2820    -3.5200 
  164.0000    58.4130    42.6480    40.5110    37.1010    24.3370     2.2770    -3.5310 
  164.1250    57.8790    43.6780    41.2920    40.3760    24.3440     2.2650    -3.5370 
  164.2500    59.0920    44.6920    41.9770    40.0030    24.3520     2.2420    -3.5950 
  164.3750    59.5930    45.7010    42.6900    39.8300    24.3680     2.2140    -3.6650 
  164.5000    59.4410    46.6550    43.4430    39.2480    24.3890     2.1950    -3.7430 
  164.6250    59.3970    47.5560    44.2240    40.1210    24.3990     2.1910    -3.8300 
  164.7500    58.3580    48.4560    45.0340    41.1690    24.3990     2.2000    -3.9330 
  164.8750    58.0150    49.3730    45.8610    42.0690    24.3640     2.2140    -4.0170 
  165.0000    59.7200    50.1310    46.5760    42.3080    24.3120     2.2220    -4.0710 
  165.1250    61.4810    50.3750    46.9060    42.1680    24.3160     2.2250    -4.1060 
  165.2500    61.5290    49.7050    46.5030    43.0330    24.3870     2.2250    -4.1290 
  165.3750    61.6130    47.7850    44.9960    44.1430    24.4000     2.2310    -4.1010 
  165.5000    61.9410    45.1790    42.7730    44.0380    24.3410     2.2440    -4.0290 
  165.6250    62.2700    42.6000    40.4180    40.5810    24.2730     2.2610    -3.9810 
  165.7500    63.7660    40.7860    38.6310    32.4650    24.2350     2.2740    -3.8810 
  165.8750    64.6550    40.4590    38.2170    30.5240    24.2030     2.2800    -3.7160 
  166.0000    62.5420    41.3940    39.1410    33.6660    24.1510     2.2830    -3.5640 
  166.1250    58.9560    43.1000    41.0420    41.3470    24.0950     2.2870    -3.3750 
  166.2500    57.6490    44.8120    43.1820    49.9900    24.0570     2.2940    -3.1680 
  166.3750    57.4310    45.6610    44.5590    50.6910    24.0110     2.3030    -2.9670 
  166.5000    56.3760    45.6880    44.8910    49.8470    23.9620     2.3180    -2.7450 
  166.6250    55.5820    45.3070    44.4210    44.0350    23.9330     2.3480    -2.4670 
  166.7500    56.9200    44.5910    43.4810    36.2730    23.9290     2.4060    -2.1990 
  166.8750    58.7130    43.1680    41.6620    32.7390    23.9310     2.5000    -1.9490 
  167.0000    58.9630    39.8620    38.1750    36.0350    23.9220     2.6020    -1.6540 
  167.1250    60.2490    33.9650    32.5830    46.4140    23.9090     2.6730    -1.3820 
  167.2500    63.5880    26.2800    25.5500    41.3900    23.8750     2.6810    -1.0990 
  167.3750    64.9210    18.9130    18.7660    21.5160    23.8010     2.6100    -0.8470 
  167.5000    61.8900    13.2640    13.4500    10.5680    23.6850     2.5040    -0.6680 
  167.6250    56.8200     9.5200     9.8340     6.7680    23.6160     2.4050    -0.5490 
  167.7500    52.7230     7.3400     7.6350     5.6670    23.7360     2.3430    -0.5130 
  167.8750    50.9900     6.3680     6.5520     5.5560    23.8370     2.3270    -0.5430 
  168.0000    51.8600     6.0240     6.0790     5.7120    23.7780     2.3340    -0.7140 
  168.1250    55.3600     6.0780     6.0320     5.7850    23.5860     2.3470    -0.9720 
  168.2500    61.7530     6.3880     6.2980     5.7540    23.4690     2.3600    -1.3000 
  168.3750    71.9580     6.8910     6.8290     6.2250    23.6540     2.3720    -1.7000 
  168.5000    84.8520     7.5130     7.5080     7.1770    23.9280     2.3840    -2.0930 
  168.6250    96.3750     8.2020     8.2550     8.2460    24.1160     2.3940    -2.5050 
  168.7500   100.7610     8.9380     8.9750     9.1330    24.1780     2.4010    -2.8690 
  168.8750    98.3800     9.5070     9.5440     9.5540    24.1760     2.4060    -3.2040 
  169.0000    96.7350     9.9770     9.9180     9.6410    24.1760     2.4100    -3.5220 
  169.1250    97.9400    10.2270    10.0900     9.7060    24.1760     2.4140    -3.7930 
  169.2500    99.8180    10.2750    10.0940     9.7100    24.1760     2.4160    -4.0280 
  169.3750   100.4590    10.2520     9.9790     9.7740    24.1760     2.4190    -4.2170 
  169.5000    99.0600    10.0650     9.8190     9.8520    24.1760     2.4220    -4.3550 
  169.6250    96.6020     9.7220     9.6380     9.8100    24.1750     2.4260    -4.4780 
  169.7500    96.4720     9.4940     9.4370     9.6940    24.1740     2.4300    -4.6080 
  169.8750   101.0990     9.4080     9.1970     9.4890    24.1750     2.4300    -4.7350 
  170.0000   106.5110     9.3290     8.9310     9.4010    24.1730     2.4280    -4.8490 
  170.1250   110.4790     9.1880     8.6710     9.2300    24.1620     2.4230    -4.9960 
  170.2500   114.3400     9.0570     8.4820     9.0380    24.1360     2.4150    -5.1640 
  170.3750   116.4070     9.1300     8.4950     8.9720    24.1250     2.4030    -5.3600 
