~V
VERS. 2.00: Ver 2.00
~W
STRT.M 50.0000:
STOP.M 236.0000:
STEP.M 0.1250:
NULL. -999.2500:
UWI. F10596:
~C
DEPT.M :
DEN.GM/CC :
SP.MV :
GR.API :
RML.OHMM :
RI. :
RXO.OHMM :
CALI.CM :
~A
# ...
  117.5000     2.1270   -17.6000    65.8240    20.4620    20.4670    27.4900    24.6550 
  117.6250     2.1730   -17.2270    71.2320    17.3460    17.1350    22.1150    24.6510 
  117.7500     2.2340   -16.8790    77.0630    15.0340    14.6560    15.4900    24.6540 
  117.8750     2.3020   -16.5490    82.2570    14.1370    13.3790    13.8750    24.6600 
  118.0000     2.3670   -16.2440    84.3310    15.2020    13.6770    18.9660    24.6660 
  118.1250     2.4340   -15.9890    79.1860    19.0020    16.3790    33.3210    24.6610 
  118.2500     2.5040   -15.7760    70.7910    24.9610    21.3680    50.6510    24.6600 
  118.3750     2.5610   -15.6010    65.1070    31.3570    27.6100    62.7270    24.6650 
  118.5000     2.5820   -15.4490    63.3410    34.1710    31.7170    65.5360    24.6690 
  118.6250     2.5570   -15.3040    62.9270    29.2600    28.9780    58.0420    24.6720 
  118.7500     2.5000   -15.1770    64.2340    21.2360    22.3570    42.3260    24.6790 
  118.8750     2.4200   -15.0590    70.2790    14.2810    15.7710    24.6080    24.6840 
  119.0000     2.3350   -14.9420    79.4920     9.7330    10.9910    12.3380    24.6670 
  119.1250     2.2740   -14.8270    87.6210     7.4910     8.2880     9.1850    24.6550 
  119.2500     2.2440   -14.7280    93.5210     6.5110     6.8230     8.2560    24.6490 
  119.3750     2.2400   -14.6370    96.5630     6.3000     6.1870     8.0110    24.6470 
  119.5000     2.2530   -14.5500    97.4120     6.4590     6.0500     7.6460    24.6390 
  119.6250     2.2680   -14.4870    98.7690     6.6600     6.1420     7.1290    24.6170 
  119.7500     2.2750   -14.4270   102.1330     6.7520     6.2440     6.9510    24.5890 
  119.8750     2.2740   -14.3770   104.4940     6.7620     6.3170     7.0390    24.5760 
  120.0000     2.2680   -14.3410   103.0800     6.7550     6.3770     7.2770    24.5730 
  120.1250     2.2600   -14.3320   101.4240     6.7430     6.4160     7.4120    24.5720 
  120.2500     2.2570   -14.3320   102.3900     6.6820     6.3990     7.3890    24.5740 
  120.3750     2.2600   -14.3450   104.5930     6.5560     6.3150     7.1280    24.5750 
  120.5000     2.2630   -14.3570   104.4840     6.4130     6.1970     6.9830    24.5750 
  120.6250     2.2610   -14.3780   102.4590     6.3680     6.1250     6.9820    24.5750 
  120.7500     2.2660   -14.4270   102.8680     6.4810     6.1550     7.0720    24.5750 
  120.8750     2.2810   -14.4950   106.3350     6.7530     6.3100     7.6430    24.5750 
  121.0000     2.2930   -14.5650   110.6640     7.1160     6.5600     8.5730    24.5750 
  121.1250     2.2800   -14.6550   110.8560     7.4410     6.8130     8.7810    24.5740 
  121.2500     2.2520   -14.7610   106.5740     7.6250     6.9730     8.1810    24.5730 
  121.3750     2.2280   -14.8570   103.3920     7.6590     7.0260     8.1260    24.5910 
  121.5000     2.2150   -14.9500   104.0520     7.5940     7.0160     8.3900    24.6400 
  121.6250     2.2140   -15.0330   105.8570     7.5180     7.0130     8.2910    24.7100 
  121.7500     2.2180   -15.0970   105.0750     7.5200     7.0590     8.2440    24.6940 
  121.8750     2.2210   -15.1520   104.4830     7.6330     7.1500     8.4310    24.6340 
  122.0000     2.2210   -15.2200   104.4350     7.8130     7.2590     8.5440    24.5550 
  122.1250     2.2220   -15.2460   104.4810     7.9460     7.3500     8.5020    24.4820 
  122.2500     2.2270   -15.2630   107.2480     7.9420     7.3860     8.4960    24.4380 
  122.3750     2.2320   -15.3080   111.2200     7.7840     7.3290     8.3550    24.4250 
  122.5000     2.2360   -15.3490   113.4700     7.5430     7.1640     7.9940    24.4240 
  122.6250     2.2410   -15.3930   113.6750     7.3830     6.9350     7.4240    24.4240 
  122.7500     2.2450   -15.4320   115.8510     7.4410     6.7740     7.1250    24.4240 
  122.8750     2.2360   -15.4790   117.8740     7.8200     6.8120     7.2700    24.4240 
  123.0000     2.2100   -15.5020   114.1040     8.6310     7.1730     8.0130    24.4240 
  123.1250     2.1730   -15.5480   102.6520    10.0320     8.0420     9.6350    24.4240 
  123.2500     2.1420   -15.5730    90.6730    11.8390     9.3700    11.8260    24.4240 
  123.3750     2.1280   -15.5750    85.1520    13.8010    11.0300    13.0500    24.4240 
  123.5000     2.1310   -15.5710    85.6240    15.7250    12.8010    13.4400    24.4240 
  123.6250     2.1420   -15.5550    84.9360    17.8320    14.6440    15.6260    24.4240 
  123.7500     2.1490   -15.5340    80.9310    20.6870    16.9240    20.1670    24.4240 
  123.8750     2.1510   -15.5130    77.3250    24.8150    20.1990    24.9410    24.4300 
  124.0000     2.1480   -15.4980    76.9920    30.5170    25.0070    29.2640    24.4630 
  124.1250     2.1380   -15.4980    76.7940    37.8970    31.8300    36.9870    24.5730 
  124.2500     2.1270   -15.5020    72.9150    45.7380    39.5530    47.1600    24.7230 
  124.3750     2.1200   -15.5230    66.9590    52.3520    46.4880    54.4240    24.8460 
  124.5000     2.1180   -15.5540    63.2670    56.0340    50.9540    56.5330    24.9280 
  124.6250     2.1180   -15.6000    66.6680    55.7430    51.8100    56.6910    24.9760 
  124.7500     2.1180   -15.6430    72.0930    53.4100    50.4200    55.9310    25.0020 
  124.8750     2.1150   -15.6860    73.9660    50.8560    48.2150    53.8870    25.0090 
  125.0000     2.1070   -15.7200    73.1010    49.3000    46.4140    52.2740    25.0100 
  125.1250     2.0980   -15.7520    75.7720    49.0640    45.5960    52.4370    25.0100 
  125.2500     2.0900   -15.7780    80.4370    49.4710    45.4220    51.2920    25.0100 
  125.3750     2.0850   -15.7910    80.8290    50.2780    45.7510    49.3870    25.0100 
  125.5000     2.0790   -15.7880    77.8880    51.5910    46.6510    49.7470    25.0100 
  125.6250     2.0740   -15.7760    75.7190    53.7980    48.4250    52.2930    25.0100 
  125.7500     2.0740   -15.7610    75.7840    56.8570    51.0290    54.8280    25.0100 
  125.8750     2.0790   -15.7230    76.6970    60.5760    54.3750    57.9440    25.0100 
  126.0000     2.0850   -15.6910    77.0900    64.4740    58.1250    64.7980    25.0100 
  126.1250     2.0890   -15.6360    76.6330    67.5800    61.5040    72.6490    25.0100 
  126.2500     2.0910   -15.5760    75.9650    69.1260    63.7260    77.4820    25.0060 
  126.3750     2.0920   -15.5060    75.5910    68.6020    64.1820    74.9080    24.9910 
  126.5000     2.0930   -15.4300    74.3200    66.0160    62.6480    67.5260    24.9570 
  126.6250     2.0920   -15.3690    73.6190    61.9630    59.4040    62.6660    24.9310 
  126.7500     2.0900   -15.3080    74.8190    57.6680    55.6490    61.3740    24.8720 
  126.8750     2.0880   -15.2560    75.9020    53.6640    52.0310    57.2020    24.7350 
  127.0000     2.0910   -15.2050    74.6020    50.1990    48.8770    52.9630    24.5490 
  127.1250     2.0970   -15.1530    73.5110    47.6010    46.4970    51.9740    24.5150 
  127.2500     2.0980   -15.1040    74.2180    46.0930    45.0260    50.0290    24.6580 
  127.3750     2.0870   -15.0650    74.9630    46.0330    44.7430    48.4020    24.8990 
  127.5000     2.0710   -15.0410    74.7280    47.5150    45.7830    51.9850    25.0470 
  127.6250     2.0590   -15.0040    75.9340    50.1070    47.9160    57.0800    25.0820 
  127.7500     2.0540   -14.9680    79.1850    52.3500    49.9720    59.4530    25.0800 
  127.8750     2.0580   -14.9320    81.0450    53.0240    50.9170    58.0470    25.0790 
  128.0000     2.0660   -14.8950    79.9290    51.6230    50.2140    55.6040    25.0790 
  128.1250     2.0730   -14.8360    78.9120    48.5280    47.9450    52.1920    25.0760 
  128.2500     2.0790   -14.7710    78.4260    45.0650    45.1150    48.2110    25.0500 
  128.3750     2.0860   -14.6960    78.7380    41.8250    42.2760    43.0430    24.9820 
  128.5000     2.0960   -14.6210    79.3870    38.9310    39.6400    41.9960    24.8650 
  128.6250     2.1100   -14.5230    80.2770    36.2750    37.2300    40.4200    24.7530 
