~V
VERS. 2.00: Ver 2.00
~W
STRT.M 54.0000:
STOP.M 217.0000:
STEP.M 0.1250:
NULL. -999.2500:
UWI. F10593:
~C
DEPT.M :
SP.MV :
GR.API :
RML.OHMM :
RI. :
RXO.OHMM :
CALI.CM :
DEN.GM/CC :
~A
# ...
   99.0000    -8.6180    69.8550    13.8830    11.3980    11.1520    24.3080     2.2440 
   99.1250    -8.7410    68.2230    14.9370    12.3330    11.6660    24.2770     2.2180 
   99.2500    -8.8600    68.8290    15.8990    13.2870    11.7850    24.2140     2.1950 
   99.3750    -8.9640    67.1610    16.6590    14.1370    12.0100    24.0690     2.1790 
   99.5000    -9.0110    63.6640    17.2020    14.8210    12.1520    23.8070     2.1710 
   99.6250    -9.0170    61.0070    17.5160    15.2930    12.6210    23.4480     2.1710 
   99.7500    -8.9870    61.5390    17.6120    15.5210    13.2330    23.1910     2.1810 
   99.8750    -8.9430    67.2750    17.5060    15.4660    13.8980    23.2980     2.1950 
  100.0000    -8.9030    72.2960    17.2800    15.2090    13.9590    23.6800     2.2080 
  100.1250    -8.8830    71.2410    16.9790    14.8140    13.6510    24.0730     2.2140 
  100.2500    -8.8820    65.4790    16.6260    14.3500    14.3530    24.1920     2.2130 
  100.3750    -8.9060    63.2490    16.2500    13.8990    14.0300    24.1780     2.2030 
  100.5000    -8.9550    65.6230    15.9810    13.5810    13.6650    24.1570     2.1870 
  100.6250    -8.9990    67.1610    16.0790    13.5860    13.2510    24.1670     2.1730 
  100.7500    -8.9800    64.6420    16.9340    14.2020    12.9990    24.1690     2.1780 
  100.8750    -8.8890    61.1840    19.2750    16.0370    13.4250    24.1370     2.2290 
  101.0000    -8.8180    59.7990    23.2280    19.2640    17.1000    24.0990     2.3270 
  101.1250    -8.7220    58.8470    28.3430    23.6450    28.7630    24.0680     2.4560 
  101.2500    -8.5800    58.0290    32.8610    27.9450    46.7790    24.0320     2.5800 
  101.3750    -8.3990    61.3340    33.2570    29.4140    57.1510    23.9610     2.6530 
  101.5000    -8.2080    68.0400    29.1020    27.0880    51.9910    23.8800     2.6590 
  101.6250    -8.0430    74.9470    22.5080    22.0150    37.2610    23.7910     2.6080 
  101.7500    -7.9270    79.8850    16.2930    16.4080    16.5480    23.7270     2.5240 
  101.8750    -7.8850    82.4640    12.3410    12.2600     9.3090    23.7040     2.4440 
  102.0000    -7.8500    83.4220    10.2740     9.7620     7.2450    23.6940     2.3960 
  102.1250    -7.8250    83.5240     9.5650     8.5990     7.2620    23.6780     2.3910 
  102.2500    -7.8080    83.2430     9.6830     8.3490     8.1610    23.6730     2.4190 
  102.3750    -7.8090    82.4380    10.1060     8.6160    10.0480    23.6550     2.4540 
  102.5000    -7.8500    83.4440    10.3150     8.8830    10.7890    23.5830     2.4700 
  102.6250    -7.8740    88.3170    10.1090     8.8810     9.8820    23.4840     2.4580 
  102.7500    -7.9270    94.4560     9.5520     8.5480     8.1770    23.3680     2.4240 
  102.8750    -7.9830    97.4120     8.8890     8.0100     7.1440    23.3010     2.3860 
  103.0000    -8.0250    98.9640     8.3620     7.5030     6.7050    23.2530     2.3570 
  103.1250    -8.1090   100.5000     8.0390     7.1320     6.6430    23.2160     2.3420 
  103.2500    -8.2570   100.7220     7.8860     6.9070     6.5750    23.1680     2.3380 
  103.3750    -8.4240   100.2670     7.8180     6.7760     6.5200    23.1090     2.3400 
  103.5000    -8.5520   101.2880     7.7340     6.6470     6.4700    23.0360     2.3430 
  103.6250    -8.6900   102.5900     7.6050     6.4880     6.3720    23.0130     2.3440 
  103.7500    -8.7900   101.6320     7.4610     6.3130     6.3860    23.0570     2.3440 
  103.8750    -8.8410    99.4740     7.3910     6.1970     6.4610    23.1360     2.3490 
  104.0000    -8.9200    98.3650     7.4710     6.2080     6.6020    23.1990     2.3630 
  104.1250    -8.9460    96.5470     7.7420     6.3870     6.7420    23.2210     2.3800 
  104.2500    -8.8820    91.3980     8.1850     6.7240     6.9170    23.2270     2.3960 
  104.3750    -8.8220    85.3810     8.7050     7.1590     7.7570    23.2590     2.4010 
  104.5000    -8.8010    83.0180     9.1540     7.5670     8.5330    23.3310     2.3940 
  104.6250    -8.7480    84.5660     9.4450     7.8700     9.3750    23.4130     2.3770 
  104.7500    -8.7200    86.8520     9.5630     8.0360    10.1790    23.4560     2.3530 
  104.8750    -8.7290    87.7430     9.5410     8.0690     9.1840    23.4450     2.3270 
  105.0000    -8.6960    88.4100     9.4700     8.0340     8.1960    23.4090     2.3070 
  105.1250    -8.6780    88.6460     9.3830     7.9650     8.1550    23.3830     2.2970 
  105.2500    -8.7060    88.9360     9.2880     7.8830     8.6910    23.3610     2.3000 
  105.3750    -8.6830    89.4680     9.1980     7.8050     8.3530    23.3450     2.3110 
  105.5000    -8.6040    90.2130     9.1360     7.7470     7.7030    23.3230     2.3170 
  105.6250    -8.5570    90.6610     9.1220     7.7100     7.3400    23.2590     2.3140 
  105.7500    -8.5310    90.7040     9.1430     7.6730     7.2170    23.1270     2.3040 
  105.8750    -8.5170    91.6060     9.1370     7.5910     7.5220    23.0260     2.2960 
  106.0000    -8.5130    93.2590     9.0410     7.4370     7.5810    22.9870     2.3000 
  106.1250    -8.4940    93.9690     8.8420     7.2220     7.1270    22.9860     2.3130 
  106.2500    -8.4390    92.7830     8.5990     6.9930     6.6240    23.0250     2.3280 
  106.3750    -8.3640    90.8640     8.4520     6.8420     6.5880    23.1780     2.3290 
  106.5000    -8.3200    90.0470     8.5060     6.8300     7.0210    23.3990     2.3130 
  106.6250    -8.2870    89.2910     8.8360     7.0110     7.5960    23.5680     2.2860 
  106.7500    -8.1940    86.8100     9.5030     7.4360     8.4810    23.6260     2.2580 
  106.8750    -8.1040    82.9610    10.6660     8.2490     9.2020    23.5550     2.2380 
  107.0000    -8.0460    81.0690    12.3750     9.5080    10.3720    23.4940     2.2250 
  107.1250    -7.9990    80.6760    14.7370    11.3170    12.4970    23.4650     2.2180 
  107.2500    -7.9690    77.1310    17.7890    13.7310    16.4070    23.4590     2.2120 
  107.3750    -8.0080    70.2600    21.4570    16.7400    21.9490    23.4520     2.2070 
  107.5000    -8.0430    66.4340    25.2320    19.9530    26.7720    23.4160     2.2040 
  107.6250    -8.0460    66.5890    28.6450    22.9920    28.8740    23.3850     2.2030 
  107.7500    -8.0600    67.2100    31.3770    25.5560    28.1370    23.3570     2.2050 
  107.8750    -8.0730    67.3730    33.3760    27.5030    28.8310    23.3480     2.2100 
  108.0000    -8.0570    68.1550    35.1270    29.1390    31.4620    23.3580     2.2160 
  108.1250    -8.0410    67.4550    37.0230    30.7540    33.8020    23.3910     2.2190 
  108.2500    -8.0600    65.9890    39.3610    32.6140    34.4830    23.4440     2.2190 
  108.3750    -8.0450    66.0250    42.4160    35.0010    34.5510    23.5750     2.2130 
  108.5000    -8.0040    66.0580    46.0280    37.8700    36.2160    23.7690     2.2050 
  108.6250    -7.9740    65.2840    49.7820    40.9690    39.0930    23.9460     2.1950 
  108.7500    -7.9480    65.7840    52.7840    43.7120    43.7110    24.0300     2.1810 
  108.8750    -7.8950    67.7930    53.3410    44.9370    49.2060    24.0440     2.1640 
  109.0000    -7.8570    68.3470    51.1010    44.1980    51.8960    24.0280     2.1460 
  109.1250    -7.8440    68.0400    46.8220    41.7360    45.5140    23.9510     2.1320 
  109.2500    -7.8080    69.0560    42.2320    38.5790    36.2710    23.7440     2.1290 
  109.3750    -7.7730    71.4270    39.5050    36.3720    31.0790    23.4850     2.1380 
  109.5000    -7.7830    72.1940    39.3270    36.0660    27.4550    23.2660     2.1540 
  109.6250    -7.8250    70.7450    41.3830    37.7450    27.0420    23.1610     2.1720 
  109.7500    -7.8920    67.9990    44.0320    40.3410    34.1580    23.1330     2.1880 
  109.8750    -7.9850    66.3770    43.6830    41.0480    52.0110    23.1170     2.2040 
  110.0000    -8.0880    68.8460    38.7190    37.9350    62.0980    23.0970     2.2250 
  110.1250    -8.1550    74.3460    30.4350    31.2830    48.0850    23.0720     2.2540 
