~V
VERS. 2.00: Ver 2.00
~W
STRT.M 47.0000:
STOP.M 236.0000:
STEP.M 0.1250:
NULL. -999.2500:
UWI. F10597:
~C
DEPT.M :
SP.MV :
DEN.GM/CC :
GR.API :
RML.OHMM :
RI. :
RXO.OHMM :
CALI.CM :
~A
# ...
   80.7500   -23.5210     2.0940   104.5600     9.5830     6.2050     7.9140    24.1490 
   80.8750   -23.4500     2.0810   101.3620     9.0250     6.1040     8.1640    24.1460 
   81.0000   -23.3930     2.0730    96.7810     8.5660     6.0260     8.0230    24.1470 
   81.1250   -23.3430     2.0820    97.7230     8.3440     5.9970     7.8250    24.1470 
   81.2500   -23.2510     2.1050    99.9310     8.3560     6.0050     7.5620    24.1540 
   81.3750   -23.0830     2.1280    99.7570     8.4930     6.0350     7.2300    24.1780 
   81.5000   -22.7510     2.1360    98.1710     8.5970     6.0880     6.7460    24.2400 
   81.6250   -22.2530     2.1320    92.8720     8.6000     6.1570     6.8200    24.2750 
   81.7500   -21.6140     2.1210    84.7600     8.5070     6.2090     7.7240    24.2570 
   81.8750   -20.8980     2.1100    80.0430     8.3730     6.1760     8.6680    24.2290 
   82.0000   -20.1400     2.1090    85.1440     8.1930     5.9550     8.1230    24.2010 
   82.1250   -19.3730     2.1250    94.1870     7.9360     5.5820     6.6830    24.1600 
   82.2500   -18.6280     2.1550   100.6000     7.6120     5.1490     5.7000    24.1070 
   82.3750   -17.9560     2.1860   102.6700     7.2830     4.7780     5.5240    24.0750 
   82.5000   -17.3980     2.2040   103.5660     7.1080     4.5790     5.5710    24.0780 
   82.6250   -16.9740     2.2130   104.6910     7.1440     4.5280     5.5540    24.1380 
   82.7500   -16.6550     2.2220   104.9550     7.3140     4.5660     5.4160    24.2860 
   82.8750   -16.3700     2.2340   103.7870     7.4570     4.6170     5.3580    24.4420 
   83.0000   -16.1190     2.2440   103.8680     7.4500     4.6370     5.3440    24.5080 
   83.1250   -15.9330     2.2490   104.7040     7.4420     4.6510     5.3390    24.5210 
   83.2500   -15.8160     2.2540   104.2210     7.5560     4.7030     5.4400    24.5180 
   83.3750   -15.7350     2.2640   103.9720     7.8520     4.8250     5.6100    24.5120 
   83.5000   -15.7290     2.2830   106.1470     8.2910     5.0430     6.0680    24.5100 
   83.6250   -15.7620     2.3080   105.2910     8.6060     5.3080     6.8840    24.5100 
   83.7500   -15.8280     2.3290    99.5610     8.5460     5.5250     7.7410    24.5100 
   83.8750   -15.9610     2.3300    92.0110     7.9970     5.5840     6.7000    24.5100 
   84.0000   -16.1250     2.3040    90.3100     7.1080     5.4110     6.0990    24.5100 
   84.1250   -16.2780     2.2730    91.5940     6.3520     5.1360     5.6870    24.5100 
   84.2500   -16.4350     2.2500    92.2790     6.0390     4.8870     5.6910    24.5100 
   84.3750   -16.5590     2.2320    93.1270     6.2710     4.7490     5.7400    24.5100 
   84.5000   -16.6150     2.2180    93.5160     6.9130     4.7460     5.6470    24.5100 
   84.6250   -16.6560     2.2150    91.7770     7.5710     4.8160     5.8490    24.5100 
   84.7500   -16.7110     2.2190    87.8260     8.0610     4.9210     6.1480    24.5100 
   84.8750   -16.7660     2.2260    85.1920     8.3810     5.0500     6.3580    24.5100 
   85.0000   -16.7860     2.2310    86.6710     8.5880     5.1860     6.7810    24.5100 
   85.1250   -16.7300     2.2330    87.3150     8.7070     5.2820     7.0100    24.5100 
   85.2500   -16.5860     2.2330    85.2100     8.7000     5.2940     6.6830    24.5100 
   85.3750   -16.4310     2.2320    83.5560     8.5510     5.2130     6.4560    24.5100 
   85.5000   -16.3440     2.2370    86.7080     8.2750     5.0540     6.0150    24.5090 
   85.6250   -16.3330     2.2510    91.4670     7.9750     4.8800     5.4830    24.5040 
   85.7500   -16.4000     2.2750    92.8360     7.8150     4.7700     5.0650    24.4820 
   85.8750   -16.5340     2.3050    90.5080     8.0200     4.8310     5.2550    24.4230 
   86.0000   -16.7820     2.3360    88.0120     8.8440     5.2260     6.5250    24.3170 
   86.1250   -17.1810     2.3700    86.2540    10.1070     5.9050     8.7600    24.1920 
   86.2500   -17.6960     2.3920    84.1690    11.3970     6.6760    10.9330    24.1030 
   86.3750   -18.2490     2.3740    81.2160    12.1170     7.1880    10.5510    24.0590 
   86.5000   -18.8060     2.3010    78.6330    11.7660     7.0900     8.5170    24.0110 
   86.6250   -19.3570     2.2200    78.8550    10.9020     6.6380     7.5390    23.9320 
   86.7500   -19.8810     2.1660    80.6220    10.1480     6.1820     7.3700    23.8720 
   86.8750   -20.3670     2.1420    82.3130     9.7960     5.9450     7.4430    23.8490 
   87.0000   -20.7950     2.1350    83.9680     9.8050     5.9720     7.4570    23.8490 
   87.1250   -21.1390     2.1290    87.0220     9.9070     6.1000     7.4730    23.8510 
   87.2500   -21.4430     2.1250    89.7780    10.0020     6.2410     7.4950    23.8620 
   87.3750   -21.7220     2.1200    89.2660    10.1420     6.3810     7.4790    23.8870 
   87.5000   -21.9530     2.1150    85.8840    10.4680     6.5560     7.4820    23.9060 
   87.6250   -22.1500     2.1080    81.9800    10.9160     6.7510     7.9040    23.9150 
   87.7500   -22.3140     2.1040    78.3400    11.3100     6.9060     8.4180    23.9410 
   87.8750   -22.4430     2.1050    75.6990    11.4780     6.9580     8.7320    24.0190 
   88.0000   -22.5480     2.1130    75.8120    11.3950     6.8790     8.5490    24.1660 
   88.1250   -22.6380     2.1250    76.3250    11.2450     6.7650     8.2750    24.2530 
   88.2500   -22.7000     2.1380    76.5250    11.1590     6.7100     8.1210    24.2810 
   88.3750   -22.7600     2.1500    79.6510    11.1660     6.7820     8.3810    24.2830 
   88.5000   -22.8260     2.1570    84.3480    11.1820     6.9740     8.9420    24.2830 
   88.6250   -22.8700     2.1600    84.4910    11.1170     7.1550     9.0660    24.2830 
   88.7500   -22.9090     2.1600    80.2940    11.0180     7.2260     8.9800    24.2830 
   88.8750   -23.0100     2.1580    77.7980    10.9590     7.1650     8.8430    24.2820 
   89.0000   -23.1950     2.1500    79.5140    10.9390     7.0340     8.6990    24.2420 
   89.1250   -23.4250     2.1340    80.5350    10.8950     6.9520     8.5340    24.1380 
   89.2500   -23.6650     2.1130    79.6180    10.8510     6.9850     8.8780    24.0070 
   89.3750   -23.8770     2.0940    78.6360    10.8790     7.1420     9.5910    23.9360 
   89.5000   -24.0390     2.0830    77.8150    10.9940     7.3760     9.8160    23.9240 
   89.6250   -24.1730     2.0830    76.1850    11.0570     7.5860     9.6300    23.9240 
   89.7500   -24.2800     2.0940    74.1010    10.9400     7.7020     9.3860    23.9240 
   89.8750   -24.2920     2.1120    73.4690    10.6370     7.6980     9.2460    23.9240 
   90.0000   -24.1990     2.1290    76.2490    10.2910     7.6030     9.2360    23.9240 
   90.1250   -24.0570     2.1400    80.6210    10.0430     7.4980     9.6110    23.9240 
   90.2500   -23.9060     2.1480    82.8260     9.8730     7.3960     9.5910    23.9240 
   90.3750   -23.8220     2.1510    81.0220     9.7160     7.2660     9.0640    23.9230 
   90.5000   -23.8370     2.1410    76.5390     9.5990     7.0870     8.7790    23.9090 
   90.6250   -23.8860     2.1260    74.3690     9.5750     6.9040     8.6680    23.8680 
   90.7500   -23.9440     2.1190    75.6810     9.6120     6.7730     8.6180    23.8120 
   90.8750   -24.0170     2.1240    76.4070     9.6180     6.7290     8.6330    23.7760 
   91.0000   -24.0950     2.1340    74.7830     9.5010     6.7740     8.6480    23.7810 
   91.1250   -24.1970     2.1370    73.9440     9.3620     6.8540     8.6050    23.8490 
   91.2500   -24.3500     2.1320    75.9880     9.3680     6.9430     8.5780    23.9980 
   91.3750   -24.5060     2.1230    78.6830     9.6310     7.0530     8.6400    24.1060 
   91.5000   -24.6380     2.1130    78.9880    10.1190     7.2170     8.7480    24.1400 
   91.6250   -24.7410     2.1080    77.5780    10.6250     7.4330     8.8180    24.1380 
   91.7500   -24.8150     2.1090    74.4010    11.0520     7.6780     8.9830    24.1370 
   91.8750   -24.8780     2.1130    71.5990    11.4230     7.9080     9.2120    24.1330 
