~V
VERS. 2.00: Ver 2.00
~W
STRT.M 52.0000:
STOP.M 224.0000:
STEP.M 0.1250:
NULL. -999.2500:
UWI. F10595:
~C
DEPT.M :
GR.API :
RML.OHMM :
RI. :
RXO.OHMM :
CALI.CM :
DEN.GM/CC :
SP.MV :
~A
# ...
  130.7500    54.2020    44.3990    38.4230    41.5770    22.7610     2.5180   -10.5480 
  130.8750    53.2160    44.5510    38.5630    40.8180    22.6210     2.5160   -10.6450 
  131.0000    50.2970    45.2960    39.1150    42.0920    22.4800     2.5120   -10.7030 
  131.1250    48.8730    46.4630    39.9960    44.5280    22.3830     2.5050   -10.7270 
  131.2500    50.2490    47.6730    40.9900    48.6740    22.3660     2.5010   -10.7090 
  131.3750    52.4890    48.5230    41.7950    48.0230    22.4150     2.5020   -10.6560 
  131.5000    53.6100    48.8190    42.2340    45.5130    22.4790     2.5030   -10.5750 
  131.6250    52.9750    48.5820    42.2690    46.2960    22.5180     2.5010   -10.4710 
  131.7500    50.6640    48.0200    41.9880    49.6870    22.5440     2.4910   -10.3530 
  131.8750    48.6260    47.5260    41.6840    46.9530    22.5760     2.4800   -10.2320 
  132.0000    48.7520    47.3670    41.5900    43.7310    22.5820     2.4710   -10.1170 
  132.1250    49.9980    47.6800    41.8620    43.0700    22.5470     2.4720   -10.0160 
  132.2500    50.0970    48.4210    42.5420    45.3390    22.5300     2.4850    -9.9400 
  132.3750    49.9480    49.1160    43.3030    48.7990    22.5290     2.5010    -9.8950 
  132.5000    51.5260    49.2250    43.7220    49.8470    22.5240     2.5100    -9.8860 
  132.6250    53.3210    48.2900    43.3690    48.6860    22.5440     2.5050    -9.9140 
  132.7500    51.3990    46.0680    41.8960    47.2790    22.6280     2.4830    -9.9860 
  132.8750    48.7680    43.2200    39.7350    42.0060    22.7550     2.4550   -10.0860 
  133.0000    48.2970    40.3900    37.3830    36.2600    22.8000     2.4320   -10.2130 
  133.1250    49.8020    38.0930    35.3040    33.5490    22.7150     2.4210   -10.3510 
  133.2500    51.2070    36.6600    33.8630    31.4230    22.6330     2.4210   -10.4890 
  133.3750    52.4230    35.8600    32.9880    29.0880    22.6090     2.4230   -10.6170 
  133.5000    53.0990    35.4730    32.5620    28.1970    22.6290     2.4250   -10.7210 
  133.6250    52.1080    35.2870    32.3950    30.1890    22.7110     2.4310   -10.7930 
  133.7500    51.7410    35.1650    32.2800    32.4660    22.7440     2.4430   -10.8160 
  133.8750    51.9490    35.1160    32.1160    33.0390    22.7210     2.4560   -10.7930 
  134.0000    50.3550    35.2610    31.9830    32.6640    22.7170     2.4670   -10.7170 
  134.1250    47.7570    35.7230    32.0540    34.6670    22.8150     2.4730   -10.5970 
  134.2500    48.5640    36.6390    32.5850    35.9400    22.9410     2.4780   -10.4300 
  134.3750    51.3610    37.9250    33.5860    36.8290    23.0680     2.4920   -10.2340 
  134.5000    51.0500    39.4130    34.9550    38.6060    23.2430     2.5140   -10.0170 
  134.6250    48.2560    40.7700    36.4050    43.8580    23.4760     2.5420    -9.7910 
  134.7500    47.2170    41.4530    37.4180    46.6410    23.6590     2.5650    -9.5660 
  134.8750    47.2280    41.3360    37.7330    46.3020    23.7560     2.5800    -9.3530 
  135.0000    46.1790    40.5640    37.3510    43.6320    23.7670     2.5890    -9.1610 
  135.1250    44.6290    39.5140    36.5170    41.7390    23.7420     2.5970    -8.9940 
  135.2500    43.7220    38.6980    35.6380    39.2010    23.7080     2.6110    -8.8610 
  135.3750    43.5650    38.3040    35.0160    39.0090    23.6960     2.6330    -8.7590 
  135.5000    45.1310    38.1680    34.6350    39.9740    23.7260     2.6520    -8.6890 
  135.6250    47.5840    37.9200    34.2520    40.2360    23.8200     2.6510    -8.6550 
  135.7500    47.1950    37.1910    33.5520    39.6920    23.9590     2.6160    -8.6610 
  135.8750    45.4420    36.1410    32.5800    39.8080    24.1350     2.5580    -8.6970 
  136.0000    45.9620    35.1600    31.5940    36.6110    24.3040     2.4990    -8.7630 
  136.1250    48.1120    34.7020    30.9440    30.8460    24.4370     2.4610    -8.8520 
  136.2500    48.8580    35.1240    30.9830    29.2890    24.4110     2.4650    -8.9640 
  136.3750    48.6100    36.0930    31.5740    31.4860    24.1540     2.4970    -9.0850 
  136.5000    48.5470    37.2180    32.4970    34.6400    23.7520     2.5320    -9.2070 
  136.6250    47.8960    38.1990    33.5120    36.5280    23.3700     2.5500    -9.3200 
  136.7500    46.7230    38.9450    34.4230    35.5990    23.0430     2.5480    -9.4130 
  136.8750    47.2580    39.6290    35.1820    32.4390    22.7550     2.5460    -9.4860 
  137.0000    48.4410    40.2560    35.7300    30.4640    22.5560     2.5610    -9.5260 
  137.1250    48.5660    40.4910    35.8210    32.7360    22.4800     2.5960    -9.5340 
  137.2500    47.2030    39.5220    34.8390    35.0320    22.4590     2.6350    -9.4990 
  137.3750    45.8560    37.2610    32.7770    33.1520    22.4800     2.6560    -9.4300 
  137.5000    45.4710    34.1640    30.0370    30.1700    22.5460     2.6530    -9.3310 
  137.6250    45.8300    31.1020    27.3080    25.2800    22.6790     2.6280    -9.2080 
  137.7500    47.0560    29.1730    25.4090    21.2360    22.8330     2.5860    -9.0650 
  137.8750    48.9270    28.6540    24.5610    19.8070    22.9780     2.5430    -8.9120 
  138.0000    51.0490    29.3610    24.6930    21.3950    23.1350     2.5120    -8.7610 
  138.1250    52.1980    30.7230    25.4680    23.6120    23.3520     2.5060    -8.6200 
  138.2500    50.4460    31.8030    26.2780    26.6130    23.5480     2.5340    -8.5050 
  138.3750    47.9980    31.9050    26.5210    29.4720    23.6520     2.5710    -8.4210 
  138.5000    47.3220    30.9600    26.0410    29.5240    23.7140     2.5940    -8.3740 
  138.6250    48.8470    29.5420    25.1600    27.5920    23.8250     2.5890    -8.3680 
  138.7500    51.6760    28.7100    24.5910    24.8120    24.0190     2.5690    -8.4140 
  138.8750    53.8520    29.0220    24.7940    23.8550    24.0680     2.5590    -8.5080 
  139.0000    53.7260    30.4980    25.8420    25.7210    23.9300     2.5690    -8.6460 
  139.1250    51.8840    32.6830    27.4330    31.2030    23.8250     2.5950    -8.8220 
  139.2500    51.0350    34.5050    28.7600    39.3950    23.9320     2.6200    -9.0330 
  139.3750    50.8040    34.8810    28.9960    43.6790    24.1810     2.6370    -9.2590 
  139.5000    49.3600    33.3800    27.8360    39.3430    24.4130     2.6390    -9.4920 
  139.6250    48.1180    30.4570    25.6520    29.3250    24.5260     2.6220    -9.7160 
  139.7500    49.1410    27.1960    23.2540    26.2730    24.5050     2.5820    -9.9180 
  139.8750    48.9060    24.5260    21.2920    22.7840    24.3280     2.5310   -10.0840 
  140.0000    47.3780    22.7250    19.9580    20.4340    24.0520     2.4820   -10.2110 
  140.1250    48.5100    21.7460    19.2360    19.8670    23.8910     2.4430   -10.2930 
  140.2500    52.7620    21.4250    19.0440    20.3600    24.0110     2.4230   -10.3180 
  140.3750    54.0770    21.3940    19.1030    21.3230    24.2310     2.4180   -10.2970 
  140.5000    51.4530    21.5040    19.2890    22.0690    24.3690     2.4220   -10.2320 
  140.6250    49.3610    21.6580    19.5290    21.9790    24.3690     2.4290   -10.1300 
  140.7500    51.4000    21.6730    19.7000    21.9150    24.2750     2.4350    -9.9880 
  140.8750    55.2980    21.3560    19.6250    21.5560    24.1870     2.4360    -9.8170 
  141.0000    58.4350    20.5740    19.1460    20.7210    24.1410     2.4320    -9.6170 
  141.1250    58.3510    19.3360    18.2110    20.1110    24.1310     2.4220    -9.3890 
  141.2500    55.3940    17.8170    16.9210    18.8960    24.0880     2.4080    -9.1280 
  141.3750    54.2110    16.3910    15.6260    16.2870    23.9340     2.3970    -8.8350 
  141.5000    56.4340    15.3030    14.5690    13.9730    23.6840     2.3920    -8.5090 
  141.6250    58.6580    14.6750    13.8830    13.2050    23.5100     2.3950    -8.1490 
  141.7500    55.9820    14.5820    13.6530    13.4280    23.5650     2.4060    -7.7550 
  141.8750    51.1170    14.8290    13.7300    13.9920    23.6620     2.4240    -7.3380 
