~V
VERS. 2.00: Ver 2.00
~W
STRT.M 57.0000:
STOP.M 205.0000:
STEP.M 0.1250:
NULL. -999.2500:
UWI. F10591:
~C
DEPT.M :
SP.MV :
GR.API :
RML.OHMM :
RI. :
RXO.OHMM :
CALI.CM :
DEN.GM/CC :
~A
# ...
  158.2500   -16.8550    59.1930    27.9010    25.4910    25.7060    24.2800     2.2030 
  158.3750   -16.7450    57.3040    28.2320    25.8830    27.1760    24.2760     2.2120 
  158.5000   -16.6630    54.6750    28.4880    26.2070    27.6980    24.2710     2.2320 
  158.6250   -16.5600    54.4990    28.6170    26.4040    26.1720    24.2550     2.2660 
  158.7500   -16.4950    56.6420    28.6470    26.4770    24.9060    24.2030     2.2960 
  158.8750   -16.4660    58.9740    28.6310    26.4470    24.8250    24.1530     2.3030 
  159.0000   -16.4790    60.0000    28.6510    26.3720    26.1380    24.2060     2.2810 
  159.1250   -16.5510    59.5380    28.7870    26.3350    27.1660    24.3670     2.2390 
  159.2500   -16.6440    58.5270    28.9840    26.3440    27.3210    24.5020     2.2030 
  159.3750   -16.7650    58.0320    29.1260    26.3360    27.2030    24.5820     2.1820 
  159.5000   -16.9010    58.1210    29.0810    26.2120    27.3970    24.6260     2.1770 
  159.6250   -17.0410    57.2820    28.7340    25.8680    27.5600    24.6500     2.1820 
  159.7500   -17.1780    56.2430    28.1750    25.3480    26.8370    24.6620     2.1910 
  159.8750   -17.2740    55.9900    27.5410    24.7420    25.1420    24.6630     2.2030 
  160.0000   -17.3770    56.9730    27.0100    24.1800    23.7510    24.6380     2.2150 
  160.1250   -17.4290    56.9620    26.7660    23.8160    23.6700    24.5640     2.2190 
  160.2500   -17.4900    55.7950    26.7910    23.6720    24.5600    24.4800     2.2150 
  160.3750   -17.5510    56.3250    27.0200    23.7230    25.2100    24.4270     2.2090 
  160.5000   -17.5960    58.6290    27.3450    23.9060    25.7410    24.4100     2.2080 
  160.6250   -17.6700    59.0410    27.6470    24.1300    26.0840    24.4100     2.2130 
  160.7500   -17.7460    56.9140    27.8910    24.3240    26.1690    24.4100     2.2170 
  160.8750   -17.8630    56.1780    28.1640    24.5190    25.9740    24.4090     2.2160 
  161.0000   -17.9630    57.8670    28.6340    24.8290    25.8340    24.4050     2.2090 
  161.1250   -18.0850    59.1600    29.5420    25.4500    26.3940    24.3980     2.2010 
  161.2500   -18.1850    59.4250    30.9130    26.4350    26.8370    24.3950     2.1950 
  161.3750   -18.2680    59.7000    32.7040    27.7770    28.5750    24.3980     2.1890 
  161.5000   -18.3590    59.1730    34.7500    29.3680    31.3840    24.4140     2.1840 
  161.6250   -18.4220    58.2230    36.7460    30.9790    34.9820    24.4360     2.1890 
  161.7500   -18.4810    58.5580    38.4170    32.3600    35.6990    24.4450     2.2080 
  161.8750   -18.5040    59.6890    39.6300    33.3710    35.4130    24.4160     2.2330 
  162.0000   -18.5300    59.1390    40.4040    33.9860    35.6530    24.3660     2.2560 
  162.1250   -18.5700    55.8340    40.9260    34.2870    37.3020    24.3370     2.2660 
  162.2500   -18.6000    53.4590    41.5590    34.5690    37.6790    24.3660     2.2630 
  162.3750   -18.6770    53.4920    42.5150    35.0470    36.6600    24.4060     2.2540 
  162.5000   -18.7500    56.2590    43.8730    35.8570    35.8350    24.4110     2.2450 
  162.6250   -18.8810    60.0930    45.6710    37.1220    36.4780    24.3940     2.2370 
  162.7500   -19.0370    61.2700    47.7510    38.7640    38.5330    24.3950     2.2290 
  162.8750   -19.1970    60.4480    49.9670    40.6950    42.7750    24.4490     2.2230 
  163.0000   -19.3910    62.1460    52.1770    42.7880    45.7050    24.5200     2.2180 
  163.1250   -19.5590    66.4450    54.3490    44.9670    47.2720    24.5020     2.2190 
  163.2500   -19.7540    65.5700    56.6940    47.2690    50.9040    24.4340     2.2260 
  163.3750   -19.9220    58.0790    59.7070    49.9560    54.1630    24.3670     2.2370 
  163.5000   -20.0810    51.2570    64.1170    53.5780    53.8060    24.3290     2.2480 
  163.6250   -20.1900    50.2220    70.6880    59.0000    55.5380    24.2980     2.2710 
  163.7500   -20.2790    51.7030    77.9260    65.5240    60.7660    24.3030     2.3230 
  163.8750   -20.3260    52.1800    81.9950    70.4290    69.0890    24.2940     2.4220 
  164.0000   -20.3250    49.3270    76.9640    68.4500    84.5660    24.2120     2.5520 
  164.1250   -20.2650    44.4810    59.1090    54.7080    94.0190    24.0370     2.6400 
  164.2500   -20.1420    43.3620    38.3050    36.9550    64.3280    23.7900     2.6400 
  164.3750   -19.9680    48.4790    22.1590    22.3590    30.4130    23.5470     2.5730 
  164.5000   -19.7510    56.5100    12.4940    13.1110    13.4630    23.4140     2.4830 
  164.6250   -19.5620    61.0670     8.1290     8.5230     6.4130    23.3740     2.4050 
  164.7500   -19.3630    62.0050     6.1460     6.1760     4.8770    23.3870     2.3570 
  164.8750   -19.2340    61.1840     5.4280     5.1160     4.6820    23.4370     2.3380 
  165.0000   -19.1280    61.3710     5.4350     4.8640     4.7840    23.5340     2.3400 
  165.1250   -19.1070    64.2920     6.0190     5.2940     4.9140    23.6960     2.3490 
  165.2500   -19.1530    67.3680     6.9730     6.1850     5.7070    23.8770     2.3550 
  165.3750   -19.2310    69.1120     8.1360     7.4050     7.3070    24.0410     2.3590 
  165.5000   -19.3540    70.5090     9.2580     8.7320     9.6250    24.1570     2.3660 
  165.6250   -19.4660    71.2990     9.9670     9.7840    11.0340    24.2560     2.3820 
  165.7500   -19.5860    68.6930    10.1500    10.3250    11.5530    24.3220     2.4030 
  165.8750   -19.6840    63.4240     9.8910    10.3340    11.0700    24.3680     2.4180 
  166.0000   -19.7880    60.9290     9.4360     9.9910    10.0580    24.4230     2.4220 
  166.1250   -19.8680    66.2070     9.0660     9.5400     9.2230    24.4640     2.4170 
  166.2500   -19.9430    76.3870     8.8950     9.1650     8.9940    24.4190     2.4090 
  166.3750   -20.0360    89.2220     8.9120     8.9140     9.1000    24.3050     2.3990 
  166.5000   -20.0990   100.1670     9.0530     8.7790     9.1780    24.2350     2.3850 
  166.6250   -20.1290   103.2620     9.2340     8.7180     9.2990    24.2300     2.3720 
  166.7500   -20.1480    99.1520     9.3700     8.6520     9.3160    24.2380     2.3650 
  166.8750   -20.1340    94.8620     9.4190     8.5330     9.2100    24.2450     2.3680 
  167.0000   -20.1230    95.7730     9.3640     8.3370     9.0730    24.2490     2.3760 
  167.1250   -20.0930    98.7060     9.2120     8.0670     8.8670    24.2450     2.3830 
  167.2500   -20.0840    99.2180     9.0640     7.8010     8.7890    24.2330     2.3860 
  167.3750   -20.0970    99.0770     9.0570     7.6490     8.7550    24.2180     2.3840 
  167.5000   -20.1480   101.4930     9.3570     7.7410     8.8070    24.1650     2.3760 
  167.6250   -20.2680   104.8040    10.2870     8.2980     9.2810    24.1450     2.3650 
  167.7500   -20.4100   104.1310    12.0420     9.4340    10.9790    24.1470     2.3530 
  167.8750   -20.6070    98.3320    14.8560    11.3310    15.2800    24.1620     2.3440 
  168.0000   -20.8010    90.0670    18.8670    14.1600    21.6510    24.1610     2.3360 
  168.1250   -21.0490    81.4630    24.1800    18.1910    26.4750    24.1550     2.3280 
  168.2500   -21.2740    72.8060    30.1570    23.0780    32.4500    24.1690     2.3170 
  168.3750   -21.4930    65.8790    36.0180    28.2650    42.7040    24.1950     2.3050 
  168.5000   -21.6860    63.8020    40.7700    32.8580    50.5420    24.1950     2.2930 
  168.6250   -21.8440    65.0530    43.2410    35.6590    50.1700    24.1860     2.2800 
  168.7500   -21.9820    65.2230    43.7350    36.6720    49.3390    24.1960     2.2660 
  168.8750   -22.0960    64.7470    42.9880    36.3860    46.3920    24.2220     2.2530 
  169.0000   -22.1920    65.2810    42.0310    35.6260    40.9210    24.1800     2.2450 
  169.1250   -22.2500    66.3480    41.8850    35.2740    35.7800    24.1730     2.2440 
  169.2500   -22.2870    68.0360    42.5980    35.5830    35.0300    24.1900     2.2490 
  169.3750   -22.3050    70.0710    43.6190    36.2790    41.3910    24.1970     2.2580 
