~V
VERS. 2.00: Ver 2.00
~W
STRT.M 42.0000:
STOP.M 195.0000:
STEP.M 0.1250:
NULL. -999.2500:
UWI. F10590:
~C
DEPT.M :
GR.API :
RML.OHMM :
RI. :
RXO.OHMM :
CALI.CM :
DEN.GM/CC :
SP.MV :
~A
# ...
   53.2500    46.5470     0.7780     0.4690     0.5770    25.0600     2.6310    79.5220 
   53.3750    44.9140     0.7790     0.4650     0.5930    25.0600     2.6220    80.4010 
   53.5000    44.6380     0.7990     0.4610     0.6030    25.0600     2.6120    80.9930 
   53.6250    45.7090     0.8400     0.4590     0.6040    25.0600     2.6010    81.3630 
   53.7500    47.2620     0.9060     0.4600     0.6040    25.0600     2.5880    81.6250 
   53.8750    50.2240     1.0060     0.4650     0.6040    25.0600     2.5720    81.8560 
   54.0000    53.6830     1.1200     0.4720     0.6030    25.0600     2.5530    82.1410 
   54.1250    54.4020     1.1430     0.4820     0.5960    25.0590     2.5370    82.4070 
   54.2500    52.8920     1.0920     0.4930     0.5960    25.0460     2.5300    82.6170 
   54.3750    51.3110     1.0150     0.5050     0.6040    24.9930     2.5380    82.7450 
   54.5000    48.8380     0.9650     0.5140     0.5940    24.8720     2.5610    82.7700 
   54.6250    44.0180     0.9460     0.5170     0.5810    24.6420     2.5940    82.5090 
   54.7500    41.2640     0.9430     0.5190     0.5900    24.3700     2.6260    81.9060 
   54.8750    44.1360     0.9430     0.5250     0.6360    24.1050     2.6480    80.8550 
   55.0000    51.6200     0.9450     0.5400     0.6580    23.9520     2.6550    79.2670 
   55.1250    58.5470     0.9540     0.5550     0.6630    23.8930     2.6410    77.0020 
   55.2500    60.5400     0.9700     0.5310     0.6670    23.8820     2.6090    74.0850 
   55.3750    58.6010     0.9450     0.4710     0.6720    23.8800     2.5630    70.4300 
   55.5000    57.3100     0.7780     0.3880     0.6760    23.8810     2.5130    65.9670 
   55.6250    60.3920     0.5870     0.3400     0.7110    23.8990     2.4730    60.5020 
   55.7500    66.8210     0.5100     0.3160     0.8650    23.9660     2.4460    54.2150 
   55.8750    76.5980     0.6010     0.3530     1.9990    24.0790     2.4260    47.2190 
   56.0000    87.6450     0.8780     0.5210     2.7970    24.1660     2.4010    39.7590 
   56.1250    93.9670     1.4400     0.9860     4.3810    24.2340     2.3660    32.1970 
   56.2500    95.3570     2.2780     1.5820     5.5150    24.3240     2.3280    24.8910 
   56.3750    97.1070     3.2760     2.3200     5.8820    24.4190     2.2970    18.0570 
   56.5000   100.5560     4.1550     3.1380     5.9630    24.4760     2.2780    11.8600 
   56.6250    99.1530     4.5890     3.8790     6.0050    24.4880     2.2690     6.6250 
   56.7500    94.3770     4.6940     4.4450     6.0420    24.4820     2.2660     2.3300 
   56.8750    91.1670     4.6770     4.8340     6.0670    24.4760     2.2660    -1.0130 
   57.0000    90.9450     4.6880     5.0990     6.0450    24.4740     2.2710    -3.5390 
   57.1250    91.6340     4.7820     5.2970     5.9880    24.4740     2.2860    -5.3890 
   57.2500    91.0170     4.9450     5.4960     5.8870    24.4730     2.3120    -6.8770 
   57.3750    88.5720     5.1680     5.7210     5.9100    24.4680     2.3490    -8.0900 
   57.5000    86.0220     5.4280     5.9640     6.4220    24.4490     2.3880    -9.0930 
   57.6250    87.2990     5.6590     6.1680     7.4940    24.4250     2.4140    -9.9330 
   57.7500    90.4830     5.7980     6.2730     7.6090    24.4160     2.4210   -10.6920 
   57.8750    91.8750     5.8350     6.2610     6.6850    24.4140     2.4090   -11.3810 
   58.0000    91.9630     5.8190     6.1590     6.0620    24.4110     2.3860   -11.9790 
   58.1250    93.8760     5.8390     6.0430     5.9730    24.4080     2.3670   -12.4840 
   58.2500    95.5540     5.9430     5.9940     5.9300    24.4080     2.3550   -12.9500 
   58.3750    95.2130     6.1270     6.0510     6.2320    24.4080     2.3500   -13.4060 
   58.5000    92.7320     6.3550     6.2130     7.0050    24.4030     2.3460   -13.8710 
   58.6250    89.8230     6.5860     6.4470     8.0060    24.3850     2.3400   -14.3090 
   58.7500    87.9000     6.8050     6.6870     8.0710    24.3630     2.3330   -14.7100 
   58.8750    85.7750     7.0260     6.9080     7.4780    24.3530     2.3300   -15.0790 
   59.0000    83.4140     7.2750     7.1130     7.0970    24.3510     2.3280   -15.4580 
   59.1250    82.2020     7.6000     7.3430     7.3230    24.3500     2.3260   -15.8640 
   59.2500    80.8450     8.0130     7.6320     8.3970    24.3510     2.3160   -16.2730 
   59.3750    78.2890     8.4950     7.9770    10.0390    24.3650     2.2960   -16.6770 
   59.5000    74.6390     8.9760     8.3330     9.7280    24.4050     2.2690   -17.0570 
   59.6250    72.4900     9.3160     8.6040     9.2550    24.4490     2.2400   -17.4340 
   59.7500    72.8010     9.4470     8.7280     8.9660    24.4630     2.2180   -17.8170 
   59.8750    74.7880     9.3750     8.6930     8.7600    24.4620     2.2080   -18.1990 
   60.0000    75.7190     9.1800     8.5340     8.4330    24.4600     2.2090   -18.5580 
   60.1250    73.9460     8.9870     8.3300     8.2580    24.4600     2.2200   -18.8870 
   60.2500    72.9490     8.8890     8.1720     8.1930    24.4600     2.2350   -19.2140 
   60.3750    73.1240     8.9240     8.1180     8.2050    24.4620     2.2500   -19.5500 
   60.5000    71.9920     9.1040     8.2000     8.2940    24.4770     2.2590   -19.9190 
   60.6250    69.2200     9.4420     8.4490     8.5750    24.5360     2.2540   -20.3000 
   60.7500    66.9000     9.8730     8.8130     8.9410    24.6320     2.2310   -20.6630 
   60.8750    65.6770    10.3240     9.2390     9.4750    24.7070     2.1910   -20.9900 
   61.0000    64.6170    10.7100     9.6540    10.1870    24.7190     2.1450   -21.3040 
   61.1250    63.5660    10.9440     9.9740    10.4140    24.6680     2.1100   -21.6340 
   61.2500    62.4870    11.0550    10.1810    10.6950    24.6190     2.0980   -21.9600 
   61.3750    62.4890    11.1040    10.2890    10.9650    24.5760     2.1100   -22.2500 
   61.5000    64.3200    11.1520    10.3320    11.2580    24.5430     2.1380   -22.4510 
   61.6250    65.9020    11.2310    10.3370    11.2940    24.5330     2.1660   -22.5750 
   61.7500    65.2510    11.3130    10.3320    11.1710    24.5420     2.1820   -22.6680 
   61.8750    63.2420    11.3670    10.3200    11.0180    24.5710     2.1840   -22.7840 
   62.0000    61.0240    11.3810    10.3020    11.1400    24.6170     2.1770   -22.9270 
   62.1250    58.0010    11.3580    10.2760    11.2330    24.6380     2.1660   -23.0450 
   62.2500    55.9810    11.3160    10.2440    11.0530    24.6440     2.1580   -23.1220 
   62.3750    56.1200    11.2550    10.2130    10.6770    24.6440     2.1550   -23.1590 
   62.5000    57.1420    11.1690    10.1870    10.3400    24.6440     2.1540   -23.1830 
   62.6250    59.4330    11.0530    10.1670    10.3380    24.6440     2.1550   -23.2140 
   62.7500    62.8540    10.9260    10.1390    10.5560    24.6410     2.1600   -23.2320 
   62.8750    65.6980    10.8060    10.0890    10.7200    24.6290     2.1690   -23.2180 
   63.0000    66.2330    10.7040    10.0100    10.5780    24.5990     2.1780   -23.1710 
   63.1250    66.4960    10.6210     9.9090    10.1180    24.5870     2.1850   -23.1160 
   63.2500    68.0500    10.5330     9.7970     9.8830    24.5950     2.1850   -23.0490 
   63.3750    68.9410    10.4110     9.6610     9.8480    24.6220     2.1830   -22.9810 
   63.5000    69.5680    10.2190     9.4780     9.8540    24.6290     2.1840   -22.9080 
   63.6250    72.0380     9.9230     9.2180    10.4470    24.5790     2.1950   -22.8070 
   63.7500    75.2990     9.5620     8.9060    11.1890    24.4890     2.2140   -22.7010 
   63.8750    76.2260     9.1940     8.5790    10.3340    24.4360     2.2350   -22.6210 
   64.0000    73.5720     8.8990     8.2850     8.7530    24.4440     2.2480   -22.5720 
   64.1250    70.1360     8.7640     8.0830     8.1610    24.4960     2.2440   -22.5680 
   64.2500    68.2090     8.7670     7.9750     8.3280    24.5260     2.2290   -22.6060 
   64.3750    66.9590     8.8570     7.9480     8.3170    24.5350     2.2100   -22.6710 
