~V
VERS. 2.00: Ver 2.00
~W
STRT.M 47.0000:
STOP.M 254.0000:
STEP.M 0.1250:
NULL. -999.2500:
UWI. F10599:
~C
DEPT.M :
DEN.GM/CC :
SP.MV :
GR.API :
RML.OHMM :
RI. :
RXO.OHMM :
CALI.CM :
~A
# ...
   69.5000     2.0980   -13.9220    75.7620     7.9500     7.0490     8.2970    23.2170 
   69.6250     2.0970   -13.7890    75.1030     8.0000     7.0270     8.4450    23.2160 
   69.7500     2.0950   -13.5860    74.8900     7.9900     6.9540     8.6650    23.2160 
   69.8750     2.0910   -13.3210    74.1490     7.9280     6.8480     8.7830    23.2200 
   70.0000     2.0840   -13.0190    74.1650     7.8530     6.7570     8.7130    23.2520 
   70.1250     2.0770   -12.6660    75.3910     7.7920     6.7090     8.6430    23.3480 
   70.2500     2.0730   -12.2310    78.1550     7.7550     6.7130     8.7280    23.5070 
   70.3750     2.0780   -11.6760    82.8110     7.7170     6.7300     8.9060    23.6570 
   70.5000     2.0910   -11.0380    85.5090     7.6260     6.6790     8.9690    23.7430 
   70.6250     2.1070   -10.3180    87.3210     7.4330     6.4950     8.7430    23.7400 
   70.7500     2.1270    -9.5400    92.5210     7.0990     6.1440     8.2710    23.6620 
   70.8750     2.1550    -8.7170   100.7650     6.5980     5.6340     7.5150    23.6040 
   71.0000     2.1900    -7.9130   110.5830     6.0330     5.0770     6.5920    23.6150 
   71.1250     2.2260    -7.1590   120.7460     5.5210     4.5640     5.6260    23.7830 
   71.2500     2.2520    -6.5000   128.6170     5.1480     4.1560     5.0230    24.2140 
   71.3750     2.2680    -5.9540   130.4370     4.9590     3.9020     4.8330    24.7030 
   71.5000     2.2770    -5.5210   130.0060     4.8720     3.7880     4.8310    24.9630 
   71.6250     2.2820    -5.2060   129.5970     4.8280     3.8060     4.9380    25.0310 
   71.7500     2.2840    -5.0170   125.1050     4.8050     3.9250     4.9690    25.0290 
   71.8750     2.2850    -4.9440   119.2890     4.8600     4.0830     4.8710    25.0060 
   72.0000     2.2900    -4.9350   119.0750     5.0280     4.2070     4.8160    24.9650 
   72.1250     2.2990    -4.9800   123.3770     5.2730     4.2830     4.8740    24.9180 
   72.2500     2.3070    -5.0350   126.7140     5.5010     4.3210     4.9380    24.8550 
   72.3750     2.3130    -5.1220   128.0740     5.5950     4.3430     4.9240    24.7370 
   72.5000     2.3190    -5.2280   128.9920     5.5360     4.3310     4.8950    24.6100 
   72.6250     2.3190    -5.3600   128.0890     5.3640     4.2540     4.8870    24.5540 
   72.7500     2.3080    -5.5180   125.6090     5.1770     4.1220     4.8510    24.5710 
   72.8750     2.2860    -5.7250   125.3410     5.0870     4.0030     4.8000    24.6370 
   73.0000     2.2630    -5.9750   126.1970     5.1150     3.9840     4.9260    24.6700 
   73.1250     2.2460    -6.2480   122.8190     5.2610     4.1360     5.4590    24.5810 
   73.2500     2.2400    -6.5550   110.8020     5.5050     4.4670     6.5250    24.3440 
   73.3750     2.2510    -6.8620    97.2680     5.8290     4.9120     7.8310    24.2410 
   73.5000     2.2750    -7.1810    90.9860     6.2130     5.3250     8.6590    24.3250 
   73.6250     2.3080    -7.5130    91.6810     6.6950     5.6820     9.4070    24.5720 
   73.7500     2.3420    -7.8670    94.4450     7.3550     6.1220     9.3540    24.8240 
   73.8750     2.3730    -8.2460    93.5480     8.4040     6.9890    10.3300    25.0050 
   74.0000     2.4090    -8.6610    87.9900     9.9480     8.4800    13.9950    25.0790 
   74.1250     2.4500    -9.1310    78.3320    11.9470    10.5840    21.9250    25.0700 
   74.2500     2.4750    -9.6740    69.8790    13.9430    12.8110    36.4420    24.9680 
   74.3750     2.4430   -10.3350    69.7620    14.7390    13.8730    37.1670    24.7240 
   74.5000     2.3610   -11.0570    73.5720    13.9620    13.2580    23.1880    24.3110 
   74.6250     2.2590   -11.8010    75.5590    12.2570    11.5290    13.2160    23.9250 
   74.7500     2.1740   -12.5310    74.1080    10.5690     9.6700    10.2310    23.7080 
   74.8750     2.1330   -13.1940    75.2800     9.4880     8.4240     9.9260    23.6590 
   75.0000     2.1210   -13.7600    78.3130     8.9180     7.8190     9.9760    23.6390 
   75.1250     2.1250   -14.2170    77.7530     8.7060     7.7050    10.0010    23.6120 
   75.2500     2.1310   -14.5570    73.3180     8.7020     7.8560     9.9980    23.5930 
   75.3750     2.1320   -14.7340    71.8010     8.8150     8.0210    10.0660    23.5860 
   75.5000     2.1300   -14.7920    72.9580     8.9830     8.0810    10.0960    23.5860 
   75.6250     2.1280   -14.7670    73.3170     9.1540     8.0690    10.0270    23.5860 
   75.7500     2.1290   -14.6730    71.5430     9.2600     8.0520     9.9230    23.5860 
   75.8750     2.1340   -14.5200    68.7970     9.2430     8.0500     9.8160    23.5860 
   76.0000     2.1400   -14.3310    67.0650     9.1400     8.0330     9.7610    23.5860 
   76.1250     2.1460   -14.1190    67.6010     8.9840     7.9930     9.7570    23.5860 
   76.2500     2.1490   -13.8850    70.6250     8.8150     7.9320     9.7810    23.5860 
   76.3750     2.1530   -13.6410    74.8630     8.6490     7.8310     9.8080    23.5860 
   76.5000     2.1600   -13.4030    78.7400     8.4810     7.6790     9.6890    23.5860 
   76.6250     2.1690   -13.1700    81.0210     8.3200     7.4740     9.3210    23.5730 
   76.7500     2.1780   -12.9580    81.8970     8.1800     7.2410     8.7060    23.5370 
   76.8750     2.1820   -12.7910    84.3660     8.0660     7.0230     8.1580    23.4710 
   77.0000     2.1760   -12.6800    87.2830     7.9600     6.8380     8.0520    23.4420 
   77.1250     2.1620   -12.6240    86.3220     7.8420     6.6950     8.2950    23.4350 
   77.2500     2.1450   -12.6160    80.9570     7.7030     6.6030     8.6210    23.4350 
   77.3750     2.1350   -12.6600    77.2430     7.5650     6.5870     8.6400    23.4350 
   77.5000     2.1360   -12.7350    76.2420     7.4730     6.6310     8.5980    23.4350 
   77.6250     2.1430   -12.8330    76.2070     7.4490     6.6960     8.5870    23.4400 
   77.7500     2.1470   -12.9330    77.1420     7.4690     6.7580     8.6710    23.4550 
   77.8750     2.1430   -12.9970    77.7720     7.4750     6.8230     8.8170    23.4850 
   78.0000     2.1360   -13.0250    76.3780     7.4510     6.9050     8.7810    23.5050 
   78.1250     2.1350   -12.9930    73.6650     7.4390     6.9970     8.6120    23.5270 
   78.2500     2.1380   -12.9030    72.9750     7.5100     7.0630     8.3350    23.5580 
   78.3750     2.1420   -12.7590    77.0790     7.6920     7.0530     8.2150    23.5720 
   78.5000     2.1480   -12.5790    81.3990     7.8870     6.9710     8.1440    23.5770 
   78.6250     2.1560   -12.3530    82.8450     7.9790     6.8490     8.1880    23.5770 
   78.7500     2.1670   -12.1090    82.2870     7.8850     6.7050     8.1990    23.5770 
   78.8750     2.1780   -11.8840    82.2770     7.6060     6.5190     8.0220    23.5790 
   79.0000     2.1860   -11.6760    84.6380     7.2780     6.2880     7.7680    23.5970 
   79.1250     2.1870   -11.5010    87.9340     6.9980     6.0450     7.6620    23.6430 
   79.2500     2.1820   -11.3830    89.8840     6.8340     5.8410     7.5890    23.6970 
   79.3750     2.1730   -11.3280    88.7630     6.8190     5.7320     7.5610    23.7190 
   79.5000     2.1610   -11.3100    84.7380     6.8930     5.7200     7.7750    23.7250 
   79.6250     2.1500   -11.3280    80.4870     7.0090     5.7900     7.9570    23.7250 
   79.7500     2.1460   -11.3590    78.1530     7.1560     5.9080     7.9840    23.7230 
   79.8750     2.1470   -11.3910    78.3540     7.3580     6.0610     7.9420    23.7240 
   80.0000     2.1470   -11.4320    80.8780     7.6010     6.2480     8.1220    23.7240 
   80.1250     2.1430   -11.4730    82.6330     7.8560     6.4870     8.5900    23.7250 
   80.2500     2.1380   -11.4930    82.2400     8.0890     6.7810     9.1150    23.7260 
   80.3750     2.1350   -11.4940    81.3730     8.2540     7.0830     9.2750    23.7260 
   80.5000     2.1350   -11.4960    81.0230     8.3590     7.3020     9.2530    23.7240 
   80.6250     2.1360   -11.4930    80.1280     8.4040     7.3510     9.2300    23.7250 
