~V
VERS. 2.00: Ver 2.00
~W
STRT.M 55.0000:
STOP.M 211.0000:
STEP.M 0.1250:
NULL. -999.2500:
UWI. F10586:
~C
DEPT.M :
GR.API :
RML.OHMM :
RI. :
RXO.OHMM :
CALI.CM :
DEN.GM/CC :
SP.MV :
~A
# ...
   88.7500    61.1600    22.9000    21.2970    16.7270    26.5850     2.1370    -4.0230 
   88.8750    60.1400    23.1000    21.4650    16.9670    26.9130     2.1410    -4.1020 
   89.0000    62.5350    23.4210    21.7100    17.2440    27.1760     2.1470    -4.1000 
   89.1250    62.8950    23.8490    22.0320    17.5900    27.3470     2.1560    -4.0370 
   89.2500    60.3740    24.2990    22.3690    17.9820    27.5020     2.1650    -3.9690 
   89.3750    59.2610    24.6860    22.6620    18.4590    27.6490     2.1730    -3.8980 
   89.5000    58.9960    24.9440    22.8570    19.0850    27.7780     2.1790    -3.7930 
   89.6250    56.9610    25.0200    22.9060    19.7060    27.8620     2.1840    -3.7330 
   89.7500    56.3100    24.9750    22.8560    19.9900    27.9310     2.1880    -3.6890 
   89.8750    58.6030    24.8660    22.7510    19.8630    27.9990     2.1930    -3.6140 
   90.0000    60.6030    24.7400    22.6290    19.5190    28.0980     2.1940    -3.5870 
   90.1250    58.9400    24.6260    22.5120    19.4030    28.2630     2.1880    -3.5870 
   90.2500    57.1730    24.5270    22.4080    19.5910    28.4430     2.1740    -3.5650 
   90.3750    55.8020    24.4370    22.3120    19.9340    28.5810     2.1570    -3.5540 
   90.5000    54.6880    24.3360    22.2140    20.0270    28.7020     2.1450    -3.5900 
   90.6250    54.8640    24.1820    22.0820    19.8670    28.8070     2.1440    -3.6050 
   90.7500    55.9990    23.9330    21.8780    20.1800    28.8500     2.1500    -3.6170 
   90.8750    57.3130    23.5430    21.5600    20.9870    28.8510     2.1580    -3.6660 
   91.0000    59.4230    22.9920    21.1010    21.4260    28.8430     2.1650    -3.6930 
   91.1250    62.1990    22.2930    20.4990    20.3020    28.8420     2.1670    -3.7210 
   91.2500    63.3440    21.5650    19.8480    18.0740    28.8430     2.1660    -3.7920 
   91.3750    62.2110    20.9220    19.2470    16.3240    28.8450     2.1640    -3.8690 
   91.5000    58.9620    20.4550    18.7840    15.2670    28.8480     2.1620    -3.9120 
   91.6250    54.9330    20.2320    18.5430    14.7820    28.8490     2.1610    -3.9940 
   91.7500    53.7670    20.1710    18.4690    14.4540    28.8470     2.1600    -4.0770 
   91.8750    55.0820    20.1960    18.5030    14.3210    28.8430     2.1570    -4.1180 
   92.0000    56.2190    20.2400    18.5770    14.3730    28.8340     2.1510    -4.1870 
   92.1250    56.3860    20.2660    18.6420    14.5050    28.8190     2.1400    -4.2490 
   92.2500    57.3600    20.2750    18.6850    14.6270    28.7950     2.1260    -4.2700 
   92.3750    59.1420    20.2710    18.7020    14.7000    28.7500     2.1130    -4.3010 
   92.5000    60.5060    20.2270    18.6700    14.6700    28.6700     2.1070    -4.3450 
   92.6250    61.9570    20.0410    18.5040    14.5590    28.5570     2.1110    -4.3580 
   92.7500    63.4310    19.6350    18.1410    14.3540    28.4420     2.1270    -4.3700 
   92.8750    64.4280    18.9720    17.5460    13.8520    28.3080     2.1500    -4.3960 
   93.0000    65.5660    18.1120    16.7670    13.1770    28.1520     2.1750    -4.4200 
   93.1250    69.0600    17.2670    15.9760    12.3780    28.0300     2.1940    -4.4290 
   93.2500    73.2750    16.7060    15.4030    11.5840    27.9580     2.2030    -4.3870 
   93.3750    74.5660    16.6110    15.2150    11.1340    27.9250     2.2000    -4.3220 
   93.5000    71.3590    17.0400    15.4860    11.2250    27.9010     2.1890    -4.2500 
   93.6250    65.9080    17.9340    16.2250    12.0030    27.8750     2.1760    -4.1460 
   93.7500    61.2450    18.9550    17.1690    13.0350    27.8510     2.1680    -4.0540 
   93.8750    58.4820    19.8350    18.0810    13.9010    27.8260     2.1680    -3.9640 
   94.0000    57.5700    20.3690    18.7370    14.4280    27.8050     2.1750    -3.8890 
   94.1250    57.2940    20.4300    18.9440    14.5110    27.7810     2.1820    -3.8980 
   94.2500    57.3240    20.1850    18.8000    14.5490    27.7470     2.1860    -3.9600 
   94.3750    58.4160    19.7980    18.4360    14.3760    27.7070     2.1830    -4.0480 
   94.5000    59.1790    19.4170    18.0010    13.9850    27.6640     2.1780    -4.1580 
   94.6250    60.3920    19.1620    17.6280    13.5990    27.6220     2.1720    -4.3070 
   94.7500    63.4040    19.0700    17.3890    13.2840    27.6010     2.1670    -4.4600 
   94.8750    64.7920    19.1860    17.3360    13.1660    27.5880     2.1650    -4.6160 
   95.0000    60.3420    19.5720    17.5300    13.1650    27.5650     2.1630    -4.7410 
   95.1250    55.0610    20.3560    18.0900    13.2380    27.5180     2.1590    -4.7470 
   95.2500    55.5120    21.4930    18.9920    13.4660    27.4360     2.1520    -4.6980 
   95.3750    58.8050    22.8790    20.1710    14.0400    27.2880     2.1430    -4.6190 
   95.5000    60.1860    24.2860    21.4580    15.0170    27.0580     2.1340    -4.5060 
   95.6250    59.7620    25.3090    22.5250    16.3380    26.8110     2.1260    -4.3270 
   95.7500    60.0840    25.7080    23.1060    17.4960    26.5990     2.1240    -4.1210 
   95.8750    61.4300    25.4080    23.0760    17.7480    26.3970     2.1260    -3.9040 
   96.0000    60.7900    24.5500    22.5000    17.1090    26.2070     2.1340    -3.6590 
   96.1250    58.9590    23.4410    21.6040    16.6650    25.9690     2.1410    -3.4620 
   96.2500    58.6860    22.4500    20.7420    16.5660    25.6180     2.1430    -3.2780 
   96.3750    59.1810    21.7420    20.0890    16.4930    25.2630     2.1370    -3.1000 
   96.5000    58.1040    21.3490    19.7080    16.3130    25.2140     2.1270    -2.9590 
   96.6250    55.1620    21.2450    19.5960    16.0380    25.4330     2.1180    -2.8770 
   96.7500    54.8530    21.2970    19.6350    15.7130    25.6050     2.1160    -2.8150 
   96.8750    57.2770    21.4430    19.7580    15.5200    25.6300     2.1200    -2.7410 
   97.0000    60.2990    21.6460    19.9220    15.5870    25.5920     2.1280    -2.6720 
   97.1250    59.7500    21.8840    20.1000    15.8220    25.5610     2.1380    -2.6370 
   97.2500    55.9990    22.1220    20.2650    16.0890    25.5300     2.1490    -2.6710 
   97.3750    53.9420    22.3160    20.3840    16.4040    25.4940     2.1600    -2.7460 
   97.5000    56.4160    22.4010    20.4050    16.6770    25.4710     2.1660    -2.8210 
   97.6250    60.7350    22.2800    20.2490    16.7920    25.4650     2.1610    -2.9250 
   97.7500    62.9180    21.9980    19.9370    16.7540    25.4640     2.1430    -3.0710 
   97.8750    63.5430    21.7310    19.5810    16.6590    25.4610     2.1200    -3.3070 
   98.0000    63.1750    21.9040    19.4700    16.5740    25.4460     2.1110    -3.6350 
   98.1250    61.7170    23.5310    20.3740    16.9910    25.3820     2.1450    -4.0580 
   98.2500    59.5150    27.2760    22.9430    19.2740    25.2350     2.2270    -4.5130 
   98.3750    58.3880    33.4650    27.6820    26.6900    24.9200     2.3460    -5.0180 
   98.5000    59.2430    41.5640    34.4860    42.0350    24.3700     2.4720    -5.6210 
   98.6250    61.2600    49.6850    42.2140    64.0170    23.7000     2.5630    -6.2580 
   98.7500    64.2590    55.2660    48.5340    87.0450    23.3310     2.6080    -6.9090 
   98.8750    65.7360    56.6910    51.6220    99.3420    23.2170     2.6170    -7.5820 
   99.0000    64.3710    54.1070    50.9570    89.5930    23.1810     2.6110    -8.2280 
   99.1250    65.1500    49.4240    47.6220    75.5390    23.1630     2.6050    -8.8080 
   99.2500    70.8710    44.9140    43.7910    67.7850    23.1760     2.5980    -9.3360 
   99.3750    76.5330    40.7380    39.8800    66.2800    23.2290     2.5840    -9.7820 
   99.5000    75.3780    36.2350    35.5090    70.1040    23.3440     2.5540   -10.1440 
   99.6250    69.4250    30.8070    30.2350    63.4610    23.5510     2.5060   -10.4480 
   99.7500    68.4300    24.9610    24.5760    53.4210    23.7650     2.4550   -10.6540 
   99.8750    74.2110    19.4930    19.2850    39.2730    23.8530     2.4130   -10.7620 
