~V
VERS. 2.00: Ver 2.00
~W
STRT.M 50.0000:
STOP.M 215.0000:
STEP.M 0.1250:
NULL. -999.2500:
UWI. F10588:
~C
DEPT.M :
DEN.GM/CC :
GR.API :
RML.OHMM :
RI. :
RXO.OHMM :
CALI.CM :
SP.MV :
~A
# ...
  117.5000     2.4910    52.9590    46.7260    40.3700    43.4220    23.9580   -13.0870 
  117.6250     2.4800    54.6690    46.5410    39.9880    40.1140    23.9620   -13.0980 
  117.7500     2.4900    54.6260    46.8210    39.8370    42.5870    23.9810   -13.1690 
  117.8750     2.5060    51.4050    47.7800    40.2240    49.7670    24.0260   -13.2450 
  118.0000     2.5110    49.1880    49.2230    41.1110    51.6040    24.0780   -13.3790 
  118.1250     2.4910    51.3110    50.7010    42.2140    53.1640    24.1000   -13.5730 
  118.2500     2.4540    52.9470    51.8520    43.1720    52.2590    24.1060   -13.7850 
  118.3750     2.4080    52.6480    52.6020    43.8610    50.8670    24.1080   -14.0380 
  118.5000     2.3680    52.0780    53.0590    44.3250    50.5050    24.0980   -14.2940 
  118.6250     2.3550    51.6200    53.4000    44.6880    47.2280    24.0630   -14.5530 
  118.7500     2.3700    49.5910    53.8340    45.1060    45.4570    24.0220   -14.7580 
  118.8750     2.4080    47.7170    54.5220    45.6950    48.1870    24.0230   -14.9440 
  119.0000     2.4550    47.5850    55.6230    46.5760    54.1650    24.0420   -15.0810 
  119.1250     2.4970    46.0600    57.3590    47.9600    54.0690    24.0580   -15.1460 
  119.2500     2.5280    44.1130    59.5460    49.7730    53.9660    24.0610   -15.1600 
  119.3750     2.5500    44.4440    61.8080    51.7640    53.7520    24.0640   -15.1140 
  119.5000     2.5610    47.1690    63.5910    53.4990    56.8320    24.0650   -15.0430 
  119.6250     2.5610    49.1080    64.0960    54.3150    64.8090    24.0660   -14.9700 
  119.7500     2.5530    49.2860    63.1060    53.9410    72.6470    24.0680   -14.8870 
  119.8750     2.5440    49.5890    60.6950    52.3330    65.9090    24.0620   -14.8230 
  120.0000     2.5340    51.2440    57.4180    49.8530    56.3720    24.0270   -14.7740 
  120.1250     2.5210    52.1750    54.1940    47.1860    49.4530    23.9810   -14.7530 
  120.2500     2.5040    50.5170    51.7090    44.9610    44.7300    23.9610   -14.7800 
  120.3750     2.4830    48.1080    50.2130    43.4480    39.8270    23.9570   -14.8300 
  120.5000     2.4600    48.6780    49.6290    42.6690    38.2060    23.9490   -14.8950 
  120.6250     2.4400    50.8380    49.6770    42.4810    41.0050    23.9260   -14.9780 
  120.7500     2.4260    51.1130    49.9210    42.5280    42.6070    23.8940   -15.1270 
  120.8750     2.4250    50.4140    50.2950    42.7340    39.9630    23.8790   -15.2810 
  121.0000     2.4430    51.8640    50.8750    43.1410    38.5180    23.8680   -15.5110 
  121.1250     2.4770    54.4430    51.7290    43.8000    39.5130    23.8490   -15.7690 
  121.2500     2.5080    53.8630    52.6880    44.5780    41.6950    23.8330   -16.0170 
  121.3750     2.5200    50.9920    53.4770    45.2780    45.8010    23.8290   -16.2800 
  121.5000     2.5090    49.3530    53.7260    45.6130    49.8940    23.8290   -16.5420 
  121.6250     2.4810    51.0200    53.1060    45.2630    50.6460    23.8280   -16.7780 
  121.7500     2.4570    52.2910    52.1040    44.5260    46.1470    23.8290   -16.9660 
  121.8750     2.4510    50.7500    51.3710    43.8940    43.7820    23.8390   -17.1170 
  122.0000     2.4690    49.4370    51.4260    43.8230    43.6790    23.8630   -17.1940 
  122.1250     2.5100    50.7830    52.5020    44.6090    45.4900    23.8690   -17.2430 
  122.2500     2.5480    52.8170    53.9190    45.8170    50.5810    23.8580   -17.2760 
  122.3750     2.5620    53.0310    54.7960    46.7770    59.6860    23.8420   -17.2910 
  122.5000     2.5460    51.3620    54.3350    46.7800    63.6710    23.8300   -17.3090 
  122.6250     2.5150    49.8160    52.0610    45.2950    54.2360    23.8280   -17.3310 
  122.7500     2.4930    49.1060    48.7450    42.8270    44.9330    23.8350   -17.3670 
  122.8750     2.4870    49.2020    45.1220    39.9260    38.9100    23.8410   -17.4310 
  123.0000     2.4910    49.4430    41.8820    37.1770    36.0180    23.8320   -17.4920 
  123.1250     2.4950    49.9560    39.5130    35.0640    37.0740    23.8250   -17.5720 
  123.2500     2.4890    50.3660    37.8110    33.5210    36.3820    23.8440   -17.6530 
  123.3750     2.4710    50.2080    36.5980    32.4350    34.2210    23.8670   -17.7430 
  123.5000     2.4470    49.8830    35.7640    31.7220    33.4420    23.8740   -17.8080 
  123.6250     2.4290    50.5230    35.2740    31.3540    34.3620    23.8700   -17.8870 
  123.7500     2.4260    51.2010    35.0100    31.1970    32.8250    23.8700   -17.9480 
  123.8750     2.4360    52.2160    34.8940    31.1700    31.5990    23.8630   -18.0140 
  124.0000     2.4530    53.8850    34.7810    31.1480    33.9680    23.8300   -18.0820 
  124.1250     2.4610    54.3500    34.4880    30.9500    35.7840    23.7690   -18.0900 
  124.2500     2.4590    52.9690    34.0730    30.6050    33.4800    23.7450   -18.1000 
  124.3750     2.4550    51.4860    33.6730    30.2340    30.3680    23.7340   -18.0880 
  124.5000     2.4530    52.9260    33.3560    29.9160    29.0260    23.7080   -18.0690 
  124.6250     2.4510    55.8790    33.1240    29.6670    28.7770    23.7050   -18.0020 
  124.7500     2.4440    56.3180    32.9430    29.4690    29.7840    23.7180   -17.9160 
  124.8750     2.4390    53.1840    32.8180    29.3380    31.8690    23.7270   -17.7990 
  125.0000     2.4420    49.8670    32.8220    29.3250    32.6080    23.7310   -17.6410 
  125.1250     2.4620    50.9430    33.1930    29.6010    30.8760    23.7230   -17.5020 
  125.2500     2.4930    52.5060    34.0110    30.2310    29.6800    23.6920   -17.3360 
  125.3750     2.5250    52.5710    35.1820    31.1680    31.5380    23.6330   -17.1600 
  125.5000     2.5510    51.2620    36.4210    32.2100    35.3650    23.5880   -16.9690 
  125.6250     2.5730    49.9700    37.2300    32.9840    37.4130    23.5750   -16.8060 
  125.7500     2.5940    48.8580    37.2850    33.1820    37.0650    23.5730   -16.6420 
  125.8750     2.6010    48.4660    36.4520    32.6180    36.2620    23.5730   -16.5020 
  126.0000     2.5820    49.1710    34.9130    31.3580    35.4340    23.5730   -16.4070 
  126.1250     2.5310    50.3450    33.1700    29.7620    32.7900    23.5730   -16.3320 
  126.2500     2.4740    51.4510    31.8130    28.3740    30.4710    23.5730   -16.3150 
  126.3750     2.4360    52.1660    31.1450    27.4970    26.7800    23.5730   -16.3300 
  126.5000     2.4340    51.8720    31.2570    27.2550    25.3010    23.5650   -16.3940 
  126.6250     2.4730    51.0330    32.1300    27.6970    27.3060    23.5330   -16.4960 
  126.7500     2.5210    49.9110    33.4160    28.5720    31.1280    23.4810   -16.6620 
  126.8750     2.5570    48.1620    34.9600    29.7510    33.1330    23.4490   -16.8470 
  127.0000     2.5770    45.9470    36.7470    31.1930    32.5330    23.4420   -17.0890 
  127.1250     2.5860    44.0710    39.0070    33.0300    32.2790    23.4450   -17.3600 
  127.2500     2.5940    43.6480    41.8570    35.3360    34.2640    23.4450   -17.6440 
  127.3750     2.6030    45.1430    45.2680    38.1420    39.1740    23.4450   -17.9370 
  127.5000     2.6120    47.6890    48.8050    41.1920    45.3110    23.4420   -18.2360 
  127.6250     2.6170    50.1720    51.3040    43.6200    49.4820    23.4390   -18.5070 
  127.7500     2.6200    51.1980    51.8110    44.5370    50.0030    23.4100   -18.7420 
  127.8750     2.6180    50.5150    49.8790    43.4090    49.2570    23.3000   -18.9350 
  128.0000     2.6080    49.1700    45.8400    40.3440    45.1780    23.1670   -19.0470 
  128.1250     2.5870    49.2670    40.6710    36.0400    38.1430    23.1260   -19.0600 
  128.2500     2.5610    50.2580    35.8170    31.8090    33.1550    23.2420   -18.9730 
  128.3750     2.5360    51.3750    32.0630    28.3920    31.0260    23.3200   -18.7620 
  128.5000     2.5200    52.9140    29.7660    26.1360    25.8900    23.3290   -18.4420 
  128.6250     2.5170    54.6340    29.1830    25.2830    24.2100    23.3340   -18.0310 
