~V
VERS. 2.00: Ver 2.00
~W
STRT.M 42.0000:
STOP.M 195.0000:
STEP.M 0.1250:
NULL. -999.2500:
UWI. F10590:
~C
DEPT.M :
GR.API :
RML.OHMM :
RI. :
RXO.OHMM :
CALI.CM :
DEN.GM/CC :
SP.MV :
~A
# ...
  165.7500   108.9100     9.9380     9.6080     8.3750    22.4610     2.4120   -23.3130 
  165.8750   112.5580     9.7650     9.3550     8.3110    22.4380     2.4100   -23.4990 
  166.0000   113.6900     9.6150     9.0740     8.2530    22.4350     2.4050   -23.6930 
  166.1250   114.0850     9.5670     8.8450     8.2350    22.4360     2.4000   -23.8680 
  166.2500   114.7730     9.6880     8.7540     8.1080    22.4370     2.3970   -24.0250 
  166.3750   111.7230    10.0050     8.8990     8.1200    22.4380     2.3950   -24.2080 
  166.5000   103.3200    10.6010     9.3970     8.5140    22.4170     2.3960   -24.4350 
  166.6250    93.9010    11.6920    10.4960     9.8160    22.3530     2.3970   -24.7000 
  166.7500    88.1980    13.8110    12.3150    11.5770    22.2640     2.3930   -24.9190 
  166.8750    86.0310    17.0390    15.0490    13.0040    22.2200     2.3810   -25.1420 
  167.0000    84.1810    21.3640    18.8460    15.1180    22.2100     2.3630   -25.4090 
  167.1250    79.0860    26.6980    23.8080    20.2760    22.2080     2.3440   -25.6520 
  167.2500    73.1710    32.3250    29.3050    24.3380    22.1930     2.3340   -25.8560 
  167.3750    68.8200    37.5130    34.6320    26.0980    22.1640     2.3340   -26.0280 
  167.5000    67.0760    41.6320    39.0840    26.7210    22.1450     2.3420   -26.1870 
  167.6250    68.3070    44.2920    42.0990    27.6440    22.1550     2.3510   -26.3300 
  167.7500    70.5620    46.1270    44.1300    28.0470    22.1920     2.3530   -26.4630 
  167.8750    72.1530    47.7660    45.7320    26.8900    22.2350     2.3490   -26.5330 
  168.0000    72.3350    49.7220    47.4450    25.5240    22.2600     2.3370   -26.5140 
  168.1250    70.4780    52.2270    49.6210    26.0840    22.2670     2.3190   -26.5190 
  168.2500    67.2850    54.8520    52.0190    27.3000    22.2830     2.2990   -26.5520 
  168.3750    63.8480    56.9330    54.1220    29.6260    22.3300     2.2820   -26.5620 
  168.5000    61.8270    57.7040    55.2650    33.6080    22.3990     2.2700   -26.5230 
  168.6250    63.3740    56.3130    54.6160    34.1390    22.4300     2.2660   -26.4340 
  168.7500    66.8440    53.2760    52.4310    31.7110    22.4170     2.2690   -26.3350 
  168.8750    70.0670    49.4440    49.3140    27.3140    22.3470     2.2770   -26.2690 
  169.0000    71.6340    45.8660    46.1580    24.4760    22.2210     2.2880   -26.2570 
  169.1250    73.2190    43.6440    44.0090    22.9680    22.1680     2.2990   -26.2170 
  169.2500    74.9780    43.0250    43.2820    21.3710    22.1900     2.3060   -26.1460 
  169.3750    74.5210    44.0290    44.1470    21.6570    22.3010     2.3080   -26.0890 
  169.5000    71.6750    46.7340    46.4580    24.7330    22.4760     2.3030   -26.0530 
  169.6250    69.6080    50.9300    49.7650    30.8160    22.6820     2.2900   -25.9940 
  169.7500    71.5360    55.2480    53.0260    34.7270    22.8190     2.2730   -25.9230 
  169.8750    73.5870    57.7980    55.4840    35.5140    22.8770     2.2560   -25.8480 
  170.0000    71.8100    58.4950    56.7220    34.5100    22.9060     2.2430   -25.7630 
  170.1250    67.2850    57.9250    56.7060    33.8340    22.9330     2.2370   -25.6770 
  170.2500    65.4380    57.0360    56.1580    34.3110    22.9440     2.2360   -25.5820 
  170.3750    67.4160    56.2000    55.4440    36.0680    22.9470     2.2370   -25.4500 
  170.5000    70.3850    55.2620    54.5150    36.5670    22.9470     2.2380   -25.3270 
  170.6250    71.8300    53.4720    52.7950    35.1510    22.9470     2.2380   -25.2880 
  170.7500    71.7710    50.5750    50.0840    33.0480    22.9470     2.2410   -25.2430 
  170.8750    72.9340    46.9650    46.6910    31.4080    22.9470     2.2470   -25.1660 
  171.0000    77.4660    43.6440    43.4590    30.0570    22.9470     2.2590   -25.0550 
  171.1250    81.6190    42.1770    41.8040    26.0900    22.9300     2.2690   -24.9590 
  171.2500    80.3840    43.1210    42.3760    25.1630    22.8920     2.2710   -24.8860 
  171.3750    73.5730    46.4300    45.3100    33.1000    22.8540     2.2620   -24.8320 
  171.5000    65.0270    51.2530    49.9780    45.6100    22.8380     2.2480   -24.7350 
  171.6250    61.5550    55.7400    54.8130    52.6480    22.8380     2.2370   -24.5530 
  171.7500    63.5180    58.1670    58.0260    49.9810    22.8370     2.2340   -24.4070 
  171.8750    67.0090    58.3090    58.9270    41.9420    22.8180     2.2390   -24.3070 
  172.0000    66.8280    57.3850    58.0940    32.3810    22.7630     2.2460   -24.2130 
  172.1250    64.2940    57.3400    57.0080    27.2020    22.6760     2.2470   -24.1030 
  172.2500    64.5350    57.5170    56.6950    29.7220    22.6840     2.2430   -24.0010 
  172.3750    67.2320    57.6470    56.9280    35.8600    22.7620     2.2380   -23.9460 
  172.5000    70.2180    57.6350    56.8420    43.0580    22.8210     2.2360   -23.9360 
  172.6250    70.7850    57.3470    55.5730    46.0100    22.8340     2.2360   -23.9700 
  172.7500    70.0530    56.7350    53.6650    41.8900    22.8180     2.2380   -23.9770 
  172.8750    69.1940    55.9990    52.2860    34.8050    22.7890     2.2400   -23.9560 
  173.0000    68.9070    55.6610    52.6750    31.5850    22.7590     2.2450   -23.9760 
  173.1250    67.3710    57.2350    55.8150    35.2710    22.7330     2.2560   -23.9980 
  173.2500    63.8170    61.2040    60.6560    46.7170    22.7080     2.2720   -23.9770 
  173.3750    61.4460    66.1860    65.7490    56.6140    22.6780     2.2910   -23.9150 
  173.5000    61.9750    70.0570    69.6340    55.8610    22.6580     2.3080   -23.8570 
  173.6250    63.3180    71.9630    71.7350    47.1170    22.6750     2.3200   -23.8180 
  173.7500    62.5970    74.0950    74.0030    38.9910    22.7330     2.3290   -23.7970 
  173.8750    60.5130    79.1650    79.1060    36.4250    22.7960     2.3370   -23.7810 
  174.0000    58.5880    89.5170    89.4870    43.6910    22.8280     2.3390   -23.7190 
  174.1250    56.4830   106.6990   106.6980    64.7610    22.8370     2.3240   -23.6680 
  174.2500    54.6320   126.1750   126.3820    86.5020    22.8560     2.2940   -23.6480 
  174.3750    53.5000   140.5780   141.9750    93.9950    22.8720     2.2600   -23.6500 
  174.5000    53.7880   142.1650   146.4640    91.7590    22.8790     2.2370   -23.6130 
  174.6250    57.0800   126.9080   134.7550    86.0890    22.8540     2.2440   -23.5050 
  174.7500    63.7560   103.5230   113.2230    72.3250    22.7780     2.2740   -23.3550 
  174.8750    72.5800    78.6140    87.8470    56.3180    22.6530     2.3170   -23.1770 
  175.0000    79.8920    56.1680    63.4240    43.5880    22.5200     2.3610   -23.0050 
  175.1250    83.9470    38.6540    43.6480    37.5640    22.4110     2.3930   -22.7560 
  175.2500    85.9540    25.7040    28.8970    30.1600    22.4320     2.4090   -22.4390 
  175.3750    84.4870    16.8790    18.8290    19.9680    22.5620     2.4060   -22.0590 
  175.5000    79.3280    11.3660    12.4950    10.4160    22.6770     2.3860   -21.6900 
  175.6250    72.9660     8.4970     9.0860     7.2980    22.7570     2.3580   -21.3420 
  175.7500    67.0340     7.0160     7.1930     6.1340    22.8010     2.3360   -21.0020 
  175.8750    60.3920     6.3900     6.2440     5.8330    22.8160     2.3270   -20.7220 
  176.0000    54.5620     6.2650     5.8850     5.8040    22.8170     2.3310   -20.4730 
  176.1250    52.8560     6.4290     5.9240     5.9910    22.8170     2.3460   -20.2900 
  176.2500    52.4480     6.6780     6.1450     5.9570    22.8170     2.3630   -20.1720 
  176.3750    49.9170     6.9330     6.4510     6.0550    22.8190     2.3810   -20.1040 
  176.5000    46.3330     7.1500     6.7680     6.2290    22.8280     2.3960   -20.0610 
  176.6250    46.0930     7.2910     7.0240     6.4750    22.8490     2.4100   -20.0830 
  176.7500    49.6180     7.3550     7.1800     6.7340    22.8660     2.4210   -20.1260 
  176.8750    53.7290     7.3480     7.2110     6.8220    22.8760     2.4310   -20.1150 
