~V
VERS. 2.00: Ver 2.00
~W
STRT.M 47.0000:
STOP.M 254.0000:
STEP.M 0.1250:
NULL. -999.2500:
UWI. F10599:
~C
DEPT.M :
DEN.GM/CC :
SP.MV :
GR.API :
RML.OHMM :
RI. :
RXO.OHMM :
CALI.CM :
~A
# ...
  114.5000     2.1370    -7.6810    73.8760     8.3320     7.1350     9.0200    24.2580 
  114.6250     2.1470    -7.4050    74.6700     8.5540     7.3510     9.4250    24.2320 
  114.7500     2.1740    -7.0190    80.3320     8.5790     7.4010    10.8960    24.2360 
  114.8750     2.2320    -6.5340    86.4310     8.2260     7.1330    13.5280    24.2600 
  115.0000     2.3070    -5.9940    90.5980     7.5750     6.5770    13.1460    24.2880 
  115.1250     2.3570    -5.4580    98.0040     6.8020     5.8560     8.7010    24.3000 
  115.2500     2.3550    -4.9560   109.4450     6.1240     5.1660     5.9660    24.3010 
  115.3750     2.3250    -4.5320   116.5910     5.7620     4.7240     5.4780    24.3000 
  115.5000     2.3070    -4.2180   116.0580     5.7140     4.5540     6.0330    24.2940 
  115.6250     2.3010    -4.0130   112.1150     5.9310     4.6110     6.7270    24.2810 
  115.7500     2.2940    -3.8820   107.6140     6.2950     4.8210     7.0480    24.2700 
  115.8750     2.2780    -3.8130   102.7690     6.6360     5.1110     6.9590    24.3170 
  116.0000     2.2680    -3.7810    97.5520     6.8410     5.4070     6.8400    24.4050 
  116.1250     2.2750    -3.7490    93.6810     6.8990     5.6650     6.8680    24.4800 
  116.2500     2.3000    -3.7110    91.4780     6.8600     5.8530     7.8300    24.5120 
  116.3750     2.3370    -3.6500    90.3740     6.7630     5.9120     9.0250    24.4940 
  116.5000     2.3630    -3.5520    90.7630     6.6190     5.8380     8.8810    24.4220 
  116.6250     2.3590    -3.4410    94.2130     6.4360     5.6590     7.3210    24.3560 
  116.7500     2.3320    -3.3450   101.0270     6.2430     5.4220     6.2030    24.4140 
  116.8750     2.3090    -3.2730   108.8140     6.0990     5.1850     6.0180    24.6190 
  117.0000     2.3040    -3.2290   113.9090     6.0230     5.0090     6.1300    24.7170 
  117.1250     2.3050    -3.2030   112.8770     6.0070     4.9420     6.3550    24.7380 
  117.2500     2.3060    -3.1740   106.4120     6.0280     4.9890     6.6210    24.7350 
  117.3750     2.3080    -3.1450    99.1350     6.0570     5.1100     7.0230    24.7350 
  117.5000     2.3130    -3.1220    95.5480     6.0910     5.2340     7.1330    24.7360 
  117.6250     2.3140    -3.0940    96.1560     6.1550     5.3420     6.8830    24.7380 
  117.7500     2.3040    -3.0580    98.3910     6.2740     5.4400     6.9070    24.7360 
  117.8750     2.2830    -3.0140   101.9700     6.4780     5.5470     7.2880    24.7370 
  118.0000     2.2580    -2.9720   104.9890     6.7390     5.6550     7.6300    24.7390 
  118.1250     2.2350    -2.9310   106.0720     7.0020     5.7320     7.8480    24.7400 
  118.2500     2.2140    -2.8810   104.1090     7.1760     5.7500     7.7510    24.7370 
  118.3750     2.1950    -2.8120   100.9140     7.1580     5.7030     7.1680    24.7350 
  118.5000     2.1820    -2.7440   101.5880     7.0010     5.6370     6.5270    24.7340 
  118.6250     2.1750    -2.6700   104.5360     6.8050     5.5850     6.3090    24.7340 
  118.7500     2.1740    -2.6060   105.4140     6.6600     5.5620     6.5300    24.7340 
  118.8750     2.1800    -2.5590   104.0590     6.6170     5.5900     6.8820    24.7340 
  119.0000     2.1920    -2.5090   104.2650     6.6320     5.6650     6.9270    24.7380 
  119.1250     2.2070    -2.4670   105.8990     6.6630     5.7610     6.7470    24.7590 
  119.2500     2.2220    -2.4540   106.5020     6.6720     5.8180     6.7030    24.8100 
  119.3750     2.2340    -2.4870   106.7020     6.6170     5.7480     6.6670    24.8610 
  119.5000     2.2410    -2.5330   106.9630     6.4930     5.5760     6.6680    24.8810 
  119.6250     2.2500    -2.5830   105.1570     6.3270     5.3970     6.8230    24.8850 
  119.7500     2.2660    -2.6250   102.5520     6.1960     5.3250     6.9870    24.8790 
  119.8750     2.2910    -2.6630   103.5330     6.2300     5.4410     6.9430    24.8610 
  120.0000     2.3160    -2.7010   105.3920     6.4420     5.6530     7.4460    24.8350 
  120.1250     2.3320    -2.7390   104.4290     6.7570     5.8520     8.3310    24.8220 
  120.2500     2.3290    -2.7770   102.4270     7.0310     5.9550     8.5790    24.8190 
  120.3750     2.3040    -2.7740   102.4570     7.1350     5.9460     7.7970    24.8190 
  120.5000     2.2770    -2.7620   104.7050     7.1320     5.9250     7.4670    24.8210 
  120.6250     2.2630    -2.7540   108.3660     7.1230     5.9730     7.4640    24.8230 
  120.7500     2.2630    -2.7470   113.2340     7.1880     6.1120     7.9340    24.8220 
  120.8750     2.2700    -2.7510   114.9760     7.3500     6.2970     8.6190    24.7990 
  121.0000     2.2750    -2.7740   111.7300     7.5090     6.4390     8.7920    24.7160 
  121.1250     2.2670    -2.7970   105.4870     7.5600     6.4790     8.1790    24.5240 
  121.2500     2.2450    -2.8260   100.4170     7.4520     6.3980     7.7700    24.2800 
  121.3750     2.2230    -2.8900    99.4150     7.2110     6.2220     7.3420    24.1210 
  121.5000     2.2100    -2.9630   100.4590     6.9720     6.0540     7.0490    24.0480 
  121.6250     2.2040    -3.0410   102.7140     6.8310     5.9720     6.8570    24.0090 
  121.7500     2.1990    -3.1310   104.4530     6.8390     6.0180     7.1860    23.9550 
  121.8750     2.1960    -3.2120   102.4170     7.0090     6.2120     7.9290    23.8540 
  122.0000     2.1910    -3.2810    97.8520     7.2500     6.4670     8.6140    23.8080 
  122.1250     2.1790    -3.3490    96.4280     7.4960     6.6930     8.6900    23.8930 
  122.2500     2.1620    -3.4060   100.0550     7.6840     6.8340     7.6430    24.0090 
  122.3750     2.1520    -3.4680   101.7240     7.7040     6.8540     7.7890    23.9920 
  122.5000     2.1540    -3.5370    99.8490     7.5290     6.7560     8.0330    23.8250 
  122.6250     2.1650    -3.5960    99.2940     7.1720     6.5210     7.9750    23.5940 
  122.7500     2.1780    -3.6440   103.7590     6.7290     6.1680     7.6070    23.5280 
  122.8750     2.1900    -3.7000   107.3430     6.4170     5.8170     7.1690    23.8190 
  123.0000     2.2020    -3.7780   105.2140     6.4250     5.6680     7.3440    24.3110 
  123.1250     2.2160    -3.8830    99.7090     6.9060     5.9390     8.6180    24.5740 
  123.2500     2.2420    -4.0100    93.4620     8.0380     6.8800    11.2960    24.4930 
  123.3750     2.3000    -4.1380    88.7330    10.2990     8.9930    16.5270    24.5620 
  123.5000     2.3850    -4.2690    85.3850    15.0040    12.4320    27.3700    24.7740 
  123.6250     2.4710    -4.4140    82.0640    21.4340    17.1240    47.9680    24.9120 
  123.7500     2.5230    -4.5720    78.4650    26.6660    22.0510    69.1530    24.9200 
  123.8750     2.5210    -4.7130    75.5370    28.4760    24.5170    67.5640    24.8380 
  124.0000     2.4850    -4.8400    75.0440    26.8960    23.8100    48.4370    24.6950 
  124.1250     2.4220    -4.9580    75.9350    23.8280    21.3320    30.2370    24.4850 
  124.2500     2.3340    -5.0720    77.5680    21.2580    18.8720    20.8730    24.2420 
  124.3750     2.2470    -5.1790    77.8400    20.1640    17.5670    19.5200    24.1200 
  124.5000     2.1870    -5.2830    75.2170    20.1430    17.3990    20.9520    24.0820 
  124.6250     2.1610    -5.3860    71.7530    20.9110    18.2030    22.7070    24.0770 
  124.7500     2.1560    -5.4810    70.4790    22.2430    19.6650    24.0490    24.0750 
  124.8750     2.1570    -5.5890    72.4710    23.9290    21.2720    24.3550    24.0750 
  125.0000     2.1570    -5.7040    75.3360    25.5430    22.5080    24.2610    24.0750 
  125.1250     2.1580    -5.8230    75.7580    26.5960    23.1520    24.6190    24.0750 
  125.2500     2.1590    -5.9630    72.5230    26.6130    23.1630    24.9790    24.0750 
  125.3750     2.1600    -6.1160    69.9980    25.4300    22.5400    23.6080    24.0750 
  125.5000     2.1560    -6.2710    72.2850    23.8990    21.5950    21.6910    24.0750 
  125.6250     2.1440    -6.4360    75.9570    22.7490    20.6040    19.8170    24.0750 
