~V
VERS. 2.00: Ver 2.00
~W
STRT.M 55.0000:
STOP.M 318.0000:
STEP.M 0.1250:
NULL. -999.2500:
UWI. F10558:
~C
DEPT.M :
DEN.GM/CC :
GR.API :
RML.OHMM :
RI. :
RXO.OHMM :
CALI.CM :
SP.MV :
~A
# ...
  167.5000     2.4220    94.0070    10.1130     7.7890    10.7990    24.0350   -16.1140 
  167.6250     2.3680    85.3680    12.8050     9.6940    14.6480    24.0750   -16.7550 
  167.7500     2.2710    76.8610    14.6100    11.1850    14.8850    24.2600   -17.3830 
  167.8750     2.1650    72.8220    14.6180    11.5670    12.2660    24.6030   -17.9390 
  168.0000     2.0830    73.9750    13.0120    10.8450    10.7400    24.8460   -18.4140 
  168.1250     2.0370    75.4010    11.0040     9.7530    10.5170    24.9190   -18.7760 
  168.2500     2.0120    73.1120     9.6310     8.9760    10.3980    24.9200   -19.0310 
  168.3750     2.0020    67.4000     9.0550     8.6210    10.2840    24.9180   -19.1940 
  168.5000     2.0090    63.9800     9.0590     8.5640    10.0900    24.8800   -19.2860 
  168.6250     2.0290    66.3200     9.3770     8.6360     9.9260    24.6500   -19.3410 
  168.7500     2.0500    70.2950     9.7610     8.7240     9.8510    24.2030   -19.3780 
  168.8750     2.0660    72.3570    10.1250     8.8160     9.8360    23.7700   -19.4230 
  169.0000     2.0770    71.9030    10.3930     8.8840     9.8010    23.5550   -19.4690 
  169.1250     2.0850    72.1860    10.3940     8.8480     9.6850    23.5240   -19.5220 
  169.2500     2.0920    74.4070    10.0870     8.6680     9.2940    23.5210   -19.5840 
  169.3750     2.0960    75.7160     9.5580     8.3540     8.7000    23.5300   -19.6510 
  169.5000     2.1020    75.1680     9.0300     7.9800     8.2740    23.5770   -19.7060 
  169.6250     2.1080    74.5450     8.7680     7.6660     8.2500    23.6880   -19.7230 
  169.7500     2.1080    76.3590     8.7550     7.4800     8.5660    23.8150   -19.7090 
  169.8750     2.1040    77.9400     8.8660     7.4280     8.8140    23.9530   -19.6580 
  170.0000     2.1080    77.8420     8.9780     7.4790     8.6060    24.1350   -19.5890 
  170.1250     2.1230    76.9470     9.0160     7.5880     8.2530    24.3550   -19.4820 
  170.2500     2.1350    75.4860     8.9980     7.7140     8.4950    24.6490   -19.3330 
  170.3750     2.1350    73.7090     8.9090     7.8320     9.5000    24.8790   -19.1280 
  170.5000     2.1270    74.1590     8.6840     7.9040    10.1500    24.9560   -18.8740 
  170.6250     2.1160    78.5210     8.2850     7.8610    10.0630    24.9220   -18.5490 
  170.7500     2.1070    80.5240     7.8320     7.6940     9.8090    24.8680   -18.1600 
  170.8750     2.1050    77.8580     7.4470     7.4200     9.6740    24.8290   -17.7020 
  171.0000     2.1170    75.0990     7.1790     7.0810     9.5530    24.7600   -17.1710 
  171.1250     2.1530    78.0830     6.9490     6.7150     8.9600    24.5990   -16.6060 
  171.2500     2.2090    85.0140     6.6350     6.3530     7.9700    24.3640   -16.0600 
  171.3750     2.2810    91.0050     6.2470     6.0260     7.0070    24.0770   -15.5590 
  171.5000     2.3570    94.6800     5.9470     5.7890     6.9260    23.7960   -15.1250 
  171.6250     2.4060    97.0920     5.9830     5.7150     7.6780    23.6840   -14.7790 
  171.7500     2.4040    98.7660     6.3040     5.7460     8.7150    23.6510   -14.5150 
  171.8750     2.3550    98.8070     6.7040     5.7840     8.3730    23.6320   -14.3240 
  172.0000     2.2890    95.9370     6.9370     5.7480     6.9740    23.6000   -14.1850 
  172.1250     2.2480    93.7770     6.8600     5.6250     6.3670    23.5850   -14.0500 
  172.2500     2.2390    94.9950     6.6630     5.5020     6.4690    23.5760   -13.8970 
  172.3750     2.2560   100.4440     6.5050     5.4200     6.5220    23.5430   -13.7220 
  172.5000     2.2880   107.3090     6.4340     5.3590     6.1060    23.4560   -13.5180 
  172.6250     2.3200   110.3880     6.3940     5.2590     5.5020    23.3470   -13.3020 
  172.7500     2.3400   110.4490     6.3360     5.1180     5.0490    23.2990   -13.0790 
  172.8750     2.3450   109.2690     6.2770     4.9990     4.9100    23.2860   -12.8690 
  173.0000     2.3370   110.1350     6.2400     4.9740     5.0450    23.2850   -12.7000 
  173.1250     2.3140   112.7460     6.2240     5.0880     5.3180    23.2880   -12.5930 
  173.2500     2.2860   113.2670     6.2250     5.2700     5.6210    23.2850   -12.5410 
  173.3750     2.2630   111.3630     6.2740     5.4490     5.8210    23.2680   -12.5390 
  173.5000     2.2540   110.0060     6.4020     5.5620     5.8370    23.2360   -12.5650 
  173.6250     2.2590   113.1660     6.5620     5.5660     5.7380    23.2220   -12.6150 
  173.7500     2.2710   116.3890     6.6150     5.4930     5.7840    23.2170   -12.6930 
  173.8750     2.2880   115.6140     6.4650     5.3830     5.7900    23.2170   -12.7750 
  174.0000     2.3100   113.3870     6.1130     5.2670     5.6440    23.2080   -12.8630 
  174.1250     2.3290   115.5940     5.6820     5.1910     5.6120    23.1840   -12.9820 
  174.2500     2.3390   119.5890     5.3650     5.1920     5.6310    23.1580   -13.1280 
  174.3750     2.3440   120.4280     5.3120     5.2990     5.7490    23.1570   -13.2790 
  174.5000     2.3470   117.9080     5.5920     5.5190     5.9180    23.1850   -13.4480 
  174.6250     2.3400   118.0130     6.1830     5.8560     6.2780    23.2350   -13.6330 
  174.7500     2.3210   119.5230     6.8870     6.2590     6.8970    23.2960   -13.8020 
  174.8750     2.2930   117.1090     7.5430     6.6810     7.7380    23.3420   -13.9710 
  175.0000     2.2690   110.4660     8.0360     7.0620     8.7650    23.3720   -14.1070 
  175.1250     2.2620   103.6340     8.3270     7.3250     9.3900    23.4050   -14.1900 
  175.2500     2.2660    99.8060     8.5500     7.4920     9.2180    23.4280   -14.2010 
  175.3750     2.2730    97.9610     8.8310     7.6400     9.4310    23.4330   -14.1700 
  175.5000     2.2760    97.0370     9.2590     7.8700     9.6830    23.4250   -14.1000 
  175.6250     2.2740    96.0710     9.9980     8.3060     9.7410    23.4120   -13.9970 
  175.7500     2.2640    94.5740    11.2030     9.0110     9.6000    23.4170   -13.8830 
  175.8750     2.2400    92.7050    13.1000    10.1530    10.2060    23.4300   -13.7590 
  176.0000     2.1900    91.0220    15.8130    11.9430    11.5700    23.4500   -13.6410 
  176.1250     2.1090    86.3840    19.1080    14.5080    14.0640    23.5910   -13.5250 
  176.2500     2.0330    78.6770    21.9110    17.1520    14.1720    23.9800   -13.4450 
  176.3750     1.9960    70.8940    23.0140    18.7890    13.6530    24.5530   -13.3800 
  176.5000     2.0020    66.4180    21.8970    18.6390    13.0920    25.0170   -13.3290 
  176.6250     2.0250    66.4350    19.4060    17.0750    13.0240    25.3150   -13.2860 
  176.7500     2.0380    68.7540    17.2200    15.5560    13.0750    25.5340   -13.2580 
  176.8750     2.0380    72.4740    15.9630    14.7080    13.0400    25.6840   -13.2170 
  177.0000     2.0280    74.7970    15.6650    14.6070    13.1640    25.7900   -13.1760 
  177.1250     2.0150    72.0200    16.1800    15.0830    13.9080    25.9570   -13.1420 
  177.2500     2.0060    67.9970    17.0490    15.7110    14.7050    26.1650   -13.1050 
  177.3750     2.0080    66.8470    17.8310    16.1590    14.4990    26.2910   -13.0730 
  177.5000     2.0290    70.1430    18.0610    16.1460    13.1720    26.3280   -13.0410 
  177.6250     2.0700    74.8530    17.4130    15.5660    11.5850    26.3290   -13.0040 
  177.7500     2.1150    77.0830    16.3290    14.8090    10.8350    26.3310   -12.9490 
  177.8750     2.1460    76.6320    15.3350    14.2140    10.7020    26.3510   -12.8980 
  178.0000     2.1540    74.7650    14.8280    13.9770    10.9130    26.4530   -12.8440 
  178.1250     2.1510    71.4970    14.9900    14.1350    11.2430    26.7620   -12.7910 
  178.2500     2.1470    67.7430    15.4820    14.4430    11.2630    27.1450   -12.7430 
  178.3750     2.1370    65.7710    15.9450    14.7000    11.0990    27.3910   -12.6960 
  178.5000     2.1130    65.5950    16.1200    14.7700    11.1110    27.4370   -12.6420 
  178.6250     2.0810    66.3280    15.9240    14.6120    11.0130    27.3940   -12.5890 
