~V
VERS. 2.00: Ver 2.00
~W
STRT.M 54.0000:
STOP.M 217.0000:
STEP.M 0.1250:
NULL. -999.2500:
UWI. F10593:
~C
DEPT.M :
SP.MV :
GR.API :
RML.OHMM :
RI. :
RXO.OHMM :
CALI.CM :
DEN.GM/CC :
~A
# ...
  144.0000   -11.4330    54.3790    18.4810    16.7090    15.6240    23.6460     2.4530 
  144.1250   -11.4580    55.8140    17.7240    15.9990    14.6810    23.5870     2.4600 
  144.2500   -11.5140    54.2270    17.1310    15.4460    13.6630    23.4600     2.4600 
  144.3750   -11.5680    52.3400    16.7270    15.0520    13.3160    23.4070     2.4550 
  144.5000   -11.6330    51.1320    16.4780    14.7800    13.2550    23.4570     2.4470 
  144.6250   -11.6930    50.4810    16.3490    14.6070    13.0230    23.6050     2.4380 
  144.7500   -11.7520    49.9140    16.2840    14.5030    12.5880    23.7470     2.4290 
  144.8750   -11.7540    49.0030    16.2070    14.4210    11.9690    23.8500     2.4280 
  145.0000   -11.6860    48.1730    16.0770    14.3110    11.6600    23.9590     2.4380 
  145.1250   -11.6170    48.4590    15.9030    14.1550    11.9910    24.0930     2.4570 
  145.2500   -11.5350    50.7580    15.7280    13.9690    13.3070    24.1450     2.4790 
  145.3750   -11.4140    53.5110    15.6260    13.8090    13.8370    24.1160     2.4970 
  145.5000   -11.2610    54.2220    15.6520    13.7400    13.4500    24.0150     2.5030 
  145.6250   -11.1190    53.5240    15.8500    13.8180    13.3580    23.9390     2.5010 
  145.7500   -10.9870    51.8290    16.2380    14.0690    14.1460    23.9640     2.4940 
  145.8750   -10.8630    50.1160    16.7890    14.4770    15.0530    24.0040     2.4930 
  146.0000   -10.7870    49.9510    17.3250    14.9010    15.6300    23.9620     2.4990 
  146.1250   -10.7380    51.9090    17.6420    15.1850    16.6990    23.8420     2.5060 
  146.2500   -10.6640    54.3980    17.5680    15.1860    17.2660    23.7190     2.5020 
  146.3750   -10.6540    54.2580    17.0000    14.7940    16.5450    23.6650     2.4730 
  146.5000   -10.7100    52.8140    16.1790    14.1600    14.5850    23.7480     2.4320 
  146.6250   -10.7610    52.2740    15.3500    13.4590    12.7960    23.9610     2.3970 
  146.7500   -10.8190    53.2540    14.7390    12.8740    11.9060    24.0290     2.3880 
  146.8750   -10.9260    54.1860    14.5410    12.5880    12.0380    23.9830     2.4090 
  147.0000   -11.0330    52.5630    14.6890    12.5950    12.1100    23.9080     2.4350 
  147.1250   -11.1450    48.5900    15.0550    12.8280    12.3910    23.8790     2.4440 
  147.2500   -11.3100    45.2650    15.4510    13.1530    13.6550    23.8800     2.4220 
  147.3750   -11.5050    44.9240    15.6350    13.3750    14.5690    23.8990     2.3720 
  147.5000   -11.7210    46.2410    15.5400    13.3910    13.7380    23.9050     2.3240 
  147.6250   -11.9790    49.0940    15.2090    13.1950    12.3850    23.8940     2.3000 
  147.7500   -12.2440    53.3570    14.7610    12.8580    11.3170    23.8890     2.3090 
  147.8750   -12.5030    55.5760    14.3290    12.4790    11.0480    23.8010     2.3440 
  148.0000   -12.7910    53.3950    13.9770    12.1350    10.9280    23.6520     2.3830 
  148.1250   -13.0680    49.4490    13.7070    11.8440    10.5390    23.5390     2.4150 
  148.2500   -13.3250    46.7110    13.5050    11.6030    10.3000    23.4480     2.4380 
  148.3750   -13.5810    46.2360    13.3750    11.4280    10.2860    23.3290     2.4580 
  148.5000   -13.8510    46.5440    13.3160    11.3260    10.0810    23.1750     2.4760 
  148.6250   -14.1160    46.9720    13.3360    11.3110     9.9350    23.0200     2.4910 
  148.7500   -14.3630    48.2270    13.4330    11.3840    10.1720    22.8790     2.5020 
  148.8750   -14.5880    49.1440    13.6120    11.5490    10.8190    22.8470     2.5050 
  149.0000   -14.7490    48.2390    13.8580    11.7830    10.6600    22.8470     2.4980 
  149.1250   -14.9000    46.2290    14.1750    12.0860     9.8960    22.6730     2.4780 
  149.2500   -15.0020    45.1200    14.5560    12.4480     9.3410    22.1820     2.4450 
  149.3750   -14.9550    46.6000    14.9750    12.8540     9.0090    21.5040     2.4050 
  149.5000   -14.7110    49.0450    15.3740    13.2520     9.0380    21.1020     2.3710 
  149.6250   -14.3040    51.7840    15.6920    13.5940     9.4720    21.0050     2.3530 
  149.7500   -13.8650    54.5800    15.8550    13.8190     9.7840    21.1170     2.3520 
  149.8750   -13.4370    57.6180    15.7530    13.8240     9.8310    21.4740     2.3630 
  150.0000   -13.0300    60.5580    15.3920    13.5980    10.6540    22.0170     2.3790 
  150.1250   -12.6490    63.8400    14.8060    13.1570    11.5130    22.6470     2.3960 
  150.2500   -12.2930    68.5150    14.0920    12.5680    11.2460    23.1340     2.4140 
  150.3750   -12.0700    72.4410    13.4170    11.9590    10.0830    23.2670     2.4260 
  150.5000   -11.9770    72.1770    12.9380    11.4730     9.7180    23.2170     2.4230 
  150.6250   -11.9520    69.2030    12.7500    11.2070     9.7560    23.1340     2.4050 
  150.7500   -11.9280    67.8730    12.8840    11.2160    10.1010    23.0650     2.3790 
  150.8750   -11.9080    68.7120    13.3350    11.5190    10.5980    23.0060     2.3670 
  151.0000   -11.9170    67.6940    13.9550    11.9970    10.9470    22.9070     2.3800 
  151.1250   -11.9100    65.1850    14.6770    12.5800    11.3130    22.6750     2.4090 
  151.2500   -11.8790    63.9190    15.4910    13.2490    11.7970    22.3030     2.4350 
  151.3750   -11.7820    65.7340    16.4870    14.0680    11.8810    22.0290     2.4350 
  151.5000   -11.7070    68.5380    17.7120    15.0860    11.7290    22.1440     2.4060 
  151.6250   -11.6790    69.6330    19.1780    16.3250    12.8230    22.4760     2.3570 
  151.7500   -11.6540    68.9100    20.7910    17.7370    16.6200    22.7140     2.3050 
  151.8750   -11.5730    67.9570    22.3160    19.1640    18.2090    22.7670     2.2670 
  152.0000   -11.4430    66.2740    23.5460    20.4130    17.7570    22.7610     2.2500 
  152.1250   -11.3080    65.1690    24.4140    21.3840    17.0670    22.7560     2.2500 
  152.2500   -11.2190    66.4420    25.0270    22.1110    16.7960    22.7580     2.2620 
  152.3750   -11.1520    67.6100    25.6680    22.7820    16.9350    22.7600     2.2740 
  152.5000   -11.0680    65.3110    26.6000    23.6370    17.0150    22.7590     2.2790 
  152.6250   -11.0000    61.8700    27.8890    24.7700    17.2260    22.7530     2.2750 
  152.7500   -10.9590    61.4330    29.3920    26.0960    18.5410    22.7350     2.2660 
  152.8750   -10.9630    62.1600    30.6820    27.2910    20.4310    22.7280     2.2550 
  153.0000   -10.9910    62.1280    31.2970    27.9660    21.2260    22.7220     2.2480 
  153.1250   -11.0290    63.5480    30.9220    27.8340    20.1910    22.7160     2.2450 
  153.2500   -11.0360    66.0780    29.5350    26.8250    18.2290    22.7080     2.2450 
  153.3750   -11.0680    66.7300    27.4430    25.1110    16.5510    22.7070     2.2480 
  153.5000   -11.1140    65.2570    25.3900    23.3050    15.5500    22.7100     2.2520 
  153.6250   -11.1590    64.9840    23.8860    21.8680    14.6560    22.7120     2.2550 
  153.7500   -11.2260    68.0750    23.2640    21.1410    13.8840    22.7120     2.2570 
  153.8750   -11.2960    71.8620    23.8390    21.4740    14.1590    22.7080     2.2550 
  154.0000   -11.3980    71.3020    25.3840    22.7210    15.5820    22.7010     2.2500 
  154.1250   -11.4840    66.1330    27.6690    24.7190    17.6350    22.6970     2.2430 
  154.2500   -11.5770    60.5460    30.2800    27.1280    19.4280    22.6960     2.2360 
  154.3750   -11.6580    59.3170    32.5320    29.3780    20.4530    22.6980     2.2290 
  154.5000   -11.7520    60.6110    33.9120    30.9650    21.2580    22.6990     2.2230 
  154.6250   -11.8520    61.2530    34.2390    31.6620    21.5240    22.7010     2.2170 
  154.7500   -11.9490    61.7400    33.6860    31.5350    21.3810    22.6980     2.2170 
  154.8750   -12.0440    63.8040    32.6270    30.8160    20.5630    22.6840     2.2240 
  155.0000   -12.0860    65.0760    31.5410    29.9350    19.9260    22.6520     2.2370 
  155.1250   -12.1330    63.6790    30.6160    29.0850    19.4210    22.6200     2.2480 
