~V
VERS. 2.00: Ver 2.00
~W
STRT.M 58.0000:
STOP.M 208.0000:
STEP.M 0.1250:
NULL. -999.2500:
UWI. F10592:
~C
DEPT.M :
GR.API :
RML.OHMM :
RI. :
RXO.OHMM :
CALI.CM :
DEN.GM/CC :
SP.MV :
~A
# ...
  125.5000    52.3280    29.3110    27.8430    22.8830    23.8120     2.6510    -2.7950 
  125.6250    49.9880    30.6210    28.9670    24.8520    23.9360     2.6640    -2.8730 
  125.7500    47.8470    31.4750    29.8480    31.6020    24.2660     2.6470    -2.9630 
  125.8750    46.9670    31.3570    30.1640    31.8350    24.7220     2.6020    -3.0140 
  126.0000    46.5710    30.3260    29.7970    28.3430    25.0830     2.5540    -3.0190 
  126.1250    46.2660    28.8850    28.7190    24.6360    25.3020     2.5210    -3.0290 
  126.2500    47.6120    27.1280    27.1170    23.8760    25.4220     2.5080    -3.0810 
  126.3750    50.1030    25.3200    25.4130    25.4390    25.5160     2.5110    -3.1250 
  126.5000    51.0610    23.9590    24.1030    24.2240    25.6240     2.5120    -3.1210 
  126.6250    50.8660    23.3620    23.4670    20.1990    25.8030     2.5070    -3.0670 
  126.7500    50.0220    23.6090    23.5750    17.7440    26.0210     2.4950    -2.9910 
  126.8750    49.9540    24.5300    24.3060    19.1580    26.0810     2.4890    -2.9480 
  127.0000    51.4220    25.4560    25.0950    23.7510    25.9120     2.4970    -2.9150 
  127.1250    53.8630    25.8130    25.4170    28.5020    25.6710     2.5210    -2.8360 
  127.2500    54.8010    25.2420    24.9010    29.1030    25.5340     2.5570    -2.7110 
  127.3750    53.5510    23.7440    23.4780    23.5660    25.5430     2.5890    -2.6020 
  127.5000    53.2850    22.0340    21.7870    18.2720    25.6360     2.6040    -2.5200 
  127.6250    55.1080    20.6810    20.3730    15.4940    25.7650     2.5950    -2.4330 
  127.7500    57.8050    20.0610    19.6190    14.1910    25.9480     2.5670    -2.3220 
  127.8750    59.1670    20.4140    19.7940    15.2180    26.1880     2.5260    -2.1810 
  128.0000    58.1400    21.4140    20.6220    18.4310    26.4590     2.4850    -2.0390 
  128.1250    55.9530    22.6920    21.7860    22.1380    26.6670     2.4490    -1.9430 
  128.2500    54.1100    23.7770    22.8640    23.8560    26.8010     2.4210    -1.8660 
  128.3750    52.7720    24.1260    23.3450    22.3440    26.9250     2.4050    -1.7410 
  128.5000    51.7040    23.7380    23.1630    21.7520    26.9940     2.4020    -1.5800 
  128.6250    51.1880    22.8530    22.4820    22.0360    27.0390     2.4080    -1.4410 
  128.7500    51.7350    21.8380    21.6110    20.4420    27.0420     2.4160    -1.3490 
  128.8750    53.2760    21.0050    20.8440    17.5670    26.9960     2.4170    -1.2700 
  129.0000    54.0310    20.3420    20.2200    16.7200    26.9490     2.4110    -1.1690 
  129.1250    52.6990    19.6850    19.6100    17.2440    26.9450     2.4030    -1.0190 
  129.2500    49.5820    18.8690    18.8520    18.4690    26.9540     2.4000    -0.8440 
  129.3750    48.6300    17.7970    17.8210    19.1400    26.8850     2.4060    -0.6970 
  129.5000    50.6220    16.5980    16.6240    16.5990    26.7950     2.4150    -0.5940 
  129.6250    52.5330    15.4210    15.4140    13.3820    26.7850     2.4210    -0.5180 
  129.7500    53.2810    14.4140    14.3480    11.7360    26.7900     2.4220    -0.4300 
  129.8750    54.7500    13.7360    13.5900    11.5310    26.7820     2.4170    -0.3100 
  130.0000    57.2840    13.3820    13.1330    11.5900    26.8100     2.4130    -0.2230 
  130.1250    58.2990    13.3310    12.9620    11.3150    26.8490     2.4120    -0.2050 
  130.2500    57.0870    13.5370    13.0460    11.0760    26.8800     2.4120    -0.2420 
  130.3750    54.9790    13.9780    13.3900    11.3330    26.8120     2.4140    -0.2660 
  130.5000    52.0590    14.5710    13.9230    12.4130    26.7460     2.4180    -0.2640 
  130.6250    48.9180    15.2680    14.5880    13.4770    26.7170     2.4230    -0.2630 
  130.7500    46.9810    15.9910    15.2920    14.1730    26.6800     2.4260    -0.2680 
  130.8750    47.2230    16.6010    15.8940    14.3050    26.6160     2.4170    -0.2850 
  131.0000    48.6520    16.9950    16.2990    14.6480    26.5400     2.3930    -0.2660 
  131.1250    50.4000    17.1180    16.4490    14.1910    26.4840     2.3580    -0.2010 
  131.2500    50.9910    16.9690    16.3270    13.4470    26.3760     2.3220    -0.1230 
  131.3750    49.9810    16.5580    15.9220    12.1270    25.9590     2.3040    -0.1010 
  131.5000    50.1920    16.0020    15.3530     9.9680    25.1850     2.3060    -0.1030 
  131.6250    52.3750    15.4020    14.7320     8.3930    24.3870     2.3230    -0.0540 
  131.7500    55.2780    14.8900    14.1870     8.1940    23.8030     2.3470     0.0160 
  131.8750    57.5340    14.6530    13.8760     8.6040    23.4270     2.3670     0.0200 
  132.0000    59.2650    14.7370    13.8360     9.2730    23.2260     2.3850    -0.0340 
  132.1250    59.2640    15.1240    14.0750    10.5200    23.1980     2.4020    -0.1010 
  132.2500    56.5010    15.7080    14.5360    12.1000    23.2750     2.4190    -0.1810 
  132.3750    53.0060    16.3200    15.1070    12.6520    23.1900     2.4340    -0.2760 
  132.5000    51.9800    16.7930    15.6060    12.8130    22.9790     2.4450    -0.3590 
  132.6250    52.5450    17.0270    15.8990    13.0270    22.7720     2.4510    -0.4740 
  132.7500    52.1180    16.9600    15.8960    12.8230    22.7170     2.4530    -0.6460 
  132.8750    51.1760    16.5510    15.5480    12.8460    22.8650     2.4510    -0.8050 
  133.0000    52.4040    15.9550    15.0050    12.5840    23.1670     2.4470    -0.9400 
  133.1250    54.8810    15.3330    14.4130    12.5360    23.6250     2.4460    -1.1110 
  133.2500    55.5330    14.8550    13.9210    12.1340    24.1390     2.4470    -1.2890 
  133.3750    54.6470    14.6850    13.6900    11.8180    24.6880     2.4510    -1.4000 
  133.5000    54.5630    14.7950    13.7310    12.3160    25.0450     2.4550    -1.5210 
  133.6250    54.3660    15.1280    14.0100    13.0020    25.1820     2.4590    -1.6510 
  133.7500    53.6150    15.6070    14.4550    13.6430    25.2440     2.4580    -1.7110 
  133.8750    52.8360    16.1560    14.9740    13.7450    25.2200     2.4390    -1.7120 
  134.0000    53.6610    16.6860    15.4710    13.9860    25.1340     2.3990    -1.7090 
  134.1250    55.7040    17.1340    15.8990    14.4020    25.0490     2.3470    -1.6470 
  134.2500    55.7940    17.4600    16.2330    14.5420    24.9440     2.3010    -1.5420 
  134.3750    52.9030    17.6180    16.4380    14.4070    24.6610     2.2860    -1.4780 
  134.5000    50.0980    17.6430    16.5180    14.0390    24.2510     2.3040    -1.3810 
  134.6250    50.4630    17.5690    16.4860    14.2880    23.9090     2.3400    -1.2330 
  134.7500    54.0780    17.4480    16.3880    14.4470    23.7640     2.3790    -1.1160 
  134.8750    57.8480    17.3540    16.3010    14.0750    23.7470     2.4100    -1.0370 
  135.0000    60.0620    17.3320    16.2770    13.6150    23.6930     2.4340    -0.9490 
  135.1250    59.4860    17.3900    16.3170    13.5980    23.6270     2.4560    -0.8750 
  135.2500    55.3230    17.4910    16.3850    14.1930    23.5810     2.4750    -0.8250 
  135.3750    50.2830    17.5470    16.4160    14.8420    23.5670     2.4840    -0.7840 
  135.5000    49.8570    17.4930    16.3690    14.6330    23.5580     2.4830    -0.7830 
  135.6250    54.3580    17.3320    16.2500    13.6120    23.5380     2.4740    -0.7950 
  135.7500    57.6560    17.1460    16.1060    12.9270    23.5130     2.4640    -0.7890 
  135.8750    55.5580    17.0850    16.0370    12.9450    23.5220     2.4600    -0.8020 
  136.0000    53.1390    17.2060    16.1010    13.4020    23.5340     2.4600    -0.8050 
  136.1250    52.6930    17.4690    16.2930    13.7460    23.5090     2.4610    -0.8130 
  136.2500    52.3570    17.7530    16.5430    13.9910    23.4640     2.4580    -0.8280 
  136.3750    51.1020    17.8930    16.7160    14.2860    23.4630     2.4470    -0.7940 
  136.5000    50.1130    17.8400    16.7260    14.2110    23.4550     2.4330    -0.7210 
  136.6250    49.5030    17.6170    16.5590    13.5200    23.4160     2.4200    -0.6620 
