~V
VERS. 2.00: Ver 2.00
~W
STRT.M 60.0000:
STOP.M 207.0000:
STEP.M 0.1250:
NULL. -999.2500:
UWI. F10577:
~C
DEPT.M :
DEN.GM/CC :
SP.MV :
GR.API :
RML.OHMM :
RI. :
RXO.OHMM :
CALI.CM :
~A
# ...
  116.2500     2.3760   -14.6940    62.2770    55.8480    51.2540    19.9670    20.7980 
  116.3750     2.3840   -14.7450    59.7990    56.5990    52.1060    22.6620    20.6950 
  116.5000     2.3880   -14.8320    56.0680    56.7040    52.3770    28.8280    20.6130 
  116.6250     2.3920   -14.9050    55.6620    56.2420    52.1460    28.9030    20.5200 
  116.7500     2.4080   -14.9690    59.4510    55.7780    51.8860    24.8340    20.4200 
  116.8750     2.4340   -15.0330    62.0690    55.8360    52.0220    23.4200    20.4610 
  117.0000     2.4500   -15.0940    60.4750    56.7550    52.8720    27.1190    20.7680 
  117.1250     2.4590   -15.1670    58.3620    58.5570    54.5610    36.9140    21.3510 
  117.2500     2.4760   -15.2590    59.9500    60.5080    56.5050    44.6470    22.0290 
  117.3750     2.4990   -15.3500    63.2890    61.8490    58.0080    47.6310    22.5840 
  117.5000     2.5040   -15.4420    64.4570    61.9510    58.4260    49.1470    22.9140 
  117.6250     2.4710   -15.5780    61.8680    60.4540    57.3230    47.8750    23.0310 
  117.7500     2.4270   -15.7380    59.0470    58.0550    55.2960    43.4280    23.0980 
  117.8750     2.4000   -15.8940    59.6910    55.3810    52.9300    39.2230    23.1180 
  118.0000     2.3980   -16.0400    62.1370    52.9970    50.7850    37.3150    23.0510 
  118.1250     2.4200   -16.1670    62.7420    51.4870    49.4400    35.2420    22.9020 
  118.2500     2.4550   -16.2750    62.6910    50.9860    49.0450    34.0710    22.6930 
  118.3750     2.4970   -16.3700    62.6590    51.5470    49.6280    34.7850    22.4970 
  118.5000     2.5340   -16.4550    61.0550    53.0530    51.0460    40.3080    22.2980 
  118.6250     2.5510   -16.5150    57.5530    55.1890    52.9960    46.8140    22.1950 
  118.7500     2.5450   -16.5620    55.2930    57.1330    54.7830    47.9190    22.1690 
  118.8750     2.5180   -16.5950    55.7070    58.0740    55.7420    45.4410    22.1890 
  119.0000     2.4680   -16.6200    57.5170    57.3870    55.3280    44.0860    22.2450 
  119.1250     2.3950   -16.6410    60.3980    54.7990    53.2350    42.2740    22.3000 
  119.2500     2.3230   -16.6470    63.4150    51.3760    50.2940    37.0070    22.2680 
  119.3750     2.2760   -16.6440    63.6960    48.1150    47.3350    29.4420    22.1370 
  119.5000     2.2690   -16.6560    61.4590    45.8150    45.0860    25.4800    22.0040 
  119.6250     2.3030   -16.6730    60.6370    45.0450    44.1500    24.3490    21.9500 
  119.7500     2.3530   -16.6990    61.1480    45.3360    44.2640    24.5290    21.9410 
  119.8750     2.3950   -16.7160    61.0810    46.0330    44.9520    25.7760    21.9440 
  120.0000     2.4130   -16.6930    61.0200    46.2820    45.4580    27.6400    21.9410 
  120.1250     2.3990   -16.6240    63.7040    45.1630    44.8220    24.9150    21.8510 
  120.2500     2.3670   -16.5220    66.1880    42.9260    43.0460    18.0390    21.5880 
  120.3750     2.3210   -16.4150    66.6760    40.3040    40.6810    12.5270    21.2150 
  120.5000     2.2730   -16.2960    66.0840    38.1480    38.5010    10.8460    21.0420 
  120.6250     2.2360   -16.1730    66.0110    37.1580    37.2180    12.6010    21.1900 
  120.7500     2.2150   -16.0490    66.2330    37.0800    36.7840    16.9120    21.5100 
  120.8750     2.2060   -15.9440    65.5510    37.4130    36.8760    22.5970    21.8690 
  121.0000     2.2020   -15.8750    64.1940    37.5410    36.9810    26.9490    22.0940 
  121.1250     2.2010   -15.8720    62.9870    36.9040    36.5260    25.8120    22.1560 
  121.2500     2.2060   -15.9000    61.4510    35.6840    35.5080    24.0720    22.1580 
  121.3750     2.2180   -15.9410    59.7650    34.3400    34.2570    23.4990    22.1680 
  121.5000     2.2380   -15.9730    58.7290    33.4130    33.2580    23.6170    22.2120 
  121.6250     2.2650   -16.0140    59.6640    33.4580    33.0740    24.6020    22.3170 
  121.7500     2.2960   -16.0640    61.0640    34.4370    33.7840    25.0180    22.3870 
  121.8750     2.3270   -16.1150    62.7040    36.1730    35.2990    26.9460    22.3910 
  122.0000     2.3510   -16.1740    63.1700    38.2980    37.3070    30.9910    22.3750 
  122.1250     2.3680   -16.2410    61.4390    40.1830    39.2120    34.1100    22.3700 
  122.2500     2.3860   -16.3300    59.9230    41.2390    40.3770    35.7120    22.3590 
  122.3750     2.4090   -16.4180    58.8090    41.0750    40.3900    36.2990    22.3180 
  122.5000     2.4350   -16.5160    56.9580    39.6260    39.1710    35.3920    22.2340 
  122.6250     2.4500   -16.6260    56.8180    37.1340    36.9250    32.7110    22.2310 
  122.7500     2.4490   -16.7170    59.9350    34.3820    34.3640    29.6680    22.3540 
  122.8750     2.4370   -16.8180    63.8190    31.9060    31.9560    26.4730    22.6120 
  123.0000     2.4200   -16.9250    64.8880    30.0790    30.0510    23.2320    22.9530 
  123.1250     2.3980   -17.0070    63.4630    29.1660    28.9310    22.1930    23.2880 
  123.2500     2.3770   -17.0960    61.5310    28.9130    28.4480    22.5570    23.5570 
  123.3750     2.3600   -17.1840    59.9730    29.1150    28.4710    23.8490    23.8060 
  123.5000     2.3580   -17.2610    60.0000    29.5760    28.8480    26.3110    24.0360 
  123.6250     2.3830   -17.3140    60.0380    30.0810    29.3840    27.4520    24.0710 
  123.7500     2.4210   -17.3680    59.7350    30.4310    29.8200    26.2700    23.9740 
  123.8750     2.4510   -17.4160    60.7990    30.5100    29.9840    25.7660    23.9880 
  124.0000     2.4580   -17.4620    62.9180    30.2670    29.7820    26.4070    24.1550 
  124.1250     2.4410   -17.5050    63.7240    29.7220    29.1890    26.2460    24.1890 
  124.2500     2.4120   -17.5200    63.8160    29.0910    28.4230    24.2660    24.1320 
  124.3750     2.3840   -17.5220    63.7720    28.5950    27.7010    21.9590    24.1340 
  124.5000     2.3770   -17.5290    63.6740    28.4690    27.2680    22.1800    24.1650 
  124.6250     2.4090   -17.5430    63.0350    28.9950    27.4320    25.0010    23.9940 
  124.7500     2.4630   -17.5510    62.6570    30.0380    28.1410    27.5440    23.6730 
  124.8750     2.5210   -17.5630    61.8580    31.2660    29.1710    29.8740    23.4290 
  125.0000     2.5690   -17.5720    60.8060    32.2220    30.1420    33.4520    23.3160 
  125.1250     2.5960   -17.5900    62.0910    32.5010    30.6280    35.2560    23.2280 
  125.2500     2.6040   -17.6180    63.7200    32.3560    30.6840    31.5180    23.1440 
  125.3750     2.6000   -17.6360    64.2890    32.2360    30.5980    27.6810    23.0910 
  125.5000     2.5960   -17.6510    63.7150    32.4980    30.6770    28.9960    23.0670 
  125.6250     2.5950   -17.6560    62.0240    33.0730    30.9740    33.2980    23.0370 
  125.7500     2.5910   -17.6760    61.8240    33.3070    31.0560    37.0360    23.0190 
  125.8750     2.5850   -17.6730    61.9910    32.6030    30.4150    34.5690    23.1400 
  126.0000     2.5770   -17.6640    61.4690    30.7340    28.7780    30.6750    23.4800 
  126.1250     2.5670   -17.6410    59.2800    27.9990    26.3030    25.2730    23.7800 
  126.2500     2.5600   -17.5870    57.4780    25.3310    23.7930    20.3710    23.8980 
  126.3750     2.5510   -17.5480    58.3860    23.3010    21.7760    18.7580    23.9190 
  126.5000     2.5260   -17.5110    61.2760    22.0910    20.4790    18.7520    23.9180 
  126.6250     2.4790   -17.4440    63.4460    21.6370    19.9470    19.1420    23.9190 
  126.7500     2.4370   -17.3890    63.7410    21.5140    19.8430    18.7250    23.9160 
  126.8750     2.4140   -17.3430    62.7630    21.4420    19.9070    18.9400    23.8980 
  127.0000     2.4000   -17.2850    60.4770    21.2170    19.8970    19.0580    23.8640 
  127.1250     2.3790   -17.2240    58.0790    20.7730    19.6590    18.4070    23.8480 
  127.2500     2.3610   -17.1690    59.4990    20.2830    19.3010    17.4060    23.8420 
  127.3750     2.3590   -17.1190    64.2120    19.8880    18.9830    16.1100    23.8170 
