~V
VERS. 2.00: Ver 2.00
~W
STRT.M 50.0000:
STOP.M 233.0000:
STEP.M 0.1250:
NULL. -999.2500:
UWI. F10598:
~C
DEPT.M :
DEN.GM/CC :
SP.MV :
GR.API :
RML.OHMM :
RI. :
RXO.OHMM :
CALI.CM :
~A
# ...
  173.7500     2.1300    -6.6530    72.7950    38.3220    35.2960    38.1580    24.5800 
  173.8750     2.1240    -6.7250    72.4510    38.8150    35.4100    38.3050    24.5800 
  174.0000     2.1170    -6.7630    73.5900    38.6830    34.8780    37.8120    24.5800 
  174.1250     2.1130    -6.7840    73.1620    37.5640    33.6220    36.6140    24.5800 
  174.2500     2.1190    -6.7600    71.9510    35.5900    31.7480    35.3720    24.5800 
  174.3750     2.1360    -6.7080    73.5540    33.0360    29.3500    33.7590    24.5800 
  174.5000     2.1560    -6.6470    78.0690    30.3220    26.6820    30.6930    24.5800 
  174.6250     2.1690    -6.5990    80.4910    27.9610    24.2870    27.0110    24.5800 
  174.7500     2.1740    -6.5520    78.3260    26.2210    22.6250    25.0400    24.5800 
  174.8750     2.1740    -6.5000    74.5980    25.2300    21.8500    24.8890    24.5800 
  175.0000     2.1710    -6.4510    73.9160    25.0150    21.8440    25.3770    24.5800 
  175.1250     2.1610    -6.3870    77.3640    25.6100    22.4360    26.0110    24.5800 
  175.2500     2.1430    -6.3170    80.7180    26.6700    23.3000    28.2340    24.5800 
  175.3750     2.1250    -6.2420    79.5120    27.8510    24.2270    30.6990    24.5800 
  175.5000     2.1140    -6.1400    76.0390    28.7490    25.0050    31.2150    24.5800 
  175.6250     2.1160    -6.0290    76.4780    28.9640    25.3800    29.4770    24.5800 
  175.7500     2.1260    -5.8810    78.8450    28.6310    25.2790    28.9430    24.5800 
  175.8750     2.1390    -5.7010    79.8970    28.0330    24.7910    29.1600    24.5800 
  176.0000     2.1530    -5.5050    78.0810    27.5350    24.2530    28.5990    24.5800 
  176.1250     2.1630    -5.3340    74.5390    27.5230    24.2060    28.0210    24.5800 
  176.2500     2.1800    -5.1880    72.8460    28.0850    24.8320    28.3510    24.5800 
  176.3750     2.2040    -5.0740    74.2710    29.2340    26.0800    30.4120    24.5800 
  176.5000     2.2290    -4.9990    75.6280    30.8550    27.7000    33.1350    24.5800 
  176.6250     2.2480    -4.9130    72.4470    32.5020    29.1270    35.7270    24.5800 
  176.7500     2.2360    -4.8310    68.6650    33.3760    29.7200    37.4950    24.5800 
  176.8750     2.2190    -4.7530    69.3020    32.8810    29.0570    37.4890    24.5800 
  177.0000     2.2020    -4.6630    73.4100    30.9940    27.1850    35.3060    24.5800 
  177.1250     2.1900    -4.5720    76.3680    28.3460    24.6740    30.9900    24.5800 
  177.2500     2.1960    -4.4680    76.9900    25.9650    22.4380    26.0120    24.5800 
  177.3750     2.2060    -4.3500    75.5220    24.3620    20.9820    22.9960    24.5800 
  177.5000     2.2150    -4.2480    73.9020    23.7270    20.5010    22.7380    24.5800 
  177.6250     2.2230    -4.1600    74.7110    24.1380    21.0270    24.2340    24.5800 
  177.7500     2.2290    -4.1260    77.8690    25.1820    22.0880    25.9400    24.5800 
  177.8750     2.2280    -4.1290    79.2550    26.4780    23.2850    27.3550    24.5800 
  178.0000     2.2230    -4.1750    73.7790    27.5800    24.2050    27.5470    24.5800 
  178.1250     2.2170    -4.2240    66.8450    28.0570    24.4200    27.3160    24.5800 
  178.2500     2.2060    -4.3030    67.4180    27.9880    24.0170    27.2110    24.5800 
  178.3750     2.1890    -4.4050    72.1960    27.5550    23.2310    26.5620    24.5800 
  178.5000     2.1760    -4.4860    75.6320    26.9600    22.3450    26.0740    24.5710 
  178.6250     2.1790    -4.5700    77.7190    26.3850    21.6350    25.4820    24.5170 
  178.7500     2.1980    -4.6020    80.9590    25.9440    21.2290    25.3990    24.3870 
  178.8750     2.2280    -4.6020    82.7550    25.7380    21.1830    25.7040    24.2170 
  179.0000     2.2600    -4.5840    80.0600    25.8810    21.4940    26.3670    24.0930 
  179.1250     2.2780    -4.5580    76.2890    26.5200    22.1870    27.2300    24.0540 
  179.2500     2.2760    -4.5470    74.0070    27.5160    23.1450    27.8090    24.0480 
  179.3750     2.2630    -4.5500    72.7420    28.6320    24.2040    28.4140    24.0480 
  179.5000     2.2500    -4.6080    71.9590    29.4580    25.0390    29.5060    24.0400 
  179.6250     2.2440    -4.6770    71.9820    29.2710    24.9840    29.6940    23.9950 
  179.7500     2.2410    -4.8030    72.5000    27.8830    23.8130    28.4710    23.8720 
  179.8750     2.2430    -4.9620    73.0770    25.5870    21.7320    24.9670    23.6540 
  180.0000     2.2490    -5.1090    73.5200    23.0990    19.3850    20.3000    23.3610 
  180.1250     2.2550    -5.2540    75.1390    21.2900    17.7050    16.7180    23.0070 
  180.2500     2.2540    -5.3650    77.2580    20.4940    17.0840    15.5810    22.7330 
  180.3750     2.2440    -5.4530    78.1460    20.8190    17.5730    16.5510    22.6450 
  180.5000     2.2300    -5.4810    77.0050    22.1910    18.9660    20.9990    22.7100 
  180.6250     2.2200    -5.4900    75.2620    24.3920    20.8590    27.3330    22.9680 
  180.7500     2.2170    -5.4500    74.7520    26.7090    22.6180    30.6380    23.3800 
  180.8750     2.2170    -5.3790    75.0690    28.5290    23.8550    30.3030    23.8230 
  181.0000     2.2210    -5.3160    75.1540    29.3920    24.3730    29.0120    24.0670 
  181.1250     2.2260    -5.2720    74.9090    28.9700    24.0450    29.1430    24.1250 
  181.2500     2.2300    -5.2610    75.0460    27.6710    23.1080    29.5040    24.1250 
  181.3750     2.2350    -5.2410    76.0680    25.8810    21.8030    28.3010    24.1250 
  181.5000     2.2420    -5.2370    75.8640    24.0400    20.5100    24.9300    24.1250 
  181.6250     2.2460    -5.2430    73.0940    22.7060    19.7300    21.5300    24.1250 
  181.7500     2.2450    -5.2800    70.6840    22.1680    19.6470    20.6080    24.1250 
  181.8750     2.2440    -5.3250    70.4070    22.5770    20.3060    23.6380    24.1250 
  182.0000     2.2480    -5.3890    70.6290    23.9170    21.6220    27.4890    24.1250 
  182.1250     2.2580    -5.4350    69.5870    26.0650    23.4270    30.3800    24.1250 
  182.2500     2.2630    -5.4500    69.1970    28.4560    25.3220    32.2400    24.1250 
  182.3750     2.2580    -5.4660    69.6190    30.6100    26.9990    33.5410    24.1250 
  182.5000     2.2470    -5.4690    68.3960    32.1450    28.2260    34.3760    24.1250 
  182.6250     2.2340    -5.4760    66.7090    32.7840    28.8630    34.4990    24.1250 
  182.7500     2.2170    -5.4870    68.1540    32.7880    29.0960    34.0630    24.1250 
  182.8750     2.1990    -5.5110    72.6020    32.3920    29.0670    33.2920    24.1250 
  183.0000     2.1860    -5.5300    75.4710    31.8540    28.8800    32.5620    24.1250 
  183.1250     2.1870    -5.5370    74.3950    31.4630    28.5550    32.4310    24.1250 
  183.2500     2.1980    -5.5300    73.5100    31.3220    28.2090    32.2800    24.1250 
  183.3750     2.2110    -5.4900    73.2820    31.3570    27.9930    31.9690    24.1250 
  183.5000     2.2130    -5.4750    71.3190    31.4040    27.9650    31.6540    24.1250 
  183.6250     2.2010    -5.4600    69.9670    31.3100    28.0050    32.1800    24.1250 
  183.7500     2.1900    -5.4500    71.8270    31.0840    27.8910    31.9670    24.1250 
  183.8750     2.1880    -5.4460    75.4300    30.7880    27.5730    30.9160    24.1250 
  184.0000     2.1930    -5.4570    77.7520    30.4850    27.1450    29.5920    24.1230 
  184.1250     2.1960    -5.4920    78.2390    30.1330    26.6700    29.0480    24.1070 
  184.2500     2.1990    -5.5630    77.9360    29.5100    26.0690    28.8710    24.0740 
  184.3750     2.2100    -5.6850    77.3540    28.4060    25.1740    28.3470    24.0290 
  184.5000     2.2310    -5.8110    78.1840    26.8340    23.9250    26.7310    23.9680 
  184.6250     2.2510    -5.9300    78.5360    25.1230    22.5150    23.7370    23.9190 
  184.7500     2.2580    -6.0730    76.1720    23.7660    21.3550    21.0090    23.9000 
  184.8750     2.2550    -6.2210    74.4420    23.0840    20.7680    20.5120    23.8940 
