~V
VERS. 2.00: Ver 2.00
~W
STRT.M 58.0000:
STOP.M 193.0000:
STEP.M 0.1250:
NULL. -999.2500:
UWI. F10563:
~C
DEPT.M :
GR.API :
RML.OHMM :
RI. :
RXO.OHMM :
CALI.CM :
DEN.GM/CC :
SP.MV :
~A
# ...
   91.7500   100.2910     8.2200     6.8700     6.5840    23.7630     2.2940    -8.6790 
   91.8750   102.9700     8.1800     6.7640     6.1640    23.7560     2.3110    -8.6550 
   92.0000   102.8450     8.2460     6.7670     6.2480    23.7520     2.3300    -8.6670 
   92.1250    99.6300     8.3370     6.8410     7.2420    23.7360     2.3430    -8.6110 
   92.2500    98.2390     8.3220     6.8720     8.4340    23.6880     2.3450    -8.5170 
   92.3750    98.5070     8.1310     6.7820     8.1940    23.6280     2.3350    -8.4700 
   92.5000    99.1580     7.7890     6.5640     6.8070    23.6470     2.3190    -8.4780 
   92.6250   101.3350     7.4290     6.2950     5.5780    23.6900     2.3070    -8.4660 
   92.7500   102.6030     7.2150     6.1040     5.1010    23.7120     2.3050    -8.4290 
   92.8750   102.1930     7.2280     6.0710     5.4090    23.7140     2.3090    -8.3880 
   93.0000   100.7410     7.4660     6.2130     6.2820    23.7120     2.3140    -8.3560 
   93.1250    98.3400     7.8550     6.4930     6.2120    23.7260     2.3100    -8.3710 
   93.2500    94.6780     8.2380     6.7940     6.4630    23.7660     2.3000    -8.4010 
   93.3750    90.8480     8.5150     7.0330     7.0020    23.8300     2.2870    -8.3770 
   93.5000    90.8010     8.6380     7.1640     7.3880    23.8710     2.2770    -8.2950 
   93.6250    94.5370     8.5990     7.1740     7.2050    23.8990     2.2760    -8.1970 
   93.7500    98.3900     8.4850     7.1200     7.0480    23.9820     2.2830    -8.1120 
   93.8750   100.5340     8.3790     7.0550     7.2750    24.1440     2.2960    -8.0400 
   94.0000   101.2250     8.3860     7.0500     7.4790    24.2850     2.3110    -7.9770 
   94.1250   101.7480     8.6620     7.2190     7.5160    24.3430     2.3160    -7.9480 
   94.2500    99.2410     9.2320     7.6040     7.3190    24.3650     2.3050    -7.9770 
   94.3750    92.0270    10.0620     8.2080     7.8740    24.3800     2.2810    -8.0570 
   94.5000    84.7080    11.0240     8.9610    10.1530    24.3920     2.2510    -8.1730 
   94.6250    82.5780    11.9160     9.7310    13.5190    24.4100     2.2290    -8.2530 
   94.7500    82.0650    12.6630    10.4270    14.4300    24.4230     2.2190    -8.2180 
   94.8750    79.4260    13.4060    11.1240    12.8760    24.4420     2.2190    -8.0460 
   95.0000    76.3400    14.4780    12.0570    10.9240    24.4920     2.2210    -7.7640 
   95.1250    76.2330    16.4800    13.7320    12.3340    24.5700     2.2200    -7.5100 
   95.2500    75.6370    19.6060    16.3980    16.5940    24.6530     2.2110    -7.3360 
   95.3750    73.2780    23.7820    20.1010    22.8300    24.6970     2.1900    -7.2170 
   95.5000    70.8090    28.4080    24.4370    31.3180    24.7310     2.1550    -7.1040 
   95.6250    70.0400    32.1000    28.3100    36.5430    24.7230     2.1130    -6.9240 
   95.7500    72.0260    33.9250    30.7340    37.2620    24.6540     2.0800    -6.6990 
   95.8750    75.4050    33.8280    31.4170    33.4700    24.4520     2.0700    -6.5370 
   96.0000    77.8490    32.4720    30.7300    28.5350    24.0770     2.0880    -6.4640 
   96.1250    77.6960    30.6270    29.2610    26.1190    23.7520     2.1320    -6.3710 
   96.2500    77.3780    28.7550    27.5750    24.8740    23.4620     2.1820    -6.2230 
   96.3750    79.1530    26.8740    25.7850    23.3960    23.2230     2.2240    -6.0650 
   96.5000    82.3780    24.9640    23.9250    21.5650    23.1230     2.2510    -5.9510 
   96.6250    84.2990    23.2200    22.1770    19.1880    23.1890     2.2590    -5.9620 
   96.7500    84.1090    22.0130    20.8820    17.7790    23.3340     2.2530    -6.0910 
   96.8750    81.9560    21.7790    20.4510    17.7380    23.5060     2.2360    -6.2160 
   97.0000    78.8750    22.9550    21.3300    17.6650    23.6800     2.2110    -6.2990 
   97.1250    75.9520    26.3380    24.3690    20.1140    23.8790     2.1770    -6.2960 
   97.2500    72.7420    31.9900    29.7010    28.5850    24.1830     2.1400    -6.2040 
   97.3750    68.0440    39.8690    37.2930    45.8220    24.5260     2.1110    -6.0710 
   97.5000    63.7450    49.2150    46.3670    63.0860    24.7320     2.0950    -5.9390 
   97.6250    63.9190    58.0400    55.0590    68.8280    24.7820     2.0950    -5.8530 
   97.7500    66.0630    64.3150    61.5250    66.7920    24.7850     2.1010    -5.7950 
   97.8750    66.2390    67.1330    64.9120    64.2180    24.7850     2.1050    -5.7370 
   98.0000    64.1230    66.6310    65.2290    63.2260    24.7850     2.1030    -5.6950 
   98.1250    61.8270    63.0200    62.5090    62.3660    24.7850     2.0980    -5.6700 
   98.2500    59.7360    57.4930    57.7620    62.0560    24.7850     2.0960    -5.6370 
   98.3750    59.4100    51.0370    51.7880    59.8580    24.7810     2.1000    -5.5940 
   98.5000    62.2450    44.9220    45.7340    45.8770    24.7660     2.1120    -5.5600 
   98.6250    66.5850    40.6740    41.1300    29.6180    24.7340     2.1260    -5.5420 
   98.7500    69.9160    38.7060    38.6270    21.4470    24.7170     2.1330    -5.5050 
   98.8750    71.9010    39.1180    38.4580    25.7690    24.7120     2.1300    -5.4500 
   99.0000    71.9970    41.6930    40.4740    35.9070    24.7110     2.1180    -5.3530 
   99.1250    69.4400    46.0350    44.3360    47.2080    24.7120     2.1050    -5.2470 
   99.2500    66.6720    50.8290    48.7780    50.1860    24.7140     2.0970    -5.1940 
   99.3750    65.4500    55.0140    52.7860    49.4570    24.7190     2.0970    -5.1640 
   99.5000    66.4110    57.9120    55.6520    49.8780    24.7190     2.1000    -5.0900 
   99.6250    67.9190    59.4460    57.1280    52.5650    24.7070     2.1020    -4.9410 
   99.7500    68.6850    60.5380    57.9680    52.0660    24.6880     2.1010    -4.7910 
   99.8750    68.0070    61.8150    58.7550    48.1830    24.6770     2.0980    -4.7420 
  100.0000    67.2550    63.6090    59.8720    49.4070    24.6750     2.0950    -4.8100 
  100.1250    67.5700    65.9990    61.4950    54.0340    24.6760     2.0940    -4.9380 
  100.2500    67.2180    68.6060    63.3780    57.0240    24.6800     2.0960    -5.0690 
  100.3750    65.9360    70.9890    65.1890    57.5920    24.6830     2.1000    -5.1130 
  100.5000    65.1270    72.6340    66.5110    58.4540    24.6830     2.1030    -5.0900 
  100.6250    65.8590    72.8940    66.7960    60.6550    24.6840     2.1020    -5.0340 
  100.7500    66.1220    71.8810    66.0710    62.3320    24.6910     2.1020    -4.9680 
  100.8750    64.7800    69.8320    64.4920    61.6680    24.6830     2.1090    -4.8980 
  101.0000    63.4440    67.1390    62.3560    56.6350    24.6170     2.1260    -4.8280 
  101.1250    63.2090    64.3010    60.0340    48.5590    24.4650     2.1520    -4.8680 
  101.2500    63.1860    61.7870    57.9210    44.7350    24.3450     2.1780    -5.0020 
  101.3750    62.3440    59.7380    56.1850    46.9240    24.3000     2.1950    -5.2320 
  101.5000    61.5180    57.9370    54.7350    49.4620    24.3040     2.2000    -5.5360 
  101.6250    62.0290    55.6870    53.0630    45.8260    24.3280     2.1990    -5.7860 
  101.7500    63.7310    52.4020    50.5860    42.9480    24.3260     2.1990    -5.9540 
  101.8750    66.0870    47.9510    47.0220    43.2710    24.2260     2.2040    -6.1260 
  102.0000    68.7720    42.7750    42.5830    40.9400    24.0070     2.2110    -6.3780 
  102.1250    70.6940    37.8190    37.9910    33.1800    23.8750     2.2110    -6.5900 
  102.2500    71.4460    33.8270    34.0500    26.2980    23.8250     2.2010    -6.7140 
  102.3750    72.3730    31.1030    31.1600    23.0490    23.8080     2.1820    -6.7780 
  102.5000    74.0780    29.6360    29.4160    22.1160    23.7810     2.1590    -6.8180 
  102.6250    73.7140    29.3280    28.8330    22.0660    23.7830     2.1390    -6.9260 
  102.7500    71.4850    29.6320    28.9510    22.5460    23.8280     2.1300    -7.0980 
  102.8750    70.9000    30.2220    29.4790    23.5380    23.9090     2.1350    -7.2020 
