~V
VERS. 2.00: Ver 2.00
~W
STRT.M 52.0000:
STOP.M 220.0000:
STEP.M 0.1250:
NULL. -999.2500:
UWI. F10539:
~C
DEPT.M :
SP.MV :
DEN.GM/CC :
GR.API :
RML.OHMM :
RI. :
RXO.OHMM :
CALI.CM :
~A
# ...
  130.7500   -19.2420     2.2170    61.3050     8.1410     6.7890     8.0930    22.5510 
  130.8750   -19.1700     2.2380    61.9620     8.3140     6.8900     8.1540    22.5080 
  131.0000   -19.1010     2.2620    59.7570     8.4780     7.0010     8.2080    22.5500 
  131.1250   -19.0690     2.2710    54.3130     8.5780     7.0870     8.1800    22.6270 
  131.2500   -19.0420     2.2590    50.0800     8.6110     7.1360     8.3440    22.7320 
  131.3750   -19.0570     2.2260    49.0450     8.6050     7.1540     8.3820    22.8610 
  131.5000   -19.0750     2.1840    49.8070     8.5960     7.1580     8.2090    22.8450 
  131.6250   -19.1230     2.1540    50.1970     8.6080     7.1690     8.1740    22.5910 
  131.7500   -19.1730     2.1480    50.3080     8.6380     7.1870     8.3610    22.2290 
  131.8750   -19.2460     2.1690    50.2540     8.6740     7.2000     8.5790    21.9970 
  132.0000   -19.3430     2.2010    50.8470     8.7010     7.1890     9.2440    22.0540 
  132.1250   -19.4510     2.2250    54.2310     8.7020     7.1440    10.2730    22.3540 
  132.2500   -19.5500     2.2340    57.1040     8.6690     7.0780    10.3410    22.6760 
  132.3750   -19.6210     2.2330    57.1950     8.6020     7.0060     9.3690    22.8760 
  132.5000   -19.6590     2.2310    55.0670     8.5150     6.9390     8.7900    22.9780 
  132.6250   -19.6470     2.2310    54.0800     8.4330     6.8860     8.7980    22.9960 
  132.7500   -19.5980     2.2300    55.5640     8.3660     6.8390     8.7430    23.0170 
  132.8750   -19.4940     2.2280    57.3370     8.3050     6.7880     8.5470    23.0100 
  133.0000   -19.3530     2.2250    57.4940     8.2480     6.7260     8.2840    22.9840 
  133.1250   -19.1620     2.2200    56.3870     8.1950     6.6560     8.2610    22.9660 
  133.2500   -18.9410     2.2130    56.2650     8.1510     6.5940     8.2450    22.9310 
  133.3750   -18.6920     2.2010    56.9970     8.1200     6.5550     8.1610    22.8920 
  133.5000   -18.4240     2.1870    56.5110     8.1070     6.5490     8.2330    22.9020 
  133.6250   -18.1630     2.1780    54.9740     8.1190     6.5740     8.3820    22.7760 
  133.7500   -17.9080     2.1800    54.9630     8.1580     6.6060     8.6030    22.4500 
  133.8750   -17.6850     2.1910    55.5160     8.2210     6.6300     8.6800    22.1530 
  134.0000   -17.4830     2.2090    55.8340     8.2900     6.6410     8.6240    22.0270 
  134.1250   -17.3410     2.2240    57.9260     8.3620     6.6610     8.5370    22.0170 
  134.2500   -17.2540     2.2320    59.1870     8.4580     6.7230     8.4440    22.0640 
  134.3750   -17.2350     2.2360    56.6140     8.6060     6.8450     8.5150    22.1890 
  134.5000   -17.2750     2.2400    51.7650     8.8080     7.0190     8.9950    22.3820 
  134.6250   -17.3400     2.2440    49.1720     9.0100     7.1910    11.2030    22.5850 
  134.7500   -17.4450     2.2470    49.5740     9.1040     7.2870    14.1220    22.7000 
  134.8750   -17.5320     2.2460    50.9350     9.0040     7.2490    13.2520    22.8010 
  135.0000   -17.6220     2.2420    52.5380     8.6810     7.0510    10.6810    22.9770 
  135.1250   -17.6580     2.2380    52.8190     8.1850     6.7080     9.2230    23.1870 
  135.2500   -17.6760     2.2370    52.2290     7.6750     6.3300     8.8050    23.3060 
  135.3750   -17.6530     2.2390    52.2240     7.2760     6.0090     8.1920    23.3470 
  135.5000   -17.6140     2.2400    53.9880     7.0800     5.8200     7.0660    23.3040 
  135.6250   -17.5440     2.2370    56.6820     7.1630     5.8360     5.9500    23.0220 
  135.7500   -17.4310     2.2300    57.1180     7.4450     6.0100     5.8800    22.5910 
  135.8750   -17.2900     2.2200    54.2100     7.8160     6.2780     6.6130    22.2490 
  136.0000   -17.0950     2.2110    50.9380     8.1250     6.5480     7.2890    22.1180 
  136.1250   -16.8720     2.2080    51.9580     8.1730     6.6930     7.3840    22.1400 
  136.2500   -16.5970     2.2090    54.1340     7.9410     6.6600     7.0520    22.1720 
  136.3750   -16.2850     2.2130    54.0420     7.5060     6.4480     6.5260    22.2080 
  136.5000   -15.9340     2.2190    54.8290     7.0040     6.1210     6.2460    22.2550 
  136.6250   -15.5640     2.2230    60.7250     6.5930     5.7760     6.0730    22.3740 
  136.7500   -15.2190     2.2330    68.5950     6.3300     5.4950     5.5980    22.5550 
  136.8750   -14.9020     2.2540    72.2940     6.2030     5.3030     5.0440    22.6930 
  137.0000   -14.6510     2.2920    70.0000     6.1510     5.1870     4.9240    22.7550 
  137.1250   -14.4530     2.3380    67.4610     6.0940     5.1140     5.5650    22.7660 
  137.2500   -14.3420     2.3770    67.8920     5.9800     5.0370     6.3080    22.8820 
  137.3750   -14.2920     2.4010    69.7990     5.8020     4.9380     6.6070    23.1850 
  137.5000   -14.3200     2.4070    70.6620     5.5910     4.8130     5.6220    23.5610 
  137.6250   -14.4090     2.3970    71.6250     5.3950     4.6780     5.2920    23.7850 
  137.7500   -14.5340     2.3810    73.4770     5.2430     4.5610     5.2570    23.8230 
  137.8750   -14.6860     2.3650    73.0350     5.1380     4.4840     5.3080    23.7670 
  138.0000   -14.8570     2.3540    70.1340     5.0800     4.4510     5.1230    23.7590 
  138.1250   -15.0440     2.3550    68.8080     5.0840     4.4670     5.2450    23.8060 
  138.2500   -15.2340     2.3630    69.8690     5.1650     4.5260     5.3250    23.8410 
  138.3750   -15.4430     2.3710    70.3140     5.3580     4.6480     5.4780    23.8370 
  138.5000   -15.6310     2.3700    69.3900     5.6930     4.8580     5.5310    23.7680 
  138.6250   -15.8000     2.3560    69.4740     6.1780     5.1780     5.5510    23.5790 
  138.7500   -15.9320     2.3310    70.4660     6.6960     5.5410     6.0940    23.3340 
  138.8750   -16.0280     2.3010    69.8780     7.0760     5.8350     6.9410    23.0920 
  139.0000   -16.0690     2.2710    67.4540     7.1240     5.9250     7.5600    22.9520 
  139.1250   -16.0580     2.2530    66.8900     6.7280     5.7060     7.4710    22.9190 
  139.2500   -16.0110     2.2510    69.2030     6.1990     5.3510     6.9520    23.0200 
  139.3750   -15.9130     2.2610    72.5480     5.8840     5.0870     6.1430    23.2740 
  139.5000   -15.8060     2.2830    73.6040     6.0690     5.1280     5.6050    23.5910 
  139.6250   -15.7050     2.3270    70.9100     7.0120     5.6940     6.4740    23.7530 
  139.7500   -15.6400     2.3970    67.6290     8.5410     6.7390     9.2470    23.7780 
  139.8750   -15.6030     2.4800    64.3490    10.3280     8.1120    13.6910    23.5860 
  140.0000   -15.5970     2.5330    60.4680    11.7990     9.4430    15.7710    23.0810 
  140.1250   -15.6210     2.5060    56.1160    12.1790    10.0890    12.4590    22.3830 
  140.2500   -15.6790     2.4230    53.1920    11.5510     9.9120    10.1370    22.0070 
  140.3750   -15.8010     2.3270    52.4890    10.3510     9.1440     9.3760    21.9590 
  140.5000   -15.9500     2.2540    54.1220     9.0800     8.1680     9.2370    22.0460 
  140.6250   -16.1620     2.2330    58.8350     8.0890     7.3010     8.6670    22.3160 
  140.7500   -16.3740     2.2520    65.4280     7.3980     6.6360     7.6450    22.8630 
  140.8750   -16.6220     2.2880    70.8240     6.9650     6.1780     6.7120    23.4920 
  141.0000   -16.8830     2.3160    73.2430     6.7360     5.9070     6.3240    23.7850 
  141.1250   -17.1600     2.3180    73.3420     6.6560     5.8040     6.4840    23.6890 
  141.2500   -17.3980     2.3000    71.9840     6.6370     5.7820     6.8930    23.4480 
  141.3750   -17.5900     2.2780    69.4100     6.6410     5.7910     7.1080    23.3010 
  141.5000   -17.7480     2.2670    66.8490     6.6620     5.8070     6.9970    23.3380 
  141.6250   -17.8400     2.2720    65.8680     6.7250     5.8420     6.4930    23.4850 
  141.7500   -17.8790     2.2800    65.4940     6.8570     5.9270     6.2190    23.5270 
  141.8750   -17.8410     2.2800    64.5080     7.0700     6.0750     6.7720    23.3980 
