~V
VERS. 2.00: Ver 2.00
~W
STRT.M 58.0000:
STOP.M 215.0000:
STEP.M 0.1250:
NULL. -999.2500:
UWI. F10587:
~C
DEPT.M :
DEN.GM/CC :
GR.API :
RML.OHMM :
RI. :
RXO.OHMM :
CALI.CM :
SP.MV :
~A
# ...
  204.2500     2.3480    34.7600     4.2600     3.6910     5.0440    25.3040   -14.0710 
  204.3750     2.3600    34.4000     4.1940     3.6310     4.9960    25.3240   -14.2830 
  204.5000     2.3720    34.4000     4.2300     3.6640     4.9490    25.3340   -14.5530 
  204.6250     2.3740    34.4000     4.4980     3.9070     5.0270    25.3570   -14.9100 
  204.7500     2.3620    34.4000     5.0060     4.3690     5.2580    25.4140   -15.2830 
  204.8750     2.3430    34.4000     5.7000     5.0000     5.9330    25.4650   -15.6320 
  205.0000     2.3350    34.4000     6.4150     5.6500     7.6540    25.4520   -15.9510 
  205.1250     2.3530    34.4000     6.8190     6.0180     9.8190    25.3640   -16.2190 
  205.2500     2.3880    34.4000     6.7660     5.9690     9.4920    25.3280   -16.4240 
  205.3750     2.4190    34.4000     6.3290     5.5720     6.9620    25.3050   -16.5000 
  205.5000     2.4290    34.4000     5.7340     5.0310     5.3500    25.2890   -16.4510 
  205.6250     2.4170    34.4000     5.2210     4.5640     5.0570    25.2790   -16.2580 
  205.7500     2.4020    34.4000     4.8830     4.2570     5.0740    25.2750   -15.9840 
  205.8750     2.3920    34.4000     4.7160     4.1050     5.1140    25.2770   -15.6840 
  206.0000     2.3900    34.4000     4.6630     4.0570     5.1230    25.2760   -15.3220 
  206.1250     2.3950    34.4000     4.6530     4.0480     5.0280    25.2590   -14.8800 
  206.2500     2.4040    34.4000     4.6320     4.0290     4.9190    25.2580   -14.4040 
  206.3750     2.4100    34.4000     4.5940     3.9950     4.9110    25.2640   -13.9460 
  206.5000     2.4080    34.4000     4.5590     3.9630     4.9740    25.2700   -13.5700 
  206.6250     2.3940    34.4000     4.5770     3.9790     5.0330    25.2720   -13.3740 
  206.7500     2.3760    34.4000     4.6970     4.0880     5.0750    25.2760   -13.3450 
  206.8750     2.3620    34.4000     4.9670     4.3340     5.2650    25.2770   -13.4620 
  207.0000     2.3510    34.4000     5.4230     4.7480     5.8010    25.2710   -13.8210 
  207.1250     2.3340    34.4000     6.0850     5.3500     7.0260    25.2760   -14.4370 
  207.2500     2.3100    34.4000     6.8430     6.0390     8.3430    25.2870   -15.1670 
  207.3750     2.2880    34.4000     7.5610     6.6920     9.5440    25.2900   -15.9510 
  207.5000     2.2820    34.4000     8.0790     7.1630    10.6130    25.2860   -16.6530 
  207.6250     2.3050    34.4000     8.2090     7.2810    10.5570    25.2790   -17.0660 
  207.7500     2.3440    34.4000     8.0010     7.0920     9.8510    25.2850   -17.2330 
  207.8750     2.3850    34.4000     7.5510     6.6830     9.4710    25.2950   -17.1470 
  208.0000     2.4120    34.4000     6.9800     6.1640     8.9330    25.2840   -16.7140 
  208.1250     2.4180    34.4000     6.4040     5.6400     7.4280    25.2630   -15.9840 
  208.2500     2.4080    34.4000     5.9010     5.1820     6.1010    25.2470   -15.2000 
  208.3750     2.3880    34.4000     5.5010     4.8190     5.5230    25.2250   -14.3880 
  208.5000     2.3660    34.4000     5.2090     4.5540     5.3670    25.2020   -13.6130 
  208.6250     2.3540    34.4000     5.0260     4.3880     5.2900    25.1780   -12.9590 
  208.7500     2.3520    34.4000     4.9120     4.2840     5.2420    25.1760   -12.3590 
  208.8750     2.3560    34.4000     4.8450     4.2220     5.2030    25.2040   -11.8460 
  209.0000     2.3590    34.4000     4.8080     4.1890     5.1140    25.2180   -11.4890 
  209.1250     2.3600    34.4000     4.7950     4.1770     5.0400    25.1810   -11.2880 
  209.2500     2.3640    34.4000     4.7910     4.1740     4.9950    25.1130   -11.1170 
  209.3750     2.3700    34.4000     4.7860     4.1700     5.0020    25.0230   -10.9830 
  209.5000     2.3750    34.4000     4.7770     4.1610     5.0990    24.9400   -10.8670 
  209.6250     2.3810    34.4000     4.7660     4.1510     5.3490    24.8450   -10.8410 
  209.7500     2.3920    34.4000     4.7620     4.1470     5.6110    24.8490   -10.9090 
  209.8750     2.4150    34.4000     4.7690     4.1530     5.7810    24.8820   -11.0150 
  210.0000     2.4480    34.4000     4.7800     4.1640     5.7840    24.9050   -11.1600 
  210.1250     2.4770    34.4000     4.7860     4.1690     5.8710    24.9100   -11.3030 
  210.2500     2.4880    34.4000     4.7870     4.1700     6.1620    24.9110   -11.4460 
  210.3750     2.4800    34.4000     4.7870     4.1700     6.9940    24.9480   -11.6170 
  210.5000     2.4650    34.4000     4.7870     4.1700     8.2780    24.9890   -11.7940 
  210.6250     2.4560    34.4000     4.7870     4.1700     9.4090    24.9840   -11.9300 
  210.7500     2.4490    34.4000     4.7870     4.1700     9.0420    24.9900   -12.0230 
  210.8750     2.4340    34.4000     4.7870     4.1700     7.7240    25.0000   -12.1120 
  211.0000     2.4000    34.4000     4.7870     4.1700     6.7850    25.0090   -12.1790 
  211.1250     2.3570    34.4000     4.7870     4.1700     6.5970    25.0060   -12.2220 
  211.2500     2.3200    34.4000     4.7870     4.1700     6.7110    25.0310   -12.2430 
  211.3750     2.3080    34.4000     4.7870     4.1700     6.6330    25.0590   -12.2550 
  211.5000     2.3370    34.4000     4.7870     4.1700     6.0210    25.1020   -12.2640 
  211.6250     2.3810    34.4000     4.7870     4.1700     5.2960    25.1310   -12.2400 
  211.7500     2.4010    34.4000     4.7870     4.1700     5.0150    25.1420   -12.1730 
  211.8750     2.3750    34.4000     4.7870     4.1700     5.0120    25.1790   -12.1070 
  212.0000     2.3110    34.4000     4.7870     4.1700     5.0650    25.2110   -12.0600 
  212.1250     2.2470    34.4000     4.7870     4.1700     4.8960    25.2740   -12.0170 
  212.2500     2.2120    34.4000     4.7870     4.1700     4.7190    25.4400   -11.9650 
  212.3750     2.2280    34.4000     4.7870     4.1700     4.6620    25.6730   -11.8740 
  212.5000     2.2830    34.4000     4.7870     4.1700     4.6760    25.6830   -11.7940 
  212.6250     2.3280    34.4000     4.7870     4.1700     4.7000    25.1230   -11.7420 
  212.7500     2.3400    34.4000     4.7870     4.1700     4.7610    24.6270   -11.6970 
  212.8750     2.3190    34.4000     4.7870     4.1700     4.9000    24.5150   -11.6250 
  213.0000     2.2830    34.4000     4.7870     4.1700     5.1000    24.6020   -11.5620 
  213.1250     2.2500    34.4000     4.7870     4.1700     5.1220    24.4140   -11.5870 
  213.2500     2.2250    34.4000     4.7870     4.1700     5.0760    23.6860   -11.6600 
  213.3750     2.2120    34.4000     4.7870     4.1700     4.9710    22.9630   -11.7550 
  213.5000     2.2120    34.4000     4.7870     4.1700     4.8690    22.2010   -11.8100 
  213.6250     2.2150    34.4000     4.7870     4.1700     4.8050    20.6140   -11.7320 
  213.7500     2.2170    34.4000     4.7870     4.1700     4.8710    18.3920   -11.6300 
  213.8750     2.2190    34.4000     4.7870     4.1700     5.1520    16.2230   -11.5610 
  214.0000     2.2230    34.4000     4.7870     4.1700     5.3890    15.1050   -11.4590 
  214.1250     2.2270    34.4000     4.7870     4.1700     5.4750    14.8780   -11.2830 
  214.2500     2.2270    34.4000     4.7870     4.1700     5.4740    14.8750   -11.0800 
  214.3750     2.2230    34.4000     4.7870     4.1700     5.4730    14.8750   -10.8680 
  214.5000     2.2170    34.4000     4.7870     4.1700     5.4740    14.8670   -10.7450 
  214.6250     2.2120    34.4000     4.7870     4.1700     5.4770    14.8440   -10.7450 
  214.7500     2.2090    34.4000     4.7870     4.1700     5.4790    14.8120   -10.7450 
  214.8750     2.2070    34.4000     4.7870     4.1700     5.4810    14.7990  -999.2500 
  215.0000  -999.2500    34.4000     4.7870     4.1700     5.4830    14.7970  -999.2500 
