~V
VERS. 2.00: Ver 2.00
~W
STRT.M 42.0000:
STOP.M 223.0000:
STEP.M 0.1250:
NULL. -999.2500:
UWI. F10538:
~C
DEPT.M :
DEN.GM/CC :
SP.MV :
GR.API :
RML.OHMM :
RI. :
RXO.OHMM :
CALI.CM :
~A
# ...
  188.2500     2.4370   -29.5830    83.1840    16.9640    17.3660    15.7950    25.1410 
  188.3750     2.4150   -29.5170    80.7470    17.0560    17.5280    15.4310    25.1890 
  188.5000     2.3900   -29.4970    79.3210    17.2500    17.7750    15.0840    25.1990 
  188.6250     2.3690   -29.5000    78.2680    17.4880    18.0520    15.4650    25.1530 
  188.7500     2.3630   -29.5450    77.9910    17.7010    18.2820    15.7890    25.0790 
  188.8750     2.3760   -29.6120    79.2150    17.8610    18.3990    15.1700    25.0450 
  189.0000     2.3960   -29.7220    80.9720    18.0850    18.4930    14.8140    25.0370 
  189.1250     2.4090   -29.8630    82.1600    18.5700    18.7380    15.1840    25.0370 
  189.2500     2.4150   -30.0080    83.0610    19.5510    19.3510    16.3780    25.0390 
  189.3750     2.4150   -30.2230    83.7660    21.4970    20.7070    17.4000    25.0520 
  189.5000     2.4060   -30.4350    84.3630    24.8940    23.1280    18.5490    25.0760 
  189.6250     2.3820   -30.6650    84.0140    30.8180    27.5090    22.3460    25.1130 
  189.7500     2.3450   -30.8980    82.9800    40.8910    35.7080    32.6840    25.1710 
  189.8750     2.3020   -31.1180    80.2630    58.3530    51.7910    55.7470    25.2600 
  190.0000     2.2640   -31.3460    75.8980    83.9150    76.7200    75.8480    25.2980 
  190.1250     2.2360   -31.5610    70.9880   116.8410   109.0940    83.7800    25.2830 
  190.2500     2.2170   -31.7820    68.0110   151.1250   142.1200    99.0410    25.2610 
  190.3750     2.2020   -31.9400    68.7650   173.0300   163.0800   124.5270    25.2530 
  190.5000     2.1880   -32.0870    70.8570   179.5950   170.1270   143.8600    25.2530 
  190.6250     2.1810   -32.2010    72.6340   177.3590   168.7210   129.3640    25.2530 
  190.7500     2.1800   -32.2870    73.4500   174.8910   166.2070    99.7960    25.2530 
  190.8750     2.1790   -32.3650    72.3010   180.0020   170.4570    98.8410    25.2530 
  191.0000     2.1750   -32.3690    70.2740   196.3750   185.9880   121.1690    25.2520 
  191.1250     2.1700   -32.3510    66.2830   226.0560   214.8720   157.9900    25.2440 
  191.2500     2.1660   -32.2860    60.5900   265.5130   253.1000   191.3470    25.2230 
  191.3750     2.1630   -32.3330    55.8130   285.0580   297.2630   201.0840    25.1920 
  191.5000     2.1610   -32.3330    54.9040   295.0740   302.6580   196.6670    25.1660 
  191.6250     2.1620   -32.3330    56.2600   281.6320   282.2790   181.3210    25.1330 
  191.7500     2.1660   -32.3330    57.6230   256.5870   252.2630   160.4530    25.1100 
  191.8750     2.1730   -32.3330    60.1920   233.9660   227.0850   147.5210    25.0950 
  192.0000     2.1780   -32.3330    62.2860   217.8690   208.5350   148.0130    25.0680 
  192.1250     2.1800   -32.3330    62.8290   206.6020   194.1840   147.1620    25.0230 
  192.2500     2.1840   -32.3330    63.2830   197.0770   181.0570   147.3980    24.9800 
  192.3750     2.1950   -32.2920    65.4150   186.0820   166.6370   154.7380    24.9650 
  192.5000     2.2070   -32.1670    67.0890   172.3300   150.3540   162.1630    24.9620 
  192.6250     2.2150   -32.0420    67.4110   155.8910   132.6960   148.7790    24.9620 
  192.7500     2.2210   -32.0000    67.0470   137.7920   114.8290   116.7570    24.9620 
  192.8750     2.2290   -31.9580    65.1900   120.1240    98.8530    90.0480    24.9620 
  193.0000     2.2350   -31.8330    64.5010   105.1140    86.2080    77.1930    24.9620 
  193.1250     2.2310   -31.8330    68.2380    94.1980    77.5890    77.1010    24.9620 
  193.2500     2.2150   -31.8330    73.8030    87.5840    72.6430    82.5880    24.9620 
  193.3750     2.2000   -31.6670    75.0000    84.8640    70.8460    64.5410    24.9590 
  193.5000     2.1910   -31.6670    72.8090    85.1560    71.7130    48.5720    24.9440 
  193.6250     2.1840   -31.6670    70.7160    89.7940    76.4180    49.3970    24.9080 
  193.7500     2.1750   -31.5000    68.8720   100.4970    86.2190    68.4910    24.8700 
  193.8750     2.1700   -31.5000    67.6130   118.3810   101.9900    91.4560    24.8400 
  194.0000     2.1710   -31.5000    68.5280   139.2020   120.4660    98.9280    24.8500 
  194.1250     2.1780   -31.5000    70.0690   158.2820   138.0340    98.9450    24.8870 
  194.2500     2.1840   -31.5000    69.6640   173.5920   153.0930   102.2470    24.9450 
  194.3750     2.1810   -31.5000    67.4810   190.8760   170.3420   119.6470    25.0340 
  194.5000     2.1710   -31.5000    65.3090   218.4720   196.6530   145.1070    25.0850 
  194.6250     2.1610   -31.5000    62.2860   258.7580   234.7120   169.6230    25.1020 
  194.7500     2.1560   -31.3330    58.2110   304.9190   279.3810   175.0710    25.1030 
  194.8750     2.1590   -31.3330    56.2910   338.1790   313.0710   167.7270    25.1030 
  195.0000     2.1660   -31.3330    56.8750   347.8140   324.2400   162.1450    25.1010 
  195.1250     2.1700   -31.2080    58.5360   337.6170   316.9190   165.4140    25.0840 
  195.2500     2.1680   -31.1670    61.5900   319.7270   303.0840   166.3520    25.0240 
  195.3750     2.1640   -31.1250    64.9620   304.2500   291.2410   169.5790    24.9070 
  195.5000     2.1610   -31.0000    65.1180   293.0310   282.5500   172.8650    24.8050 
  195.6250     2.1620   -31.0000    61.9000   286.7170   277.9160   170.2420    24.7940 
  195.7500     2.1640   -31.0000    57.9860   287.7940   279.6850   166.3520    24.9220 
  195.8750     2.1660   -31.0000    55.4570   299.6770   290.3630   165.7190    25.1860 
  196.0000     2.1660   -31.0000    53.7100   317.6230   305.1290   163.8180    25.3640 
  196.1250     2.1640   -31.0000    53.7570   333.1950   315.6220   165.7190    25.4080 
  196.2500     2.1610   -31.0000    56.5260   335.7790   311.7970   166.3520    25.3990 
  196.3750     2.1570   -31.0000    57.8340   315.9180   286.3030   178.7280    25.3950 
  196.5000     2.1570   -31.0000    56.7310   280.7490   248.3620   204.7230    25.3950 
  196.6250     2.1640   -31.0000    56.7800   238.5400   206.6370   193.0380    25.3950 
  196.7500     2.1780   -31.0000    61.0800   196.2070   167.3920   167.6770    25.3950 
  196.8750     2.1930   -31.0000    67.6160   159.4400   135.4730   131.2010    25.3950 
  197.0000     2.2040   -31.0000    71.3330   130.2860   111.3140   104.4390    25.3950 
  197.1250     2.2110   -31.0000    72.1060   109.2950    94.4970    90.2260    25.3950 
  197.2500     2.2170   -31.1670    72.0430    95.5310    83.7030    80.7950    25.3950 
  197.3750     2.2190   -31.2080    72.6190    88.0460    78.0280    72.4770    25.4010 
  197.5000     2.2170   -31.3330    73.3110    84.5960    75.8570    64.1660    25.4240 
  197.6250     2.2130   -31.4580    73.1300    84.9670    77.1540    67.2080    25.4770 
  197.7500     2.2050   -31.5000    71.6940    88.9720    81.6400    92.1280    25.5700 
  197.8750     2.1880   -31.5420    68.5130    95.3380    87.8590   108.1390    25.7590 
  198.0000     2.1740   -31.6670    65.4430   100.5150    92.5280    98.8160    26.0430 
  198.1250     2.1670   -31.7920    64.4470   101.8940    93.4620    80.9790    26.3390 
  198.2500     2.1610   -32.0000    65.2520    99.2690    90.9090    77.5660    26.3390 
  198.3750     2.1570   -32.0420    65.6970    95.1030    87.5030    83.6250    25.8630 
  198.5000     2.1560   -32.2500    64.9860    92.1360    85.4540    85.4370    25.3670 
  198.6250     2.1580   -32.3330    65.8370    90.4440    84.4400    86.3890    25.1050 
  198.7500     2.1640   -32.3330    69.0210    88.5590    82.9060    87.8650    25.0320 
  198.8750     2.1910   -32.5000    69.8800    84.7420    79.2710    86.8740    24.9980 
  199.0000     2.1940   -32.5000    68.4140    79.2920    74.0720    79.1230    24.9290 
  199.1250     2.2010   -32.6250    68.6640    73.2650    68.4650    66.8160    24.8450 
  199.2500     2.2090   -32.6670    72.7730    67.8670    63.6360    58.2480    24.7910 
  199.3750     2.2140   -32.7080    75.9840    64.1570    60.5390    55.1660    24.7540 
