~V
VERS. 2.00: Ver 2.00
~W
STRT.M 60.0000:
STOP.M 190.0000:
STEP.M 0.1250:
NULL. -999.2500:
UWI. F10561:
~C
DEPT.M :
SP.MV :
GR.API :
RML.OHMM :
RI. :
RXO.OHMM :
CALI.CM :
DEN.GM/CC :
~A
   60.0000     0.7310    64.7250     5.4380     5.0960     5.6740    32.8080     1.6120 
   60.1250    -2.7090    64.9400     5.8170     5.6580     5.4850    32.7180     1.6590 
   60.2500    -5.4610    62.9400     6.2780     6.1130     5.7000    32.5110     1.7160 
   60.3750    -7.6070    60.3380     6.7260     6.5100     6.1710    32.2810     1.7790 
   60.5000    -9.3210    58.4020     7.0620     6.9070     6.3730    32.1390     1.8420 
   60.6250   -10.6580    57.6240     7.3800     7.3720     6.0240    32.1220     1.8880 
   60.7500   -11.8270    57.3170     7.8910     7.9210     5.7850    32.2700     1.9100 
   60.8750   -12.8310    56.1710     8.6030     8.5280     5.8530    32.5340     1.9060 
   61.0000   -13.6610    54.8270     9.3770     9.1260     6.0880    32.7230     1.8850 
   61.1250   -14.2570    55.3650     9.8690     9.5910     6.0500    32.7280     1.8680 
   61.2500   -14.7290    55.3520    10.2220     9.8610     5.9090    32.6260     1.8670 
   61.3750   -15.0720    53.9950    10.5120     9.9250     5.8450    32.4660     1.8780 
   61.5000   -15.3090    53.6240    10.6900     9.8340     5.9200    32.2950     1.8890 
   61.6250   -15.4890    56.2920    10.5350     9.6740     5.8020    32.0730     1.8840 
   61.7500   -15.6080    58.8160    10.2100     9.5340     5.5770    31.7490     1.8590 
   61.8750   -15.7040    59.3170     9.8980     9.4380     5.8550    31.4340     1.8170 
   62.0000   -15.8030    59.5900     9.7450     9.3730     7.0980    31.2580     1.7590 
   62.1250   -15.9200    61.8230     9.7410     9.3150     7.7590    31.2110     1.6850 
   62.2500   -16.0470    62.6730     9.8600     9.2570     7.4620    31.1060     1.6090 
   62.3750   -16.1600    60.8520    10.2540     9.2270     6.9740    30.7810     1.5570 
   62.5000   -16.2670    58.7380    11.0290     9.2720     6.9380    30.0360     1.5580 
   62.6250   -16.3810    61.1530    11.7060     9.4760     7.2900    28.7520     1.6430 
   62.7500   -16.5350    66.2880    12.1470     9.8540     7.9450    27.0270     1.7820 
   62.8750   -16.7030    69.3860    12.4360    10.4040     8.8100    25.5510     1.9390 
   63.0000   -16.9020    69.0950    12.6320    11.0850     9.5140    24.7760     2.0750 
   63.1250   -17.1080    67.3100    12.7860    11.8210     9.9710    24.6130     2.1590 
   63.2500   -17.2860    65.7590    12.9740    12.5010    10.5370    24.6440     2.2070 
   63.3750   -17.4780    65.0220    13.2830    13.0450    11.0110    24.6980     2.2360 
   63.5000   -17.6890    64.2060    13.6140    13.3930    11.2850    24.7370     2.2570 
   63.6250   -17.8860    63.5200    13.7580    13.4750    11.1480    24.7770     2.2640 
   63.7500   -18.0430    63.5140    13.6680    13.3400    11.0860    24.8960     2.2470 
   63.8750   -18.1770    63.3860    13.3130    13.0370    11.1920    25.1960     2.2080 
   64.0000   -18.2570    62.4360    12.7810    12.6430    10.9100    25.6930     2.1600 
   64.1250   -18.3110    61.8550    12.4600    12.2490    10.0300    26.0210     2.1280 
   64.2500   -18.3760    63.0780    12.3090    11.9200     9.3980    25.8640     2.1230 
   64.3750   -18.4440    64.6420    12.3700    11.7000     9.6620    25.3970     2.1390 
   64.5000   -18.4880    63.8690    13.0860    11.6720    10.0840    24.9460     2.1640 
   64.6250   -18.4920    61.1630    16.0290    12.1200    10.2620    24.7830     2.1900 
   64.7500   -18.4760    59.0500    21.6560    13.3520    10.2890    24.7160     2.2270 
   64.8750   -18.4610    57.9440    28.1530    15.7800    10.2490    24.6250     2.2910 
   65.0000   -18.4580    56.4320    32.7510    19.6330    11.3920    24.4580     2.3850 
   65.1250   -18.4760    55.0460    34.6940    24.3150    17.7550    24.3360     2.4930 
   65.2500   -18.4610    56.6480    34.6710    27.5860    32.1610    24.2520     2.5780 
   65.3750   -18.4050    61.5920    31.9960    27.3910    45.2250    24.2410     2.6140 
   65.5000   -18.3480    67.7630    25.9420    23.4280    31.5080    24.2540     2.5950 
   65.6250   -18.3530    74.3610    16.0810    17.6370    15.1850    24.2730     2.5330 
   65.7500   -18.3570    80.8830    11.0490    12.6830     7.6010    24.3030     2.4640 
   65.8750   -18.3250    84.7150     9.2050     9.3760     5.6690    24.3460     2.4060 
   66.0000   -18.2930    84.7720     8.6650     7.5890     5.4570    24.3710     2.3670 
   66.1250   -18.2320    83.8530     8.4630     7.0120     5.6100    24.3590     2.3430 
   66.2500   -18.1890    83.2320     8.6780     7.0570     5.6860    24.3150     2.3240 
   66.3750   -18.1880    82.1750     8.9880     7.4460     6.1260    24.2710     2.3060 
   66.5000   -18.1830    81.4580     9.1880     7.9340     6.5380    24.2500     2.2930 
   66.6250   -18.1220    82.1180     9.1730     8.2710     6.5030    24.2490     2.2890 
   66.7500   -18.0430    82.3840     9.0830     8.3500     6.1640    24.2470     2.2940 
   66.8750   -18.0000    82.5670     8.9090     8.1660     6.0330    24.2380     2.3040 
   67.0000   -17.9330    84.8750     8.6580     7.7910     6.1440    24.1910     2.3160 
   67.1250   -17.8080    88.4000     8.4660     7.3600     6.1890    24.0980     2.3260 
   67.2500   -17.6460    90.1950     8.2830     7.0400     6.1500    23.9310     2.3310 
   67.3750   -17.4160    89.5830     8.0820     6.9560     6.2250    23.7200     2.3290 
   67.5000   -17.1520    86.4140     8.0050     7.2030     6.4970    23.5320     2.3150 
   67.6250   -16.9020    81.4370     8.4070     7.9050     6.9440    23.4520     2.2840 
   67.7500   -16.6390    76.6030     9.4990     8.9980     7.4750    23.4760     2.2380 
   67.8750   -16.3260    72.7710    11.0630    10.4300     8.2470    23.6000     2.1880 
   68.0000   -16.0170    70.1820    12.9020    12.1090     9.0770    23.8560     2.1530 
   68.1250   -15.7530    68.7170    14.8830    13.9160     9.6120    24.1580     2.1700 
   68.2500   -15.5160    68.5680    16.8270    15.6920    10.3940    24.4170     2.2430 
   68.3750   -15.3160    70.0870    18.5460    17.3080    11.8740    24.4880     2.3490 
   68.5000   -15.1320    71.6290    19.8230    18.6220    14.8840    24.4160     2.4450 
   68.6250   -14.9450    71.9100    20.3740    19.4010    16.7840    24.3680     2.4760 
   68.7500   -14.7530    71.3570    20.3190    19.6520    15.3410    24.3770     2.4400 
   68.8750   -14.5840    70.1280    19.8750    19.4540    13.6130    24.4190     2.3610 
   69.0000   -14.4540    67.5340    19.3540    19.0120    12.4360    24.4790     2.2750 
   69.1250   -14.3730    65.2540    19.0900    18.6320    11.5840    24.6160     2.2130 
   69.2500   -14.3050    65.4760    19.1130    18.5040    11.0290    24.8150     2.1740 
   69.3750   -14.2590    65.7260    19.2170    18.5840    11.0470    24.9260     2.1490 
   69.5000   -14.2530    65.1990    19.0180    18.5990    11.6450    24.9120     2.1300 
   69.6250   -14.3060    67.4700    18.0070    18.0280    12.3100    24.8380     2.1190 
   69.7500   -14.4880    72.5280    16.2610    16.7070    12.6390    24.7800     2.1230 
   69.8750   -14.7470    77.7520    14.1010    14.7750    11.8240    24.6830     2.1500 
   70.0000   -15.0280    81.8680    11.9630    12.6090    10.0910    24.5240     2.1950 
   70.1250   -15.3120    84.7230    10.2460    10.6720     8.0240    24.4380     2.2440 
   70.2500   -15.6140    86.2350     8.9910     9.1610     7.3010    24.4320     2.2790 
   70.3750   -15.9390    87.2420     8.1630     8.1100     7.0720    24.4410     2.2960 
   70.5000   -16.2300    87.1400     7.6960     7.4700     6.8910    24.4460     2.3040 
   70.6250   -16.4540    85.0780     7.5580     7.1960     6.6110    24.4540     2.3210 
   70.7500   -16.5990    83.0860     7.6370     7.1490     6.1570    24.4550     2.3480 
   70.8750   -16.6620    83.0540     7.9020     7.2870     6.0960    24.4450     2.3800 
   71.0000   -16.6760    82.7780     8.3480     7.6130     6.6290    24.4370     2.4100 
   71.1250   -16.6570    78.6630     9.0330     8.1990     7.2280    24.4370     2.4370 
