~V
VERS. 2.00: Ver 2.00
~W
STRT.M 55.0000:
STOP.M 318.0000:
STEP.M 0.1250:
NULL. -999.2500:
UWI. F10558:
~C
DEPT.M :
DEN.GM/CC :
GR.API :
RML.OHMM :
RI. :
RXO.OHMM :
CALI.CM :
SP.MV :
~A
# ...
  223.7500     2.2650    74.7510    12.8760    11.3400    13.0760    23.2120   -27.4780 
  223.8750     2.2510    73.8780    12.6730    11.2420    12.6950    23.2000   -27.3910 
  224.0000     2.2410    70.7280    12.8140    11.1760    12.5050    23.1980   -27.2860 
  224.1250     2.2350    69.4440    13.2750    11.1990    12.7820    23.1980   -27.1760 
  224.2500     2.2330    72.8780    13.8360    11.3150    13.2730    23.1980   -27.0660 
  224.3750     2.2320    75.7360    14.3370    11.5040    13.6690    23.1980   -26.9600 
  224.5000     2.2280    73.3230    14.6850    11.7260    13.7760    23.1980   -26.8390 
  224.6250     2.2220    70.8220    14.7820    11.9330    14.0050    23.1980   -26.7170 
  224.7500     2.2170    71.8640    14.6450    12.0870    14.6290    23.1980   -26.6100 
  224.8750     2.2150    72.1310    14.3330    12.1740    15.3390    23.1980   -26.5260 
  225.0000     2.2190    72.1200    13.9830    12.2050    15.5380    23.1980   -26.4540 
  225.1250     2.2290    75.8440    13.7780    12.2050    15.2840    23.1980   -26.3970 
  225.2500     2.2420    78.3760    13.7430    12.2010    15.1070    23.1980   -26.3840 
  225.3750     2.2570    74.8250    13.8280    12.2070    15.1440    23.1980   -26.4110 
  225.5000     2.2720    69.1300    13.9650    12.2300    15.3200    23.1980   -26.4720 
  225.6250     2.2830    66.3910    14.0810    12.2730    16.1410    23.1980   -26.5390 
  225.7500     2.2780    65.4960    14.1120    12.2890    16.8450    23.1980   -26.6090 
  225.8750     2.2540    65.9460    13.9650    12.2120    16.6490    23.1980   -26.6880 
  226.0000     2.2230    66.8540    13.5810    12.0060    15.3910    23.1980   -26.7940 
  226.1250     2.2070    65.9080    12.9970    11.7110    14.3960    23.1980   -26.8950 
  226.2500     2.2050    65.3550    12.4510    11.4450    13.9690    23.1980   -26.9710 
  226.3750     2.2100    66.1870    12.1260    11.2770    13.7700    23.1980   -27.0290 
  226.5000     2.2160    66.4820    12.0810    11.2120    13.7260    23.1980   -27.0680 
  226.6250     2.2180    66.0030    12.2110    11.2080    14.3990    23.2050   -27.0950 
  226.7500     2.2180    66.7300    12.2910    11.2100    14.8440    23.2280   -27.1100 
  226.8750     2.2180    66.8430    12.2460    11.2140    15.0550    23.2710   -27.0940 
  227.0000     2.2190    64.3780    12.1220    11.2440    14.8640    23.3210   -27.0250 
  227.1250     2.2160    61.2920    11.9900    11.3300    13.9750    23.3440   -26.9190 
  227.2500     2.2060    60.7430    11.8830    11.4640    12.9460    23.3470   -26.7800 
  227.3750     2.1940    60.0610    11.8080    11.6320    11.8680    23.3250   -26.6090 
  227.5000     2.1850    57.3410    11.7930    11.8110    11.0530    23.2650   -26.4320 
  227.6250     2.1810    55.6430    11.8750    11.9750    11.1840    23.2220   -26.2320 
  227.7500     2.1790    58.7730    12.0090    12.0940    11.4740    23.2260   -26.0290 
  227.8750     2.1750    64.3620    12.0710    12.1310    11.6440    23.2830   -25.8210 
  228.0000     2.1690    66.4730    11.9050    12.0560    11.7740    23.3790   -25.6190 
  228.1250     2.1590    63.7050    11.5170    11.8730    11.8150    23.6430   -25.3950 
  228.2500     2.1400    61.2560    11.2720    11.7080    11.5570    24.2010   -25.1490 
  228.3750     2.1120    59.5270    11.5480    11.7300    11.1770    25.0190   -24.8480 
  228.5000     2.0910    55.9520    12.7070    12.1840    10.9040    25.9350   -24.4650 
  228.6250     2.1190    52.6160    15.5520    13.7210    11.4750    26.3540   -23.9600 
  228.7500     2.2110    53.2680    20.7440    17.2630    13.8200    26.0210   -23.3570 
  228.8750     2.3620    55.3260    29.3590    24.5150    20.1290    25.1670   -22.6580 
  229.0000     2.5380    55.1780    42.4820    37.4470    36.7030    24.4790   -21.8880 
  229.1250     2.6570    53.8100    60.0690    57.1640   103.0650    24.2610   -21.0760 
  229.2500     2.6820    55.5310    74.2720    75.8130   175.7540    24.2310   -20.2550 
  229.3750     2.6460    60.2490    74.6680    81.5230   127.4760    24.2310   -19.4480 
  229.5000     2.6030    67.7450    61.4870    70.8210    71.2390    24.2310   -18.6890 
  229.6250     2.5760    75.9330    46.3900    53.9790    74.6200    24.2310   -18.0130 
  229.7500     2.5580    79.8870    35.4980    40.6860    69.4540    24.2310   -17.4070 
  229.8750     2.5470    78.6060    28.1370    31.6960    52.5500    24.2310   -16.8750 
  230.0000     2.5500    79.1070    22.7630    25.3820    39.8710    24.2220   -16.3940 
  230.1250     2.5760    86.2690    18.5020    20.4820    31.1500    24.1830   -15.9540 
  230.2500     2.6100    91.4440    14.9290    16.3650    23.4580    24.1140   -15.5420 
  230.3750     2.6280    90.7600    12.0340    13.0330    16.7770    24.0490   -15.1570 
  230.5000     2.6080    87.6280     9.7350    10.4380    14.1470    24.0170   -14.8060 
  230.6250     2.5390    84.6530     7.9520     8.4990    14.7960    24.0040   -14.5390 
  230.7500     2.4500    80.8090     6.5470     6.9870    11.0740    23.9590   -14.3330 
  230.8750     2.3760    76.2280     5.5760     5.8720     6.4050    23.8590   -14.2090 
  231.0000     2.3370    71.8850     5.1050     5.1690     4.5920    23.7600   -14.1890 
  231.1250     2.3310    66.5090     5.2350     4.9590     4.3930    23.7390   -14.3200 
  231.2500     2.3320    64.6140     5.8010     5.1470     4.7110    23.7990   -14.5610 
  231.3750     2.3350    72.1140     6.6450     5.6670     5.0370    23.9150   -14.9020 
  231.5000     2.3420    84.1370     7.5940     6.4100     5.5110    24.0000   -15.3170 
  231.6250     2.3510    91.8120     8.4850     7.2680     6.1270    24.0250   -15.7950 
  231.7500     2.3590    97.6580     9.3230     8.1640     6.8950    24.0360   -16.3050 
  231.8750     2.3640   105.9250    10.2180     9.0820     7.7680    24.0630   -16.8120 
  232.0000     2.3700   112.2100    11.2090     9.9950     9.0850    24.1210   -17.2690 
  232.1250     2.3730   106.2350    12.1390    10.8060    11.2060    24.1470   -17.6320 
  232.2500     2.3690    94.4310    12.7520    11.4130    13.2220    24.1550   -17.9040 
  232.3750     2.3590    87.8100    12.9120    11.7150    13.9460    24.1420   -18.0880 
  232.5000     2.3560    90.3410    12.7180    11.7010    13.6800    24.1080   -18.1600 
  232.6250     2.3700    95.5760    12.5070    11.4880    13.2180    24.0460   -18.0880 
  232.7500     2.3910    96.7760    12.6010    11.3210    13.4710    24.0180   -17.8660 
  232.8750     2.4070    95.7320    13.0560    11.3180    14.9800    24.0110   -17.5080 
  233.0000     2.4170    95.6640    13.6580    11.4280    17.5460    24.0110   -17.0240 
  233.1250     2.4210    96.1080    13.8590    11.3470    21.0270    24.0110   -16.4040 
  233.2500     2.4260    95.4900    13.2830    10.7790    21.4920    24.0110   -15.6990 
  233.3750     2.4350    94.4370    11.8870     9.6530    17.3150    24.0110   -14.9340 
  233.5000     2.4420    91.5540    10.0250     8.1920    11.9220    24.0110   -14.1730 
  233.6250     2.4320    85.2510     8.3440     6.8330     7.9140    24.0110   -13.4400 
  233.7500     2.4090    78.3260     7.2380     5.8480     6.4000    24.0110   -12.7810 
  233.8750     2.3880    73.3330     6.7910     5.2980     5.7080    24.0110   -12.2170 
  234.0000     2.3790    69.7730     6.9080     5.1270     5.5190    24.0110   -11.7730 
  234.1250     2.3790    65.6800     7.3960     5.2370     5.6410    24.0110   -11.4530 
  234.2500     2.3850    60.8800     7.9110     5.4430     5.7840    24.0110   -11.2310 
  234.3750     2.3950    56.7240     8.2530     5.6550     5.9180    24.0090   -11.0870 
  234.5000     2.4050    53.5360     8.3570     5.8310     6.1400    23.9980   -11.0010 
  234.6250     2.4080    51.3980     8.3080     5.9520     6.3210    23.9710   -10.9590 
  234.7500     2.4030    49.6660     8.2570     6.0240     6.4250    23.9460   -10.9390 
  234.8750     2.3940    47.9930     8.2300     6.0480     6.4510    23.9360   -10.9230 
