~V
VERS. 2.00: Ver 2.00
~W
STRT.M 58.0000:
STOP.M 193.0000:
STEP.M 0.1250:
NULL. -999.2500:
UWI. F10563:
~C
DEPT.M :
GR.API :
RML.OHMM :
RI. :
RXO.OHMM :
CALI.CM :
DEN.GM/CC :
SP.MV :
~A
# ...
  103.0000    72.6000    30.8520    30.1660    24.9270    23.9730     2.1540    -7.1960 
  103.1250    73.5370    31.3860    30.8540    26.8030    24.0070     2.1780    -7.1320 
  103.2500    73.8050    31.8560    31.5390    29.2160    24.0330     2.1900    -7.0680 
  103.3750    74.0290    32.3540    32.3030    30.9980    24.1210     2.1850    -7.0680 
  103.5000    72.4870    33.0070    33.2510    31.8660    24.3340     2.1620    -7.1660 
  103.6250    69.0390    34.0740    34.5980    32.4720    24.6120     2.1290    -7.3640 
  103.7500    67.6540    35.6310    36.4360    33.8950    24.6960     2.0960    -7.5320 
  103.8750    67.5110    37.4240    38.6460    36.7740    24.6470     2.0720    -7.6310 
  104.0000    65.8340    38.5770    40.5250    39.4840    24.5830     2.0660    -7.7330 
  104.1250    63.1990    37.2740    40.2870    42.4030    24.5740     2.0950    -7.9470 
  104.2500    63.1720    33.1410    37.0970    46.0500    24.5080     2.1550    -8.2340 
  104.3750    67.8370    27.0100    31.3250    45.7400    24.2210     2.2340    -8.5250 
  104.5000    75.7170    20.5480    24.5210    29.9560    23.8770     2.3110    -8.7400 
  104.6250    84.5310    15.4520    18.6560    16.2560    23.7020     2.3630    -8.8380 
  104.7500    91.5610    11.9790    14.4340     9.9180    23.6600     2.3880    -8.9600 
  104.8750    96.2400     9.8790    11.7530     8.9480    23.6630     2.3880    -9.1460 
  105.0000    97.0660     8.7450    10.2190     8.9160    23.6850     2.3680    -9.2960 
  105.1250    94.1940     8.2410     9.4900     8.2840    23.7730     2.3360    -9.2500 
  105.2500    92.4520     7.9590     9.0870     7.7810    23.9500     2.3070    -9.1130 
  105.3750    93.0970     7.7510     8.8100     8.0260    24.1370     2.2910    -9.0160 
  105.5000    95.0100     7.6220     8.6160     8.4480    24.1520     2.2880    -9.0090 
  105.6250    96.3530     7.8000     8.6970     8.7450    24.0630     2.2900    -9.0220 
  105.7500    96.4570     8.5150     9.2920     7.7500    24.1140     2.2820    -8.9810 
  105.8750    92.7730     9.9970    10.6570     8.0780    24.3280     2.2590    -8.8940 
  106.0000    83.1470    12.3720    12.9750    11.2840    24.5940     2.2280    -8.7890 
  106.1250    71.5710    15.6390    16.3420    20.1880    24.6430     2.2020    -8.7650 
  106.2500    64.3350    19.2000    20.1470    28.0040    24.6040     2.1960    -8.7890 
  106.3750    63.7320    22.5050    23.7390    29.7040    24.5110     2.2150    -8.7540 
  106.5000    66.7220    25.2580    26.6570    27.3140    24.4290     2.2640    -8.6240 
  106.6250    67.7020    27.7360    28.9990    25.9850    24.3940     2.3410    -8.4900 
  106.7500    64.9910    30.6830    31.5510    28.7040    24.3890     2.4280    -8.4230 
  106.8750    61.1860    34.4540    34.7680    38.8960    24.3920     2.5030    -8.4340 
  107.0000    58.7250    38.7410    38.4880    56.0960    24.3960     2.5500    -8.5390 
  107.1250    58.4310    42.3080    41.6720    63.5320    24.3970     2.5560    -8.7420 
  107.2500    59.3330    44.1120    43.3400    52.0480    24.3980     2.5340    -8.8870 
  107.3750    61.4400    43.9860    43.2440    41.6020    24.3980     2.5010    -8.9310 
  107.5000    63.0710    42.6850    41.9640    39.5460    24.3970     2.4700    -8.9840 
  107.6250    62.4600    41.4700    40.6090    39.0230    24.3470     2.4560    -9.1490 
  107.7500    61.8910    41.1470    40.0170    36.8040    24.2030     2.4530    -9.3660 
  107.8750    61.9630    41.8300    40.3780    35.9510    23.9990     2.4560    -9.5780 
  108.0000    61.3780    43.2540    41.4960    35.2190    23.8310     2.4550    -9.7350 
  108.1250    60.8080    44.9270    42.9670    35.7230    23.7560     2.4470    -9.7990 
  108.2500    60.8320    46.2880    44.2800    35.8020    23.6980     2.4350    -9.9240 
  108.3750    60.0170    47.0690    45.1730    37.1030    23.6340     2.4270   -10.1500 
  108.5000    57.8200    47.2910    45.5990    38.3230    23.5970     2.4280   -10.3580 
  108.6250    56.5010    47.2890    45.7420    37.1980    23.6220     2.4440   -10.3930 
  108.7500    56.8590    47.5890    46.0330    35.6650    23.7120     2.4710   -10.3000 
  108.8750    57.5340    48.5050    46.7860    35.6860    23.8350     2.5040   -10.1610 
  109.0000    57.7180    50.1120    48.1380    38.8510    23.9130     2.5370   -10.0770 
  109.1250    57.7250    52.2200    49.9900    40.1090    23.9540     2.5670   -10.0950 
  109.2500    56.9170    54.2380    51.8200    40.7380    23.9950     2.5880   -10.1170 
  109.3750    55.5620    55.6630    53.1580    42.5150    24.0370     2.5940   -10.1200 
  109.5000    53.8520    56.1300    53.6670    45.0920    24.0830     2.5770   -10.1260 
  109.6250    52.0920    55.4240    53.1130    47.8240    24.1280     2.5340   -10.1240 
  109.7500    51.8190    54.1460    51.8060    44.6040    24.1580     2.4820   -10.1170 
  109.8750    53.3050    52.6990    49.9610    42.8250    24.1800     2.4380   -10.0910 
  110.0000    56.3170    50.6910    47.8040    43.3550    24.1920     2.4170    -9.9980 
  110.1250    59.5790    48.2950    45.6040    42.4560    24.1960     2.4270    -9.8600 
  110.2500    62.5290    46.0770    43.6610    37.2370    24.2030     2.4520    -9.7780 
  110.3750    64.0270    44.4920    42.2030    33.6190    24.2260     2.4760    -9.7370 
  110.5000    61.7080    43.6770    41.3820    32.7980    24.2570     2.4870    -9.6310 
  110.6250    58.2840    43.7140    41.3170    36.2400    24.2740     2.4740    -9.4880 
  110.7500    57.6580    44.2250    41.7190    37.6470    24.2720     2.4490    -9.4180 
  110.8750    58.8080    44.8630    42.3190    37.3300    24.2670     2.4220    -9.4570 
  111.0000    58.3540    45.3060    42.8350    36.8270    24.2490     2.4070    -9.5580 
  111.1250    55.7310    45.3050    43.0190    35.2590    24.2040     2.4130    -9.6280 
  111.2500    54.9500    44.9710    42.8960    34.1760    24.1570     2.4320    -9.6280 
  111.3750    55.6790    44.4670    42.5710    34.0120    24.1440     2.4530    -9.6190 
  111.5000    55.6960    43.9670    42.1940    34.8240    24.1590     2.4640    -9.6800 
  111.6250    54.7770    43.6200    41.9190    37.0450    24.1820     2.4570    -9.8170 
  111.7500    54.6090    43.4500    41.7940    36.5090    24.1860     2.4360    -9.9090 
  111.8750    56.9050    43.4550    41.8130    34.1400    24.1700     2.4120    -9.8500 
  112.0000    58.7410    43.6360    41.9590    32.9330    24.1300     2.3970    -9.6680 
  112.1250    57.7930    44.0220    42.2610    34.0960    24.0790     2.4040    -9.4650 
  112.2500    56.1400    44.5240    42.6850    35.1840    24.0540     2.4270    -9.3260 
  112.3750    55.4860    45.0080    43.1480    34.7930    24.0830     2.4550    -9.2420 
  112.5000    55.3160    45.2850    43.4920    36.0440    24.1190     2.4780    -9.1740 
  112.6250    54.1830    45.1270    43.4820    40.2670    24.1300     2.4830    -9.1170 
  112.7500    54.4250    44.6170    43.1240    41.8110    24.1220     2.4700    -9.1030 
  112.8750    56.4100    43.9850    42.5900    40.1640    24.0860     2.4460    -9.1670 
  113.0000    58.4540    43.5530    42.1820    36.1260    24.0260     2.4200    -9.2530 
  113.1250    59.8460    43.6400    42.2480    37.7720    23.9470     2.4030    -9.2860 
  113.2500    59.5850    44.0990    42.7280    38.0190    23.9240     2.3990    -9.2190 
  113.3750    58.3160    44.5810    43.3400    38.5770    23.9400     2.4030    -9.0100 
  113.5000    58.0770    44.6300    43.6540    37.6130    23.9490     2.4080    -8.7710 
  113.6250    60.0470    43.7940    43.1790    34.5480    23.9870     2.4050    -8.6780 
  113.7500    60.0380    42.3110    42.0250    31.6190    24.1190     2.3940    -8.6640 
  113.8750    57.6090    40.6000    40.5320    29.9890    24.3140     2.3790    -8.6140 
  114.0000    56.6160    39.1200    39.1400    30.5580    24.4540     2.3660    -8.5390 
  114.1250    59.0160    38.2940    38.2970    31.5460    24.4730     2.3630    -8.4580 
