~V
VERS. 2.00: Ver 2.00
~W
STRT.M 58.0000:
STOP.M 203.0000:
STEP.M 0.1250:
NULL. -999.2500:
UWI. F10566:
~C
DEPT.M :
GR.API :
RML.OHMM :
RI. :
RXO.OHMM :
CALI.CM :
SP.MV :
DEN.GM/CC :
~A
# ...
  181.7500    71.1020     8.4490     6.5070    11.0150    24.5980   -13.4900     2.2990 
  181.8750    66.0980     7.8710     6.3200    10.5330    24.4150   -13.5020     2.3190 
  182.0000    59.6100     7.0300     5.9400     7.8750    24.0380   -13.4490     2.3380 
  182.1250    57.7090     6.2320     5.4970     6.0890    23.6990   -13.0900     2.3470 
  182.2500    58.6650     5.7040     5.1390     5.3250    23.4980   -12.9180     2.3420 
  182.3750    58.4370     5.5210     4.9350     5.2400    23.5400   -12.8700     2.3260 
  182.5000    55.9000     5.6500     4.8940     5.3660    23.7020   -12.5700     2.3040 
  182.6250    54.6750     5.9940     4.9810     5.5990    23.7880   -12.4560     2.2820 
  182.7500    55.8050     6.3640     5.1030     5.8150    23.7780   -12.5980     2.2650 
  182.8750    57.0070     6.6480     5.2000     5.9340    23.7130   -12.5750     2.2560 
  183.0000    58.1200     6.7860     5.2380     5.7610    23.6720   -12.4690     2.2560 
  183.1250    60.6130     6.7350     5.2050     5.3960    23.6970   -12.6620     2.2620 
  183.2500    63.8470     6.5430     5.1320     5.1090    23.7810   -12.7720     2.2680 
  183.3750    64.5410     6.2670     5.0480     5.0360    23.8920   -12.6960     2.2720 
  183.5000    62.1400     6.0070     4.9860     5.1270    23.9980   -12.8170     2.2760 
  183.6250    60.8510     5.9140     4.9880     5.2820    24.0860   -12.8080     2.2830 
  183.7500    60.5260     6.0400     5.0650     5.4440    24.1780   -12.6250     2.2970 
  183.8750    59.4070     6.3680     5.2160     5.6570    24.2530   -12.6410     2.3160 
  184.0000    57.7060     6.8160     5.4220     5.9660    24.2600   -12.6710     2.3400 
  184.1250    55.4390     7.2430     5.6390     6.3740    24.2180   -12.5560     2.3620 
  184.2500    52.0850     7.5340     5.8140     6.6910    24.1620   -12.5610     2.3770 
  184.3750    48.3700     7.6410     5.9160     6.6970    24.0780   -12.5450     2.3810 
  184.5000    45.6770     7.5710     5.9370     6.5890    24.0130   -12.4970     2.3740 
  184.6250    45.2400     7.3530     5.8820     6.5460    23.9750   -12.6850     2.3610 
  184.7500    47.1680     7.0830     5.7990     6.5150    23.9540   -12.8400     2.3500 
  184.8750    50.9340     6.8440     5.7230     6.3640    23.9460   -12.7620     2.3460 
  185.0000    53.4810     6.7100     5.6820     6.1860    23.9450   -12.8170     2.3540 
  185.1250    52.7280     6.7540     5.6940     6.1700    23.9440   -13.0000     2.3740 
  185.2500    52.2220     6.9340     5.7390     6.3630    23.9400   -13.0460     2.3970 
  185.3750    52.4520     7.1740     5.7940     6.6910    23.9220   -13.1470     2.4130 
  185.5000    51.9420     7.3800     5.8340     7.1080    23.8740   -13.3120     2.4150 
  185.6250    51.6810     7.4710     5.8400     7.1520    23.8150   -13.4830     2.4030 
  185.7500    53.1580     7.4910     5.8360     6.6050    23.7520   -13.6600     2.3850 
  185.8750    54.9380     7.5260     5.8670     6.1390    23.6240   -13.9050     2.3720 
  186.0000    55.0630     7.6630     5.9840     6.1480    23.3910   -14.2270     2.3670 
  186.1250    56.0800     7.9650     6.2500     6.5590    23.3190   -14.3580     2.3710 
  186.2500    59.8950     8.3750     6.6340     7.1400    23.4630   -14.5110     2.3800 
  186.3750    62.8650     8.8100     7.0790     8.3320    23.6840   -14.9180     2.3880 
  186.5000    62.3750     9.1770     7.4950     9.8180    23.9380   -15.1700     2.3910 
  186.6250    60.7730     9.3800     7.7530    10.2720    24.1880   -15.1520     2.3860 
  186.7500    60.2580     9.4340     7.8200     9.7970    24.3330   -15.3580     2.3730 
  186.8750    59.2140     9.3780     7.7140     9.4980    24.3930   -15.5640     2.3560 
  187.0000    55.9830     9.2580     7.4970     9.2850    24.4070   -15.6190     2.3400 
  187.1250    53.6100     9.1000     7.2550     9.2410    24.4070   -15.8410     2.3290 
  187.2500    55.1470     8.9280     7.0580     9.0250    24.4000   -16.0220     2.3250 
  187.3750    58.0130     8.7720     6.9380     8.8160    24.3840   -15.9000     2.3260 
  187.5000    58.9060     8.6750     6.9100     8.8190    24.3610   -15.8480     2.3330 
  187.6250    57.7130     8.6840     6.9810     8.7410    24.3370   -16.0100     2.3460 
  187.7500    57.6760     8.7660     7.1100     8.5570    24.3070   -15.9480     2.3600 
  187.8750    59.6230     8.8530     7.2460     8.8500    24.2830   -15.9210     2.3720 
  188.0000    61.9330     8.8630     7.3290     9.9920    24.2790   -15.9300     2.3780 
  188.1250    62.7550     8.7270     7.2900    10.7180    24.3010   -15.7680     2.3770 
  188.2500    60.9610     8.4990     7.1440     9.8210    24.3320   -15.5500     2.3730 
  188.3750    57.7070     8.2590     6.9300     8.6030    24.3570   -15.4490     2.3690 
  188.5000    55.9920     8.0810     6.7100     7.9190    24.3660   -15.3990     2.3670 
  188.6250    57.9610     8.0140     6.5430     7.7800    24.3670   -15.1610     2.3630 
  188.7500    61.2640     8.0080     6.4410     7.8260    24.3700   -15.0380     2.3570 
  188.8750    63.0290     7.9990     6.3900     7.8590    24.3720   -14.8590     2.3530 
  189.0000    63.6840     7.9370     6.3570     8.0480    24.3750   -14.5930     2.3520 
  189.1250    65.1300     7.8140     6.3070     8.0620    24.3820   -14.3440     2.3550 
  189.2500    66.9080     7.6990     6.2330     7.7060    24.3930   -14.3550     2.3590 
  189.3750    68.0940     7.6610     6.1430     7.4540    24.4010   -14.3600     2.3640 
  189.5000    69.8480     7.7320     6.0520     7.3070    24.4020   -14.2910     2.3670 
  189.6250    71.6850     7.8820     5.9750     7.1320    24.3800   -14.1790     2.3710 
  189.7500    71.0970     8.0000     5.9120     6.9330    24.3400   -13.9480     2.3750 
  189.8750    68.3860     8.0010     5.8590     6.9370    24.3210   -13.9020     2.3740 
  190.0000    64.8000     7.8450     5.8070     7.0730    24.3560   -13.9530     2.3610 
  190.1250    59.4570     7.5460     5.7510     6.9440    24.4550   -13.9960     2.3330 
  190.2500    52.8580     7.2170     5.6910     6.5350    24.5140   -13.9530     2.3010 
  190.3750    48.3220     6.9360     5.6350     6.2600    24.5560   -13.9370     2.2760 
  190.5000    47.3170     6.7430     5.5900     6.1500    24.5740   -13.8890     2.2670 
  190.6250    48.9550     6.6560     5.5680     6.2520    24.5080   -14.0530     2.2740 
  190.7500    51.9210     6.6480     5.5680     6.3650    24.3530   -14.4770     2.2860 
  190.8750    54.1690     6.7090     5.5860     6.4980    24.2160   -14.8360     2.2950 
  191.0000    54.4520     6.8360     5.6180     6.5000    24.1840   -15.0990     2.3030 
  191.1250    52.7140     7.0290     5.6620     6.6310    24.2180   -15.3440     2.3210 
  191.2500    52.2330     7.2450     5.7240     6.6090    24.3130   -15.6940     2.3500 
  191.3750    53.6880     7.4330     5.8040     6.8050    24.4640   -15.9260     2.3800 
  191.5000    55.1300     7.5380     5.8920     7.1540    24.5170   -16.1570     2.3940 
  191.6250    54.5750     7.5000     5.9530     7.1540    24.3440   -16.2870     2.3800 
  191.7500    52.3130     7.3320     5.9590     7.2850    24.1800   -16.3560     2.3520 
  191.8750    50.2300     7.0660     5.8950     7.1500    24.1130   -16.5020     2.3260 
  192.0000    49.9080     6.7630     5.7700     6.6960    24.1120   -16.7040     2.3130 
  192.1250    49.9080     6.5280     5.6240     6.3030    24.1570   -17.0290     2.3120 
  192.2500    49.9080     6.4430     5.5110     6.2150    24.2480   -17.1270     2.3100 
  192.3750    49.9080     6.5450     5.4720     6.5170    24.3110   -17.3170     2.3050 
  192.5000    49.9080     6.8210     5.5330     6.7750    24.3320   -17.6380     2.3010 
  192.6250    49.9080     7.2110     5.7050     7.0150    24.3340   -18.0180     2.3030 
  192.7500    49.9080     7.6000     5.9370     7.5510    24.3440   -18.4340     2.3070 
  192.8750    49.9080     7.9210     6.1840     8.3900    24.3710   -18.6810     2.3070 
