~V
VERS. 2.00: Ver 2.00
~W
STRT.M 55.0000:
STOP.M 318.0000:
STEP.M 0.1250:
NULL. -999.2500:
UWI. F10558:
~C
DEPT.M :
DEN.GM/CC :
GR.API :
RML.OHMM :
RI. :
RXO.OHMM :
CALI.CM :
SP.MV :
~A
# ...
  235.0000     2.3870    46.5920     8.1730     6.0270     6.3190    23.9350   -10.9070 
  235.1250     2.3870    46.0490     8.0040     5.9670     6.3160    23.9350   -10.9000 
  235.2500     2.3890    46.4070     7.7420     5.8940     6.3180    23.9350   -10.8990 
  235.3750     2.3900    46.7800     7.4390     5.8240     6.3390    23.9350   -10.8980 
  235.5000     2.3910    47.7740     7.1620     5.7680     6.2870    23.9350   -10.8980 
  235.6250     2.3940    49.3100     6.9710     5.7310     6.3200    23.9350   -10.8920 
  235.7500     2.3970    48.4150     6.8670     5.7050     6.3110    23.9350   -10.8960 
  235.8750     2.3990    45.2920     6.8650     5.6860     6.1940    23.9350   -10.9040 
  236.0000     2.4000    44.0080     6.9590     5.6650     6.0920    23.9350   -10.9190 
  236.1250     2.4050    47.0020     7.0730     5.6340     6.0540    23.9350   -10.9290 
  236.2500     2.4080    50.0620     7.1000     5.5880     6.1020    23.9350   -10.9510 
  236.3750     2.4050    50.9510     7.0070     5.5250     6.0130    23.9440   -10.9960 
  236.5000     2.3910    50.2000     6.8390     5.4460     5.8000    23.9820   -11.0560 
  236.6250     2.3690    50.1190     6.7060     5.3530     5.5430    24.0660   -11.1090 
  236.7500     2.3470    52.0120     6.6990     5.2590     5.3630    24.1290   -11.1620 
  236.8750     2.3300    54.8670     6.8330     5.1830     5.3070    24.1520   -11.2190 
  237.0000     2.3220    57.3020     7.0540     5.1510     5.3340    24.1550   -11.2730 
  237.1250     2.3230    60.8840     7.2600     5.2140     5.3520    24.1550   -11.3300 
  237.2500     2.3290    67.3470     7.3890     5.3760     5.5170    24.1550   -11.3660 
  237.3750     2.3420    74.1480     7.4620     5.6290     5.7790    24.1550   -11.3790 
  237.5000     2.3600    78.8200     7.5500     5.9490     6.1870    24.1550   -11.3740 
  237.6250     2.3790    82.6620     7.7660     6.2810     6.7670    24.1550   -11.3790 
  237.7500     2.3910    86.9050     8.0500     6.5430     7.5670    24.1550   -11.3750 
  237.8750     2.3900    90.6470     8.2340     6.6660     7.9540    24.1610   -11.3630 
  238.0000     2.3770    92.6240     8.1780     6.6180     7.8480    24.1780   -11.3280 
  238.1250     2.3650    94.4710     7.8460     6.4200     7.4350    24.2120   -11.2910 
  238.2500     2.3620    97.2310     7.4210     6.1820     7.3350    24.2280   -11.2660 
  238.3750     2.3650   101.1030     7.0610     5.9770     7.1310    24.2310   -11.2540 
  238.5000     2.3650   102.2400     6.8580     5.8470     6.7980    24.2310   -11.2460 
  238.6250     2.3600    97.4940     6.8370     5.8120     6.5560    24.2480   -11.2590 
  238.7500     2.3540    93.0800     6.9250     5.8400     6.5250    24.3220   -11.3050 
  238.8750     2.3490    91.8720     7.1060     5.9160     6.5100    24.4660   -11.3840 
  239.0000     2.3470    90.8120     7.3380     6.0280     6.5010    24.5710   -11.5050 
  239.1250     2.3510    88.8540     7.5360     6.1730     6.6310    24.6040   -11.6710 
  239.2500     2.3580    89.7960     7.6850     6.3680     6.7820    24.6040   -11.8760 
  239.3750     2.3630    93.6940     7.8660     6.6580     7.0280    24.6030   -12.1130 
  239.5000     2.3610    96.6540     8.2380     7.1170     7.4970    24.6010   -12.3810 
  239.6250     2.3520    95.8870     9.2170     7.9060     8.0570    24.6030   -12.6770 
  239.7500     2.3360    93.6700    11.1860     9.1550     8.8570    24.6040   -12.9750 
  239.8750     2.3130    90.2760    14.5510    11.1240    10.6030    24.6040   -13.2780 
  240.0000     2.2910    85.3460    19.5790    14.1660    14.2470    24.6030   -13.5620 
  240.1250     2.2750    80.7910    26.4070    18.8240    20.1050    24.6020   -13.8260 
  240.2500     2.2620    77.8130    34.0300    24.7710    24.0400    24.6010   -14.0740 
  240.3750     2.2450    77.0900    41.3790    31.3840    26.9000    24.6020   -14.2990 
  240.5000     2.2230    78.3280    47.5510    37.7810    32.0390    24.6000   -14.5050 
  240.6250     2.2070    81.4370    52.0620    43.1410    41.2880    24.5810   -14.6800 
  240.7500     2.2040    82.6950    55.2570    47.3400    49.1090    24.4870   -14.8090 
  240.8750     2.2110    80.0180    56.7820    49.9380    51.0800    24.2980   -14.9010 
  241.0000     2.2150    76.2490    55.9850    50.2250    49.3710    24.1400   -14.9850 
  241.1250     2.2100    74.0440    52.6080    47.7010    48.2320    24.0840   -15.0460 
  241.2500     2.2020    71.1180    48.4580    44.0120    45.1560    24.0780   -15.0780 
  241.3750     2.1960    68.9760    45.0010    40.6200    41.0870    24.0780   -15.0950 
  241.5000     2.1940    70.9280    43.1790    38.4830    36.3430    24.0780   -15.1040 
  241.6250     2.1950    76.4030    43.8730    38.4160    35.0100    24.0730   -15.0970 
  241.7500     2.1940    79.2590    46.9020    40.3630    36.5720    24.0600   -15.0930 
  241.8750     2.1840    77.3010    52.0820    44.2930    41.4910    24.0610   -15.0850 
  242.0000     2.1600    72.9130    58.7310    49.7800    49.8360    24.1280   -15.0890 
  242.1250     2.1340    70.5670    65.2900    55.7750    60.7680    24.2860   -15.0830 
  242.2500     2.1210    70.4430    69.9980    60.7580    65.6530    24.4590   -15.0870 
  242.3750     2.1250    70.2780    72.1340    63.9130    64.5650    24.5640   -15.0910 
  242.5000     2.1380    70.0270    72.2220    65.3180    62.9070    24.5760   -15.0980 
  242.6250     2.1470    67.5090    71.2220    65.5030    64.8780    24.5250   -15.0920 
  242.7500     2.1520    63.6890    69.7060    64.9860    67.1450    24.4640   -15.0990 
  242.8750     2.1570    61.2410    67.3080    63.4860    64.9940    24.3740   -15.1060 
  243.0000     2.1630    61.7180    63.6080    60.6300    60.3120    24.1690   -15.1070 
  243.1250     2.1680    64.5060    58.5460    56.3170    55.3420    23.8550   -15.1140 
  243.2500     2.1720    67.5540    53.0630    51.4830    49.8120    23.6430   -15.1180 
  243.3750     2.1760    70.8860    48.0080    46.9720    44.5200    23.5850   -15.1170 
  243.5000     2.1810    74.0520    44.0320    43.3960    42.4700    23.6610   -15.1040 
  243.6250     2.1860    75.4190    41.6410    41.1540    44.3770    23.9240   -15.1110 
  243.7500     2.1940    76.2590    40.4320    39.8810    45.8000    24.2770   -15.1180 
  243.8750     2.2040    76.9050    39.9590    39.2680    43.7990    24.5110   -15.1340 
  244.0000     2.2110    76.6070    39.7650    39.0560    40.0130    24.5750   -15.1320 
  244.1250     2.2140    74.4260    39.7370    39.2370    39.7210    24.5440   -15.1140 
  244.2500     2.2160    71.4140    40.1160    39.8680    40.0650    24.5090   -15.0870 
  244.3750     2.2180    69.5380    41.1720    41.0540    40.2420    24.4060   -15.0560 
  244.5000     2.2190    68.4300    42.9130    42.7680    41.5460    24.1800   -15.0130 
  244.6250     2.2150    68.0430    44.8610    44.6320    46.1360    23.9620   -14.9570 
  244.7500     2.2090    68.6440    46.0520    45.8150    49.8580    23.8740   -14.8890 
  244.8750     2.2040    69.4820    45.6250    45.5180    50.5940    23.8580   -14.8120 
  245.0000     2.2040    70.8710    43.1530    43.3220    47.9630    23.8580   -14.7470 
  245.1250     2.2120    72.5330    38.8940    39.4200    43.4610    23.8580   -14.7040 
  245.2500     2.2280    73.0850    34.3230    35.1780    37.7140    23.8580   -14.6850 
  245.3750     2.2490    72.2940    30.5030    31.5380    31.5090    23.8650   -14.6890 
  245.5000     2.2680    71.4030    28.1160    29.0690    25.4840    23.8900   -14.7140 
  245.6250     2.2820    71.2390    27.9020    28.3910    22.9010    23.9510   -14.7590 
  245.7500     2.2930    71.5010    29.7690    29.5670    24.7230    24.0350   -14.8220 
  245.8750     2.3050    72.1820    33.5640    32.7540    31.3530    24.1640   -14.9130 
  246.0000     2.3220    71.6020    38.6740    37.7120    39.9690    24.3030   -15.0160 
  246.1250     2.3450    68.6960    43.5450    43.3100    48.3990    24.3620   -15.1250 
