~V
VERS. 2.00: Ver 2.00
~W
STRT.M 50.0000:
STOP.M 222.0000:
STEP.M 0.1250:
NULL. -999.2500:
UWI. F10580:
~C
DEPT.M :
DEN.GM/CC :
SP.MV :
GR.API :
RML.OHMM :
RI. :
RXO.OHMM :
CALI.CM :
~A
   50.0000     2.5010     5.5850  -999.2500  -999.2500  -999.2500  -999.2500  -999.2500 
   50.1250     2.5230     4.5910  -999.2500  -999.2500  -999.2500  -999.2500  -999.2500 
   50.2500     2.5440     3.6500  -999.2500  -999.2500  -999.2500  -999.2500  -999.2500 
   50.3750     2.5430     2.9970  -999.2500  -999.2500  -999.2500  -999.2500  -999.2500 
   50.5000     2.5290     2.8440  -999.2500  -999.2500  -999.2500  -999.2500  -999.2500 
   50.6250     2.5150     3.3290  -999.2500  -999.2500  -999.2500  -999.2500  -999.2500 
   50.7500     2.5070     4.1930  -999.2500  -999.2500  -999.2500  -999.2500  -999.2500 
   50.8750     2.4970     5.2580  -999.2500  -999.2500  -999.2500  -999.2500  -999.2500 
   51.0000     2.4880     6.4330  -999.2500  -999.2500  -999.2500  -999.2500  -999.2500 
   51.1250     2.4900     7.6520  -999.2500  -999.2500  -999.2500  -999.2500  -999.2500 
   51.2500     2.5030     8.8440  -999.2500  -999.2500  -999.2500  -999.2500  -999.2500 
   51.3750     2.5210     9.9620  -999.2500  -999.2500  -999.2500  -999.2500  -999.2500 
   51.5000     2.5340    11.0230  -999.2500  -999.2500  -999.2500  -999.2500  -999.2500 
   51.6250     2.5420    12.0160  -999.2500  -999.2500  -999.2500  -999.2500  -999.2500 
   51.7500     2.5490    12.9150  -999.2500  -999.2500  -999.2500  -999.2500  -999.2500 
   51.8750     2.5530    13.7080  -999.2500  -999.2500  -999.2500  -999.2500  -999.2500 
   52.0000     2.5520    14.4100  -999.2500  -999.2500  -999.2500  -999.2500  -999.2500 
   52.1250     2.5470    14.9110  -999.2500  -999.2500  -999.2500  -999.2500  -999.2500 
   52.2500     2.5410    15.2250  -999.2500  -999.2500  -999.2500  -999.2500  -999.2500 
   52.3750     2.5360    15.4020  -999.2500  -999.2500  -999.2500  -999.2500  -999.2500 
   52.5000     2.5320    15.4420  -999.2500  -999.2500  -999.2500  -999.2500  -999.2500 
   52.6250     2.5330    15.2940  -999.2500  -999.2500  -999.2500  -999.2500  -999.2500 
   52.7500     2.5380    15.0540  -999.2500  -999.2500  -999.2500  -999.2500  -999.2500 
   52.8750     2.5450    14.7640  -999.2500  -999.2500  -999.2500  -999.2500  -999.2500 
   53.0000     2.5510    14.4590  -999.2500  -999.2500  -999.2500  -999.2500  -999.2500 
   53.1250     2.5540    14.1910  -999.2500  -999.2500  -999.2500  -999.2500  -999.2500 
   53.2500     2.5540    13.9740  -999.2500  -999.2500  -999.2500  -999.2500  -999.2500 
   53.3750     2.5540    13.8400  -999.2500  -999.2500  -999.2500  -999.2500  -999.2500 
   53.5000     2.5530    13.7760  -999.2500  -999.2500  -999.2500  -999.2500  -999.2500 
   53.6250     2.5540    13.7470  -999.2500  -999.2500  -999.2500  -999.2500  -999.2500 
   53.7500     2.5520    13.6930  -999.2500  -999.2500  -999.2500  -999.2500  -999.2500 
   53.8750     2.5420    13.6440  -999.2500  -999.2500  -999.2500  -999.2500  -999.2500 
   54.0000     2.5230    13.5560  -999.2500  -999.2500  -999.2500  -999.2500  -999.2500 
   54.1250     2.5080    13.4670  -999.2500  -999.2500  -999.2500  -999.2500  -999.2500 
   54.2500     2.5050    13.4340  -999.2500  -999.2500  -999.2500  -999.2500  -999.2500 
   54.3750     2.5120    13.4370  -999.2500  -999.2500  -999.2500  -999.2500  -999.2500 
   54.5000     2.5210    13.4830  -999.2500  -999.2500  -999.2500  -999.2500  -999.2500 
   54.6250     2.5250    13.6700  -999.2500  -999.2500  -999.2500  -999.2500  -999.2500 
   54.7500     2.5280    13.9770  -999.2500  -999.2500  -999.2500  -999.2500  -999.2500 
   54.8750     2.5270    14.2700  -999.2500  -999.2500  -999.2500  -999.2500  -999.2500 
   55.0000     2.5190    14.5140     0.0000     0.0000     0.0000     0.0000     0.0000 
   55.1250     2.5000    14.6850     0.0000     0.0000     0.0000     0.0000     0.0000 
   55.2500     2.4690    14.7640    25.0730     3.0720     0.1020     0.6910    11.5120 
   55.3750     2.4250    14.7020    47.9330     6.0580     0.2020     1.2400    23.0590 
   55.5000     2.3660    14.5200    45.4260     5.8950     0.2010     1.2340    23.2280 
   55.6250     2.2920    14.2010    46.1710     5.7880     0.2050     2.2150    23.7110 
   55.7500     2.2110    13.7910    48.3990     5.7480     0.2110     6.7640    24.4090 
   55.8750     2.1290    13.4030    49.6900     5.7420     0.2140   873.8340    25.0190 
   56.0000     2.0560    13.1040    48.6760     5.7560     0.2140  1161.7460    25.3070 
   56.1250     2.0060    12.9010    46.1350     5.8170     0.2100  1161.7460    25.3620 
   56.2500     1.9770    12.7780    44.4540     5.9210     0.2040  1161.7460    25.3640 
   56.3750     1.9640    12.7000    44.1950     6.0160     0.1980  1161.7460    25.3640 
   56.5000     1.9560    12.4760    46.2560     6.0440     0.1920  1161.7460    25.3620 
   56.6250     1.9450    11.9800    51.3730     5.9980     0.1890     0.3280    25.3560 
   56.7500     1.9320    11.2700    56.0130     5.9470     0.1890     0.0980    25.3460 
   56.8750     1.9190    10.4050    57.0130     5.9190     0.1910     0.0970    25.3410 
   57.0000     1.9020     9.4300    56.2190     5.8900     0.1960     0.3690    25.3480 
   57.1250     1.8810     8.3740    55.9250     5.8230     0.2000     2.3020    25.3540 
   57.2500     1.8590     7.2480    53.9670     5.7400     0.2020     6.5970    25.3590 
   57.3750     1.8430     6.1040    50.2080     5.6730     0.2030    10.5930    25.3610 
   57.5000     1.8370     5.1150    47.3280     5.6210     0.2030    11.6450    25.3600 
   57.6250     1.8380     4.3240    46.4490     5.5380     0.2020     7.7040    25.3610 
   57.7500     1.8420     3.6320    44.9540     5.4170     0.2000    19.2300    25.3610 
   57.8750     1.8480     2.9710    43.0460     5.2980     0.1990   877.7440    25.3610 
   58.0000     1.8550     2.2460    42.1130     5.2200     0.2000     7.1220    25.3610 
   58.1250     1.8640     1.4250    42.9870     5.1690     0.2040     3.4470    25.3600 
   58.2500     1.8710     0.5190    44.6490     5.0940     0.2080     2.9010    25.3600 
   58.3750     1.8750    -0.5110    46.6160     4.9860     0.2100     5.6840    25.3620 
   58.5000     1.8770    -1.7030    48.6350     4.8740     0.2090  1161.7450    25.3620 
   58.6250     1.8780    -3.0850    50.2790     4.7770     0.2060  1161.7460    25.3600 
   58.7500     1.8840    -4.6200    50.7250     4.6590     0.2020  1161.7460    25.3570 
   58.8750     1.9000    -6.2880    48.5000     4.4940     0.1980   306.9600    25.3550 
   59.0000     1.9220    -7.9830    43.9560     4.3100     0.1950    10.7560    25.3550 
   59.1250     1.9360    -9.7000    40.7470     4.1860     0.1920     3.1860    25.3550 
   59.2500     1.9390   -11.3770    41.7900     4.1490     0.1910     2.7940    25.3550 
   59.3750     1.9360   -12.9120    46.0740     4.1630     0.1870     5.9150    25.3550 
   59.5000     1.9340   -14.2460    49.9750     4.1560     0.1750    16.1640    25.3550 
   59.6250     1.9460   -15.2590    51.1250     4.0420     0.1490  1161.7460    25.3550 
   59.7500     1.9840   -15.9850    50.2620     3.7220     0.1140  1161.7460    25.3550 
   59.8750     2.0540   -16.4550    48.5170     2.9590     0.0850  1161.7460    25.3550 
   60.0000     2.1520   -16.8090    47.2840     1.8120     0.0700  1161.7460    25.3560 
   60.1250     2.2690   -17.1370    45.6960     0.8940     0.0700   871.8190    25.3570 
   60.2500     2.3810   -17.4900    42.6590     0.3990     0.0830     1.5820    25.3560 
   60.3750     2.4650   -17.9380    40.1360     0.1940     0.1130     1.0760    25.3180 
   60.5000     2.4840   -18.5610    42.3110     0.1590     0.1630     2.6990    25.1470 
   60.6250     2.4060   -19.4720    51.4900     0.2700     0.2530     3.6610    24.6800 
   60.7500     2.2970   -20.5140    62.0470     0.5420     0.4180     4.0850    24.1430 
   60.8750     2.2110   -21.6160    69.0290     1.0850     0.7380     5.2490    23.7510 
   61.0000     2.1710   -22.6750    72.7430     2.0750     1.3360     6.4020    23.5830 
   61.1250     2.1690   -23.6140    76.6020     3.6000     2.3430     6.7740    23.5470 
