~V
VERS. 2.00: Ver 2.00
~W
STRT.M 50.0000:
STOP.M 233.0000:
STEP.M 0.1250:
NULL. -999.2500:
UWI. F10598:
~C
DEPT.M :
DEN.GM/CC :
SP.MV :
GR.API :
RML.OHMM :
RI. :
RXO.OHMM :
CALI.CM :
~A
# ...
  218.7500     2.2980    -5.2030    44.7230     4.6110     4.4340     5.2560    23.9510 
  218.8750     2.3040    -5.0890    42.7610     4.4300     4.3650     5.2330    23.9510 
  219.0000     2.3220    -5.0720    42.6730     4.3490     4.3550     5.3080    23.9510 
  219.1250     2.3420    -5.1880    43.7540     4.4320     4.4040     5.4920    23.9510 
  219.2500     2.3560    -5.3990    43.2240     4.6070     4.4830     5.7620    23.9510 
  219.3750     2.3620    -5.6960    41.4520     4.8040     4.5750     6.0050    23.9510 
  219.5000     2.3590    -6.0670    42.2670     4.9610     4.6690     6.1080    23.9510 
  219.6250     2.3500    -6.4560    46.8150     5.0410     4.7690     6.1750    23.9510 
  219.7500     2.3430    -6.8050    51.2960     5.0850     4.8800     6.2740    23.9510 
  219.8750     2.3410    -7.1230    54.0260     5.1290     4.9980     6.4700    23.9510 
  220.0000     2.3410    -7.3730    56.7210     5.1980     5.0980     6.7220    23.9510 
  220.1250     2.3380    -7.5120    59.1910     5.2760     5.1370     6.8240    23.9510 
  220.2500     2.3330    -7.5840    60.1570     5.3000     5.0980     6.6480    23.9510 
  220.3750     2.3290    -7.5910    60.6660     5.2410     4.9780     6.1910    23.9510 
  220.5000     2.3270    -7.5320    62.1770     5.1090     4.7940     5.6420    23.9510 
  220.6250     2.3220    -7.4910    62.4750     4.9470     4.5810     5.3110    23.9500 
  220.7500     2.3160    -7.4740    60.5760     4.8130     4.3910     5.2410    23.9480 
  220.8750     2.3100    -7.4710    58.0110     4.7620     4.2650     5.2580    23.9490 
  221.0000     2.3080    -7.4830    55.6160     4.8310     4.2240     5.3220    23.9490 
  221.1250     2.3110    -7.5470    53.8740     5.0230     4.2820     5.5710    23.9460 
  221.2500     2.3170    -7.6630    54.3410     5.2820     4.4060     5.9650    23.9300 
  221.3750     2.3210    -7.8020    57.8290     5.5630     4.5750     6.3180    23.9010 
  221.5000     2.3250    -7.9890    61.3130     5.8120     4.7660     6.5730    23.8810 
  221.6250     2.3320    -8.1820    61.0230     5.9830     4.9640     6.8650    23.8740 
  221.7500     2.3420    -8.3370    59.6070     6.1000     5.1540     7.2170    23.8740 
  221.8750     2.3500    -8.4700    60.1210     6.1920     5.3260     7.6010    23.8740 
  222.0000     2.3520    -8.6000    62.0450     6.2960     5.4710     7.8990    23.8740 
  222.1250     2.3490    -8.6970    61.8900     6.4120     5.5820     8.0710    23.8740 
  222.2500     2.3460    -8.7520    61.1160     6.4600     5.6580     8.0840    23.8740 
  222.3750     2.3440    -8.8120    60.9430     6.3930     5.6930     7.8910    23.8740 
  222.5000     2.3450    -8.8440    60.9430     6.2540     5.6820     7.5770    23.8740 
  222.6250     2.3480    -8.8410    60.9430     6.1170     5.6230     7.4450    23.8740 
  222.7500     2.3520    -8.8620    60.9430     6.0080     5.5410     7.3780    23.8740 
  222.8750     2.3580    -8.8650    60.9430     5.9110     5.4540     7.2870    23.8740 
  223.0000     2.3620    -8.8380    60.9430     5.7970     5.3800     7.1680    23.8740 
  223.1250     2.3640    -8.8350    60.9430     5.7020     5.3400     7.0870    23.8740 
  223.2500     2.3670    -8.8010    60.9430     5.7120     5.3350     7.1860    23.8740 
  223.3750     2.3710    -8.7170    60.9430     5.8530     5.3600     7.2790    23.8740 
  223.5000     2.3740    -8.6120    60.9430     6.0480     5.4070     7.3200    23.8740 
  223.6250     2.3720    -8.4790    60.9430     6.1320     5.4570     7.3940    23.8740 
  223.7500     2.3670    -8.2890    60.9430     6.0510     5.4750     7.4540    23.8740 
  223.8750     2.3590    -8.0800    60.9430     5.8170     5.4270     7.2680    23.8740 
  224.0000     2.3480    -7.8610    60.9430     5.4940     5.2960     6.7610    23.8740 
  224.1250     2.3340    -7.6080    60.9430     5.1870     5.0860     6.1540    23.8730 
  224.2500     2.3190    -7.3520    60.9430     4.9470     4.8540     5.8620    23.8710 
  224.3750     2.3060    -7.1140    60.9430     4.8060     4.6550     5.7850    23.8720 
  224.5000     2.2940    -6.8850    60.9430     4.7790     4.5290     5.6980    23.8720 
  224.6250     2.2900    -6.6250    60.9430     4.8420     4.5150     5.7750    23.8710 
  224.7500     2.2950    -6.3600    60.9430     4.9370     4.5870     5.9470    23.8690 
  224.8750     2.3020    -6.0620    60.9430     5.0350     4.7100     6.0710    23.8670 
  225.0000     2.3020    -5.7370    60.9430     5.1230     4.8340     5.9690    23.8650 
  225.1250     2.2980    -5.4380    60.9430     5.1740     4.8910     5.8440    23.8640 
  225.2500     2.3000    -5.2150    60.9430     5.1830     4.8660     5.7860    23.8640 
  225.3750     2.3100    -5.0380    60.9430     5.1560     4.7790     5.7920    23.8640 
  225.5000     2.3220    -4.9070    60.9430     5.1290     4.6840     5.8120    23.8640 
  225.6250     2.3330    -4.8550    60.9430     5.1720     4.6590     5.9180    23.8640 
  225.7500     2.3420    -4.8640    60.9430     5.2990     4.7320     6.2090    23.8640 
  225.8750     2.3520    -4.9510    60.9430     5.4450     4.8920     6.7400    23.8570 
  226.0000     2.3660    -5.0900    60.9430     5.5230     5.0950     7.4390    23.8400 
  226.1250     2.3780    -5.2140    60.9430     5.5000     5.2730     7.8240    23.8120 
  226.2500     2.3800    -5.3100    60.9430     5.4780     5.3850     7.5530    23.7990 
  226.3750     2.3720    -5.3740    60.9430     5.5550     5.4250     7.3310    23.7960 
  226.5000     2.3610    -5.3950    60.9430     5.7720     5.4190     7.6030    23.7940 
  226.6250     2.3530    -5.3950    60.9430     6.0580     5.3980     7.9200    23.7890 
  226.7500     2.3480    -5.4020    60.9430     6.2690     5.3890     7.9030    23.7830 
  226.8750     2.3430    -5.4120    60.9430     6.3310     5.4020     7.6730    23.7670 
  227.0000     2.3370    -5.4260    60.9430     6.2410     5.4410     7.2810    23.7370 
  227.1250     2.3320    -5.4440    60.9430     6.0270     5.5100     6.9060    23.7090 
  227.2500     2.3270    -5.4350    60.9430     5.7980     5.5880     6.6160    23.6750 
  227.3750     2.3190    -5.4310    60.9430     5.6460     5.6430     6.3150    23.6400 
  227.5000     2.3130    -5.4260    60.9430     5.6250     5.6500     5.9720    23.6110 
  227.6250     2.3170    -5.3970    60.9430     5.7370     5.6100     5.9410    23.5830 
  227.7500     2.3320    -5.3160    60.9430     5.8780     5.5560     6.1530    23.5670 
  227.8750     2.3480    -5.1990    60.9430     5.9640     5.5160     6.4840    23.5540 
  228.0000     2.3580    -5.1090    60.9430     5.9510     5.5000     6.8400    23.5380 
  228.1250     2.3630    -5.0410    60.9430     5.8670     5.5010     7.1820    23.5110 
  228.2500     2.3630    -5.0290    60.9430     5.8130     5.5020     7.4800    23.4990 
  228.3750     2.3620    -5.0540    60.9430     5.8130     5.5020     7.6180    23.4940 
  228.5000     2.3600    -5.0900    60.9430     5.8130     5.5020     7.6530    23.4910 
  228.6250     2.3600    -5.1420    60.9430     5.8130     5.5020     7.6200    23.4990 
  228.7500     2.3600    -5.2310    60.9430     5.8130     5.5020     7.6190    23.5200 
  228.8750     2.3630    -5.3420    60.9430     5.8130     5.5020     7.9310    23.5370 
  229.0000     2.3680    -5.4320    60.9430     5.8130     5.5020     9.2440    23.5300 
  229.1250     2.3800    -5.4990    60.9430     5.8130     5.5020    11.8490    23.5040 
  229.2500     2.3920    -5.4990    60.9430     5.8130     5.5020    15.4150    23.5000 
  229.3750     2.4020    -5.4990    60.9430     5.8130     5.5020    18.7580    23.5000 
  229.5000     2.4120  -999.2500    60.9430     5.8130     5.5020    20.5530    23.4320 
  229.6250     2.4200  -999.2500    60.9430     5.8130     5.5020    20.6770    23.2570 
  229.7500     2.4240  -999.2500    60.9430     5.8130     5.5020    19.9460    23.1010 
  229.8750     2.4240  -999.2500    60.9430     5.8130     5.5020    18.9880    23.0460 
