~V
VERS. 2.00: Ver 2.00
~W
STRT.M 47.0000:
STOP.M 254.0000:
STEP.M 0.1250:
NULL. -999.2500:
UWI. F10599:
~C
DEPT.M :
DEN.GM/CC :
SP.MV :
GR.API :
RML.OHMM :
RI. :
RXO.OHMM :
CALI.CM :
~A
# ...
  159.5000     2.5840    -4.2630    60.9100    26.9610    22.7220    24.1760    24.6420 
  159.6250     2.5600    -4.3230    62.7520    25.9200    22.3320    23.1130    24.6500 
  159.7500     2.5230    -4.3820    63.0080    24.6500    21.8650    21.7900    24.6500 
  159.8750     2.4880    -4.4660    62.7530    23.6010    21.4070    22.2680    24.6500 
  160.0000     2.4650    -4.5440    63.3220    22.9930    20.9410    22.4720    24.6590 
  160.1250     2.4560    -4.6130    64.6420    22.6420    20.3890    22.3780    24.6960 
  160.2500     2.4550    -4.6690    64.9310    22.1470    19.6990    21.4780    24.7890 
  160.3750     2.4630    -4.7200    63.4620    21.1690    18.8690    19.5390    24.8910 
  160.5000     2.4760    -4.7450    62.9420    19.8390    17.9960    18.2360    24.9710 
  160.6250     2.4910    -4.7580    63.4510    18.4330    17.1350    18.0960    25.0070 
  160.7500     2.5020    -4.7610    64.3470    17.2620    16.3100    18.9700    25.0170 
  160.8750     2.5010    -4.7450    64.9210    16.5360    15.5580    17.5540    25.0170 
  161.0000     2.4820    -4.7330    65.2720    16.0710    14.8830    15.4610    25.0170 
  161.1250     2.4510    -4.7160    65.2100    15.6690    14.2570    13.9960    25.0170 
  161.2500     2.4230    -4.6810    64.8640    15.1980    13.6280    14.3160    25.0170 
  161.3750     2.4130    -4.6280    64.7390    14.6110    12.9960    14.2420    25.0170 
  161.5000     2.4120    -4.5750    64.3850    14.0130    12.4350    13.4720    25.0170 
  161.6250     2.4070    -4.5070    64.9790    13.5800    12.0290    11.9630    25.0170 
  161.7500     2.3950    -4.4130    66.5020    13.4260    11.8580    11.3510    25.0170 
  161.8750     2.3850    -4.3060    66.6690    13.5760    12.0260    12.6100    25.0170 
  162.0000     2.3890    -4.2020    66.3120    13.8630    12.4580    14.6450    25.0170 
  162.1250     2.4090    -4.1030    66.6940    14.1430    13.0540    16.1580    25.0170 
  162.2500     2.4360    -4.0280    67.0980    14.3740    13.6610    17.2220    25.0170 
  162.3750     2.4610    -3.9570    67.2350    14.6910    14.0810    17.3980    25.0170 
  162.5000     2.4790    -3.8760    68.3670    15.1930    14.2720    17.2500    25.0160 
  162.6250     2.4950    -3.8090    68.9450    15.7970    14.3080    16.9270    25.0090 
  162.7500     2.5080    -3.7600    66.8750    16.3300    14.3050    16.7270    24.9820 
  162.8750     2.5090    -3.7220    63.6190    16.6320    14.3370    17.6970    24.9290 
  163.0000     2.5020    -3.6870    64.0740    16.7400    14.4000    18.1720    24.8890 
  163.1250     2.4910    -3.6650    68.1800    16.8300    14.5010    18.0880    24.8740 
  163.2500     2.4820    -3.6500    72.8420    17.0970    14.6530    17.8380    24.8740 
  163.3750     2.4830    -3.6700    74.1250    17.5460    14.8960    18.9540    24.8740 
  163.5000     2.4900    -3.7020    72.2710    17.9710    15.2200    20.7880    24.8730 
  163.6250     2.5000    -3.7290    70.8480    18.2710    15.5950    22.4480    24.8730 
  163.7500     2.5000    -3.7780    71.4920    18.4350    15.9710    22.5410    24.8740 
  163.8750     2.4840    -3.8350    70.6690    18.5430    16.3110    21.2820    24.8730 
  164.0000     2.4620    -3.9060    67.7850    18.7680    16.6930    20.1410    24.8730 
  164.1250     2.4460    -3.9780    67.6050    19.2880    17.2560    20.3310    24.8740 
  164.2500     2.4430    -4.0340    71.7040    20.1660    18.1130    21.6860    24.8740 
  164.3750     2.4470    -4.0710    74.5970    21.2410    19.2550    23.8260    24.8720 
  164.5000     2.4470    -4.1020    72.6060    22.1060    20.3490    26.3960    24.8740 
  164.6250     2.4410    -4.1180    69.5690    22.3510    21.0180    28.9060    24.8610 
  164.7500     2.4320    -4.1020    68.6970    21.7950    20.9750    28.7540    24.8160 
  164.8750     2.4260    -4.0660    68.1950    20.6950    20.1690    25.6320    24.7460 
  165.0000     2.4240    -4.0010    66.9270    19.6940    19.1020    21.9860    24.7580 
  165.1250     2.4270    -3.9260    66.4580    19.1740    18.1200    20.5750    24.8580 
  165.2500     2.4330    -3.8510    67.5990    19.1890    17.4230    21.0630    24.9940 
  165.3750     2.4390    -3.7670    70.6490    19.4060    17.1280    21.6310    25.0920 
  165.5000     2.4410    -3.6900    73.6060    19.3830    17.0960    21.9350    25.1430 
  165.6250     2.4400    -3.6300    73.4620    19.0040    17.1210    21.3490    25.1630 
  165.7500     2.4400    -3.5890    69.9610    18.4050    16.9660    19.9590    25.1750 
  165.8750     2.4410    -3.5600    67.6590    17.7550    16.4620    19.0750    25.1810 
  166.0000     2.4400    -3.5430    68.8790    17.1080    15.7530    18.8980    25.1530 
  166.1250     2.4350    -3.5350    70.4140    16.4570    15.0340    18.2190    25.1140 
  166.2500     2.4330    -3.5400    70.4430    15.7780    14.5020    16.8290    25.0850 
  166.3750     2.4400    -3.5480    69.5170    15.1770    14.3240    17.6280    25.0590 
  166.5000     2.4510    -3.5550    66.3000    14.8720    14.4260    19.5380    25.0290 
  166.6250     2.4580    -3.5670    61.2920    15.0050    14.7450    20.1630    25.0010 
  166.7500     2.4570    -3.5890    60.4440    15.6050    15.2240    19.1980    24.9650 
  166.8750     2.4530    -3.6220    65.2840    16.6270    15.8100    18.9380    24.9740 
  167.0000     2.4510    -3.6710    67.8300    17.7730    16.3940    19.3570    25.0330 
  167.1250     2.4490    -3.7160    65.0360    18.7500    16.8900    20.1570    25.1100 
  167.2500     2.4450    -3.7540    61.4100    19.2960    17.2330    20.6440    25.1510 
  167.3750     2.4390    -3.7900    62.3090    19.3300    17.3820    20.7420    25.1580 
  167.5000     2.4330    -3.8180    64.6410    19.2240    17.4010    19.8220    25.1480 
  167.6250     2.4250    -3.8310    66.3700    19.2530    17.3210    18.7670    25.1150 
  167.7500     2.4190    -3.8210    66.9520    19.4900    17.1660    18.6430    25.0540 
  167.8750     2.4240    -3.7980    65.6210    19.8010    16.9500    19.5840    25.0180 
  168.0000     2.4340    -3.7750    63.8310    20.0210    16.7390    20.3720    24.9940 
  168.1250     2.4420    -3.7480    63.3910    20.0600    16.6090    22.6470    24.9590 
  168.2500     2.4470    -3.7230    66.3090    19.8590    16.6150    25.5960    24.9210 
  168.3750     2.4570    -3.7080    68.6910    19.4310    16.7270    27.6860    24.8830 
  168.5000     2.4690    -3.6930    67.5040    18.8950    16.7830    22.3370    24.8660 
  168.6250     2.4730    -3.6730    65.1580    18.3470    16.6850    19.9310    24.8420 
  168.7500     2.4630    -3.6620    63.9600    17.9570    16.4440    19.0850    24.7930 
  168.8750     2.4400    -3.6330    63.7150    17.9190    16.1870    18.4170    24.7500 
  169.0000     2.4210    -3.5740    63.0140    18.1460    16.0690    18.1920    24.7620 
  169.1250     2.4160    -3.5140    63.3170    18.4770    16.1300    18.5190    24.8360 
  169.2500     2.4280    -3.4550    65.0470    18.7450    16.2980    19.5840    24.9150 
  169.3750     2.4490    -3.3810    65.0880    18.7390    16.4120    20.7760    24.9500 
  169.5000     2.4650    -3.3200    64.2420    18.4290    16.3720    20.7370    24.9470 
  169.6250     2.4730    -3.2730    65.1940    17.9570    16.1620    20.1360    24.9420 
  169.7500     2.4720    -3.2350    69.2700    17.5030    15.8010    19.0320    24.9420 
  169.8750     2.4590    -3.2230    72.5590    17.0690    15.3250    18.0100    24.9410 
  170.0000     2.4430    -3.2290    71.8560    16.5090    14.8140    17.0700    24.9400 
  170.1250     2.4320    -3.2440    69.9710    15.8390    14.3480    16.0500    24.9380 
  170.2500     2.4320    -3.2650    71.0370    15.2740    14.0200    15.5560    24.9400 
  170.3750     2.4370    -3.3200    74.8030    15.1550    13.9670    16.3640    24.9380 
  170.5000     2.4420    -3.3940    76.5610    15.5010    14.1750    17.8180    24.9240 
  170.6250     2.4470    -3.4760    75.5890    16.1440    14.5650    18.8930    24.8940 
