~V
VERS. 2.00: Ver 2.00
~W
STRT.M 58.0000:
STOP.M 215.0000:
STEP.M 0.1250:
NULL. -999.2500:
UWI. F10587:
~C
DEPT.M :
DEN.GM/CC :
GR.API :
RML.OHMM :
RI. :
RXO.OHMM :
CALI.CM :
SP.MV :
~A
# ...
  181.7500     2.3340    50.3930     6.2720     5.5200     5.5210    23.4200   -24.8800 
  181.8750     2.3760    46.3820     5.7970     5.0890     5.2870    23.3330   -24.8440 
  182.0000     2.4260    40.8230     5.4080     4.7340     4.8500    23.2560   -24.7150 
  182.1250     2.4610    34.6000     5.1430     4.4940     4.6260    23.0180   -24.6040 
  182.2500     2.4570    29.1040     4.9770     4.3430     4.5680    22.6870   -24.5290 
  182.3750     2.4140    26.9230     4.8800     4.2540     4.5470    22.4590   -24.4320 
  182.5000     2.3570    28.7810     4.8110     4.1920     4.6390    22.3100   -24.3490 
  182.6250     2.3140    33.2430     4.7420     4.1300     4.7830    22.0770   -24.3370 
  182.7500     2.2870    37.3640     4.6800     4.0730     4.8280    21.7070   -24.3340 
  182.8750     2.2640    39.6690     4.6660     4.0600     4.8640    21.0530   -24.3490 
  183.0000     2.2370    40.7640     4.7630     4.1480     5.0500    20.2200   -24.4350 
  183.1250     2.2140    42.4490     5.0720     4.4290     5.3260    19.6690   -24.6070 
  183.2500     2.2150    45.5530     5.6170     4.9250     5.6500    19.2440   -24.7920 
  183.3750     2.2530    49.0900     6.3990     5.6350     6.2890    18.8580   -24.9860 
  183.5000     2.3170    50.7770     7.3450     6.4950     6.9390    18.6490   -25.2460 
  183.6250     2.3670    49.4890     8.2580     7.3260     7.5090    18.6800   -25.5170 
  183.7500     2.3860    48.3340     8.9050     7.9140     8.1540    19.0030   -25.7130 
  183.8750     2.3810    50.0710     9.1690     8.1530     8.5440    19.7450   -25.8600 
  184.0000     2.3710    54.6090     9.1020     8.0930     8.4180    20.7800   -25.9480 
  184.1250     2.3650    58.8620     8.8990     7.9080     8.2490    21.4400   -25.8370 
  184.2500     2.3650    60.3450     8.7900     7.8090     8.2660    21.5260   -25.5850 
  184.3750     2.3670    59.3470     8.8810     7.8920     8.3770    21.0330   -25.2190 
  184.5000     2.3660    56.3920     9.2040     8.1850     8.4580    19.9760   -24.6970 
  184.6250     2.3560    54.1640     9.7310     8.6640     8.5190    18.7990   -24.0780 
  184.7500     2.3400    54.1990    10.2830     9.1660     8.5160    17.9600   -23.4400 
  184.8750     2.3220    54.0290    10.6610     9.5100     8.4740    17.2520   -22.7520 
  185.0000     2.3100    52.0410    10.6650     9.5140     8.2650    16.5920   -22.0480 
  185.1250     2.3070    49.5530    10.1250     9.0220     8.1370    16.0510   -21.4240 
  185.2500     2.3110    48.5750     9.2550     8.2320     7.8760    15.7820   -20.8520 
  185.3750     2.3230    48.7910     8.3290     7.3900     7.5090    15.7270   -20.3620 
  185.5000     2.3410    49.6140     7.6160     6.7410     7.0530    15.7960   -20.0100 
  185.6250     2.3560    50.9970     7.3790     6.5270     6.7340    16.0540   -19.7670 
  185.7500     2.3610    51.0310     7.6400     6.7630     6.5570    16.5230   -19.5950 
  185.8750     2.3510    50.2940     8.3900     7.4460     6.9210    17.2180   -19.5410 
  186.0000     2.3300    51.4880     9.5110     8.4650     7.7690    18.1930   -19.6010 
  186.1250     2.3030    54.0380    10.6470     9.4980     8.7310    19.4360   -19.7380 
  186.2500     2.2730    55.0700    11.2980    10.0890     9.8620    20.8060   -19.9240 
  186.3750     2.2480    55.9120    11.1940     9.9950    11.0820    22.0730   -20.1740 
  186.5000     2.2370    59.3770    10.4280     9.2980    11.2810    22.9610   -20.4610 
  186.6250     2.2480    64.8870     9.3670     8.3340     9.7420    23.2990   -20.7160 
  186.7500     2.2650    68.6640     8.4330     7.4840     8.0050    23.4220   -21.0080 
  186.8750     2.2670    69.6150     7.7790     6.8900     7.1480    23.4860   -21.3400 
  187.0000     2.2450    70.0570     7.4290     6.5720     6.8580    23.5570   -21.6390 
  187.1250     2.2110    72.7510     7.3690     6.5170     7.2700    23.6370   -21.9310 
  187.2500     2.1950    77.1450     7.4750     6.6130     7.8460    23.6780   -22.2590 
  187.3750     2.2100    82.5950     7.6810     6.8010     8.4540    23.6990   -22.5550 
  187.5000     2.2470    88.2910     7.9600     7.0550     8.7480    23.6890   -22.8050 
  187.6250     2.2730    92.1950     8.3420     7.4020     8.8480    23.6400   -23.0370 
  187.7500     2.2680    91.4730     8.7950     7.8130     9.4790    23.6260   -23.1710 
  187.8750     2.2370    86.0640     9.2110     8.1920    10.1010    23.7420   -23.1730 
  188.0000     2.1980    80.2360     9.4080     8.3710    10.3800    23.9860   -23.0860 
  188.1250     2.1760    79.6170     9.1310     8.1190    11.5290    24.1590   -22.8370 
  188.2500     2.1750    80.3950     8.4390     7.4900    12.7200    24.2050   -22.4050 
  188.3750     2.1880    75.8720     7.5160     6.6510    10.6880    24.1130   -21.8770 
  188.5000     2.2130    66.2460     6.6030     5.8210     7.2390    23.9960   -21.2550 
  188.6250     2.2480    58.9060     5.9200     5.2000     5.8640    23.9300   -20.5280 
  188.7500     2.2930    55.8350     5.4900     4.8090     5.4660    23.9200   -19.8080 
  188.8750     2.3450    53.9140     5.2930     4.6300     5.2540    23.9410   -19.1160 
  189.0000     2.3940    52.5190     5.2770     4.6160     5.1510    23.9460   -18.4350 
  189.1250     2.4230    52.7090     5.3810     4.7100     5.3300    23.9050   -17.8520 
  189.2500     2.4320    52.1730     5.5200     4.8370     5.4180    23.8540   -17.4250 
  189.3750     2.4260    49.2500     5.6640     4.9670     5.7120    23.8480   -17.0980 
  189.5000     2.4110    44.7860     5.7940     5.0860     6.2370    23.9890   -16.8420 
  189.6250     2.3960    41.4170     5.8950     5.1770     6.8360    24.3070   -16.7110 
  189.7500     2.3870    39.8910     5.9610     5.2370     6.5130    24.5490   -16.6370 
  189.8750     2.3850    40.1160     5.9900     5.2640     6.2610    24.6670   -16.5730 
  190.0000     2.3880    41.8920     5.9820     5.2560     6.3090    24.7320   -16.5550 
  190.1250     2.3900    45.6360     5.9380     5.2160     6.5040    24.7790   -16.5700 
  190.2500     2.3910    48.4680     5.8770     5.1610     6.4760    24.8110   -16.5400 
  190.3750     2.3890    49.0520     5.8130     5.1030     6.4130    24.8180   -16.5050 
  190.5000     2.3880    48.3510     5.7540     5.0490     6.2960    24.8110   -16.5060 
  190.6250     2.3870    49.1690     5.7090     5.0080     6.1810    24.8160   -16.4530 
  190.7500     2.3860    52.0380     5.6840     4.9850     6.2000    24.8210   -16.3840 
  190.8750     2.3860    54.3730     5.6800     4.9820     6.2720    24.8260   -16.3570 
  191.0000     2.3900    54.8020     5.6880     4.9890     6.2880    24.8400   -16.3110 
  191.1250     2.3950    53.4260     5.6850     4.9860     6.2610    24.8430   -16.2150 
  191.2500     2.3950    51.7100     5.6500     4.9550     6.3720    24.8420   -16.1490 
  191.3750     2.3890    49.9640     5.5840     4.8950     6.5150    24.8380   -16.1110 
  191.5000     2.3790    48.5520     5.5100     4.8270     6.3020    24.8180   -16.0550 
  191.6250     2.3720    48.3920     5.4620     4.7830     5.9310    24.7910   -16.0210 
  191.7500     2.3750    49.4510     5.4520     4.7740     5.7960    24.7990   -16.0090 
  191.8750     2.3850    51.1050     5.4670     4.7880     5.9800    24.8820   -16.0240 
  192.0000     2.3960    51.7070     5.4800     4.8000     6.3030    24.9280   -16.1030 
  192.1250     2.4010    49.1960     5.4590     4.7810     6.4830    24.8230   -16.2220 
  192.2500     2.3960    44.8600     5.4090     4.7350     6.0410    24.6810   -16.3080 
  192.3750     2.3850    40.2080     5.3480     4.6800     5.6400    24.5450   -16.3340 
  192.5000     2.3720    36.4860     5.3030     4.6390     5.5080    24.2530   -16.3350 
  192.6250     2.3650    36.6020     5.2960     4.6330     5.7240    24.1230   -16.3230 
  192.7500     2.3670    40.4330     5.3190     4.6540     5.9940    24.3200   -16.2770 
  192.8750     2.3730    44.7200     5.3560     4.6870     5.9860    24.5870   -16.1810 
