~V
VERS. 2.00: Ver 2.00
~W
STRT.M 40.0000:
STOP.M 191.0000:
STEP.M 0.1250:
NULL. -999.2500:
UWI. F10585:
~C
DEPT.M :
DEN.GM/CC :
SP.MV :
GR.API :
RML.OHMM :
RI. :
RXO.OHMM :
CALI.CM :
~A
# ...
  118.7500     2.2840    -7.3870   103.1850     7.0590     7.0690     6.8830    24.1560 
  118.8750     2.2830    -7.4990   102.7750     7.3760     7.4950     7.6150    24.1560 
  119.0000     2.2700    -7.6320   105.2220     7.5560     7.8170     7.0000    24.1560 
  119.1250     2.2570    -7.7670   109.4030     7.5220     7.9450     6.6710    24.1560 
  119.2500     2.2510    -7.8950   111.4860     7.3690     7.9210     6.6530    24.1560 
  119.3750     2.2460    -8.0240   110.3800     7.2030     7.8170     6.8080    24.1560 
  119.5000     2.2330    -8.1400   109.2330     7.1190     7.7180     6.7810    24.1560 
  119.6250     2.2080    -8.2320   106.9930     7.2050     7.7100     7.2480    24.1560 
  119.7500     2.1860    -8.3390   100.9310     7.4550     7.8030     8.2260    24.1510 
  119.8750     2.1730    -8.4550    96.3580     7.8730     8.0020     9.1500    24.1370 
  120.0000     2.1660    -8.5380    97.9430     8.5010     8.3390     9.5530    24.1100 
  120.1250     2.1510    -8.5900   102.3410     9.4890     8.9510    10.3460    24.0970 
  120.2500     2.1280    -8.6490    99.5520    10.9060     9.9090    12.0640    24.0930 
  120.3750     2.1040    -8.7300    91.3570    12.8040    11.2750    13.9830    24.0930 
  120.5000     2.0890    -8.8020    87.1780    15.0890    13.0250    17.0780    24.0930 
  120.6250     2.0820    -8.8250    88.8690    17.2970    14.9670    20.9060    24.0920 
  120.7500     2.0800    -8.8240    89.6100    18.7500    16.6100    23.3340    24.0810 
  120.8750     2.0820    -8.8410    87.2700    19.0720    17.5340    22.4940    24.0470 
  121.0000     2.0840    -8.8640    85.7980    18.4080    17.6160    20.1720    24.0180 
  121.1250     2.0800    -8.8600    87.4720    17.3320    17.0670    18.2360    24.0900 
  121.2500     2.0740    -8.8440    90.0950    16.5040    16.4460    17.5650    24.2250 
  121.3750     2.0720    -8.8320    92.1840    16.1940    16.0630    17.4480    24.2850 
  121.5000     2.0760    -8.8410    92.0470    16.4250    16.0530    17.2910    24.2640 
  121.6250     2.0870    -8.8780    91.1910    17.0790    16.4220    17.2240    24.1480 
  121.7500     2.1010    -8.9090    91.2880    17.7740    16.8910    17.3150    23.9580 
  121.8750     2.1200    -8.9260    92.3580    18.1190    17.1080    17.3280    23.7550 
  122.0000     2.1440    -8.9770    93.9350    17.7320    16.6380    17.0910    23.6080 
  122.1250     2.1730    -9.0800    96.0340    16.2580    15.1000    15.9480    23.4900 
  122.2500     2.2000    -9.1550    99.8000    14.1040    12.9870    13.8310    23.4450 
  122.3750     2.2220    -9.1930   105.6650    11.8550    10.9140    10.9270    23.4340 
  122.5000     2.2330    -9.2410   110.6290    10.1720     9.3910     8.2040    23.4460 
  122.6250     2.2290    -9.3300   108.4430     9.7770     8.8650     7.7500    23.4490 
  122.7500     2.2110    -9.4100    99.5510    10.7650     9.3800     9.7770    23.4390 
  122.8750     2.1870    -9.4890    89.5640    13.3040    11.1450    14.3530    23.4280 
  123.0000     2.1640    -9.5840    82.9640    17.5200    14.4170    21.6050    23.4370 
  123.1250     2.1490    -9.6980    80.0880    23.3330    19.4860    29.3980    23.4300 
  123.2500     2.1390    -9.8110    78.8020    29.3130    25.2830    32.9800    23.4040 
  123.3750     2.1320    -9.9200    78.9410    33.8230    30.2870    33.9430    23.3750 
  123.5000     2.1260    -9.9950    79.2080    35.8390    33.1930    34.5310    23.3410 
  123.6250     2.1230   -10.0270    77.9600    35.5750    33.6800    33.9900    23.3150 
  123.7500     2.1240   -10.0750    76.3150    34.8010    33.1720    32.9250    23.2720 
  123.8750     2.1260   -10.1130    75.7390    34.5400    32.5690    29.6140    23.2180 
  124.0000     2.1250   -10.0940    77.3490    35.0510    32.3050    28.0900    23.1860 
  124.1250     2.1120   -10.0030    80.1930    35.7080    32.2580    30.3170    23.1790 
  124.2500     2.0960    -9.9270    82.4700    35.4380    31.8320    35.8810    23.1790 
  124.3750     2.0890    -9.8780    81.4170    33.7330    30.5670    42.1150    23.1790 
  124.5000     2.0970    -9.8390    76.9600    30.8990    28.4540    35.2050    23.1790 
  124.6250     2.1140    -9.7840    74.2470    28.0090    26.0550    26.2290    23.2310 
  124.7500     2.1240    -9.7360    76.2620    26.1480    24.2000    20.9900    23.4150 
  124.8750     2.1220    -9.7100    79.4340    25.8670    23.4100    21.0640    23.7330 
  125.0000     2.1160    -9.7060    80.7820    27.2740    23.9610    24.7110    24.0140 
  125.1250     2.1080    -9.7200    78.8110    30.2340    26.1050    29.7520    24.1280 
  125.2500     2.1000    -9.7280    75.6060    33.8650    29.3100    33.4850    24.1540 
  125.3750     2.0950    -9.7180    73.8900    37.5480    32.9960    38.8860    24.1560 
  125.5000     2.0970    -9.7200    75.0490    40.8430    36.4980    44.5540    24.1560 
  125.6250     2.1070    -9.7520    78.1900    43.6620    39.3310    41.6670    24.1560 
  125.7500     2.1140    -9.7510    79.2220    46.3110    41.6780    38.4520    24.1560 
  125.8750     2.1140    -9.7180    76.7040    48.8000    43.6900    41.5090    24.1560 
  126.0000     2.1110    -9.7030    72.7730    50.8280    45.2800    51.6450    24.1560 
  126.1250     2.1110    -9.7230    70.1010    51.7030    45.9900    59.1050    24.1560 
  126.2500     2.1100    -9.7310    69.2060    51.2320    45.6800    56.9820    24.1560 
  126.3750     2.1080    -9.7300    70.3290    49.5430    44.4220    50.1090    24.1560 
  126.5000     2.1090    -9.7220    72.5970    47.1630    42.6230    43.7320    24.1560 
  126.6250     2.1180    -9.7000    74.4100    44.8090    40.9180    42.2290    24.1560 
  126.7500     2.1270    -9.6800    74.1230    42.9790    39.7240    38.9510    24.1560 
  126.8750     2.1270    -9.6380    72.0580    41.8540    39.1470    37.7450    24.1560 
  127.0000     2.1160    -9.5650    70.7350    41.4540    39.1020    39.1630    24.1560 
  127.1250     2.1040    -9.4770    70.7690    41.7650    39.4760    39.8310    24.1560 
  127.2500     2.0950    -9.4190    70.8740    42.3780    40.0340    40.0010    24.1550 
  127.3750     2.0910    -9.3620    69.6090    42.7300    40.4980    39.5470    24.1530 
  127.5000     2.0940    -9.2680    68.2930    42.0360    40.3710    40.2030    24.1540 
  127.6250     2.1070    -9.1720    67.8570    39.5760    38.8480    40.0490    24.1550 
  127.7500     2.1250    -9.1130    68.4280    36.0930    36.0950    38.0630    24.1560 
  127.8750     2.1370    -9.0990    70.5470    32.5340    32.8470    33.0300    24.1660 
  128.0000     2.1350    -9.0800    73.0260    29.8620    30.0990    26.9700    24.2030 
  128.1250     2.1220    -9.0330    74.4890    28.9940    28.8580    24.4730    24.2850 
  128.2500     2.1150    -8.9890    74.3430    29.7150    29.1600    25.8520    24.3410 
  128.3750     2.1260    -8.9770    72.8560    31.5510    30.7740    30.5690    24.3600 
  128.5000     2.1700    -8.9900    70.7860    33.6800    33.0510    39.4190    24.3620 
  128.6250     2.2630    -8.9700    66.4540    34.8880    34.7410    40.8380    24.3170 
  128.7500     2.3870    -8.9390    59.7820    34.6280    34.9840    35.7540    24.1620 
  128.8750     2.5060    -8.9110    52.2330    33.0650    33.7790    30.7720    23.8980 
  129.0000     2.5730    -8.8930    47.2810    30.8530    31.7340    30.0200    23.6800 
  129.1250     2.5650    -8.8830    47.2690    28.6340    29.5150    28.1740    23.6890 
  129.2500     2.5240    -8.8670    49.2220    26.6350    27.4170    26.3580    23.7860 
  129.3750     2.4730    -8.8590    51.0610    24.7770    25.3890    24.1390    23.8430 
  129.5000     2.4270    -8.8830    51.1960    22.9350    23.3790    22.2870    23.8390 
  129.6250     2.4000    -8.9430    50.6110    21.1660    21.5300    19.3010    23.8150 
  129.7500     2.3950    -8.9960    51.9500    19.7020    20.0920    18.8440    23.8050 
  129.8750     2.4080    -9.0410    53.2310    18.7810    19.2970    18.6640    23.8020 
