~V
VERS. 2.00: Ver 2.00
~W
STRT.M 57.0000:
STOP.M 205.0000:
STEP.M 0.1250:
NULL. -999.2500:
UWI. F10591:
~C
DEPT.M :
SP.MV :
GR.API :
RML.OHMM :
RI. :
RXO.OHMM :
CALI.CM :
DEN.GM/CC :
~A
# ...
  192.0000   -18.2860    35.3900     5.7010     4.4920     5.1420    23.6340     2.4280 
  192.1250   -18.3960    34.7470     5.7190     4.5180     5.0240    23.6690     2.4140 
  192.2500   -18.4840    35.7220     5.6760     4.4900     4.9200    23.6980     2.3890 
  192.3750   -18.5910    39.0270     5.5840     4.4130     4.6950    23.7430     2.3620 
  192.5000   -18.7440    43.5030     5.4640     4.3040     4.3970    23.8490     2.3380 
  192.6250   -18.8600    46.3220     5.3430     4.1840     4.3310    23.9910     2.3230 
  192.7500   -18.9510    46.5880     5.2430     4.0780     4.4750    24.0660     2.3210 
  192.8750   -19.0250    45.2010     5.1720     3.9950     4.5610    24.0940     2.3290 
  193.0000   -19.0670    42.5890     5.1330     3.9390     4.4990    24.0970     2.3380 
  193.1250   -19.0930    40.1770     5.1260     3.9130     4.3690    24.0950     2.3390 
  193.2500   -19.1440    39.1910     5.1420     3.9140     4.3450    24.0880     2.3290 
  193.3750   -19.1990    39.6000     5.1870     3.9440     4.4410    24.0780     2.3190 
  193.5000   -19.1960    40.7820     5.2720     4.0080     4.6340    24.0860     2.3170 
  193.6250   -19.1880    41.5040     5.4120     4.1110     4.8940    24.0920     2.3280 
  193.7500   -19.2230    40.9210     5.5820     4.2380     5.2400    24.0950     2.3430 
  193.8750   -19.2900    39.8170     5.7520     4.3730     5.5450    24.0950     2.3590 
  194.0000   -19.3480    40.1560     5.8950     4.4980     5.5840    24.0950     2.3720 
  194.1250   -19.3680    42.6930     6.0080     4.6040     5.4200    24.0950     2.3840 
  194.2500   -19.3760    43.9140     6.1370     4.7130     5.2640    24.0950     2.3950 
  194.3750   -19.3970    43.9600     6.3260     4.8500     5.3730    24.0950     2.4000 
  194.5000   -19.4640    43.9600     6.5900     5.0320     5.8100    24.0950     2.3960 
  194.6250   -19.6000    43.9600     6.9020     5.2510     6.5420    24.0950     2.3860 
  194.7500   -19.7630    43.9600     7.1720     5.4530     7.1200    24.0950     2.3770 
  194.8750   -19.9220    43.9600     7.3110     5.5790     7.3170    24.0970     2.3770 
  195.0000   -20.0870    43.9600     7.2670     5.5860     7.1340    24.1040     2.3810 
  195.1250   -20.3320    43.9600     7.0760     5.4880     6.9180    24.1290     2.3760 
  195.2500   -20.6790    43.9600     6.9510     5.4140     6.8560    24.1590     2.3560 
  195.3750   -21.1170    43.9600     7.1070     5.4990     6.8460    24.1620     2.3300 
  195.5000   -21.6060    43.9600     7.7320     5.8900     7.1860    24.1180     2.3100 
  195.6250   -22.0890    43.9600     9.0450     6.8060     9.0760    24.0820     2.3160 
  195.7500   -22.5130    43.9600    10.8380     8.1910    12.5890    24.0720     2.3420 
  195.8750   -22.8410    43.9600    12.6550     9.7930    16.9200    24.0770     2.3700 
  196.0000   -23.0350    43.9600    13.7040    11.0070    19.8270    24.0500     2.3820 
  196.1250   -23.0180    43.9600    13.0510    10.9290    17.8730    23.9920     2.3700 
  196.2500   -22.8030    43.9600    11.2390     9.7610    11.8350    23.8910     2.3490 
  196.3750   -22.4000    43.9600     9.1450     8.1420     7.3560    23.8040     2.3300 
  196.5000   -21.8690    43.9600     7.4420     6.6590     5.7820    23.7810     2.3230 
  196.6250   -21.2710    43.9600     6.4290     5.6360     5.6910    23.7590     2.3290 
  196.7500   -20.6820    43.9600     5.8900     4.9970     5.5120    23.7200     2.3440 
  196.8750   -20.1480    43.9600     5.6710     4.6590     5.2170    23.6780     2.3610 
  197.0000   -19.7080    43.9600     5.6320     4.5230     5.0610    23.6690     2.3720 
  197.1250   -19.4240    43.9600     5.6540     4.4990     4.9950    23.6970     2.3700 
  197.2500   -19.2260    43.9600     5.6610     4.4980     4.9590    23.7210     2.3580 
  197.3750   -19.1050    43.9600     5.6510     4.4920     4.9090    23.7370     2.3480 
  197.5000   -19.0430    43.9600     5.6430     4.4740     4.8560    23.7580     2.3470 
  197.6250   -18.9990    43.9600     5.6450     4.4450     4.8070    23.7920     2.3590 
  197.7500   -18.9700    43.9600     5.6380     4.4060     4.8140    23.8180     2.3700 
  197.8750   -18.9590    43.9600     5.6010     4.3610     4.8790    23.8420     2.3730 
  198.0000   -18.9510    43.9600     5.5250     4.3140     4.9420    23.8700     2.3640 
  198.1250   -18.9280    43.9600     5.4250     4.2690     5.0180    23.8700     2.3510 
  198.2500   -18.9150    43.9600     5.3610     4.2440     5.1210    23.9140     2.3430 
  198.3750   -18.9330    43.9600     5.4050     4.2820     5.3130    23.9780     2.3540 
  198.5000   -18.9640    43.9600     5.6110     4.4270     5.5760    24.0150     2.3930 
  198.6250   -18.9560    43.9600     6.0010     4.7150     6.0190    24.0260     2.4530 
  198.7500   -18.9060    43.9600     6.4700     5.0780     7.1460    24.0270     2.5050 
  198.8750   -18.8370    43.9600     6.9150     5.4290     9.5070    24.0410     2.5240 
  199.0000   -18.7680    43.9600     7.2400     5.6910    11.3340    24.0720     2.5040 
  199.1250   -18.6890    43.9600     7.3850     5.8110     9.7960    24.1610     2.4610 
  199.2500   -18.5610    43.9600     7.4210     5.8490     7.5970    24.2470     2.4210 
  199.3750   -18.3270    43.9600     7.3980     5.8590     6.7680    24.1780     2.3900 
  199.5000   -18.0600    43.9600     7.3400     5.8650     6.9670    23.9360     2.3670 
  199.6250   -17.8340    43.9600     7.2830     5.8630     6.5690    23.7870     2.3480 
  199.7500   -17.6180    43.9600     7.3060     5.8490     5.7760    23.7050     2.3330 
  199.8750   -17.4100    43.9600     7.4590     5.8260     5.2900    23.6070     2.3220 
  200.0000   -17.2240    43.9600     7.7340     5.8000     5.1120    23.4870     2.3160 
  200.1250   -17.0670    43.9600     8.0330     5.7820     4.9260    23.3550     2.3130 
  200.2500   -16.9890    43.9600     8.1710     5.7740     4.7400    23.2390     2.3120 
  200.3750   -16.9890    43.9600     8.1710     5.7740     4.6250    23.1720     2.3140 
  200.5000   -16.9860    43.9600     8.1710     5.7740     4.6120    23.1530     2.3190 
  200.6250   -16.9860    43.9600     8.1710     5.7740     4.7430    23.1510     2.3260 
  200.7500   -17.0230    43.9600     8.1710     5.7740     4.9000    23.1500     2.3350 
  200.8750   -17.0730    43.9600     8.1710     5.7740     5.0270    23.1570     2.3490 
  201.0000   -17.1260    43.9600     8.1710     5.7740     5.1920    23.1640     2.3640 
  201.1250   -17.1690    43.9600     8.1710     5.7740     5.5040    23.1730     2.3770 
  201.2500   -17.1940    43.9600     8.1710     5.7740     5.9060    23.2140     2.3820 
  201.3750   -17.2130    43.9600     8.1710     5.7740     6.2950    23.2980     2.3810 
  201.5000   -17.2550    43.9600     8.1710     5.7740     6.6800    23.3500     2.3810 
  201.6250   -17.2850    43.9600     8.1710     5.7740     6.9400    23.3390     2.3880 
  201.7500   -17.2880    43.9600     8.1710     5.7740     6.8270    23.3060     2.3990 
  201.8750   -17.2870    43.9600     8.1710     5.7740     6.6410    23.2650     2.4060 
  202.0000   -17.2910    43.9600     8.1710     5.7740     6.6480    23.2380     2.4060 
  202.1250   -17.2910    43.9600     8.1710     5.7740     6.7250    23.2260     2.4020 
  202.2500   -17.2910    43.9600     8.1710     5.7740     6.6400    23.2150     2.3970 
  202.3750   -17.2910    43.9600     8.1710     5.7740     6.0990    23.1990     2.3940 
  202.5000  -999.2500    43.9600     8.1710     5.7740     5.7130    23.1740     2.3880 
  202.6250  -999.2500    43.9600     8.1710     5.7740     5.7720    23.0940     2.3780 
  202.7500  -999.2500    43.9600     8.1710     5.7740     5.8190    22.9220     2.3640 
  202.8750  -999.2500    43.9600     8.1710     5.7740     5.6150    22.7010     2.3570 
  203.0000  -999.2500    43.9600     8.1710     5.7740     5.2110    22.4590     2.3630 
  203.1250  -999.2500    43.9600     8.1710     5.7740     5.0540    22.2770     2.3800 
