~V
VERS. 2.00: Ver 2.00
~W
STRT.M 60.0000:
STOP.M 207.0000:
STEP.M 0.1250:
NULL. -999.2500:
UWI. F10577:
~C
DEPT.M :
DEN.GM/CC :
SP.MV :
GR.API :
RML.OHMM :
RI. :
RXO.OHMM :
CALI.CM :
~A
# ...
   82.5000     2.1400   -19.3850    79.9020    11.6750     9.9080    10.4110    25.1290 
   82.6250     2.1550   -19.3190    81.2470    12.1930    10.1790    11.1460    24.9590 
   82.7500     2.1660   -19.2290    80.6450    12.7680    10.5440    11.7220    24.8680 
   82.8750     2.1610   -19.1160    78.8970    13.3660    10.9930    12.0630    24.9420 
   83.0000     2.1470   -18.9700    78.2330    13.9910    11.5100    12.5970    25.0460 
   83.1250     2.1320   -18.8080    79.5250    14.6490    12.0770    13.5860    25.1380 
   83.2500     2.1210   -18.6400    81.4910    15.3050    12.6540    14.2950    25.2470 
   83.3750     2.1160   -18.4540    83.1110    15.9180    13.2150    14.7380    25.3360 
   83.5000     2.1230   -18.2490    84.1520    16.4550    13.7300    14.8360    25.3910 
   83.6250     2.1400   -18.0630    87.5490    16.9160    14.1790    14.6110    25.4060 
   83.7500     2.1570   -17.8560    92.3210    17.3870    14.6120    14.4230    25.3980 
   83.8750     2.1770   -17.6250    96.0410    17.9420    15.1030    14.3930    25.3350 
   84.0000     2.2090   -17.3770    96.0150    18.6260    15.7180    14.2170    25.1790 
   84.1250     2.2460   -17.1000    93.1290    19.4190    16.4870    14.4090    24.9420 
   84.2500     2.2460   -16.8180    94.2380    20.1670    17.3050    15.8930    24.6270 
   84.3750     2.1870   -16.5540   100.8350    20.7090    18.0270    18.3920    24.4150 
   84.5000     2.1080   -16.3090   105.9480    20.9260    18.5000    20.5230    24.4640 
   84.6250     2.0640   -16.0830   102.6190    20.7420    18.5730    19.9130    24.8240 
   84.7500     2.0580   -15.9240    96.5640    20.2970    18.3370    18.3320    25.1240 
   84.8750     2.0730   -15.8250    93.4040    19.7250    17.9140    17.4400    25.1380 
   85.0000     2.0890   -15.7530    95.0460    19.1770    17.4490    19.4600    24.7880 
   85.1250     2.0950   -15.7170   100.2920    18.8020    17.0860    22.4980    24.4770 
   85.2500     2.1010   -15.7290   104.9700    18.6350    16.8780    22.6390    24.5230 
   85.3750     2.1110   -15.7550   103.4820    18.6560    16.8370    19.4580    24.7920 
   85.5000     2.1190   -15.7900    95.3610    18.7800    16.9250    17.9390    24.9950 
   85.6250     2.1160   -15.8190    89.6670    18.9030    17.0860    18.5600    25.0560 
   85.7500     2.1100   -15.8420    88.2090    18.9940    17.2430    18.7000    25.0640 
   85.8750     2.1070   -15.8600    84.2700    19.0750    17.3530    18.4450    25.0650 
   86.0000     2.1050   -15.8690    74.3370    19.1570    17.3910    18.7100    25.0630 
   86.1250     2.1010   -15.8860    68.5470    19.2200    17.3510    19.2740    25.0590 
   86.2500     2.0990   -15.9060    71.3550    19.2130    17.2530    19.8490    25.0590 
   86.3750     2.1020   -15.9120    75.8520    19.0600    17.0880    19.8400    25.0620 
   86.5000     2.1130   -15.9060    76.2990    18.7040    16.8290    18.9210    25.0640 
   86.6250     2.1310   -15.8980    74.5750    18.1410    16.4550    17.5570    25.0620 
   86.7500     2.1500   -15.8320    73.6650    17.4970    16.0220    17.2860    25.0580 
   86.8750     2.1630   -15.7210    73.3570    16.8730    15.6110    17.6440    25.0550 
   87.0000     2.1640   -15.6190    74.5260    16.3670    15.3230    17.6760    25.0390 
   87.1250     2.1560   -15.4690    77.0790    16.1080    15.2930    17.7290    24.9540 
   87.2500     2.1460   -15.2740    77.6760    16.1250    15.5270    17.6410    24.7700 
   87.3750     2.1340   -15.1060    76.5600    16.4440    16.0170    17.4580    24.5240 
   87.5000     2.1200   -14.9660    75.3830    17.0120    16.6890    17.3780    24.2770 
   87.6250     2.1040   -14.8820    76.7590    17.5650    17.2840    17.6160    24.1780 
   87.7500     2.0960   -14.9350    79.3900    17.6860    17.4240    18.0630    24.1490 
   87.8750     2.1040   -15.0890    81.1340    17.0920    16.8420    18.0110    24.1050 
   88.0000     2.1350   -15.3200    81.9990    15.7860    15.5480    16.6300    23.9390 
   88.1250     2.1830   -15.6680    84.7910    14.0580    13.8060    13.4410    23.6620 
   88.2500     2.2220   -16.0610    88.3180    12.4100    12.0810    10.7940    23.2520 
   88.3750     2.2340   -16.4410    90.6760    11.0860    10.6020     9.1310    22.7460 
   88.5000     2.2280   -16.8150    93.1610    10.1350     9.4530     8.8590    22.3960 
   88.6250     2.2220   -17.1220    98.4310     9.5110     8.6730     8.6550    22.4350 
   88.7500     2.2220   -17.3100   102.6320     9.0760     8.1810     7.5140    22.8250 
   88.8750     2.2250   -17.3870   103.1370     8.8440     7.9770     7.0990    23.3950 
   89.0000     2.2210   -17.3460   102.3140     8.9440     8.0950     7.1890    23.7980 
   89.1250     2.1910   -17.1780   101.1660     9.6990     8.6950     7.8140    23.9180 
   89.2500     2.1370   -16.9740    96.7070    11.2150     9.8440     9.2400    23.9310 
   89.3750     2.0790   -16.7420    87.6760    13.5020    11.6470    12.3950    23.9320 
   89.5000     2.0400   -16.4790    77.5620    16.3570    14.1070    16.2450    23.9310 
   89.6250     2.0320   -16.2430    72.0740    19.2800    17.0200    17.4180    23.8970 
   89.7500     2.0430   -16.0430    71.3900    21.6550    19.7420    18.0340    23.8240 
   89.8750     2.0690   -15.8980    72.2530    23.1540    21.7340    20.9600    23.7570 
   90.0000     2.1080   -15.8570    71.0500    23.8440    22.8140    24.3700    23.7420 
   90.1250     2.1590   -15.9450    67.4500    24.0690    23.1810    24.1570    23.7670 
   90.2500     2.2170   -16.1010    66.2520    24.1490    23.2690    22.4670    23.7380 
   90.3750     2.2780   -16.3070    70.8820    23.9040    23.0090    21.7870    23.6130 
   90.5000     2.3340   -16.5590    78.8990    22.9320    22.0610    24.5350    23.4060 
   90.6250     2.3510   -16.8060    83.0010    20.7210    19.9600    27.0980    23.0720 
   90.7500     2.3170   -17.0290    86.0550    17.6110    17.0440    22.0590    22.6830 
   90.8750     2.2610   -17.2240    92.4310    14.2030    13.8930    14.0540    22.2620 
   91.0000     2.2240   -17.3580   100.3940    11.2160    11.1220     8.7050    21.8700 
   91.1250     2.2240   -17.3610   104.9730     9.3090     9.2310     7.0670    21.5660 
   91.2500     2.2340   -17.2580   106.9760     8.4180     8.1540     6.5400    21.3740 
   91.3750     2.2340   -17.0850   107.4940     8.4220     7.8160     6.7990    21.2450 
   91.5000     2.2180   -16.8640   104.6480     9.1260     8.1080     8.0020    21.1940 
   91.6250     2.1980   -16.6350    99.6980    10.2700     8.9040     9.8840    21.5080 
   91.7500     2.1870   -16.3970    97.1900    11.3840     9.8470    10.8980    22.3860 
   91.8750     2.1790   -16.1220    97.0220    12.1930    10.6870    10.5520    23.6090 
   92.0000     2.1670   -15.7960    97.5540    12.6760    11.3020    10.2050    24.5590 
   92.1250     2.1500   -15.4240    94.2410    13.1060    11.7810    10.7020    24.9060 
   92.2500     2.1300   -15.0630    86.1860    13.8590    12.4110    11.4630    25.0400 
   92.3750     2.1110   -14.7080    79.5200    15.1370    13.4110    12.6920    25.1540 
   92.5000     2.0970   -14.3310    80.3290    16.9260    14.8650    14.6060    25.2730 
   92.6250     2.0930   -13.9630    83.4850    18.9820    16.6600    17.0760    25.2580 
   92.7500     2.0900   -13.6320    79.9340    20.8510    18.3810    19.0330    25.1240 
   92.8750     2.0810   -13.3420    73.0150    22.2450    19.6880    19.8760    24.9800 
   93.0000     2.0740   -13.1350    70.7420    23.0160    20.3710    19.9670    24.8940 
   93.1250     2.0830   -13.0890    74.2630    22.9670    20.2440    18.9770    24.7750 
   93.2500     2.1010   -13.1190    78.1820    22.1280    19.4180    18.0980    24.5450 
   93.3750     2.1160   -13.2230    80.8650    20.5240    17.9710    17.8040    24.2920 
   93.5000     2.1310   -13.4400    82.9280    18.4300    16.1440    17.5380    24.0610 
   93.6250     2.1590   -13.6640    83.6050    16.4260    14.3700    15.4780    23.6540 
