~V
VERS. 2.00: Ver 2.00
~W
STRT.M 50.0000:
STOP.M 191.0000:
STEP.M 0.1250:
NULL. -999.2500:
UWI. F10562:
~C
DEPT.M :
DEN.GM/CC :
SP.MV :
GR.API :
RML.OHMM :
RI. :
RXO.OHMM :
CALI.CM :
~A
# ...
   61.2500     2.0970     9.1950    69.2040    33.9740    58.0270     8.5160    25.1780 
   61.3750     2.0810     1.9390    66.9150    21.6900    44.4880     8.8510    25.6840 
   61.5000     2.0870    -4.3580    66.1320    12.9970    24.5400     8.9300    25.7160 
   61.6250     2.1060    -9.1080    67.8570     9.7290    15.1280     8.3370    25.4680 
   61.7500     2.1230   -12.6190    69.5750     8.2230    10.6050     8.2330    25.3220 
   61.8750     2.1360   -15.2470    68.8250     7.6590     8.7790     8.1940    25.2820 
   62.0000     2.1500   -17.2730    65.9240     7.6200     8.4290     8.3180    25.2790 
   62.1250     2.1680   -18.8260    66.0910     7.7210     8.6280     8.4280    25.2670 
   62.2500     2.1830   -20.0770    69.5350     7.6830     8.8530     8.3270    25.2200 
   62.3750     2.1940   -21.1180    71.6720     7.5080     9.0520     8.2360    25.1000 
   62.5000     2.2010   -21.9850    68.8870     7.3130     9.2250     8.2990    24.8740 
   62.6250     2.2050   -22.7100    67.6190     7.2070     9.3680     8.5130    24.6460 
   62.7500     2.2070   -23.3060    72.8230     7.0760     9.4770     8.6560    24.4980 
   62.8750     2.2060   -23.8110    80.0710     6.8930     9.5690     9.2360    24.3650 
   63.0000     2.2040   -24.2680    83.1410     6.8250     9.6870    10.3740    24.1890 
   63.1250     2.2100   -24.7250    81.1080     7.2210     9.9220    11.0700    24.0470 
   63.2500     2.2310   -25.1740    79.5960     8.1970    10.3390     9.3710    23.8920 
   63.3750     2.2690   -25.6000    79.0230     9.6800    11.0110     8.5700    23.7790 
   63.5000     2.3240   -26.0250    76.3560    11.4190    12.0120     9.0090    23.7620 
   63.6250     2.3990   -26.4530    72.1160    13.0490    13.3920    11.8250    23.8750 
   63.7500     2.4760   -26.8830    70.2940    14.2150    14.7700    19.8480    24.0800 
   63.8750     2.5200   -27.3220    71.4670    14.4960    15.4400    35.1910    24.2540 
   64.0000     2.5060   -27.7220    72.5400    13.3950    14.6480    35.1520    24.2510 
   64.1250     2.4350   -28.0680    74.6100    10.7950    12.2270    18.7700    24.0190 
   64.2500     2.3530   -28.3870    80.4870     7.9700     9.4650     9.1410    23.7850 
   64.3750     2.2910   -28.6880    87.2780     5.7840     7.2390     6.2950    23.6910 
   64.5000     2.2590   -28.9550    90.6690     4.5820     5.8990     5.8940    23.7460 
   64.6250     2.2460   -29.1850    88.6940     4.4760     5.5260     5.8450    23.9920 
   64.7500     2.2360   -29.3730    84.2210     5.0080     5.7340     6.3440    24.3660 
   64.8750     2.2270   -29.5060    78.9210     5.7730     6.2440     7.4670    24.7350 
   65.0000     2.2240   -29.6140    74.7580     6.3490     6.7540     9.0790    24.9320 
   65.1250     2.2280   -29.6980    72.3820     6.4290     6.9480     8.3120    24.9800 
   65.2500     2.2370   -29.7390    71.2980     6.1720     6.7920     6.9580    24.9800 
   65.3750     2.2470   -29.7580    72.9590     5.7640     6.3960     6.1110    24.9800 
   65.5000     2.2580   -29.7610    77.2080     5.3820     5.9360     5.7240    24.9810 
   65.6250     2.2690   -29.7380    81.8550     5.1520     5.5790     5.5520    24.9790 
   65.7500     2.2800   -29.7060    85.3550     5.0430     5.3680     5.1430    24.9760 
   65.8750     2.2840   -29.6740    87.2690     5.0180     5.3020     4.9000    24.9720 
   66.0000     2.2840   -29.6630    87.5980     5.1000     5.3680     4.7380    24.9690 
   66.1250     2.2790   -29.6490    86.3230     5.3960     5.5920     5.1050    24.9710 
   66.2500     2.2690   -29.6320    85.1280     5.8450     5.9350     5.7270    24.9880 
   66.3750     2.2600   -29.5970    83.4270     6.2640     6.3160     6.3590    25.0210 
   66.5000     2.2600   -29.5530    81.0150     6.4050     6.5870     6.4170    25.0370 
   66.6250     2.2730   -29.4840    80.9900     6.0920     6.5660     5.9840    25.0090 
   66.7500     2.2890   -29.4190    84.5980     5.5920     6.3090     5.6530    24.9520 
   66.8750     2.3000   -29.3580    89.2170     5.1950     5.9530     5.4600    24.9150 
   67.0000     2.3030   -29.2970    91.4110     5.0670     5.6540     5.3040    24.9040 
   67.1250     2.2980   -29.2450    90.2970     5.1930     5.5480     5.3090    24.9060 
   67.2500     2.2930   -29.1990    89.3190     5.4400     5.6450     5.2870    24.9060 
   67.3750     2.2920   -29.1490    90.1250     5.8190     5.9600     5.5720    24.8980 
   67.5000     2.2940   -29.0950    91.9350     6.4080     6.5260     6.1510    24.8670 
   67.6250     2.3050   -29.0480    88.6740     7.4150     7.4630     6.7970    24.7590 
   67.7500     2.3350   -28.9860    80.3910     8.9450     8.8170     7.8760    24.6040 
   67.8750     2.3740   -28.8910    73.8340    11.0340    10.6430    10.7970    24.4650 
   68.0000     2.3800   -28.7600    73.2370    13.4360    12.7940    17.9550    24.4020 
   68.1250     2.3140   -28.5690    76.2750    15.3540    14.6020    21.1750    24.3950 
   68.2500     2.2290   -28.3970    77.2920    16.0880    15.3240    15.7210    24.3850 
   68.3750     2.1740   -28.2420    76.6700    15.5720    14.8090    11.3560    24.3020 
   68.5000     2.1550   -28.1010    75.2940    14.3780    13.6030     9.7170    24.0780 
   68.6250     2.1540   -28.0010    74.3630    13.2000    12.4590     9.0110    23.6860 
   68.7500     2.1580   -27.9630    74.3110    12.1850    11.6190     8.4810    23.2890 
   68.8750     2.1700   -27.9980    73.9760    11.1070    10.8860     8.0610    22.9330 
   69.0000     2.1910   -28.1130    74.3090     9.7980     9.9870     7.6380    22.8340 
   69.1250     2.2230   -28.3250    78.0390     8.3570     8.8260     7.0230    23.1280 
   69.2500     2.2590   -28.5580    82.8160     7.1010     7.6510     6.2340    23.6820 
   69.3750     2.2870   -28.7920    86.2520     6.2430     6.6830     5.8190    24.2100 
   69.5000     2.3000   -29.0280    87.7500     5.8600     6.0510     5.7960    24.6240 
   69.6250     2.2960   -29.2360    87.4720     5.9900     5.8570     5.5570    24.7840 
   69.7500     2.2840   -29.4040    86.2750     6.4870     6.0290     5.5340    24.8300 
   69.8750     2.2690   -29.5170    85.1140     7.2700     6.5240     6.2000    24.8320 
   70.0000     2.2600   -29.5590    84.0600     8.2040     7.2470     6.8400    24.8300 
   70.1250     2.2670   -29.5330    80.1570     9.0640     8.0330     7.1510    24.8320 
   70.2500     2.2900   -29.4590    76.2050     9.6980     8.7020     7.8610    24.8310 
   70.3750     2.3200   -29.3430    75.0470    10.0580     9.1690     9.4220    24.8290 
   70.5000     2.3410   -29.1560    76.1860    10.1520     9.4090    10.8930    24.8280 
   70.6250     2.3320   -28.9290    79.5560    10.0190     9.4150     9.7940    24.8350 
   70.7500     2.3030   -28.6560    83.4620     9.8720     9.3180     8.0740    24.8560 
   70.8750     2.2720   -28.3280    85.2890     9.9850     9.2950     7.3240    24.8820 
   71.0000     2.2460   -27.9720    84.1160    10.7480     9.6190     7.4100    24.8980 
   71.1250     2.2190   -27.5710    81.3970    12.9260    10.8390     8.3350    24.9060 
   71.2500     2.1900   -27.1450    77.8370    16.7790    13.2720    10.4820    24.9520 
   71.3750     2.1590   -26.7200    73.2980    22.2670    17.1510    14.1880    25.0860 
   71.5000     2.1310   -26.3240    69.5400    28.5730    22.2360    18.2610    25.2820 
   71.6250     2.1150   -25.9600    68.0480    33.4320    27.1620    20.6810    25.3860 
   71.7500     2.1120   -25.6220    67.7190    35.0380    29.9930    21.7120    25.4180 
   71.8750     2.1170   -25.3450    67.9640    33.3190    29.9860    22.2680    25.4200 
   72.0000     2.1230   -25.0850    66.9770    29.7470    27.9360    21.9730    25.4200 
   72.1250     2.1260   -24.8840    63.4160    26.0960    25.2590    20.0890    25.4200 
   72.2500     2.1250   -24.6980    61.6000    23.2170    22.9470    17.0400    25.4160 
   72.3750     2.1160   -24.5250    65.1840    21.3150    21.2660    15.2290    25.3940 
