~V
VERS. 2.00: Ver 2.00
~W
STRT.M 58.0000:
STOP.M 215.0000:
STEP.M 0.1250:
NULL. -999.2500:
UWI. F10587:
~C
DEPT.M :
DEN.GM/CC :
GR.API :
RML.OHMM :
RI. :
RXO.OHMM :
CALI.CM :
SP.MV :
~A
   58.0000     2.6040    36.5010     0.0270     0.0790     1.2540    23.9620   112.1490 
   58.1250     2.6530    36.3560     0.0110     0.0560     1.2510    23.7320   109.6330 
   58.2500     2.5920    36.3030     0.0050     0.0420     1.2470    23.7150   105.5910 
   58.3750     2.4660    38.6900     0.0140     0.0470     1.2740    23.8160    99.4940 
   58.5000     2.3280    42.9950     0.0570     0.1060     1.7850    24.0820    90.9820 
   58.6250     2.2190    45.5790     0.2260     0.3500     4.2310    24.5540    79.6130 
   58.7500     2.1590    48.1040     0.7170     0.9800    10.4680    24.8500    66.3000 
   58.8750     2.1390    53.6540     1.9670     2.3320    17.0120    24.9300    51.7550 
   59.0000     2.1360    59.5780     4.4840     4.6650    17.8130    24.9060    36.6370 
   59.1250     2.1330    60.6430     7.5080     7.4470    16.8120    24.8510    21.7440 
   59.2500     2.1320    59.9810     9.1680     9.4550    15.2940    24.7500     7.7700 
   59.3750     2.1370    63.2920     9.6320    10.4910    13.3720    24.6420    -4.6380 
   59.5000     2.1480    68.4260     9.7590    10.9750    12.5620    24.5790   -14.9560 
   59.6250     2.1540    68.0210     9.9370    11.2300    13.2970    24.5480   -22.5290 
   59.7500     2.1480    64.9310    10.1310    11.3650    13.9540    24.5190   -28.0080 
   59.8750     2.1330    64.2680    10.2360    11.3600    13.5170    24.5010   -31.9040 
   60.0000     2.1160    66.3760    10.1890    11.2070    11.9240    24.4790   -34.5300 
   60.1250     2.1090    66.5250    10.0170    10.9390    11.2160    24.4410   -35.9030 
   60.2500     2.1130    65.0880     9.8490    10.6660    10.9300    24.4260   -36.3640 
   60.3750     2.1290    65.0370     9.7520    10.4570    10.9800    24.4270   -36.0920 
   60.5000     2.1530    66.1910     9.7430    10.3410    11.0180    24.4180   -35.2870 
   60.6250     2.1720    67.7010     9.8240    10.3330    10.9130    24.4060   -34.1850 
   60.7500     2.1750    67.7250    10.0020    10.4280    10.8620    24.4070   -33.0350 
   60.8750     2.1610    66.1380    10.2960    10.6390    10.9400    24.3960   -31.8980 
   61.0000     2.1450    64.3150    10.6770    10.9390    11.0750    24.2330   -30.9110 
   61.1250     2.1480    64.1280    10.9950    11.2080    11.3010    23.9160   -30.2450 
   61.2500     2.1770    66.2120    11.0720    11.2780    11.5840    23.7950   -29.9550 
   61.3750     2.2190    69.0060    10.8210    11.0450    11.5060    23.7940   -30.0360 
   61.5000     2.2530    72.1340    10.2940    10.5230    10.6840    23.8100   -30.3800 
   61.6250     2.2650    77.2180     9.6470     9.8270     9.2730    23.8070   -30.8660 
   61.7500     2.2700    82.0920     9.0410     9.1350     8.5770    23.7580   -31.3350 
   61.8750     2.2780    84.7070     8.5140     8.5140     8.6290    23.7300   -31.8080 
   62.0000     2.2920    85.1470     8.0470     7.9680     8.8210    23.7260   -32.2780 
   62.1250     2.3010    87.4700     7.6190     7.4890     8.6990    23.7450   -32.6940 
   62.2500     2.2990    92.2120     7.2390     7.0720     8.0840    23.7890   -33.0830 
   62.3750     2.2880    94.8910     6.9600     6.7550     7.5250    23.8480   -33.4180 
   62.5000     2.2770    93.2730     6.8510     6.5900     7.3430    23.8690   -33.6820 
   62.6250     2.2670    90.9300     6.9900     6.6450     7.5590    23.8770   -33.8340 
   62.7500     2.2560    89.8140     7.3150     6.8670     8.1610    23.9850   -33.9530 
   62.8750     2.2390    88.2500     7.7440     7.1880     8.6120    24.2550   -34.0170 
   63.0000     2.2150    84.8570     8.1750     7.5180     8.6740    24.4530   -33.9990 
   63.1250     2.1900    82.4890     8.5250     7.7730     8.8650    24.4650   -34.0000 
   63.2500     2.1710    79.6810     8.8100     7.9480     9.0690    24.4330   -33.9930 
   63.3750     2.1580    73.4770     9.0640     8.0720     9.1820    24.4210   -33.9580 
   63.5000     2.1500    67.2810     9.3190     8.1820     9.3500    24.4210   -33.9440 
   63.6250     2.1490    67.2040     9.5680     8.2860     9.5710    24.4120   -34.0070 
   63.7500     2.1510    70.1920     9.7810     8.3630     9.7760    24.3980   -34.1060 
   63.8750     2.1550    70.6200     9.9360     8.3890     9.8680    24.3790   -34.2190 
   64.0000     2.1590    69.5000    10.0310     8.3610     9.8480    24.3530   -34.3650 
   64.1250     2.1640    71.3120    10.0770     8.2970     9.6300    24.3470   -34.4920 
   64.2500     2.1700    72.4320    10.1080     8.2300     9.5230    24.4270   -34.6280 
   64.3750     2.1790    71.0950    10.1420     8.1780     9.5830    24.4630   -34.8320 
   64.5000     2.1880    71.1980    10.1940     8.1520     9.6950    24.4120   -35.0670 
   64.6250     2.1890    75.2460    10.2870     8.1650     9.7330    24.3090   -35.2490 
   64.7500     2.1800    77.0360    10.4400     8.2260     9.8500    24.3580   -35.3750 
   64.8750     2.1650    74.1450    10.6800     8.3570    10.0210    24.4250   -35.4380 
   65.0000     2.1510    71.1040    11.0340     8.5810    10.2050    24.4530   -35.4580 
   65.1250     2.1420    71.1600    11.5470     8.9330    10.5280    24.5220   -35.4770 
   65.2500     2.1380    70.3170    12.1910     9.3900    10.9130    24.6590   -35.4580 
   65.3750     2.1360    65.8520    12.9220     9.9230    11.4860    24.7300   -35.3420 
   65.5000     2.1320    60.3570    13.6590    10.4700    11.9470    24.6630   -35.1220 
   65.6250     2.1280    58.9900    14.2380    10.9130    12.1790    24.6200   -34.8530 
   65.7500     2.1330    60.5790    14.5320    11.1540    12.2380    24.6050   -34.5730 
   65.8750     2.1570    62.4650    14.4780    11.1250    12.4650    24.5620   -34.2780 
   66.0000     2.1950    62.9040    14.1360    10.8470    12.7630    24.4370   -33.9560 
   66.1250     2.2220    64.2950    13.6950    10.4340    12.6270    24.0970   -33.5960 
   66.2500     2.2190    67.2070    13.4040    10.0890    12.0450    23.4640   -33.2270 
   66.3750     2.1880    70.2660    13.4170     9.9330    11.2950    22.7860   -32.8710 
   66.5000     2.1510    71.6980    13.7830    10.0140    11.0680    22.5170   -32.5710 
   66.6250     2.1380    69.2760    14.3940    10.2900    11.4150    22.8320   -32.3010 
   66.7500     2.1460    65.1050    14.8920    10.5530    12.0920    23.3830   -32.0670 
   66.8750     2.1550    61.7680    14.9680    10.6170    12.9130    23.8030   -31.8700 
   67.0000     2.1470    60.5490    14.4970    10.3710    13.3510    24.0120   -31.6860 
   67.1250     2.1360    60.7970    13.6850     9.8800    12.4500    23.9900   -31.5180 
   67.2500     2.1610    60.3640    13.1100     9.4720    11.1330    23.8710   -31.3620 
   67.3750     2.2540    59.0610    13.2450     9.4430    10.4780    23.9660   -31.2340 
   67.5000     2.4140    57.4680    14.4550    10.0520    11.0410    24.2960   -31.0880 
   67.6250     2.5820    57.0100    17.1930    11.6880    14.4570    24.4400   -30.9090 
   67.7500     2.6810    56.8180    21.1570    14.3040    22.9480    24.2090   -30.7240 
   67.8750     2.6820    55.1660    25.6560    17.6030    33.7690    23.7050   -30.5760 
   68.0000     2.6080    53.9980    29.1740    20.6430    39.8620    23.2210   -30.4590 
   68.1250     2.4950    54.5290    29.3330    21.6070    36.4460    22.8500   -30.3550 
   68.2500     2.3810    54.7230    26.4840    20.2520    29.1310    22.5870   -30.2480 
   68.3750     2.2850    54.4280    22.2540    17.5060    21.5440    22.4870   -30.0910 
   68.5000     2.2210    55.3870    18.2920    14.5970    15.3790    22.4650   -29.9220 
   68.6250     2.1910    58.0720    15.6270    12.4090    11.8650    22.3430   -29.7690 
   68.7500     2.1780    60.6000    14.1690    11.0270    10.4470    22.1720   -29.5650 
   68.8750     2.1700    62.4270    13.7540    10.3980    10.1100    22.0980   -29.3240 
   69.0000     2.1630    62.4640    14.1450    10.4070    10.6240    22.2400   -29.0790 
   69.1250     2.1630    59.3430    15.0190    10.9110    11.5320    22.6770   -28.8220 
