~V
VERS. 2.00: Ver 2.00
~W
STRT.M 55.0000:
STOP.M 318.0000:
STEP.M 0.1250:
NULL. -999.2500:
UWI. F10558:
~C
DEPT.M :
DEN.GM/CC :
GR.API :
RML.OHMM :
RI. :
RXO.OHMM :
CALI.CM :
SP.MV :
~A
# ...
  201.2500     2.5230    82.6680    18.2240    16.9480    19.0420    24.0210   -14.4010 
  201.3750     2.4900    79.1450    17.2250    16.0430    17.3460    24.0210   -14.3810 
  201.5000     2.4620    76.5730    16.3400    15.2360    15.5010    24.0210   -14.3450 
  201.6250     2.4530    76.0820    15.8310    14.7000    14.8750    24.0210   -14.3010 
  201.7500     2.4620    76.8430    15.6920    14.4380    14.9810    24.0210   -14.2660 
  201.8750     2.4780    78.7420    15.8290    14.4090    15.0310    24.0210   -14.2300 
  202.0000     2.4900    80.2800    16.0840    14.5440    14.6300    24.0130   -14.2160 
  202.1250     2.4930    81.5260    16.2940    14.7900    14.1330    23.9880   -14.2160 
  202.2500     2.4960    82.6810    16.4390    15.0930    14.0910    23.9250   -14.2590 
  202.3750     2.5010    83.2820    16.5990    15.4260    14.2420    23.8160   -14.3150 
  202.5000     2.5080    83.5220    16.8560    15.7550    14.6530    23.6620   -14.4050 
  202.6250     2.5140    82.6700    17.2820    16.0590    14.1540    23.5910   -14.5190 
  202.7500     2.5170    81.0390    17.8670    16.3940    14.4720    23.5710   -14.6420 
  202.8750     2.5140    78.8290    18.5760    16.8460    15.7860    23.5710   -14.7800 
  203.0000     2.5040    78.1990    19.2840    17.4590    17.9980    23.5710   -14.9350 
  203.1250     2.4880    82.8850    19.7590    18.1290    19.0830    23.5710   -15.0890 
  203.2500     2.4720    90.5360    19.8790    18.5940    19.7560    23.5710   -15.2210 
  203.3750     2.4670    97.2490    19.6320    18.6690    20.0400    23.5710   -15.3450 
  203.5000     2.4800    97.5650    19.1540    18.3640    20.2820    23.5710   -15.4470 
  203.6250     2.5110    91.8140    18.6700    17.8520    20.9440    23.5710   -15.5280 
  203.7500     2.5390    88.2370    18.3230    17.3780    19.6490    23.5710   -15.6020 
  203.8750     2.5530    89.5040    18.1690    17.0720    17.4650    23.5710   -15.6720 
  204.0000     2.5500    92.2210    18.3380    17.0580    16.4180    23.5710   -15.7270 
  204.1250     2.5360    92.4250    19.0750    17.5360    18.0840    23.5710   -15.7620 
  204.2500     2.5130    92.5050    20.2540    18.4330    21.0220    23.5750   -15.7910 
  204.3750     2.4840    93.3430    21.5330    19.5320    23.6200    23.5900   -15.8150 
  204.5000     2.4570    94.7840    22.3890    20.4080    24.4500    23.6250   -15.8360 
  204.6250     2.4360    96.2870    22.2250    20.4760    22.7340    23.6420   -15.8650 
  204.7500     2.4210    97.3150    21.2680    19.8100    20.5040    23.6480   -15.8940 
  204.8750     2.4090    97.3990    19.9830    18.7540    18.0430    23.6480   -15.9310 
  205.0000     2.3980    95.7670    18.8560    17.7080    15.9830    23.6450   -15.9940 
  205.1250     2.3900    93.1820    18.2710    17.0190    15.4400    23.6290   -16.1080 
  205.2500     2.3860    91.8650    18.1640    16.7570    15.8450    23.6010   -16.2650 
  205.3750     2.3850    92.2440    18.3770    16.9210    16.8550    23.5790   -16.4540 
  205.5000     2.3870    92.8610    18.6750    17.4140    18.0100    23.5710   -16.6770 
  205.6250     2.3910    92.5960    18.7790    18.0360    18.8880    23.5710   -16.9080 
  205.7500     2.3940    91.1740    18.6040    18.5180    19.2980    23.5710   -17.1580 
  205.8750     2.3960    89.1040    18.2590    18.7490    18.5310    23.5500   -17.4130 
  206.0000     2.3950    87.6190    18.0050    18.8100    18.2880    23.4860   -17.6710 
  206.1250     2.3950    90.2130    18.1440    18.9550    18.6630    23.3610   -17.9120 
  206.2500     2.3990    94.6040    18.6110    19.3250    18.7960    23.2950   -18.1460 
  206.3750     2.4020    95.6670    19.1790    19.8560    18.6850    23.2760   -18.3810 
  206.5000     2.4030    93.5350    19.5400    20.3100    18.0290    23.2750   -18.6160 
  206.6250     2.3980    92.1360    19.4630    20.3250    16.5550    23.2750   -18.8770 
  206.7500     2.3860    94.9620    19.2030    19.9540    15.6530    23.2750   -19.1620 
  206.8750     2.3650    99.3030    19.1600    19.5310    16.3600    23.2750   -19.4790 
  207.0000     2.3380   100.9420    19.7210    19.4920    18.5920    23.2750   -19.8300 
  207.1250     2.3140    99.4130    21.4470    20.3930    19.4460    23.2750   -20.2290 
  207.2500     2.2910    98.4630    24.9150    22.7000    18.3270    23.2750   -20.6590 
  207.3750     2.2660    97.6900    31.5490    27.8960    19.3260    23.2750   -21.1260 
  207.5000     2.2320    93.1650    43.5490    39.2380    24.7710    23.2750   -21.6170 
  207.6250     2.1950    83.1410    66.0570    63.6100    42.8580    23.2750   -22.1020 
  207.7500     2.1680    72.6530   104.5540    99.3910    65.0140    23.2750   -22.5750 
  207.8750     2.1540    65.1120   156.2750   142.0830    70.8790    23.2750   -23.0430 
  208.0000     2.1530    61.3510   197.6850   176.1340    69.3500    23.2750   -23.5020 
  208.1250     2.1580    60.9900   195.3170   171.8600    75.3040    23.2750   -23.9300 
  208.2500     2.1640    61.5620   165.3370   145.1770    78.4000    23.2750   -24.3140 
  208.3750     2.1700    61.5770   132.5900   117.8220    74.1410    23.2750   -24.6520 
  208.5000     2.1730    63.1140   108.2540    97.5200    63.6520    23.2750   -24.9540 
  208.6250     2.1760    67.5670    92.4650    83.9540    52.4460    23.2750   -25.2320 
  208.7500     2.1770    71.1350    81.0270    74.1810    46.1230    23.2750   -25.4880 
  208.8750     2.1770    71.8650    73.0100    67.3490    45.4070    23.2750   -25.7120 
  209.0000     2.1760    70.9400    68.0070    62.9860    44.1930    23.2750   -25.9000 
  209.1250     2.1760    69.2420    66.2460    61.4000    41.7110    23.2750   -26.0500 
  209.2500     2.1760    66.1780    67.2090    62.3100    40.4660    23.2750   -26.2010 
  209.3750     2.1720    63.8600    70.5690    65.4060    41.8400    23.2750   -26.3380 
  209.5000     2.1630    65.9400    75.2600    69.6020    42.3980    23.2750   -26.4540 
  209.6250     2.1510    70.1260    78.9350    72.5750    44.3680    23.2750   -26.5470 
  209.7500     2.1410    71.0330    79.6360    72.6280    46.0320    23.2830   -26.6160 
  209.8750     2.1380    68.0810    77.0040    69.7230    41.8140    23.3120   -26.6750 
  210.0000     2.1410    63.9330    72.3020    65.2570    35.4160    23.3730   -26.7160 
  210.1250     2.1510    62.0810    67.4420    60.9330    34.2330    23.4060   -26.7400 
  210.2500     2.1650    63.3950    63.2300    57.2410    38.8920    23.4180   -26.7340 
  210.3750     2.1830    66.4200    59.3320    53.8340    43.3960    23.4180   -26.7140 
  210.5000     2.2010    68.3890    55.3510    50.3910    45.0840    23.4190   -26.7030 
  210.6250     2.2130    69.4340    51.4990    47.1980    42.7500    23.4210   -26.7190 
  210.7500     2.2180    71.1350    48.7360    45.2310    39.8710    23.4250   -26.7510 
  210.8750     2.2130    71.9990    48.2140    45.5780    40.7460    23.4440   -26.7880 
  211.0000     2.2010    70.0990    50.6460    48.7760    50.0840    23.5020   -26.8420 
  211.1250     2.1910    67.4230    55.9510    54.4590    69.9570    23.5770   -26.9410 
  211.2500     2.1900    65.9720    61.5890    59.9760    87.1180    23.6290   -27.0530 
  211.3750     2.1960    66.1790    64.9040    62.6560    90.0810    23.6460   -27.1730 
  211.5000     2.2010    68.3090    64.3040    61.1570    87.3640    23.6480   -27.2870 
  211.6250     2.2020    70.7680    60.2600    56.4790    95.1480    23.6480   -27.4150 
  211.7500     2.2010    70.8720    55.4360    51.5130   105.8350    23.6480   -27.5430 
  211.8750     2.2040    69.0780    50.8740    47.2400    95.0300    23.6480   -27.6620 
  212.0000     2.2120    68.5350    46.7440    43.7170    70.9090    23.6480   -27.7440 
  212.1250     2.2220    69.7250    43.3050    41.0750    58.7160    23.6480   -27.7910 
  212.2500     2.2260    69.9580    40.8410    39.3930    60.8880    23.6480   -27.8140 
  212.3750     2.2190    69.2670    39.4980    38.6950    62.6610    23.6470   -27.8140 
