~V
VERS. 2.00: Ver 2.00
~W
STRT.M 50.0000:
STOP.M 214.0000:
STEP.M 0.1250:
NULL. -999.2500:
UWI. F10534:
~C
DEPT.M :
DEN.GM/CC :
SP.MV :
GR.API :
RML.OHMM :
RI. :
RXO.OHMM :
CALI.CM :
~A
# ...
   95.0000     2.3090   -21.6080   118.6490     5.1110     3.8750     4.0250    24.9780 
   95.1250     2.3250   -21.8420   118.0000     5.1790     3.9120     3.9000    24.6800 
   95.2500     2.3440   -22.1570   116.2920     5.3570     4.0240     3.9610    24.0320 
   95.3750     2.3570   -22.5650   114.6890     5.7110     4.2570     4.2510    23.4590 
   95.5000     2.3650   -23.0120   108.7640     6.2340     4.6210     4.7850    23.2210 
   95.6250     2.3770   -23.4650   100.0190     6.7870     5.0530     5.5820    23.2090 
   95.7500     2.3890   -23.9150    96.6560     7.1660     5.4130     5.8390    23.2100 
   95.8750     2.3800   -24.2880    98.9270     7.2910     5.6140     5.7850    23.2180 
   96.0000     2.3360   -24.5680    99.2690     7.2350     5.6580     5.8160    23.2480 
   96.1250     2.2740   -24.7320    93.1650     7.1370     5.6170     6.1130    23.3380 
   96.2500     2.2300   -24.7450    86.2990     7.0700     5.5720     6.4710    23.4700 
   96.3750     2.2180   -24.6630    83.5740     6.9970     5.5310     6.8690    23.6330 
   96.5000     2.2380   -24.5130    87.1510     6.8470     5.4590     7.4520    23.7880 
   96.6250     2.2810   -24.3070    93.1600     6.5810     5.3150     7.6650    23.8470 
   96.7500     2.3150   -24.0860    95.9160     6.2960     5.1280     6.7210    23.8570 
   96.8750     2.3160   -23.9110    97.4560     6.0880     4.9540     5.6060    23.8240 
   97.0000     2.2890   -23.7630   102.6180     6.0210     4.8540     5.1320    23.7090 
   97.1250     2.2660   -23.6660   106.7060     6.1550     4.9020     5.3570    23.4360 
   97.2500     2.2560   -23.6190   101.7520     6.4390     5.0890     5.8760    23.0840 
   97.3750     2.2480   -23.5580    92.9000     6.7730     5.3630     6.2550    22.7860 
   97.5000     2.2350   -23.4570    87.9330     6.9990     5.6140     6.4380    22.6940 
   97.6250     2.2300   -23.3280    90.3690     6.9420     5.6700     6.1290    22.8790 
   97.7500     2.2450   -23.1920    94.6410     6.6810     5.5160     5.4980    23.2230 
   97.8750     2.2770   -23.0380    97.2080     6.3850     5.2460     4.9920    23.4690 
   98.0000     2.3110   -22.8840    97.9070     6.2160     4.9990     4.8500    23.5540 
   98.1250     2.3270   -22.7450    97.6970     6.2670     4.9000     5.0500    23.5440 
   98.2500     2.3300   -22.6460    98.3400     6.4320     4.9220     5.2520    23.5250 
   98.3750     2.3340   -22.6240   101.1360     6.5980     4.9950     5.3750    23.5090 
   98.5000     2.3440   -22.7070   104.9190     6.6870     5.0490     5.2850    23.5030 
   98.6250     2.3530   -22.9020   106.7910     6.7000     5.0600     5.2410    23.5030 
   98.7500     2.3560   -23.1920   107.0030     6.7380     5.0840     5.2500    23.5020 
   98.8750     2.3550   -23.5410   106.6260     6.9080     5.1980     5.3130    23.5000 
   99.0000     2.3530   -23.9520   104.0230     7.3550     5.4880     5.4930    23.5020 
   99.1250     2.3550   -24.4290    96.5600     8.3970     6.1440     6.1930    23.5030 
   99.2500     2.3640   -24.9590    89.5560    10.2100     7.3050     8.0220    23.5020 
   99.3750     2.3830   -25.4980    85.5260    12.8760     9.1280    11.7730    23.4990 
   99.5000     2.4130   -26.0390    82.4160    16.0760    11.5660    17.5160    23.4780 
   99.6250     2.4490   -26.5730    78.3840    18.4940    13.8570    19.7300    23.3470 
   99.7500     2.4720   -27.0710    76.5710    18.6570    14.6600    16.6220    23.0550 
   99.8750     2.4710   -27.5450    77.0370    16.2910    13.4290    11.8320    22.6950 
  100.0000     2.4380   -27.9860    77.5140    12.7530    11.0010     8.5810    22.4250 
  100.1250     2.3680   -28.3780    77.6440     9.9010     8.7680     7.4850    22.3390 
  100.2500     2.2850   -28.7060    78.7800     8.2350     7.2940     7.0740    22.3230 
  100.3750     2.2160   -28.9840    80.0400     7.5520     6.5380     6.8930    22.3230 
  100.5000     2.1780   -29.2190    79.8250     7.5160     6.3020     6.8560    22.3230 
  100.6250     2.1700   -29.4040    78.8000     7.8430     6.3980     7.0520    22.3230 
  100.7500     2.1740   -29.5490    77.0970     8.2190     6.5890     7.3100    22.3230 
  100.8750     2.1820   -29.6620    75.6940     8.4910     6.7610     7.4810    22.3230 
  101.0000     2.1870   -29.7500    75.6630     8.6090     6.8600     7.5220    22.3230 
  101.1250     2.1870   -29.7930    75.9320     8.5850     6.8670     7.5410    22.3230 
  101.2500     2.1820   -29.8260    75.3820     8.5150     6.8270     7.5210    22.3230 
  101.3750     2.1750   -29.8600    75.1810     8.4780     6.7880     7.4750    22.3230 
  101.5000     2.1670   -29.8720    76.3760     8.5300     6.7980     7.3480    22.3230 
  101.6250     2.1600   -29.8540    75.9910     8.7080     6.9030     7.1050    22.3230 
  101.7500     2.1520   -29.8170    73.6330     8.9630     7.0840     6.9050    22.3230 
  101.8750     2.1450   -29.7530    71.9490     9.2060     7.3060     6.8850    22.3230 
  102.0000     2.1520   -29.6520    71.0530     9.3100     7.5080     7.0150    22.3230 
  102.1250     2.1830   -29.5380    70.3960     9.1760     7.6020     7.4440    22.3230 
  102.2500     2.2160   -29.4180    69.3580     8.9140     7.5750     7.7860    22.3230 
  102.3750     2.2250   -29.2830    67.5020     8.6610     7.4550     7.8580    22.3220 
  102.5000     2.2080   -29.1460    65.9740     8.5130     7.2920     7.8130    22.3140 
  102.6250     2.1830   -29.0040    68.2330     8.4750     7.1360     7.8290    22.2890 
  102.7500     2.1620   -28.8410    72.2620     8.4380     6.9990     7.8850    22.2610 
  102.8750     2.1500   -28.6640    74.2260     8.3370     6.8760     7.8950    22.2490 
  103.0000     2.1480   -28.4750    73.0610     8.1790     6.7590     7.7740    22.2470 
  103.1250     2.1540   -28.2610    72.0910     8.0210     6.6560     7.5930    22.2470 
  103.2500     2.1640   -28.0080    72.7250     7.8860     6.5630     7.3690    22.2480 
  103.3750     2.1750   -27.7360    75.1340     7.7580     6.4710     7.2000    22.2600 
  103.5000     2.1850   -27.4430    78.7090     7.6130     6.3650     7.0920    22.3320 
  103.6250     2.1930   -27.1200    82.6320     7.4220     6.2300     7.0420    22.5190 
  103.7500     2.1990   -26.7870    85.3960     7.1780     6.0630     6.7480    22.7170 
  103.8750     2.2030   -26.4500    86.0590     6.8900     5.8680     6.3180    22.7960 
  104.0000     2.2110   -26.1060    85.1100     6.6020     5.6670     6.0480    22.7800 
  104.1250     2.2210   -25.7800    85.3390     6.4050     5.5120     5.8420    22.7630 
  104.2500     2.2300   -25.4590    88.4230     6.3520     5.4410     5.8590    22.7570 
  104.3750     2.2350   -25.1440    91.3130     6.4550     5.4720     5.9500    22.7580 
  104.5000     2.2360   -24.8610    91.2980     6.6680     5.5860     6.3070    22.7690 
  104.6250     2.2310   -24.6370    87.9710     6.8500     5.7000     6.6690    22.8210 
  104.7500     2.2240   -24.4740    85.1860     6.8430     5.6940     6.6160    22.9260 
  104.8750     2.2220   -24.3740    84.9360     6.5710     5.4940     6.0560    23.0440 
  105.0000     2.2310   -24.3550    87.7560     6.0950     5.1190     5.2680    23.0890 
  105.1250     2.2510   -24.4260    91.8500     5.6390     4.7080     4.7250    22.9780 
  105.2500     2.2710   -24.6050    93.0580     5.4230     4.4440     4.7170    22.7440 
  105.3750     2.2800   -24.8660    92.6410     5.5350     4.4170     4.9490    22.5160 
  105.5000     2.2750   -25.1790    91.9400     5.9550     4.6340     5.0940    22.4100 
  105.6250     2.2610   -25.5220    91.2620     6.5990     5.0550     5.2250    22.3950 
  105.7500     2.2470   -25.8620    88.9410     7.2670     5.5440     5.5180    22.3950 
  105.8750     2.2340   -26.1700    84.9290     7.8260     6.0200     5.8540    22.3960 
  106.0000     2.2220   -26.4300    83.0780     8.2090     6.4350     6.0570    22.3950 
  106.1250     2.2110   -26.6050    84.0600     8.4030     6.7540     6.3490    22.3970 
