~V
VERS. 2.00: Ver 2.00
~W
STRT.M 50.0000:
STOP.M 198.0000:
STEP.M 0.1250:
NULL. -999.2500:
UWI. F10574:
~C
DEPT.M :
DEN.GM/CC :
SP.MV :
GR.API :
RML.OHMM :
RI. :
RXO.OHMM :
CALI.CM :
~A
# ...
   83.7500     2.2830    -9.6980    56.0350    18.5140    16.3970     5.6220    18.7470 
   83.8750     2.2690    -9.4280    57.9400    18.3130    16.2290     5.4590    18.7100 
   84.0000     2.2530    -9.3570    58.8260    18.0470    15.9900     5.2900    18.6660 
   84.1250     2.2420    -9.4700    56.9210    17.8810    15.7940     5.2300    18.6120 
   84.2500     2.2320    -9.7080    55.2410    17.9050    15.7160     5.2250    18.5890 
   84.3750     2.2180   -10.0600    56.2750    18.1380    15.7890     5.2250    18.5840 
   84.5000     2.2030   -10.5100    58.1370    18.5290    15.9940     5.2220    18.5840 
   84.6250     2.1950   -10.9920    56.9740    18.9360    16.2700     5.3050    18.5880 
   84.7500     2.1920   -11.4900    54.5370    19.1720    16.5070     5.4120    18.6180 
   84.8750     2.1890   -12.0150    53.5620    19.1290    16.6180     5.4930    18.6940 
   85.0000     2.1860   -12.5670    54.6260    18.8040    16.5500     5.5680    18.7820 
   85.1250     2.1940   -13.1290    56.3350    18.2790    16.2860     5.6200    18.8920 
   85.2500     2.2180   -13.6780    56.4860    17.7300    15.9330     5.6270    19.1270 
   85.3750     2.2570   -14.2460    54.7500    17.2930    15.5980     5.6270    19.5530 
   85.5000     2.2980   -14.8440    52.7910    17.0630    15.3710     5.6380    20.0880 
   85.6250     2.3290   -15.4910    54.7910    17.0090    15.2620     5.7330    20.5580 
   85.7500     2.3500   -16.1010    60.7130    16.8660    15.1160     6.0750    20.8890 
   85.8750     2.3570   -16.6150    68.7470    16.3950    14.7630     6.8930    21.1700 
   86.0000     2.3410   -16.9980    75.8970    15.4990    14.1150     7.9840    21.3200 
   86.1250     2.3020   -17.1550    78.5570    14.3240    13.2170     8.3670    21.2330 
   86.2500     2.2580   -17.0530    77.5160    13.2740    12.3390     7.4100    21.0190 
   86.3750     2.2210   -16.6630    74.4640    12.6360    11.7070     6.4720    20.7670 
   86.5000     2.1970   -15.9910    71.3800    12.5560    11.4740     6.0610    20.3830 
   86.6250     2.1990   -15.0360    68.3310    13.1080    11.7580     5.8910    19.7050 
   86.7500     2.2310   -13.9190    65.8250    14.0270    12.4160     5.7790    19.2210 
   86.8750     2.2730   -12.7430    63.5410    15.0740    13.3030     5.7790    19.0480 
   87.0000     2.2860   -11.5840    60.4190    15.9850    14.2150     5.9310    19.0400 
   87.1250     2.2420   -10.5710    58.1040    16.5150    14.8920     6.1190    19.1310 
   87.2500     2.1780    -9.7440    57.2490    16.7220    15.2510     6.3080    19.3390 
   87.3750     2.1250    -9.0910    57.5620    16.7560    15.3230     6.5260    19.5710 
   87.5000     2.1010    -8.6430    58.3010    16.7770    15.2180     6.8060    19.7420 
   87.6250     2.1170    -8.4900    58.1300    16.8800    15.0770     6.9660    19.8060 
   87.7500     2.1580    -8.5970    58.9550    17.0390    14.9940     7.0520    19.8460 
   87.8750     2.2050    -8.8870    61.1720    17.1740    14.9440     7.1730    19.8570 
   88.0000     2.2380    -9.2960    63.4160    17.1630    14.8290     7.3450    19.8620 
   88.1250     2.2510    -9.8600    63.0190    16.8110    14.5000     7.7360    19.9410 
   88.2500     2.2590   -10.5500    60.8230    16.0820    13.9390     7.9640    20.1640 
   88.3750     2.2710   -11.2990    59.0060    15.0350    13.1810     7.7280    20.4830 
   88.5000     2.2870   -11.9930    58.8660    13.8560    12.3230     7.1910    20.7350 
   88.6250     2.2990   -12.5340    62.3850    12.8270    11.5270     6.8690    20.8170 
   88.7500     2.2990   -12.9240    66.5450    12.1190    10.9250     6.5990    20.8340 
   88.8750     2.2840   -13.1500    68.7440    11.8140    10.6070     6.2500    20.8350 
   89.0000     2.2620   -13.2140    69.0450    11.9350    10.6250     5.8740    20.8350 
   89.1250     2.2480   -13.0510    67.2540    12.4890    11.0170     5.5750    20.8350 
   89.2500     2.2450   -12.7260    63.8400    13.2640    11.6320     5.4650    20.8330 
   89.3750     2.2470   -12.3600    60.0750    14.0840    12.3230     5.3780    20.8020 
   89.5000     2.2470   -12.0180    57.3530    14.7790    12.9430     5.2150    20.7130 
   89.6250     2.2440   -11.7160    54.1210    15.2250    13.3610     5.0590    20.5540 
   89.7500     2.2470   -11.4410    50.2400    15.4720    13.5880     4.9900    20.4830 
   89.8750     2.2580   -11.2530    47.9170    15.5720    13.6610     5.0290    20.4630 
   90.0000     2.2760   -11.2060    49.3120    15.5430    13.6160     5.1740    20.4630 
   90.1250     2.2970   -11.3390    52.2500    15.2900    13.4240     5.3820    20.5230 
   90.2500     2.3110   -11.6180    53.4570    14.7510    13.0350     5.5600    20.6540 
   90.3750     2.3150   -12.0480    54.6080    13.9290    12.4120     5.6940    20.7810 
   90.5000     2.3210   -12.6650    58.0580    12.9870    11.6450     5.8200    20.8380 
   90.6250     2.3460   -13.4750    62.4820    12.3640    11.0320     6.1980    20.9340 
   90.7500     2.3970   -14.4200    66.2080    12.4620    10.9000     7.1390    21.3130 
   90.8750     2.4680   -15.4460    70.5860    13.6980    11.5780     9.5380    22.1170 
   91.0000     2.5460   -16.4790    73.1930    16.5370    13.4500    15.0510    23.1430 
   91.1250     2.6140   -17.4470    68.0430    21.8930    17.3500    27.9580    23.8100 
   91.2500     2.6610   -18.2980    59.7390    29.7470    23.5130    40.9550    24.0370 
   91.3750     2.6890   -18.9990    55.0670    39.5780    31.8450    47.2120    24.0830 
   91.5000     2.7020   -19.5370    55.8760    49.0500    40.5920    50.0230    24.1570 
   91.6250     2.6960   -19.9200    57.0210    51.9220    44.1090    53.2080    24.3530 
   91.7500     2.6720   -20.2210    58.8080    45.7150    39.6800    53.7580    24.5590 
   91.8750     2.6320   -20.4300    62.6910    33.8440    30.2180    48.0680    24.6530 
   92.0000     2.5730   -20.5750    67.8150    22.2100    20.7150    30.7910    24.6700 
   92.1250     2.5000   -20.7240    72.6550    14.6480    14.2310    15.1510    24.6700 
   92.2500     2.4400   -20.8950    76.3100    10.4110    10.2920     8.1980    24.6700 
   92.3750     2.4140   -21.0520    79.9280     8.4300     8.1720     7.2830    24.6700 
   92.5000     2.4220   -21.1850    83.8760     7.7870     7.2260     8.4690    24.6700 
   92.6250     2.4300   -21.2980    86.2270     7.9260     7.0710    10.2620    24.6700 
   92.7500     2.4070   -21.3530    85.6710     8.2970     7.2350    10.0340    24.6700 
   92.8750     2.3570   -21.3440    83.1330     8.6240     7.4690     8.4280    24.6700 
   93.0000     2.3110   -21.2710    81.7260     8.7470     7.6180     7.1980    24.6700 
   93.1250     2.2910   -21.1350    82.4240     8.6500     7.6480     6.8590    24.6700 
   93.2500     2.2830   -20.9690    83.0980     8.4820     7.6530     7.0140    24.6700 
   93.3750     2.2780   -20.7890    83.4410     8.3380     7.6910     7.2820    24.6700 
   93.5000     2.2770   -20.6050    83.4230     8.2690     7.7690     7.4770    24.6700 
   93.6250     2.2810   -20.4090    84.3680     8.2980     7.8490     7.5890    24.6700 
   93.7500     2.2840   -20.2420    85.7100     8.3810     7.8850     7.6170    24.6700 
   93.8750     2.2830   -20.1630    85.4350     8.4530     7.8470     7.4220    24.6700 
   94.0000     2.2850   -20.1660    84.5220     8.4430     7.7270     7.4710    24.6700 
   94.1250     2.2970   -20.2010    84.5220     8.3080     7.5580     7.3430    24.6700 
   94.2500     2.3120   -20.2640    85.1260     8.1650     7.4310     7.0560    24.6700 
   94.3750     2.3170   -20.3310    86.4930     8.1580     7.4290     6.7310    24.6700 
   94.5000     2.3060   -20.3610    87.4750     8.3700     7.5860     7.0150    24.6700 
   94.6250     2.2850   -20.3770    87.9820     8.7510     7.8740     8.0050    24.6700 
   94.7500     2.2690   -20.3770    87.6480     9.0840     8.1560     8.9140    24.6700 
   94.8750     2.2680   -20.3170    85.6170     9.1960     8.3200     9.4670    24.6700 
