~V
VERS. 2.00: Ver 2.00
~W
STRT.M 59.0000:
STOP.M 201.0000:
STEP.M 0.1250:
NULL. -999.2500:
UWI. F10560:
~C
DEPT.M :
DEN.GM/CC :
SP.MV :
GR.API :
RML.OHMM :
RI. :
RXO.OHMM :
CALI.CM :
~A
# ...
  194.0000     2.3280   -28.1450   111.3570     7.4580     6.3580     8.1790    24.3450 
  194.1250     2.3410   -28.1900   111.3570     7.3650     6.3750     8.1040    24.3310 
  194.2500     2.3470   -28.1920   111.3570     7.2610     6.3920     8.2670    24.3210 
  194.3750     2.3480   -28.1570   111.3570     7.1940     6.4050     8.6810    24.3130 
  194.5000     2.3400   -28.1040   111.3570     7.1870     6.4090     9.2800    24.3100 
  194.6250     2.3250   -28.0380   111.3570     7.2410     6.4020     9.7390    24.3100 
  194.7500     2.3090   -28.0050   111.3570     7.3200     6.3890     9.7790    24.3100 
  194.8750     2.2970   -27.9990   111.3570     7.3980     6.3740     9.6920    24.3100 
  195.0000     2.2910   -27.9900   111.3570     7.4590     6.3580     9.6040    24.3100 
  195.1250     2.2890   -27.9860   111.3570     7.4840     6.3460     9.4580    24.3100 
  195.2500     2.2900   -28.0160   111.3570     7.4760     6.3380     8.8210    24.3100 
  195.3750     2.2980   -28.0500   111.3570     7.4490     6.3330     8.1350    24.3100 
  195.5000     2.3160   -28.0840   111.3570     7.4140     6.3310     7.7890    24.3100 
  195.6250     2.3380   -28.1090   111.3570     7.3630     6.3300     7.9810    24.3100 
  195.7500     2.3520   -28.1190   111.3570     7.3030     6.3290     7.7670    24.3100 
  195.8750     2.3580   -28.1010   111.3570     7.2550     6.3270     7.8190    24.3100 
  196.0000     2.3590   -28.0560   111.3570     7.2340     6.3240     8.6370    24.3100 
  196.1250     2.3560   -28.0290   111.3570     7.2330     6.3260     9.7190    24.3100 
  196.2500     2.3420   -27.9860   111.3570     7.2100     6.3360    10.1270    24.3100 
  196.3750     2.3230   -27.9260   111.3570     7.1340     6.3560    10.0960    24.3100 
  196.5000     2.3090   -27.8500   111.3570     7.0080     6.3830     9.9930    24.3100 
  196.6250     2.3080   -27.7850   111.3570     7.0080     6.3830    10.1980    24.3090 
  196.7500     2.3150   -27.7050   111.3570     7.0080     6.3830     9.9610    24.3070 
  196.8750     2.3230   -27.6380   111.3570     7.0080     6.3830     9.0380    24.3080 
  197.0000     2.3240   -27.6020   111.3570     7.0080     6.3830     8.3610    24.3080 
  197.1250     2.3000   -27.5540   111.3570     7.0080     6.3830     8.5820    24.3070 
  197.2500     2.2480   -27.5050   111.3570     7.0080     6.3830     8.9840    24.3030 
  197.3750     2.1750   -27.4710   111.3570     7.0080     6.3830     8.6130    24.3010 
  197.5000     2.1030   -27.4580   111.3570     7.0080     6.3830     8.0460    24.3010 
  197.6250     2.0530   -27.4470   111.3570     7.0080     6.3830     8.3010    24.3010 
  197.7500     2.0200  -999.2500   111.3570     7.0080     6.3830     9.4580    24.3010 
  197.8750     1.9900  -999.2500   111.3570     7.0080     6.3830    12.4090    24.2960 
  198.0000     1.9600  -999.2500   111.3570     7.0080     6.3830    17.8520    24.2750 
  198.1250     1.9430  -999.2500   111.3570     7.0080     6.3830    23.7400    24.2230 
  198.2500     1.9410  -999.2500   111.3570     7.0080     6.3830    26.5040    24.1680 
  198.3750     1.9420  -999.2500   111.3570     7.0080     6.3830    24.9620    23.9430 
  198.5000     1.9410  -999.2500   111.3570     7.0080     6.3830    20.5080    22.9130 
  198.6250     1.9420  -999.2500   111.3570     7.0080     6.3830    12.1520    20.4230 
  198.7500     1.9470  -999.2500   111.3570     7.0080     6.3830     8.2250    18.0470 
  198.8750     1.9510  -999.2500   111.3570     7.0080     6.3830     7.1620    17.0970 
  199.0000     1.9490  -999.2500   111.3570     7.0080     6.3830     7.0890    16.9790 
  199.1250     1.9460  -999.2500   111.3570     7.0080     6.3830     7.0860    16.9790 
  199.2500     1.9430  -999.2500   111.3570     7.0080     6.3830     7.0840    16.9770 
  199.3750     1.9420  -999.2500   111.3570     7.0080     6.3830     7.0850    16.9760 
  199.5000     1.9430  -999.2500   111.3570     7.0080     6.3830     7.0860    16.9740 
  199.6250     1.9460  -999.2500   111.3570     7.0080     6.3830     7.0860    16.9740 
  199.7500     1.9490  -999.2500   111.3570     7.0080     6.3830     7.0850    16.9750 
  199.8750     1.9530  -999.2500   111.3570     7.0080     6.3830     7.0840    16.9750 
  200.0000     1.9560  -999.2500   111.3570     7.0080     6.3830     7.0840    16.9730 
  200.1250     1.9570  -999.2500   111.3570     7.0080     6.3830     7.0850    16.9720 
  200.2500     1.9570  -999.2500   111.3570     7.0080     6.3830     7.0830    16.9710 
  200.3750     1.9580  -999.2500   111.3570     7.0080     6.3830     7.0840    16.9710 
  200.5000     1.9460  -999.2500   111.3570     7.0080     6.3830     7.0840    16.9710 
  200.6250  -999.2500  -999.2500   111.3570     7.0080     6.3830     7.0860    16.9710 
  200.7500  -999.2500  -999.2500   111.3570     7.0080     6.3830     7.0850    16.9710 
  200.8750  -999.2500  -999.2500   111.3570     7.0080     6.3830     7.0840    16.9700 
  201.0000  -999.2500  -999.2500   111.3570     7.0080     6.3830     7.0830    16.9680 
