~V
VERS. 2.00: Ver 2.00
~W
STRT.M 50.0000:
STOP.M 215.0000:
STEP.M 0.1250:
NULL. -999.2500:
UWI. F10588:
~C
DEPT.M :
DEN.GM/CC :
GR.API :
RML.OHMM :
RI. :
RXO.OHMM :
CALI.CM :
SP.MV :
~A
# ...
  140.0000     2.3740    44.4940     7.5950     5.8780     6.0540    23.3550   -18.0030 
  140.1250     2.3840    43.0460     7.6030     5.8700     6.0580    23.3500   -17.6090 
  140.2500     2.3800    43.1370     7.6500     5.9460     6.0910    23.3480   -17.2580 
  140.3750     2.3770    44.7740     7.6940     6.0480     6.0770    23.3210   -16.9620 
  140.5000     2.3890    46.8720     7.6970     6.1290     6.0490    23.2810   -16.7090 
  140.6250     2.4080    46.3980     7.6360     6.1450     5.9810    23.2630   -16.5130 
  140.7500     2.4050    44.6120     7.5370     6.1050     5.9210    23.2670   -16.3880 
  140.8750     2.3720    42.8760     7.4280     6.0250     5.9590    23.2760   -16.3040 
  141.0000     2.3150    40.3600     7.3360     5.9310     5.9250    23.2790   -16.2680 
  141.1250     2.2630    37.5650     7.2790     5.8460     5.7960    23.2430   -16.2610 
  141.2500     2.2360    36.5190     7.2460     5.7790     5.8090    23.3200   -16.3050 
  141.3750     2.2470    36.4100     7.2180     5.7230     5.9100    23.5020   -16.3620 
  141.5000     2.2840    35.4590     7.1790     5.6650     5.9700    23.6930   -16.4690 
  141.6250     2.3230    35.2810     7.1150     5.5900     6.0370    23.8240   -16.5700 
  141.7500     2.3540    36.2450     7.0300     5.4980     6.0310    23.8800   -16.6670 
  141.8750     2.3750    37.1450     6.9310     5.3950     5.9300    23.9000   -16.7510 
  142.0000     2.3820    38.1170     6.8250     5.2890     5.7970    23.9220   -16.8160 
  142.1250     2.3620    38.1990     6.7180     5.1870     5.6620    23.8970   -16.8710 
  142.2500     2.3180    37.2830     6.6160     5.0940     5.5200    23.8030   -16.8800 
  142.3750     2.2570    37.0500     6.5350     5.0170     5.3260    23.6420   -16.8750 
  142.5000     2.1920    39.4720     6.4920     4.9690     5.1540    23.4710   -16.8340 
  142.6250     2.1360    43.3370     6.5080     4.9670     5.1390    23.3870   -16.7680 
  142.7500     2.1040    47.1090     6.5710     5.0060     5.1530    23.3710   -16.6840 
  142.8750     2.1010    53.1200     6.6640     5.0750     5.2520    23.3900   -16.5860 
  143.0000     2.1300    61.0270     6.7670     5.1550     5.4810    23.4040   -16.4850 
  143.1250     2.1880    65.3510     6.8610     5.2280     5.7300    23.4400   -16.3570 
  143.2500     2.2500    65.5400     6.9460     5.2870     5.8650    23.5420   -16.2530 
  143.3750     2.2970    67.2890     7.0360     5.3380     5.9420    23.6220   -16.1670 
  143.5000     2.3210    72.7080     7.1390     5.3880     6.0660    23.6500   -16.1180 
  143.6250     2.3280    76.3880     7.2430     5.4340     6.3400    23.6480   -16.1120 
  143.7500     2.3340    75.1580     7.3140     5.4600     6.5990    23.6440   -16.1480 
  143.8750     2.3450    72.7150     7.3340     5.4540     6.7070    23.6420   -16.2350 
  144.0000     2.3580    71.4720     7.3240     5.4260     6.7180    23.6420   -16.3550 
  144.1250     2.3650    69.7390     7.3570     5.4150     6.7220    23.6430   -16.5580 
  144.2500     2.3640    68.4410     7.4960     5.4670     6.5020    23.6430   -16.7730 
  144.3750     2.3580    67.2190     7.7670     5.6080     6.7790    23.6360   -17.0250 
  144.5000     2.3500    66.4920     8.1470     5.8380     7.7830    23.6160   -17.2890 
  144.6250     2.3460    69.1330     8.6050     6.1500     9.0840    23.6020   -17.5950 
  144.7500     2.3480    72.3020     9.1440     6.5330     9.3590    23.5730   -17.8800 
  144.8750     2.3610    73.0130     9.8570     7.0350     9.4120    23.5520   -18.1560 
  145.0000     2.3850    70.9890    10.8590     7.7240     9.7300    23.5320   -18.3990 
  145.1250     2.4130    71.2500    12.2790     8.6990    10.9600    23.5410   -18.5780 
  145.2500     2.4240    71.8900    13.9520     9.8900    13.8220    23.5270   -18.7030 
  145.3750     2.4080    69.1580    15.5570    11.1280    16.8680    23.4740   -18.7510 
  145.5000     2.3700    66.0200    16.6430    12.1170    18.4230    23.4240   -18.7150 
  145.6250     2.3240    67.6460    16.7060    12.4660    17.1040    23.3890   -18.5780 
  145.7500     2.2910    72.5200    15.9810    12.2380    15.0580    23.3590   -18.3790 
  145.8750     2.2760    76.8260    14.8820    11.6490    13.9070    23.3290   -18.1440 
  146.0000     2.2710    77.9540    13.8690    10.9890    13.3630    23.3040   -17.8780 
  146.1250     2.2680    76.1740    13.3970    10.5730    12.6260    23.2990   -17.5990 
  146.2500     2.2650    73.8160    13.5690    10.5440    12.3500    23.2910   -17.3130 
  146.3750     2.2760    71.5310    14.3810    10.9580    12.1760    23.2850   -17.0510 
  146.5000     2.3090    67.7900    15.6670    11.7700    13.0670    23.2860   -16.8090 
  146.6250     2.3560    62.2870    16.9630    12.7580    15.7410    23.2970   -16.6110 
  146.7500     2.3880    58.5700    17.6330    13.4610    18.8530    23.2880   -16.4490 
  146.8750     2.3870    59.3080    17.2970    13.5260    19.3820    23.2530   -16.2920 
  147.0000     2.3560    63.8570    16.0610    12.9050    15.8830    23.2040   -16.1680 
  147.1250     2.3170    67.4760    14.4970    11.8840    12.1460    23.1550   -16.0780 
  147.2500     2.2900    66.8620    13.2410    10.9360    10.4900    23.0760   -16.0450 
  147.3750     2.2820    63.6000    12.5180    10.2740    10.4520    22.9700   -16.0450 
  147.5000     2.2890    62.4400    12.3270     9.9670    11.0090    22.8900   -16.0940 
  147.6250     2.3000    64.7480    12.6210    10.0440    11.3500    22.8440   -16.1620 
  147.7500     2.3050    67.0090    13.2410    10.3940    10.9450    22.8160   -16.2890 
  147.8750     2.3020    68.2810    14.1880    11.0020    11.2460    22.8030   -16.4340 
  148.0000     2.2920    69.4320    15.5150    11.8950    12.1750    22.8010   -16.5940 
  148.1250     2.2810    70.4400    17.2850    13.1420    13.2000    22.7970   -16.7310 
  148.2500     2.2720    69.2020    19.2540    14.6100    14.7540    22.7850   -16.8400 
  148.3750     2.2680    65.3480    21.0760    16.0780    17.1720    22.7230   -16.9000 
  148.5000     2.2710    61.1150    22.3390    17.2290    19.8620    22.5740   -16.8980 
  148.6250     2.2820    60.1380    22.6570    17.6940    19.8500    22.4070   -16.8630 
  148.7500     2.2940    60.2910    22.3920    17.6280    17.8010    22.3190   -16.7720 
  148.8750     2.2980    58.7290    22.1040    17.3820    16.1220    22.2380   -16.6590 
  149.0000     2.2890    57.2640    22.4070    17.3920    15.5750    22.1020   -16.5250 
  149.1250     2.2670    60.2210    23.9370    18.1590    15.9500    21.9360   -16.3840 
  149.2500     2.2420    63.2000    26.5810    19.7590    17.3910    21.8060   -16.2350 
  149.3750     2.2210    61.7780    29.9360    22.0730    20.1890    21.7270   -16.0850 
  149.5000     2.2080    58.4790    33.1620    24.6340    24.3200    21.6440   -15.9810 
  149.6250     2.1980    58.2640    34.9590    26.5210    25.7580    21.5780   -15.8710 
  149.7500     2.1880    57.8380    35.1350    27.3090    25.2240    21.4980   -15.7820 
  149.8750     2.1860    54.2350    34.2880    27.1960    24.2820    21.4950   -15.7070 
  150.0000     2.2020    51.4270    33.3830    26.7610    24.1180    21.7470   -15.6380 
  150.1250     2.2450    52.7420    33.3220    26.6670    25.2390    22.2680   -15.6200 
  150.2500     2.3110    54.6190    34.1340    27.1350    27.9260    22.7140   -15.6320 
  150.3750     2.3900    53.2560    35.4670    28.0610    31.6760    23.0320   -15.7030 
  150.5000     2.4670    49.0910    36.7620    29.1180    33.3740    23.2090   -15.7780 
  150.6250     2.5220    46.3290    37.4250    29.8660    32.5910    23.2750   -15.9290 
  150.7500     2.5480    47.1360    37.4600    30.1760    31.4950    23.2860   -16.0830 
  150.8750     2.5430    50.7700    37.1480    30.1680    30.8700    23.2760   -16.2690 
  151.0000     2.5070    52.7750    36.8830    30.1030    30.8590    23.2660   -16.4730 
  151.1250     2.4460    51.4900    37.0020    30.2580    32.2350    23.2730   -16.6680 
