~V
VERS. 2.00: Ver 2.00
~W
STRT.M 50.0000:
STOP.M 236.0000:
STEP.M 0.1250:
NULL. -999.2500:
UWI. F10596:
~C
DEPT.M :
DEN.GM/CC :
SP.MV :
GR.API :
RML.OHMM :
RI. :
RXO.OHMM :
CALI.CM :
~A
# ...
  185.0000     2.2720   -12.3900    72.8270    21.3830    20.7440    25.0590    24.6030 
  185.1250     2.2640   -12.4850    76.3770    21.4570    20.8590    22.9920    24.6040 
  185.2500     2.2550   -12.5980    79.3560    21.4470    20.8940    22.3070    24.6040 
  185.3750     2.2400   -12.7430    79.7370    21.5520    20.9750    22.9530    24.6040 
  185.5000     2.2210   -12.9210    77.5310    21.9700    21.2840    24.6540    24.6060 
  185.6250     2.2110   -13.1420    76.5190    22.7440    21.9140    25.9930    24.6100 
  185.7500     2.2130   -13.3670    77.6380    23.5610    22.6120    26.5750    24.6110 
  185.8750     2.2200   -13.5910    79.0160    24.1570    23.1260    25.7070    24.6070 
  186.0000     2.2280   -13.8120    78.3730    24.4880    23.3730    25.0310    24.6040 
  186.1250     2.2320   -14.0380    76.1540    24.7930    23.5340    25.3990    24.6040 
  186.2500     2.2260   -14.2490    74.8780    25.3940    23.9400    25.3390    24.6000 
  186.3750     2.2150   -14.4320    73.4030    26.5370    24.8620    25.5180    24.5830 
  186.5000     2.2080   -14.5870    71.5890    28.4540    26.5730    26.6360    24.5190 
  186.6250     2.2070   -14.7060    71.4490    31.4760    29.5210    30.6250    24.4010 
  186.7500     2.2110   -14.8040    72.8840    35.2030    33.4990    36.5080    24.2280 
  186.8750     2.2240   -14.8830    73.3650    38.8460    37.9400    40.6590    24.0480 
  187.0000     2.2490   -14.9350    72.1280    41.7000    41.1800    43.7760    23.8650 
  187.1250     2.2760   -14.9120    71.6680    42.9100    40.5830    49.8610    23.5580 
  187.2500     2.2920   -14.8410    71.2650    41.2240    37.3930    56.4840    23.1640 
  187.3750     2.3030   -14.7230    69.7570    37.0130    32.4290    57.3730    22.7800 
  187.5000     2.3290   -14.5570    68.5830    31.0900    26.5540    52.6880    22.6140 
  187.6250     2.3770   -14.3540    68.3860    24.3440    20.4220    38.5820    22.7210 
  187.7500     2.4160   -14.1390    67.5760    17.8990    14.7010    23.0960    22.9790 
  187.8750     2.4110   -13.9370    65.6810    12.4900     9.9890    11.7730    23.3030 
  188.0000     2.3640   -13.7570    65.3380     8.5080     6.6810     6.9070    23.7070 
  188.1250     2.3190   -13.6290    67.1820     6.1700     4.9810     6.2310    24.2070 
  188.2500     2.2980   -13.5620    69.5040     4.9560     4.3250     6.4340    24.5270 
  188.3750     2.2930   -13.5590    70.6530     4.5570     4.3670     6.4270    24.6470 
  188.5000     2.2990   -13.6110    70.1590     4.6770     4.7750     6.0030    24.6650 
  188.6250     2.3110   -13.7190    69.1950     5.0600     5.2520     6.0880    24.6670 
  188.7500     2.3220   -13.8640    70.2150     5.5040     5.6740     6.4020    24.6780 
  188.8750     2.3290   -14.0180    73.7640     6.0280     6.1490     7.0070    24.7050 
  189.0000     2.3310   -14.1660    77.4700     6.7230     6.8090     8.1460    24.7270 
  189.1250     2.3290   -14.3100    81.3130     7.6490     7.6330     9.4650    24.7350 
  189.2500     2.3250   -14.4380    87.5640     8.6130     8.3600    10.4290    24.7360 
  189.3750     2.3250   -14.5430    97.2190     9.3760     8.7850    10.3850    24.7430 
  189.5000     2.3280   -14.6300   108.4950     9.7690     8.8650    10.1160    24.7620 
  189.6250     2.3310   -14.6900   115.8460     9.7880     8.7360    10.2710    24.7940 
  189.7500     2.3330   -14.7000   117.8250     9.6790     8.6140    10.7240    24.8080 
  189.8750     2.3320   -14.6740   118.6820     9.5650     8.5600    10.8850    24.8120 
  190.0000     2.3320   -14.6300   123.5890     9.4730     8.5580    10.8860    24.8160 
  190.1250     2.3350   -14.5600   127.6790     9.3510     8.5660    10.8450    24.8290 
  190.2500     2.3400   -14.4810   126.2040     9.1490     8.5310    10.6730    24.8490 
  190.3750     2.3460   -14.4060   123.8460     8.8570     8.4180    10.2690    24.8690 
  190.5000     2.3530   -14.3310   123.0810     8.5050     8.2380     9.7590    24.8820 
  190.6250     2.3580   -14.2440   120.1870     8.1730     8.0820     9.4880    24.8840 
  190.7500     2.3610   -14.1810   116.0930     7.9580     8.0650     9.6070    24.8810 
  190.8750     2.3670   -14.1370   114.0950     7.9440     8.2840     9.9060    24.8820 
  191.0000     2.3770   -14.1110   115.0840     8.2200     8.8590    10.1920    24.8850 
  191.1250     2.3900   -14.1270   115.9080     9.0990    10.2500    10.5590    24.8980 
  191.2500     2.4040   -14.1540   114.4450    11.3300    13.1320    11.9320    24.9230 
  191.3750     2.4220   -14.2090   107.3950    17.1440    18.7230    16.2710    24.9460 
  191.5000     2.4350   -14.2940    94.0020    30.3430    28.8480    26.7960    24.9600 
  191.6250     2.3980   -14.4380    82.5240    58.3390    48.0220    54.2530    24.9790 
  191.7500     2.3070   -14.6180    77.8650   100.3960    77.1320    80.4410    25.0030 
  191.8750     2.2100   -14.8210    75.8690   140.1940   106.3110   100.7430    24.9990 
  192.0000     2.1570   -15.0450    71.0920   145.7010   111.1390   113.1220    24.9560 
  192.1250     2.1620   -15.2720    66.2200   114.4400    89.5920   102.7010    24.9090 
  192.2500     2.1920   -15.5180    66.9790    84.8720    69.9530    74.3790    24.8900 
  192.3750     2.2180   -15.7460    72.7460    67.6090    58.5490    57.6300    24.8920 
  192.5000     2.2160   -15.9670    78.7420    60.2140    53.8490    52.8170    24.9070 
  192.6250     2.1920   -16.1650    81.7210    59.4340    54.6990    52.4780    24.9260 
  192.7500     2.1750   -16.3570    81.4740    62.8390    59.4480    56.5170    24.9160 
  192.8750     2.1710   -16.5310    79.3440    69.9920    67.5380    66.3230    24.8940 
  193.0000     2.1700   -16.6870    77.3100    79.9030    77.9640    80.2810    24.8810 
  193.1250     2.1610   -16.8350    75.2980    90.5640    88.7130    89.1470    24.8820 
  193.2500     2.1510   -16.9680    73.0170    99.6190    97.4160    89.4810    24.8840 
  193.3750     2.1480   -17.0910    71.1860   106.2750   103.3180    87.8210    24.8840 
  193.5000     2.1520   -17.1870    70.8040   111.4930   107.6710    88.8450    24.8810 
  193.6250     2.1600   -17.2650    71.4460   117.6840   113.2820    94.7430    24.8810 
  193.7500     2.1650   -17.3130    70.4760   125.9950   121.4220   105.4760    24.8820 
  193.8750     2.1670   -17.3420    68.9720   135.7040   131.2920   115.6610    24.8820 
  194.0000     2.1640   -17.3770    68.5580   144.8130   140.4880   129.0400    24.8800 
  194.1250     2.1600   -17.3980    70.4770   150.2520   145.0940   141.6430    24.8810 
  194.2500     2.1600   -17.4070    71.3740   151.0910   144.0920   147.9980    24.8820 
  194.3750     2.1610   -17.4120    70.2010   147.6610   138.4110   139.9610    24.8820 
  194.5000     2.1590   -17.4190    68.9960   141.6240   130.5060   124.8660    24.8790 
  194.6250     2.1490   -17.4250    70.0750   135.3920   123.2190   125.3830    24.8780 
  194.7500     2.1400   -17.4250    72.3330   130.6430   117.6910   132.3430    24.8770 
  194.8750     2.1410   -17.4390    72.7740   127.5400   113.4980   129.5870    24.8770 
  195.0000     2.1530   -17.4440    71.7300   125.1260   109.3830   118.8540    24.8770 
  195.1250     2.1660   -17.4590    73.4520   121.5440   103.7650   108.1860    24.8760 
  195.2500     2.1740   -17.4770    75.8190   115.7440    96.5310    99.0240    24.8700 
  195.3750     2.1800   -17.4910    75.8980   107.4740    88.0980    99.9670    24.8610 
  195.5000     2.1860   -17.5050    73.7470    96.9590    78.7770   105.9650    24.8680 
  195.6250     2.1940   -17.5400    73.6110    84.5920    68.5400   105.9900    24.8810 
  195.7500     2.2060   -17.5990    76.3780    71.8580    58.0380    93.6670    24.8860 
  195.8750     2.2220   -17.6680    78.8570    60.2930    48.4890    70.0710    24.8640 
  196.0000     2.2290   -17.7610    79.1260    51.5510    41.5300    45.0870    24.8510 
  196.1250     2.2150   -17.8560    76.1510    47.9560    39.3950    38.5980    24.8900 
