~V
VERS. 2.00: Ver 2.00
~W
STRT.M 58.0000:
STOP.M 199.0000:
STEP.M 0.1250:
NULL. -999.2500:
UWI. F10565:
~C
DEPT.M :
SP.MV :
GR.API :
RML.OHMM :
RI. :
RXO.OHMM :
CALI.CM :
DEN.GM/CC :
~A
# ...
  170.5000    -5.9740    44.6700     5.2510     4.7720     5.1800    23.8330     2.3880 
  170.6250    -6.1830    48.2760     5.5130     4.9240     5.6160    23.8290     2.3980 
  170.7500    -6.4850    50.9220     5.7930     5.1260     6.0650    23.7960     2.4170 
  170.8750    -6.8480    51.9410     6.0490     5.3340     6.1310    23.7480     2.4340 
  171.0000    -7.2300    52.4390     6.2480     5.5140     6.1400    23.7070     2.4460 
  171.1250    -7.6050    53.3240     6.3600     5.6260     6.5100    23.6840     2.4500 
  171.2500    -8.0000    54.7110     6.3560     5.6330     6.7290    23.6690     2.4440 
  171.3750    -8.4320    54.7090     6.2750     5.5650     6.6290    23.6390     2.4330 
  171.5000    -8.9050    54.4500     6.1670     5.4690     6.2960    23.5900     2.4220 
  171.6250    -9.4120    55.3720     6.0980     5.4010     6.2080    23.5300     2.4200 
  171.7500    -9.9300    56.1230     6.1590     5.4360     6.3720    23.4720     2.4280 
  171.8750   -10.4490    56.6510     6.3870     5.6000     6.8160    23.4260     2.4350 
  172.0000   -10.9630    60.9550     6.7970     5.9100     7.2410    23.3940     2.4290 
  172.1250   -11.4440    70.8050     7.3790     6.3560     7.5010    23.3820     2.4070 
  172.2500   -11.7870    81.6610     8.0820     6.8970     8.2970    23.3940     2.3760 
  172.3750   -11.9450    88.5930     8.7570     7.4120     9.5200    23.4110     2.3510 
  172.5000   -11.9140    92.0980     9.2370     7.7740    10.2480    23.4120     2.3370 
  172.6250   -11.7190    92.1390     9.3660     7.8740    10.3550    23.3830     2.3290 
  172.7500   -11.3800    86.3900     9.0200     7.6250    10.4650    23.3410     2.3190 
  172.8750   -10.9340    76.9960     8.3910     7.1650     9.5190    23.3200     2.3100 
  173.0000   -10.4110    67.2220     7.7000     6.6430     7.9630    23.3290     2.3160 
  173.1250    -9.8750    58.3430     7.1660     6.2180     6.8860    23.3580     2.3520 
  173.2500    -9.4270    51.7890     7.0040     6.0490     6.4640    23.4030     2.4150 
  173.3750    -9.1250    51.5890     7.2020     6.1440     6.2580    23.4740     2.4740 
  173.5000    -8.9460    59.6280     7.6900     6.4620     6.4830    23.5630     2.5010 
  173.6250    -8.8260    71.1060     8.2920     6.8910     7.4120    23.6320     2.4840 
  173.7500    -8.6810    77.8770     8.6940     7.2270     9.2410    23.6210     2.4350 
  173.8750    -8.4960    78.4350     8.7030     7.3140    10.3920    23.5360     2.3850 
  174.0000    -8.3020    75.1280     8.3170     7.1140    10.0440    23.4240     2.3530 
  174.1250    -8.1300    70.3610     7.7140     6.7110     7.8930    23.3390     2.3380 
  174.2500    -7.9530    66.3060     7.1880     6.2890     6.4760    23.3220     2.3370 
  174.3750    -7.7240    63.6470     6.9130     6.0090     5.8690    23.3490     2.3430 
  174.5000    -7.4580    63.3910     6.9090     5.9190     6.0940    23.3910     2.3530 
  174.6250    -7.1960    66.2290     7.0840     5.9800     6.7880    23.4320     2.3660 
  174.7500    -6.9920    69.3740     7.2550     6.0770     9.2690    23.4630     2.3750 
  174.8750    -6.8390    69.1560     7.2580     6.0840    11.4430    23.4820     2.3730 
  175.0000    -6.7090    65.3050     7.0430     5.9510     9.7800    23.4860     2.3600 
  175.1250    -6.5670    59.8830     6.6670     5.7000     6.8970    23.4740     2.3430 
  175.2500    -6.4320    56.3120     6.2580     5.4080     5.7770    23.4560     2.3340 
  175.3750    -6.3540    56.2330     5.9300     5.1570     5.7350    23.4400     2.3400 
  175.5000    -6.3310    56.6360     5.7270     4.9840     5.7580    23.4240     2.3550 
  175.6250    -6.3420    54.6980     5.6560     4.9040     5.6440    23.4100     2.3680 
  175.7500    -6.4070    53.8280     5.7260     4.9300     5.6550    23.4170     2.3660 
  175.8750    -6.5340    58.4190     5.8940     5.0420     5.8240    23.4570     2.3510 
  176.0000    -6.6740    65.6780     6.1320     5.2220     6.1480    23.5240     2.3300 
  176.1250    -6.7750    70.4710     6.3940     5.4350     6.6560    23.5940     2.3160 
  176.2500    -6.8210    71.3910     6.5950     5.6150     7.1350    23.6370     2.3180 
  176.3750    -6.8300    70.0660     6.6730     5.7100     7.0310    23.6510     2.3370 
  176.5000    -6.8050    67.9920     6.6020     5.6930     6.6820    23.6450     2.3680 
  176.6250    -6.8040    66.2300     6.4080     5.5750     6.2240    23.6270     2.4030 
  176.7500    -6.7780    64.9570     6.1420     5.3830     5.8820    23.6040     2.4310 
  176.8750    -6.7150    63.9250     5.8780     5.1720     5.7070    23.5880     2.4390 
  177.0000    -6.6590    62.9660     5.6550     4.9760     5.5380    23.5840     2.4250 
  177.1250    -6.6440    60.8430     5.4980     4.8220     5.4270    23.5900     2.3910 
  177.2500    -6.6710    58.0620     5.4490     4.7480     5.4120    23.5950     2.3520 
  177.3750    -6.7310    57.1330     5.5160     4.7660     5.3740    23.5880     2.3260 
  177.5000    -6.8050    57.3530     5.7100     4.8870     5.3370    23.5700     2.3210 
  177.6250    -6.8710    56.6690     6.0100     5.0990     5.5640    23.5510     2.3370 
  177.7500    -6.9210    54.1090     6.3540     5.3670     6.2600    23.5450     2.3660 
  177.8750    -6.9630    51.9040     6.6360     5.6150     6.8980    23.5610     2.3940 
  178.0000    -6.9890    50.4320     6.7800     5.7840     7.0970    23.5940     2.4140 
  178.1250    -6.9920    49.3170     6.7590     5.8370     7.0050    23.6310     2.4250 
  178.2500    -6.9700    50.3790     6.5970     5.7670     6.7250    23.6480     2.4310 
  178.3750    -6.9440    53.1340     6.4130     5.6480     6.5330    23.6420     2.4350 
  178.5000    -6.9340    55.3640     6.2960     5.5450     6.4790    23.6130     2.4390 
  178.6250    -6.9060    55.0330     6.3030     5.5110     6.5060    23.5780     2.4470 
  178.7500    -6.8630    52.1370     6.4560     5.5790     6.3410    23.5710     2.4640 
  178.8750    -6.8300    50.1150     6.6650     5.7040     6.4820    23.5990     2.4860 
  179.0000    -6.8180    49.5650     6.8300     5.8250     7.4400    23.6440     2.5020 
  179.1250    -6.8540    49.2810     6.8610     5.8810     8.6760    23.6790     2.5030 
  179.2500    -6.9210    49.7070     6.7150     5.8280     7.8650    23.6850     2.4830 
  179.3750    -6.9890    51.9890     6.4930     5.7110     6.9930    23.6680     2.4540 
  179.5000    -7.0370    55.5520     6.3030     5.5910     6.4860    23.6400     2.4260 
  179.6250    -7.1170    57.8250     6.2350     5.5350     6.3550    23.6070     2.4060 
  179.7500    -7.2630    57.5620     6.3490     5.6050     6.5400    23.5720     2.3980 
  179.8750    -7.4740    57.4040     6.5870     5.7840     6.8370    23.5380     2.3970 
  180.0000    -7.7090    58.2160     6.8790     6.0330     6.9350    23.5150     2.4020 
  180.1250    -7.9500    58.3990     7.1570     6.2970     7.2610    23.5100     2.4090 
  180.2500    -8.2240    56.9140     7.3600     6.5150     7.6860    23.5170     2.4150 
  180.3750    -8.5450    55.1820     7.4940     6.6720     7.8900    23.5130     2.4170 
  180.5000    -8.8990    53.9330     7.5900     6.7800     7.9070    23.4890     2.4170 
  180.6250    -9.2730    52.9570     7.6900     6.8690     7.9790    23.4490     2.4140 
  180.7500    -9.6310    51.9090     7.8320     6.9690     8.0870    23.4100     2.4090 
  180.8750    -9.9400    52.2420     8.0190     7.0880     8.0390    23.3870     2.4030 
  181.0000   -10.2170    54.4120     8.2350     7.2270     8.2410    23.3850     2.3990 
  181.1250   -10.4860    56.1590     8.4530     7.3800     8.4230    23.3940     2.3990 
  181.2500   -10.7600    55.0670     8.6350     7.5410     8.6430    23.3910     2.4040 
  181.3750   -11.0120    52.9500     8.7550     7.6870     8.8610    23.3720     2.4140 
  181.5000   -11.2370    52.7180     8.7920     7.7850     9.0860    23.3510     2.4240 
  181.6250   -11.4930    54.6280     8.7370     7.8010     9.3590    23.3420     2.4310 
