~V
VERS. 2.00: Ver 2.00
~W
STRT.M 46.0000:
STOP.M 208.0000:
STEP.M 0.1250:
NULL. -999.2500:
UWI. F10533:
~C
DEPT.M :
GR.API :
RML.OHMM :
RI. :
RXO.OHMM :
CALI.CM :
DEN.GM/CC :
SP.MV :
~A
# ...
  113.5000    65.9240     7.5200     6.1940     6.9850    22.7870     2.1370   -15.5270 
  113.6250    61.9910     7.4840     6.1470     7.0260    22.9240     2.1240   -15.3300 
  113.7500    58.2760     7.4450     6.0900     7.0090    23.0460     2.1160   -15.1520 
  113.8750    56.2630     7.4010     6.0300     6.8530    23.1150     2.1120   -14.9870 
  114.0000    55.3750     7.3440     5.9700     6.6060    23.1430     2.1130   -14.8440 
  114.1250    56.4120     7.2820     5.9200     6.5120    23.1490     2.1160   -14.7030 
  114.2500    58.0000     7.2730     5.9080     6.5910    23.1510     2.1220   -14.5870 
  114.3750    58.2420     7.4050     5.9820     6.6880    23.1510     2.1290   -14.4810 
  114.5000    59.3940     7.7510     6.1970     6.7230    23.1560     2.1450   -14.3550 
  114.6250    63.6460     8.2970     6.5760     7.0230    23.1610     2.1870   -14.2270 
  114.7500    67.9870     8.8050     6.9860     8.0380    23.1560     2.2560   -14.1050 
  114.8750    70.3020     9.0160     7.2550    10.0080    23.1550     2.3360   -13.9830 
  115.0000    72.0570     8.7510     7.2240    11.6300    23.1670     2.3940   -13.8730 
  115.1250    77.6920     8.0010     6.8110     9.9410    23.1850     2.4010   -13.8090 
  115.2500    84.9030     7.1250     6.2190     7.1400    23.1930     2.3710   -13.7450 
  115.3750    89.8240     6.3700     5.6230     5.6850    23.1960     2.3310   -13.6950 
  115.5000    91.4570     5.8480     5.1400     5.3130    23.2050     2.3000   -13.6660 
  115.6250    90.1220     5.5820     4.8350     5.5080    23.2950     2.2840   -13.6600 
  115.7500    87.9190     5.4590     4.6620     5.5100    23.4950     2.2740   -13.6630 
  115.8750    86.7360     5.4140     4.5860     5.4050    23.6840     2.2640   -13.6700 
  116.0000    88.0140     5.4120     4.5790     5.2760    23.6780     2.2510   -13.6780 
  116.1250    89.1290     5.4820     4.6500     5.2390    23.3610     2.2310   -13.6570 
  116.2500    86.9050     5.6970     4.8280     5.4110    22.8280     2.2100   -13.6200 
  116.3750    84.6660     6.1370     5.1560     5.8630    22.2840     2.1970   -13.5560 
  116.5000    84.7610     6.8220     5.6500     6.3640    22.1130     2.2080   -13.4830 
  116.6250    83.1830     7.6670     6.2660     6.8310    22.5560     2.2600   -13.3990 
  116.7500    79.0870     8.4000     6.8370     7.7120    23.3380     2.3320   -13.3150 
  116.8750    77.5580     8.7730     7.1930     9.5580    23.8170     2.3890   -13.2400 
  117.0000    80.0760     8.6600     7.2110    10.3460    23.9210     2.3980   -13.1840 
  117.1250    81.4380     8.1080     6.8630     8.5590    23.8280     2.3530   -13.1650 
  117.2500    80.1630     7.4430     6.3670     6.7640    23.7570     2.2930   -13.1870 
  117.3750    80.4910     6.8570     5.8800     6.1420    23.7330     2.2430   -13.2540 
  117.5000    82.3550     6.4270     5.5040     6.1700    23.7520     2.2130   -13.3670 
  117.6250    81.1880     6.1740     5.2960     6.1130    23.7860     2.2080   -13.5150 
  117.7500    80.2410     6.0380     5.2110     6.0310    23.7830     2.2130   -13.6810 
  117.8750    82.0410     5.9880     5.2030     5.9170    23.6960     2.2200   -13.8520 
  118.0000    83.1150     5.9980     5.2300     5.8120    23.5580     2.2230   -14.0010 
  118.1250    79.4900     6.0460     5.2650     5.7500    23.4360     2.2230   -14.1220 
  118.2500    76.5050     6.1030     5.2970     5.9010    23.3260     2.2250   -14.2000 
  118.3750    79.0310     6.1420     5.3230     6.0000    23.2620     2.2310   -14.2550 
  118.5000    84.5190     6.1520     5.3380     5.8400    23.2410     2.2330   -14.2640 
  118.6250    87.6200     6.1510     5.3470     5.6820    23.2350     2.2180   -14.2180 
  118.7500    86.7080     6.1540     5.3550     5.8680    23.2570     2.1960   -14.1300 
  118.8750    82.5280     6.1560     5.3600     6.2900    23.3290     2.1880   -14.0040 
  119.0000    80.0800     6.1360     5.3490     6.4120    23.4700     2.2140   -13.8430 
  119.1250    84.1350     6.0700     5.2990     6.2740    23.5640     2.2720   -13.6700 
  119.2500    88.7100     5.9660     5.2100     6.1860    23.5890     2.3260   -13.5010 
  119.3750    89.0240     5.8410     5.0890     5.9530    23.5460     2.3500   -13.3180 
  119.5000    86.2390     5.7230     4.9630     5.6510    23.4380     2.3390   -13.1290 
  119.6250    86.4970     5.6250     4.8620     5.5570    23.3800     2.3060   -12.9700 
  119.7500    87.7560     5.5240     4.7840     5.4910    23.3440     2.2720   -12.8230 
  119.8750    85.4260     5.4010     4.7180     5.5380    23.3010     2.2440   -12.7000 
  120.0000    81.7320     5.2740     4.6610     5.8210    23.2920     2.2270   -12.5980 
  120.1250    82.5950     5.2670     4.6740     5.8980    23.3710     2.2290   -12.5350 
  120.2500    86.2400     5.5080     4.8430     5.7030    23.5190     2.2570   -12.5150 
  120.3750    87.2460     6.0840     5.2380     5.4800    23.6640     2.3230   -12.5370 
  120.5000    83.7990     6.9810     5.8720     5.9370    23.7300     2.4240   -12.6100 
  120.6250    81.0890     8.0040     6.6460     8.1650    23.6940     2.5160   -12.7210 
  120.7500    79.3360     8.7370     7.2740    13.0410    23.5730     2.5420   -12.8600 
  120.8750    76.7550     8.8400     7.4960    15.4330    23.4290     2.4960   -13.0170 
  121.0000    74.7110     8.2650     7.2230    10.4200    23.3540     2.4110   -13.1900 
  121.1250    75.4420     7.3330     6.5980     6.4610    23.3430     2.3290   -13.3250 
  121.2500    76.8040     6.5360     5.9720     5.7900    23.3480     2.2690   -13.4430 
  121.3750    76.5780     6.0590     5.5170     5.6790    23.3600     2.2330   -13.5150 
  121.5000    75.4720     5.8950     5.2850     5.7630    23.3650     2.2120   -13.5310 
  121.6250    75.1290     5.9270     5.2430     5.9140    23.2900     2.2030   -13.4810 
  121.7500    75.7620     5.9640     5.2530     5.8420    23.2230     2.2070   -13.3940 
  121.8750    78.2590     5.9250     5.2330     5.7200    23.2810     2.2200   -13.2710 
  122.0000    82.5290     5.7920     5.1420     5.6420    23.5290     2.2360   -13.1350 
  122.1250    87.5720     5.5770     4.9780     5.5840    23.7410     2.2500   -12.9870 
  122.2500    90.3360     5.3340     4.7900     5.4960    23.8240     2.2680   -12.8230 
  122.3750    90.8700     5.1120     4.6190     5.2300    23.8280     2.2880   -12.6740 
  122.5000    91.6110     4.9630     4.4990     4.9290    23.8100     2.3050   -12.5550 
  122.6250    93.2460     4.9310     4.4540     4.9100    23.8040     2.3090   -12.4820 
  122.7500    92.5600     4.9810     4.4660     5.1510    23.8060     2.2990   -12.4360 
  122.8750    90.1290     5.0650     4.5090     5.3770    23.8100     2.2830   -12.4310 
  123.0000    88.5760     5.1230     4.5500     5.3870    23.8030     2.2700   -12.4630 
  123.1250    88.7950     5.0990     4.5540     5.2970    23.7780     2.2670   -12.5530 
  123.2500    89.2660     5.0050     4.5190     5.2540    23.7660     2.2760   -12.6830 
  123.3750    90.2270     4.8840     4.4630     5.0980    23.7630     2.2950   -12.8590 
  123.5000    90.9860     4.7990     4.4180     4.9650    23.7590     2.3180   -13.0740 
  123.6250    89.6670     4.8240     4.4310     4.9060    23.7200     2.3340   -13.3070 
  123.7500    86.3550     4.9720     4.5170     5.0940    23.6250     2.3320   -13.5620 
  123.8750    81.1610     5.2290     4.6740     5.3750    23.4920     2.3120   -13.8310 
  124.0000    75.2110     5.5490     4.8790     5.6490    23.3470     2.2830   -14.0930 
  124.1250    71.4870     5.8270     5.0680     5.9070    23.2210     2.2580   -14.3430 
  124.2500    70.6710     5.9690     5.1720     6.1860    23.1520     2.2450   -14.5690 
  124.3750    70.1590     5.9400     5.1590     6.2740    23.1640     2.2410   -14.7400 
  124.5000    70.7010     5.7930     5.0540     6.0360    23.2640     2.2430   -14.8500 
  124.6250    74.1840     5.7040     4.9630     5.7420    23.4640     2.2450   -14.9230 
