~V
VERS. 2.00: Ver 2.00
~W
STRT.M 46.0000:
STOP.M 208.0000:
STEP.M 0.1250:
NULL. -999.2500:
UWI. F10533:
~C
DEPT.M :
GR.API :
RML.OHMM :
RI. :
RXO.OHMM :
CALI.CM :
DEN.GM/CC :
SP.MV :
~A
# ...
  136.0000    63.9540     9.7260     8.1200     7.5220    22.7320     2.2270   -12.5370 
  136.1250    64.8410     9.5140     7.8380     7.7130    22.7320     2.2230   -12.5900 
  136.2500    65.0430     9.4760     7.6910     7.8110    22.7320     2.2110   -12.5880 
  136.3750    64.2760     9.5300     7.6410     7.8800    22.7290     2.1890   -12.5370 
  136.5000    62.1650     9.6090     7.6450     7.9320    22.7200     2.1640   -12.4330 
  136.6250    58.7310     9.6940     7.6800     7.9930    22.7020     2.1460   -12.2970 
  136.7500    56.4580     9.8210     7.7490     8.0720    22.6950     2.1380   -12.1280 
  136.8750    56.6460    10.0260     7.8750     8.1570    22.6930     2.1390   -11.9400 
  137.0000    59.0750    10.3050     8.0670     8.2640    22.6930     2.1450   -11.7430 
  137.1250    63.5810    10.6090     8.3140     8.4920    22.6980     2.1500   -11.5430 
  137.2500    67.8170    10.8540     8.5560     8.8310    22.7120     2.1520   -11.3430 
  137.3750    69.1530    10.9810     8.7360     9.1120    22.7260     2.1520   -11.1530 
  137.5000    67.3750    10.9640     8.8050     8.9100    22.7320     2.1510   -11.0050 
  137.6250    64.4970    10.7900     8.7190     8.6720    22.7310     2.1480   -10.8980 
  137.7500    61.2270    10.5060     8.5190     8.5570    22.7230     2.1440   -10.8340 
  137.8750    58.3100    10.1460     8.2410     8.4930    22.7050     2.1410   -10.8020 
  138.0000    58.8640     9.7500     7.9250     8.3240    22.6920     2.1400   -10.7910 
  138.1250    61.7210     9.3660     7.6140     8.0910    22.7020     2.1480   -10.8180 
  138.2500    62.8590     9.0330     7.3390     7.7580    22.7200     2.1640   -10.8730 
  138.3750    61.7960     8.7870     7.1160     7.3860    22.7300     2.1830   -10.9560 
  138.5000    60.3420     8.6450     6.9610     7.2100    22.7470     2.1950   -11.0410 
  138.6250    58.8450     8.6140     6.8900     7.4000    22.7980     2.1900   -11.1160 
  138.7500    57.6400     8.6470     6.8790     7.4530    22.8780     2.1730   -11.1850 
  138.8750    57.2450     8.7000     6.9030     7.3920    22.9330     2.1520   -11.2440 
  139.0000    56.9870     8.7310     6.9340     7.3770    22.9650     2.1390   -11.2910 
  139.1250    56.3530     8.7150     6.9430     7.4230    22.9750     2.1450   -11.3070 
  139.2500    56.6270     8.6790     6.9270     7.4100    22.9850     2.1620   -11.3100 
  139.3750    57.8530     8.6510     6.9000     7.3110    23.0040     2.1780   -11.2810 
  139.5000    59.6300     8.6580     6.8840     7.1960    23.0290     2.1820   -11.2240 
  139.6250    60.2190     8.7290     6.9040     7.2370    23.0450     2.1690   -11.1470 
  139.7500    59.3430     8.8570     6.9650     7.3950    23.0860     2.1490   -11.0530 
  139.8750    58.9130     9.0200     7.0580     7.5330    23.1680     2.1340   -10.9510 
  140.0000    60.2430     9.1860     7.1650     7.5880    23.2570     2.1290   -10.8340 
  140.1250    61.8770     9.3030     7.2600     7.5430    23.3570     2.1350   -10.7180 
  140.2500    61.4140     9.3500     7.3260     7.4950    23.4390     2.1410   -10.5960 
  140.3750    58.8620     9.3260     7.3610     7.6200    23.4910     2.1410   -10.4830 
  140.5000    56.4320     9.2530     7.3730     7.7730    23.4950     2.1360   -10.3880 
  140.6250    55.3150     9.1650     7.3780     7.8120    23.3390     2.1340   -10.3300 
  140.7500    55.6270     9.0970     7.3990     7.8230    22.9170     2.1410   -10.2940 
  140.8750    57.6820     9.0770     7.4480     7.9080    22.3880     2.1570   -10.2750 
  141.0000    60.6580     9.1260     7.5290     7.9550    22.1820     2.1740   -10.2970 
  141.1250    61.7990     9.2470     7.6410     8.1370    22.4550     2.1820   -10.3390 
  141.2500    59.4770     9.3650     7.7510     8.2370    22.7000     2.1770   -10.4100 
  141.3750    55.7660     9.3860     7.8020     8.2150    22.8230     2.1640   -10.4980 
  141.5000    54.9460     9.2250     7.7220     8.1270    22.9060     2.1520   -10.6020 
  141.6250    58.6830     8.8280     7.4320     7.8630    23.0540     2.1500   -10.6920 
  141.7500    62.2320     8.2760     6.9740     7.4220    23.2360     2.1610   -10.7730 
  141.8750    64.6460     7.6540     6.4180     6.6000    23.4450     2.1840   -10.8440 
  142.0000    68.8460     7.0430     5.8560     5.7630    23.6150     2.2110   -10.8890 
  142.1250    75.4570     6.5080     5.3730     5.3810    23.6750     2.2320   -10.9070 
  142.2500    80.3430     6.0690     4.9920     5.4090    23.6880     2.2450   -10.8980 
  142.3750    82.7250     5.7630     4.7310     5.6240    23.6880     2.2530   -10.8610 
  142.5000    85.2090     5.6640     4.6280     5.6460    23.6910     2.2580   -10.7970 
  142.6250    86.4980     5.9160     4.7910     5.5430    23.6940     2.2660   -10.7150 
  142.7500    84.0610     6.5150     5.2340     5.7410    23.6990     2.2890   -10.5960 
  142.8750    78.7770     7.4110     5.9420     7.1340    23.7040     2.3350   -10.4450 
  143.0000    73.2240     8.4110     6.7970    10.8780    23.6940     2.4000   -10.2720 
  143.1250    70.1000     9.0760     7.4860    14.2040    23.6620     2.4540   -10.1030 
  143.2500    69.7800     9.1060     7.7150    11.4300    23.6130     2.4680    -9.9360 
  143.3750    72.9950     8.5170     7.4090     7.4820    23.5890     2.4320    -9.7790 
  143.5000    78.9340     7.6070     6.7450     5.7140    23.5640     2.3640    -9.6310 
  143.6250    83.3820     6.7690     6.0200     5.5110    23.4990     2.2970    -9.5090 
  143.7500    84.7830     6.1860     5.4480     5.4910    23.4150     2.2530    -9.4360 
  143.8750    84.8250     5.8580     5.0800     5.3840    23.3710     2.2380    -9.4220 
  144.0000    85.8200     5.7040     4.8860     5.0320    23.3610     2.2460    -9.4730 
  144.1250    86.6930     5.6370     4.8180     4.8230    23.3530     2.2650    -9.5660 
  144.2500    85.3520     5.5920     4.8050     4.9460    23.3270     2.2760    -9.6950 
  144.3750    82.5090     5.5690     4.8200     5.2990    23.2870     2.2780    -9.8530 
  144.5000    81.1900     5.5740     4.8440     5.6230    23.2760     2.2720   -10.0280 
  144.6250    82.2610     5.5950     4.8530     5.8280    23.3380     2.2660   -10.2130 
  144.7500    82.5990     5.6030     4.8400     5.7100    23.4870     2.2670   -10.3940 
  144.8750    82.4450     5.5850     4.8080     5.5700    23.6850     2.2770   -10.5480 
  145.0000    83.7550     5.5420     4.7650     5.4670    23.8290     2.2900   -10.6630 
  145.1250    86.3050     5.4740     4.7040     5.2890    23.8750     2.2970   -10.7360 
  145.2500    88.1810     5.3770     4.6080     5.2610    23.8810     2.2940   -10.7540 
  145.3750    88.2690     5.2440     4.4680     5.3570    23.8810     2.2810   -10.7310 
  145.5000    86.6810     5.1240     4.3250     5.3940    23.8810     2.2670   -10.6690 
  145.6250    84.0060     5.1990     4.3180     5.1300    23.8770     2.2660   -10.5610 
  145.7500    82.2580     5.6230     4.5760     5.1800    23.8650     2.2950   -10.4130 
  145.8750    81.6110     6.5030     5.1920     6.2290    23.8530     2.3640   -10.2370 
  146.0000    78.7230     7.8330     6.1860     9.8840    23.8390     2.4570   -10.0400 
  146.1250    73.3290     9.3760     7.4330    20.4040    23.7840     2.5100    -9.8280 
  146.2500    68.1950    10.5430     8.4950    22.1190    23.6360     2.4860    -9.6310 
  146.3750    65.5260    10.8810     8.9740    13.4780    23.4350     2.4000    -9.4530 
  146.5000    64.4920    10.3940     8.7630     8.5850    23.2660     2.2950    -9.3020 
  146.6250    64.9630     9.5580     8.1260     7.6300    23.2070     2.2160    -9.1800 
  146.7500    67.5050     8.9340     7.5400     7.6380    23.1970     2.1770    -9.1000 
  146.8750    69.8200     8.6850     7.1960     7.7690    23.1980     2.1730    -9.0670 
  147.0000    68.8990     8.7460     7.1140     7.8490    23.2010     2.1850    -9.0700 
  147.1250    65.4520     8.9440     7.1950     7.7610    23.2030     2.1950    -9.1280 
