~V
VERS. 2.00: Ver 2.00
~W
STRT.M 58.0000:
STOP.M 214.0000:
STEP.M 0.1250:
NULL. -999.2500:
UWI. F10594:
~C
DEPT.M :
GR.API :
RML.OHMM :
RI. :
RXO.OHMM :
CALI.CM :
DEN.GM/CC :
SP.MV :
~A
# ...
  103.0000    51.4930    22.5740    18.1070    13.9650    23.5160     2.1730   -16.1200 
  103.1250    50.3710    22.5640    18.1410    14.3760    23.5170     2.1730   -16.2830 
  103.2500    48.6140    22.5640    18.1640    15.0330    23.5100     2.1690   -16.4270 
  103.3750    48.1830    22.5130    18.1310    15.3530    23.5040     2.1640   -16.5460 
  103.5000    48.4240    22.3870    18.0200    15.5740    23.5130     2.1610   -16.6340 
  103.6250    48.7780    22.2090    17.8410    15.2160    23.5130     2.1640   -16.6870 
  103.7500    49.8710    21.9930    17.6330    14.6890    23.4770     2.1670   -16.7280 
  103.8750    49.3510    21.6290    17.3500    14.4720    23.4480     2.1590   -16.7780 
  104.0000    46.0600    20.9800    16.9050    14.8430    23.4450     2.1370   -16.8550 
  104.1250    44.8440    20.1150    16.3080    15.1790    23.3520     2.1140   -16.9710 
  104.2500    48.8270    19.5720    15.8600    14.4280    23.0420     2.1210   -17.1310 
  104.3750    54.5390    20.0370    15.9630    13.1790    22.6290     2.1890   -17.3400 
  104.5000    57.4990    22.1840    17.0640    13.3570    22.3580     2.3340   -17.6030 
  104.6250    55.9510    26.6380    19.7420    18.0230    22.1840     2.5260   -17.9340 
  104.7500    53.6510    32.1380    23.4250    28.0680    21.9820     2.6630   -18.3110 
  104.8750    53.6800    36.1480    26.5390    37.2510    21.8290     2.6900   -18.7130 
  105.0000    56.3930    35.3870    26.6550    37.3960    21.7510     2.6250   -19.1210 
  105.1250    60.0880    28.5250    22.3980    27.3100    21.7090     2.5210   -19.5200 
  105.2500    64.4850    20.3200    16.8420    16.9710    21.7950     2.4300   -19.9020 
  105.3750    71.2000    13.8960    12.1780    10.0830    22.1230     2.3700   -20.2640 
  105.5000    79.1150    10.0250     9.0960     7.1530    22.3910     2.3380   -20.6060 
  105.6250    82.3670     8.2990     7.5060     6.4440    22.4970     2.3230   -20.9250 
  105.7500    80.7980     7.5470     6.7000     6.3660    22.5710     2.3130   -21.2210 
  105.8750    79.0830     7.2730     6.3610     6.3790    22.8110     2.3090   -21.4990 
  106.0000    81.4410     7.1530     6.2510     6.4480    23.3280     2.3120   -21.7640 
  106.1250    84.5400     6.9890     6.1950     6.3360    23.9270     2.3180   -22.0170 
  106.2500    85.5460     6.7650     6.1120     5.9850    24.2190     2.3180   -22.2540 
  106.3750    87.2670     6.5520     6.0230     5.6330    24.1560     2.3120   -22.4650 
  106.5000    90.9990     6.4070     5.9640     5.4810    23.8870     2.3080   -22.6390 
  106.6250    92.8140     6.3510     5.9560     5.8250    23.6400     2.3160   -22.7630 
  106.7500    92.5610     6.3250     5.9610     6.2570    23.5360     2.3290   -22.8460 
  106.8750    92.7050     6.2640     5.9270     6.4780    23.5120     2.3360   -22.8890 
  107.0000    93.2900     6.1270     5.8170     6.3460    23.5090     2.3340   -22.8930 
  107.1250    92.1180     5.9290     5.6310     5.9490    23.5110     2.3310   -22.8520 
  107.2500    90.9980     5.7580     5.4440     5.6660    23.5130     2.3330   -22.7870 
  107.3750    91.2890     5.6760     5.3140     5.6450    23.5130     2.3400   -22.7130 
  107.5000    91.3020     5.7050     5.2680     5.6320    23.4790     2.3470   -22.6430 
  107.6250    89.1790     5.8340     5.3090     5.7090    23.3580     2.3500   -22.5930 
  107.7500    85.2400     5.9880     5.3850     6.0620    23.1780     2.3490   -22.5670 
  107.8750    83.5190     6.1160     5.4580     6.1470    23.0660     2.3450   -22.5700 
  108.0000    85.4560     6.1900     5.5010     5.8640    23.0150     2.3380   -22.6100 
  108.1250    86.6120     6.2190     5.5100     5.5680    22.9400     2.3290   -22.6950 
  108.2500    85.7010     6.2460     5.5100     5.6830    22.9040     2.3210   -22.8130 
  108.3750    85.1810     6.3050     5.5280     5.8900    22.8920     2.3230   -22.9550 
  108.5000    85.9060     6.4190     5.5900     5.9460    22.8340     2.3350   -23.1160 
  108.6250    85.6610     6.6010     5.7160     6.1310    22.6430     2.3410   -23.2940 
  108.7500    85.6430     6.8150     5.8860     6.4500    22.4880     2.3280   -23.4790 
  108.8750    87.7190     7.0330     6.0720     6.8780    22.5320     2.2940   -23.6590 
  109.0000    88.4270     7.2480     6.2540     7.1460    22.6930     2.2510   -23.8250 
  109.1250    85.6290     7.5180     6.4540     7.1340    22.9350     2.2330   -23.9610 
  109.2500    84.6730     7.8970     6.7170     7.2330    23.1860     2.2630   -24.0630 
  109.3750    87.2510     8.3800     7.0550     7.3590    23.4120     2.3360   -24.1320 
  109.5000    89.8540     8.8710     7.4170     7.5060    23.5210     2.4120   -24.1650 
  109.6250    88.8810     9.1290     7.6430     8.6100    23.4710     2.4430   -24.1500 
  109.7500    86.0800     9.0030     7.6000    10.4750    23.3310     2.4320   -24.0920 
  109.8750    84.2660     8.4980     7.2570    10.1430    23.2730     2.3990   -23.9900 
  110.0000    85.7290     7.8090     6.7270     7.6540    23.3930     2.3650   -23.8550 
  110.1250    90.3370     7.2550     6.2230     6.3380    23.4770     2.3360   -23.6910 
  110.2500    93.3970     7.0450     5.9180     6.0930    23.4930     2.3100   -23.5100 
  110.3750    91.2970     7.3130     5.9250     6.4730    23.4340     2.2820   -23.3150 
  110.5000    85.7620     8.1670     6.3300     7.2590    23.2830     2.2530   -23.1100 
  110.6250    80.3470     9.8960     7.3190     8.1840    23.1200     2.2250   -22.9070 
  110.7500    74.6590    12.6450     8.9640     9.5910    23.1750     2.1980   -22.7190 
  110.8750    68.4010    16.7300    11.4780    13.2820    23.5880     2.1740   -22.5560 
  111.0000    62.7310    23.4300    15.1150    21.4980    24.1750     2.1570   -22.4200 
  111.1250    60.4800    31.0470    20.2580    30.4640    24.5920     2.1470   -22.3220 
  111.2500    60.2230    39.7820    26.4700    38.1520    24.8600     2.1390   -22.2600 
  111.3750    59.6630    48.5750    33.0230    47.5100    25.0260     2.1330   -22.2350 
  111.5000    59.3710    56.0470    38.8260    56.9920    25.1000     2.1300   -22.2420 
  111.6250    60.4930    60.6720    42.5450    61.2240    25.1140     2.1310   -22.2680 
  111.7500    60.5850    62.9680    44.3410    60.0570    25.0960     2.1310   -22.2950 
  111.8750    58.8700    63.9530    44.8730    57.8620    24.9960     2.1270   -22.3120 
  112.0000    57.3570    64.7440    45.0130    54.4350    24.7590     2.1180   -22.3130 
  112.1250    59.0970    66.0190    45.4680    51.5990    24.5590     2.1120   -22.2930 
  112.2500    60.1190    67.3420    46.2210    52.5770    24.6360     2.1150   -22.2500 
  112.3750    58.0070    67.7900    46.8230    65.3160    24.8310     2.1300   -22.1840 
  112.5000    56.4500    66.6490    46.7980    81.3230    24.9440     2.1490   -22.0990 
  112.6250    57.7220    64.1620    46.1000    74.0730    24.9830     2.1610   -22.0040 
  112.7500    59.3760    62.1570    45.6290    55.3720    25.0360     2.1580   -21.9100 
  112.8750    59.7970    62.2530    46.4180    46.9230    25.0880     2.1440   -21.8200 
  113.0000    58.4840    65.4300    49.3670    47.4480    25.1180     2.1250   -21.7390 
  113.1250    55.5900    71.2450    54.7870    59.1970    25.1270     2.1100   -21.6710 
  113.2500    52.8300    75.2090    59.8020    70.8990    25.1250     2.1080   -21.6180 
  113.3750    52.4620    71.4820    59.7090    79.4120    25.1180     2.1300   -21.5860 
  113.5000    53.6990    57.6760    51.1290    80.3620    25.0900     2.1760   -21.5780 
  113.6250    55.8460    39.5990    36.8960    63.5290    24.9330     2.2400   -21.5930 
  113.7500    62.8400    25.3190    24.4420    34.3920    24.5430     2.3000   -21.6230 
  113.8750    75.3260    16.3950    16.0780    14.9370    24.0650     2.3360   -21.6690 
  114.0000    85.1010    11.6450    11.3150     8.0040    23.7900     2.3410   -21.7290 
  114.1250    84.4650     9.6970     9.1290     6.7230    23.7360     2.3230   -21.8010 
