~V
VERS. 2.00: Ver 2.00
~W
STRT.M 50.0000:
STOP.M 214.0000:
STEP.M 0.1250:
NULL. -999.2500:
UWI. F10534:
~C
DEPT.M :
DEN.GM/CC :
SP.MV :
GR.API :
RML.OHMM :
RI. :
RXO.OHMM :
CALI.CM :
~A
# ...
  106.2500     2.2000   -26.6950    84.3950     8.4800     6.9800     6.7090    22.3960 
  106.3750     2.1900   -26.7170    82.8720     8.4750     7.1080     7.0050    22.3940 
  106.5000     2.1840   -26.6800    81.1300     8.4000     7.1380     7.1250    22.3930 
  106.6250     2.1820   -26.5980    81.4010     8.2320     7.0520     7.1040    22.3950 
  106.7500     2.1820   -26.4940    80.1240     7.9800     6.8670     6.9670    22.3940 
  106.8750     2.1840   -26.4040    77.1920     7.6600     6.5930     6.7210    22.3930 
  107.0000     2.1900   -26.3500    74.9860     7.2970     6.2530     6.3910    22.3950 
  107.1250     2.2000   -26.3490    76.7260     6.9220     5.8820     6.1670    22.3940 
  107.2500     2.2120   -26.3840    81.2700     6.5870     5.5320     5.8640    22.3910 
  107.3750     2.2270   -26.4650    85.0590     6.3850     5.2730     5.5360    22.3890 
  107.5000     2.2470   -26.5890    85.6720     6.4370     5.1930     5.7710    22.3890 
  107.6250     2.2640   -26.7660    83.1090     6.8900     5.4150     6.2420    22.3890 
  107.7500     2.2690   -26.9820    81.1600     7.6530     5.9040     7.0620    22.3900 
  107.8750     2.2600   -27.2170    80.3380     8.5640     6.5770     7.8730    22.3920 
  108.0000     2.2420   -27.4490    77.9070     9.3740     7.2650     7.8040    22.3920 
  108.1250     2.2260   -27.6670    72.7260     9.7970     7.7330     7.8170    22.3920 
  108.2500     2.2120   -27.8700    69.3030     9.8570     7.9320     8.2100    22.3920 
  108.3750     2.1970   -28.0500    71.8940     9.6840     7.9270     8.1170    22.3900 
  108.5000     2.1780   -28.2000    75.9160     9.4080     7.8130     7.9620    22.3890 
  108.6250     2.1600   -28.3080    75.1240     9.0850     7.6410     7.6340    22.3890 
  108.7500     2.1480   -28.3860    72.3850     8.7480     7.4440     7.3740    22.3900 
  108.8750     2.1440   -28.4460    71.3970     8.4330     7.2430     7.2070    22.3910 
  109.0000     2.1460   -28.4990    72.0150     8.1940     7.0740     7.1510    22.3950 
  109.1250     2.1530   -28.5450    70.9970     8.0940     6.9820     6.7980    22.3960 
  109.2500     2.1600   -28.5840    69.5120     8.0920     6.9510     6.8020    22.4150 
  109.3750     2.1660   -28.6100    69.0790     8.1320     6.9480     6.8230    22.4890 
  109.5000     2.1680   -28.6270    69.8590     8.1520     6.9310     6.8850    22.6480 
  109.6250     2.1660   -28.6330    72.4490     8.0870     6.8600     6.8830    22.7330 
  109.7500     2.1620   -28.6330    74.7910     7.9420     6.7380     6.8130    22.7750 
  109.8750     2.1590   -28.6290    76.0270     7.7420     6.5810     6.6640    22.8050 
  110.0000     2.1580   -28.6150    75.8950     7.5390     6.4220     6.5130    22.8260 
  110.1250     2.1620   -28.5940    74.5060     7.4160     6.3190     6.5140    22.8330 
  110.2500     2.1690   -28.5660    73.6440     7.4180     6.3140     6.7560    22.8330 
  110.3750     2.1750   -28.5070    74.4180     7.5500     6.4220     7.1200    22.8330 
  110.5000     2.1780   -28.4260    77.5830     7.7690     6.6180     7.4760    22.8330 
  110.6250     2.1780   -28.3040    80.3480     7.9750     6.8270     7.5040    22.8330 
  110.7500     2.1770   -28.1420    80.9020     8.0800     6.9610     7.4210    22.8330 
  110.8750     2.1760   -27.9480    80.3740     8.0480     6.9760     7.3840    22.8330 
  111.0000     2.1760   -27.7120    80.0590     7.8890     6.8720     7.3570    22.8330 
  111.1250     2.1760   -27.4600    80.6220     7.6240     6.6640     7.2860    22.8330 
  111.2500     2.1760   -27.2290    80.3110     7.2900     6.3860     6.9940    22.8330 
  111.3750     2.1750   -27.0680    80.9610     6.8980     6.0470     6.6160    22.8330 
  111.5000     2.1780   -26.9730    86.3060     6.4860     5.6720     6.1910    22.8330 
  111.6250     2.1900   -26.9810    94.6250     6.1810     5.3440     5.6330    22.8330 
  111.7500     2.2040   -27.0650   100.4370     6.0990     5.1640     5.4370    22.8330 
  111.8750     2.2080   -27.2030   101.0310     6.2910     5.1940     5.6480    22.8330 
  112.0000     2.1930   -27.3880    97.8730     6.7040     5.4220     5.9460    22.8330 
  112.1250     2.1690   -27.5930    95.2230     7.1860     5.7670     6.0250    22.8330 
  112.2500     2.1510   -27.7820    94.9970     7.5630     6.0880     6.1260    22.8330 
  112.3750     2.1440   -27.9340    95.8770     7.7880     6.3270     6.3810    22.8330 
  112.5000     2.1430   -28.0530    93.9860     7.9200     6.4980     6.7220    22.8330 
  112.6250     2.1460   -28.1310    89.2310     8.0410     6.6490     6.9900    22.8330 
  112.7500     2.1480   -28.1780    86.2260     8.1620     6.7930     7.1420    22.8330 
  112.8750     2.1490   -28.1940    85.4440     8.2370     6.8980     7.2170    22.8330 
  113.0000     2.1490   -28.1820    85.8450     8.2340     6.9350     7.2840    22.8330 
  113.1250     2.1500   -28.1220    88.4830     8.1580     6.8980     7.3400    22.8330 
  113.2500     2.1550   -28.0320    92.1760     8.0510     6.8200     7.3890    22.8330 
  113.3750     2.1620   -27.9190    93.1760     7.9240     6.7150     7.3860    22.8320 
  113.5000     2.1640   -27.7790    90.8860     7.7750     6.5860     7.3500    22.8240 
  113.6250     2.1610   -27.6050    89.2290     7.6010     6.4320     7.3450    22.7990 
  113.7500     2.1560   -27.3940    90.6550     7.4210     6.2670     7.2580    22.7590 
  113.8750     2.1530   -27.1650    92.7560     7.2740     6.1180     7.1060    22.7110 
  114.0000     2.1540   -26.9490    92.6580     7.2120     6.0290     7.0900    22.6460 
  114.1250     2.1530   -26.7370    90.0450     7.2900     6.0590     7.0130    22.6050 
  114.2500     2.1490   -26.5240    87.9320     7.4710     6.1930     6.9380    22.5660 
  114.3750     2.1490   -26.2990    88.7070     7.6990     6.3980     6.8770    22.5080 
  114.5000     2.1570   -26.0450    90.4960     7.9110     6.6250     6.9020    22.4210 
  114.6250     2.1720   -25.7510    89.3490     8.0520     6.8230     7.0890    22.3500 
  114.7500     2.1870   -25.4320    85.9370     8.1060     6.9600     7.5830    22.3350 
  114.8750     2.2040   -25.0810    81.5030     8.0320     6.9910     8.2270    22.4160 
  115.0000     2.2210   -24.6720    78.1130     7.7600     6.8460     8.4430    22.6710 
  115.1250     2.2290   -24.2450    80.7810     7.2270     6.4450     7.5310    23.1140 
  115.2500     2.2270   -23.8270    88.7140     6.5660     5.8870     6.5170    23.4330 
  115.3750     2.2260   -23.4410    95.8330     5.9410     5.3030     5.6720    23.5510 
  115.5000     2.2320   -23.0910    99.7180     5.5000     4.8260     5.2640    23.5660 
  115.6250     2.2410   -22.7970   105.7310     5.3380     4.5640     5.3040    23.5670 
  115.7500     2.2500   -22.5630   113.4950     5.3630     4.4720     5.2550    23.5640 
  115.8750     2.2610   -22.3890   118.2820     5.4910     4.4980     5.2230    23.5580 
  116.0000     2.2730   -22.2790   118.1850     5.6500     4.5860     5.3170    23.5440 
  116.1250     2.2780   -22.2050   117.1150     5.8020     4.7010     5.5280    23.5060 
  116.2500     2.2760   -22.1420   116.1020     5.9500     4.8280     5.6540    23.4620 
  116.3750     2.2720   -22.0980   112.2210     6.1180     4.9740     5.5870    23.4250 
  116.5000     2.2680   -22.0720   106.1480     6.3270     5.1510     5.5540    23.3970 
  116.6250     2.2580   -22.0410   101.5520     6.5840     5.3690     5.8370    23.3640 
  116.7500     2.2440   -22.0050   100.6960     6.8550     5.6050     6.0450    23.3500 
  116.8750     2.2370   -21.9540   103.0450     7.0790     5.8210     6.1920    23.3450 
  117.0000     2.2430   -21.9070   105.8920     7.1920     5.9650     6.2200    23.3460 
  117.1250     2.2490   -21.8780   106.6870     7.1460     5.9800     6.2300    23.3490 
  117.2500     2.2380   -21.8520   105.0740     7.0050     5.9000     6.1770    23.3490 
  117.3750     2.2160   -21.8220   104.2040     6.8290     5.7670     6.2790    23.3480 
