~V
VERS. 2.00: Ver 2.00
~W
STRT.M 58.0000:
STOP.M 197.0000:
STEP.M 0.1250:
NULL. -999.2500:
UWI. F10573:
~C
DEPT.M :
SP.MV :
GR.API :
RML.OHMM :
RI. :
RXO.OHMM :
CALI.CM :
DEN.GM/CC :
~A
# ...
   69.2500   -23.6520    64.1340    11.4590     9.7480     9.2520    24.3400     2.2210 
   69.3750   -23.5360    64.6160    11.9740    10.2070     8.5140    24.1160     2.2270 
   69.5000   -23.4750    63.0960    12.6100    10.7990     8.5790    23.7980     2.2320 
   69.6250   -23.3910    59.9860    12.9500    11.2120     9.9750    23.6890     2.2360 
   69.7500   -23.2980    57.7230    12.7080    11.1570    12.0680    23.7570     2.2400 
   69.8750   -23.2920    58.9770    11.8650    10.5580    12.0880    23.9450     2.2420 
   70.0000   -23.3230    64.7210    10.6830     9.5860     9.6480    24.1720     2.2430 
   70.1250   -23.3060    71.4220     9.5250     8.5390     7.7800    24.2700     2.2480 
   70.2500   -23.2890    75.4270     8.5600     7.6140     7.3510    24.2420     2.2610 
   70.3750   -23.2810    76.5780     7.7960     6.8570     6.9880    24.1520     2.2800 
   70.5000   -23.2680    77.1530     7.2150     6.2770     6.0490    23.9740     2.2990 
   70.6250   -23.2390    81.9240     6.8590     5.9100     5.6730    23.7880     2.3100 
   70.7500   -23.1550    87.6340     6.7740     5.7650     5.2590    23.6300     2.3200 
   70.8750   -22.9660    88.0730     7.0820     5.9290     4.9240    23.4360     2.3320 
   71.0000   -22.7060    81.0250     7.9020     6.5080     5.4640    23.1740     2.3430 
   71.1250   -22.4560    72.0970     9.4260     7.6950     7.0170    23.0570     2.3330 
   71.2500   -22.2030    66.1910    11.5670     9.4610     9.7770    23.1890     2.2960 
   71.3750   -21.9260    61.3890    14.1920    11.7530    14.9100    23.4960     2.2490 
   71.5000   -21.6620    58.2580    16.9940    14.3480    20.8020    23.7920     2.2210 
   71.6250   -21.4640    59.6090    19.4650    16.7970    20.9600    23.8730     2.2390 
   71.7500   -21.3080    63.1170    21.2630    18.7010    18.3110    23.8450     2.2770 
   71.8750   -21.2080    64.0020    22.0910    19.7430    17.8560    23.7960     2.3030 
   72.0000   -21.1310    61.6560    21.6550    19.6230    18.1160    23.7560     2.2960 
   72.1250   -21.0430    59.5670    19.6790    18.0470    17.4250    23.6250     2.2620 
   72.2500   -21.0120    59.9830    16.8880    15.6490    15.8580    23.4550     2.2360 
   72.3750   -20.9910    63.7350    14.0300    13.0870    13.0630    23.2110     2.2350 
   72.5000   -20.9420    70.9960    11.7290    10.9080     9.4580    22.9790     2.2530 
   72.6250   -20.8350    78.5830    10.3930     9.4920     7.9730    22.8760     2.2700 
   72.7500   -20.6830    80.0990     9.7990     8.7180     8.5090    22.9220     2.2780 
   72.8750   -20.4710    75.1630     9.7700     8.4770    10.5980    23.0730     2.2820 
   73.0000   -20.2220    70.4680    10.1390     8.6500    10.7100    23.3290     2.2860 
   73.1250   -19.9120    69.8850    10.8170     9.1770     8.4650    23.6060     2.2870 
   73.2500   -19.5140    68.1560    11.6990     9.9380     8.5430    23.7620     2.2780 
   73.3750   -19.1110    64.4830    12.7970    10.9180     9.7390    23.8300     2.2560 
   73.5000   -18.6600    63.7980    14.1580    12.1410    10.7490    23.8460     2.2290 
   73.6250   -18.1580    66.8630    15.8090    13.6450    12.2680    23.8660     2.2100 
   73.7500   -17.7100    66.0270    17.5390    15.2570    15.4030    23.8920     2.2000 
   73.8750   -17.2910    62.4280    19.1130    16.7580    18.7540    23.9280     2.1950 
   74.0000   -16.8830    60.9520    20.3600    17.9610    20.1550    23.9600     2.1890 
   74.1250   -16.5780    62.5800    21.2010    18.7380    21.3830    23.9170     2.1760 
   74.2500   -16.3340    63.7020    21.8490    19.2500    20.9120    23.7850     2.1570 
   74.3750   -16.0950    63.3500    22.5000    19.6770    19.4950    23.5610     2.1420 
   74.5000   -15.9190    61.7510    23.2720    20.1670    18.1170    23.2650     2.1580 
   74.6250   -15.7800    59.9760    24.1880    20.7830    16.6170    23.0600     2.2370 
   74.7500   -15.6080    60.1870    25.1800    21.4840    15.3200    23.0010     2.3490 
   74.8750   -15.4490    62.0460    26.2410    22.2540    16.5540    23.1170     2.4260 
   75.0000   -15.2420    62.8790    27.4010    23.1080    18.4420    23.3180     2.4210 
   75.1250   -14.9640    60.3630    28.7130    24.1120    19.7000    23.3410     2.3410 
   75.2500   -14.6590    56.8370    30.0300    25.2030    22.3670    23.2610     2.2510 
   75.3750   -14.3220    55.8060    31.0260    26.1540    25.3040    23.2890     2.1860 
   75.5000   -13.9600    57.5120    31.3050    26.6220    26.8870    23.4510     2.1530 
   75.6250   -13.5620    58.0380    30.5000    26.2140    26.4900    23.5220     2.1470 
   75.7500   -13.1510    55.8390    28.9630    25.1230    24.5750    23.5330     2.1520 
   75.8750   -12.7360    53.9460    27.1720    23.7090    21.5970    23.5620     2.1630 
   76.0000   -12.3550    55.3730    25.6470    22.4140    18.8840    23.6720     2.1740 
   76.1250   -11.9590    60.5660    24.8080    21.6300    17.8540    23.8520     2.1800 
   76.2500   -11.5610    64.4600    24.5560    21.3330    17.5270    23.9610     2.1820 
   76.3750   -11.2130    63.5950    24.7110    21.4160    17.7090    23.9280     2.1860 
   76.5000   -10.8530    58.4170    25.0360    21.7050    18.1530    23.8540     2.1930 
   76.6250   -10.4950    53.4890    25.3040    22.0140    18.3670    23.8430     2.1990 
   76.7500   -10.1790    51.8050    25.4430    22.2340    18.3960    24.0270     2.1940 
   76.8750    -9.8900    52.5190    25.5140    22.3790    19.3400    24.3120     2.1770 
   77.0000    -9.6320    54.8650    25.6340    22.5210    20.7320    24.5450     2.1580 
   77.1250    -9.4420    57.1320    25.9570    22.7950    21.4950    24.6090     2.1560 
   77.2500    -9.2750    58.2130    26.5020    23.2510    21.7940    24.5550     2.1770 
   77.3750    -9.0950    57.1800    27.1980    23.8540    21.3690    24.3780     2.2050 
   77.5000    -8.9310    55.1420    27.8880    24.4790    21.1030    24.1740     2.2150 
   77.6250    -8.8180    53.9930    28.3330    24.9240    21.7080    24.1810     2.1950 
   77.7500    -8.7350    54.4690    28.4240    25.0790    23.5070    24.3590     2.1580 
   77.8750    -8.6250    56.0480    28.1520    24.9200    24.5080    24.4900     2.1200 
   78.0000    -8.5220    56.4600    27.6360    24.5280    24.3170    24.5250     2.0950 
   78.1250    -8.4260    55.3110    27.1070    24.0840    23.9510    24.5500     2.0990 
   78.2500    -8.3200    55.7620    26.7770    23.7790    24.0860    24.5450     2.1250 
   78.3750    -8.2330    58.6710    26.7130    23.6970    24.3510    24.5880     2.1610 
   78.5000    -8.1370    62.5210    26.8540    23.8140    24.9030    24.7660     2.1870 
   78.6250    -8.0330    62.1820    27.0060    23.9980    25.5450    24.9440     2.1900 
   78.7500    -7.9140    59.0740    26.9680    24.0630    25.7890    25.0770     2.1750 
   78.8750    -7.8140    57.2920    26.6640    23.9170    25.1940    25.1280     2.1530 
   79.0000    -7.6790    58.9530    26.1570    23.5830    24.4220    25.0950     2.1380 
   79.1250    -7.4860    61.2590    25.6470    23.1940    23.7310    24.9610     2.1450 
   79.2500    -7.3190    59.8690    25.3570    22.9370    23.8030    24.8120     2.1630 
   79.3750    -7.1620    56.7260    25.4230    22.9370    24.1370    24.6600     2.1760 
   79.5000    -7.0020    54.5780    25.8770    23.2500    24.8180    24.6320     2.1700 
   79.6250    -6.8750    54.2650    26.6580    23.8730    26.4760    24.7910     2.1470 
   79.7500    -6.8070    54.4820    27.5040    24.6060    28.1750    24.8880     2.1290 
   79.8750    -6.7750    54.7690    28.2180    25.2780    29.2290    24.7650     2.1250 
   80.0000    -6.8000    55.0870    28.6740    25.7530    29.5790    24.4580     2.1310 
   80.1250    -6.9390    54.4530    28.8190    25.9500    29.2860    24.2210     2.1310 
   80.2500    -7.1610    52.9580    28.7740    25.9550    28.6050    24.1920     2.1160 
   80.3750    -7.4180    53.0210    28.6240    25.8340    27.9390    24.3170     2.0920 
