~V
VERS. 2.00: Ver 2.00
~W
STRT.M 52.0000:
STOP.M 208.0000:
STEP.M 0.1250:
NULL. -999.2500:
UWI. F10572:
~C
DEPT.M :
GR.API :
RML.OHMM :
RI. :
RXO.OHMM :
CALI.CM :
DEN.GM/CC :
SP.MV :
~A
# ...
  153.2500    53.8790    26.6520    23.4300    22.0630    23.7900     2.2990   -17.9140 
  153.3750    54.2240    26.3820    23.2910    22.1750    23.7770     2.2770   -17.9700 
  153.5000    53.3930    26.2940    23.3280    23.0870    23.8900     2.2580   -18.0420 
  153.6250    52.2080    26.2240    23.4060    23.2800    23.9410     2.2500   -18.1320 
  153.7500    51.8780    26.0420    23.3910    21.7590    23.8970     2.2530   -18.2160 
  153.8750    53.5000    25.7110    23.2230    19.8110    23.7130     2.2660   -18.3040 
  154.0000    56.0540    25.2450    22.8950    18.9300    23.4460     2.2880   -18.3900 
  154.1250    56.8060    24.6750    22.4260    18.9040    23.2820     2.3120   -18.4540 
  154.2500    55.2520    24.0660    21.8890    18.5560    23.2220     2.3250   -18.4940 
  154.3750    54.2960    23.4890    21.3440    18.2760    23.1980     2.3170   -18.5150 
  154.5000    56.4600    23.0720    20.8840    17.9870    23.1650     2.2900   -18.5060 
  154.6250    60.3550    23.0600    20.7020    17.9780    23.0970     2.2560   -18.4980 
  154.7500    61.4570    23.5480    20.8940    17.7790    23.0090     2.2260   -18.5300 
  154.8750    59.4230    24.5770    21.5230    17.7990    22.9480     2.2030   -18.5670 
  155.0000    57.7060    26.0920    22.5820    18.2240    22.9200     2.1870   -18.5730 
  155.1250    58.0080    27.9700    24.0230    20.7630    22.9850     2.1810   -18.5930 
  155.2500    57.5400    29.9660    25.6450    22.5830    23.1610     2.1850   -18.6830 
  155.3750    55.2210    31.9920    27.3540    23.6990    23.3760     2.1970   -18.8140 
  155.5000    53.0990    34.0700    29.1330    25.6580    23.6160     2.2140   -18.9330 
  155.6250    52.2430    36.3130    31.0490    29.4190    23.8140     2.2290   -18.9960 
  155.7500    52.5690    38.7100    33.0940    35.7350    24.0380     2.2380   -19.0370 
  155.8750    53.4370    41.0940    35.1520    42.1870    24.2720     2.2390   -19.1100 
  156.0000    54.2520    43.1220    36.9630    45.2230    24.4150     2.2360   -19.2260 
  156.1250    54.0810    44.1290    37.9990    44.4260    24.3950     2.2330   -19.3150 
  156.2500    53.8360    43.8510    38.0140    41.7810    24.2670     2.2320   -19.3480 
  156.3750    54.5100    42.2350    36.9200    37.7570    23.9770     2.2310   -19.3730 
  156.5000    55.3270    39.5470    34.8790    33.4270    23.4840     2.2290   -19.4340 
  156.6250    55.6060    36.2530    32.2080    28.9930    22.9480     2.2280   -19.5210 
  156.7500    56.1890    33.0370    29.4790    24.0330    22.5500     2.2300   -19.5740 
  156.8750    57.4910    30.3080    27.0710    20.1160    22.2600     2.2380   -19.5910 
  157.0000    59.5410    28.3160    25.2460    17.8660    22.0950     2.2470   -19.6040 
  157.1250    61.4490    27.3030    24.2550    16.8330    22.2270     2.2500   -19.6260 
  157.2500    61.8710    27.0850    23.9710    16.8160    22.5110     2.2460   -19.6320 
  157.3750    60.7260    27.4890    24.2660    17.6610    22.6130     2.2400   -19.5970 
  157.5000    59.2620    28.2380    24.9140    18.9350    22.3830     2.2350   -19.5310 
  157.6250    59.6330    28.9610    25.6090    20.3030    22.2530     2.2310   -19.4950 
  157.7500    59.9800    29.3650    26.0710    23.5670    22.5940     2.2250   -19.5070 
  157.8750    59.4820    29.3380    26.1780    25.9680    23.2470     2.2160   -19.5140 
  158.0000    59.0490    28.9420    25.9420    25.9130    23.7590     2.2070   -19.4520 
  158.1250    60.4330    28.3860    25.5050    25.1020    23.9120     2.2080   -19.3570 
  158.2500    63.6320    27.9630    25.1150    24.6790    23.9390     2.2220   -19.2900 
  158.3750    66.1720    27.8320    24.9100    24.2650    23.9370     2.2450   -19.2500 
  158.5000    66.2400    28.0480    24.9480    23.9700    23.9190     2.2640   -19.2320 
  158.6250    65.3790    28.5960    25.2460    24.2580    23.8620     2.2630   -19.2200 
  158.7500    64.6540    29.2850    25.6880    25.0980    23.7810     2.2420   -19.2290 
  158.8750    62.8150    29.9680    26.1760    25.8090    23.7230     2.2130   -19.2750 
  159.0000    59.7300    30.5420    26.6260    26.4900    23.7010     2.1920   -19.3790 
  159.1250    57.8930    30.9470    26.9720    25.7520    23.7300     2.1970   -19.5220 
  159.2500    58.0860    31.2310    27.2250    26.0390    23.7260     2.2180   -19.6530 
  159.3750    58.6540    31.4300    27.3980    26.2800    23.7130     2.2400   -19.7750 
  159.5000    59.1030    31.5640    27.4980    26.2160    23.7050     2.2530   -19.8970 
  159.6250    59.7640    31.6430    27.5260    26.1660    23.7030     2.2530   -20.0260 
  159.7500    60.4340    31.7230    27.5330    26.7760    23.7020     2.2520   -20.1350 
  159.8750    60.1460    31.8980    27.6060    27.3600    23.7010     2.2510   -20.2090 
  160.0000    58.7170    32.3110    27.8710    26.7420    23.6960     2.2490   -20.2510 
  160.1250    57.2400    33.1730    28.4960    26.5110    23.6630     2.2430   -20.2940 
  160.2500    55.8670    34.4520    29.4590    26.8010    23.6150     2.2350   -20.3670 
  160.3750    55.6370    36.0430    30.6780    28.7850    23.6190     2.2280   -20.4640 
  160.5000    56.8870    37.7400    32.0010    31.0060    23.6320     2.2210   -20.5380 
  160.6250    57.8680    39.2870    33.2330    33.4620    23.6150     2.2130   -20.5550 
  160.7500    57.0060    40.6540    34.3210    35.0060    23.5670     2.2110   -20.5440 
  160.8750    55.7130    42.0350    35.3790    34.6440    23.5570     2.2250   -20.5290 
  161.0000    55.6890    43.7550    36.6290    33.4620    23.5380     2.2550   -20.5080 
  161.1250    55.5620    46.2300    38.3820    35.1210    23.4800     2.2900   -20.4560 
  161.2500    55.2540    49.4730    40.6970    40.0900    23.4340     2.3100   -20.3670 
  161.3750    57.1590    53.4050    43.5540    47.7510    23.4430     2.3080   -20.2510 
  161.5000    59.4460    57.8220    46.8310    52.9200    23.5390     2.2960   -20.1350 
  161.6250    57.7550    62.5290    50.3810    55.1950    23.5940     2.2900   -20.0470 
  161.7500    54.6310    67.3730    54.0590    58.0060    23.5950     2.2940   -19.9740 
  161.8750    53.7840    72.3890    57.8880    59.4480    23.5550     2.2950   -19.9140 
  162.0000    54.7690    77.7270    62.0070    59.5870    23.4580     2.2800   -19.8670 
  162.1250    54.2260    83.7850    66.8590    57.5200    23.4110     2.2460   -19.8300 
  162.2500    53.7670    90.7000    72.6910    58.1250    23.3170     2.2130   -19.8030 
  162.3750    55.5190    98.0230    79.2660    58.5310    23.0370     2.2150   -19.7840 
  162.5000    56.4320   104.2120    85.3430    56.5100    22.7370     2.2820   -19.7750 
  162.6250    53.5970   106.3240    88.3480    69.9970    22.9690     2.4120   -19.7660 
  162.7500    49.6440   103.5150    87.2490    97.2510    23.4450     2.5350   -19.7480 
  162.8750    47.9600    95.3300    81.7310   109.2290    23.8960     2.6050   -19.7110 
  163.0000    50.1980    81.3200    71.6550    86.8000    24.1390     2.6200   -19.6290 
  163.1250    56.2450    62.0770    56.9010    85.3080    24.2300     2.6040   -19.4670 
  163.2500    63.5720    42.7280    40.8480    87.9040    24.2240     2.5730   -19.2570 
  163.3750    66.9600    27.0740    26.8250    62.8900    24.1380     2.5280   -19.0090 
  163.5000    63.9620    16.4190    16.7120    25.6220    24.0260     2.4690   -18.7260 
  163.6250    56.2810    10.5440    10.9090     9.5020    23.9570     2.4060   -18.4230 
  163.7500    49.6270     7.2690     7.5780     5.2430    23.9090     2.3510   -18.1520 
  163.8750    47.0590     5.5820     5.7700     4.1720    23.8440     2.3110   -17.9490 
  164.0000    49.6790     4.8650     4.9070     3.9620    23.8580     2.2960   -17.8530 
  164.1250    56.2450     4.8650     4.7860     3.8400    23.9480     2.3090   -17.9140 
  164.2500    61.0850     5.3000     5.1360     4.3880    24.0740     2.3440   -18.1060 
  164.3750    63.6370     6.0530     5.8400     5.8540    24.1880     2.3890   -18.4040 
