~V
VERS. 2.00: Ver 2.00
~W
STRT.M 47.0000:
STOP.M 254.0000:
STEP.M 0.1250:
NULL. -999.2500:
UWI. F10599:
~C
DEPT.M :
DEN.GM/CC :
SP.MV :
GR.API :
RML.OHMM :
RI. :
RXO.OHMM :
CALI.CM :
~A
# ...
  215.7500     2.2940    -4.1750    97.2150     7.6420     6.9380     6.1360    24.0210 
  215.8750     2.2770    -3.9640    94.3080     6.4820     5.8810     5.6420    23.9440 
  216.0000     2.2730    -3.7840    91.7250     5.9440     5.3920     5.4750    23.8740 
  216.1250     2.2750    -3.6540    87.7560     5.7840     5.3020     5.3670    23.8370 
  216.2500     2.2800    -3.5640    82.5020     5.8180     5.4570     5.3840    23.8340 
  216.3750     2.2890    -3.5140    78.4530     5.9360     5.6760     5.4930    23.8650 
  216.5000     2.3010    -3.4970    78.5040     6.0800     5.7910     5.6230    23.9270 
  216.6250     2.3130    -3.5260    81.9760     6.2140     5.7470     5.6170    23.9970 
  216.7500     2.3170    -3.5890    84.6320     6.2790     5.5870     5.5180    24.0370 
  216.8750     2.3180    -3.6790    82.5670     6.2100     5.4080     5.4500    24.0510 
  217.0000     2.3300    -3.8020    77.5170     6.0430     5.2940     5.4900    24.0820 
  217.1250     2.3520    -3.9630    73.2430     5.8370     5.2610     5.6830    24.2070 
  217.2500     2.3760    -4.1750    70.9850     5.6700     5.2900     6.1150    24.4610 
  217.3750     2.3940    -4.4010    69.3800     5.6530     5.3160     6.7660    24.7540 
  217.5000     2.4060    -4.6420    67.8690     5.8070     5.2950     7.3370    24.8880 
  217.6250     2.4120    -4.8740    66.9180     6.1020     5.2500     7.6250    24.9210 
  217.7500     2.4140    -5.0900    66.1390     6.4580     5.2480     7.6550    24.9230 
  217.8750     2.4110    -5.3120    64.4390     6.7590     5.3610     7.6280    24.9230 
  218.0000     2.4050    -5.5180    62.3300     6.9370     5.5560     7.8330    24.9230 
  218.1250     2.4000    -5.6870    62.0270     6.9760     5.7660     8.4270    24.9230 
  218.2500     2.4000    -5.8110    64.2980     6.9140     5.9270     9.1890    24.9230 
  218.3750     2.4050    -5.9220    65.1730     6.8180     5.9840     9.2090    24.9230 
  218.5000     2.4140    -6.0210    62.2810     6.7430     5.9600     8.3830    24.9230 
  218.6250     2.4240    -6.1160    59.9720     6.6980     5.8810     7.9470    24.9230 
  218.7500     2.4300    -6.1770    62.0670     6.6650     5.7700     7.8340    24.9230 
  218.8750     2.4290    -6.1900    66.0360     6.6120     5.6610     7.7120    24.9230 
  219.0000     2.4250    -6.1650    67.9780     6.5310     5.5680     7.6040    24.9230 
  219.1250     2.4210    -6.1200    66.7500     6.4240     5.4720     7.5060    24.9230 
  219.2500     2.4150    -6.0670    65.2980     6.2970     5.3500     7.4060    24.9230 
  219.3750     2.4090    -6.0000    66.6140     6.1390     5.1980     7.2100    24.9230 
  219.5000     2.4040    -5.8960    67.7150     5.9540     5.0630     6.9200    24.9230 
  219.6250     2.4010    -5.7650    65.4550     5.7720     4.9950     6.5780    24.9230 
  219.7500     2.4000    -5.6460    61.4360     5.6350     5.0000     6.4630    24.9230 
  219.8750     2.3980    -5.5270    59.0880     5.5760     5.0230     6.5480    24.9200 
  220.0000     2.3970    -5.4260    57.7650     5.5770     5.0090     6.6210    24.9010 
  220.1250     2.3990    -5.3390    56.8340     5.6200     4.9540     6.6270    24.8560 
  220.2500     2.4070    -5.2610    57.3620     5.6960     4.8850     6.6340    24.8010 
  220.3750     2.4200    -5.1640    58.4800     5.8000     4.8490     6.7400    24.7760 
  220.5000     2.4300    -5.0720    59.3700     5.9010     4.8510     6.7610    24.7590 
  220.6250     2.4310    -4.9620    60.7560     5.9580     4.8770     6.7170    24.7330 
  220.7500     2.4240    -4.8400    62.7580     5.9380     4.9000     6.6300    24.7120 
  220.8750     2.4160    -4.7380    65.3280     5.8450     4.9100     6.4700    24.6970 
  221.0000     2.4040    -4.6260    68.9050     5.7620     4.9220     6.3590    24.6650 
  221.1250     2.3910    -4.5240    71.1370     5.7490     4.9470     6.2900    24.5980 
  221.2500     2.3820    -4.4430    70.3600     5.8050     4.9850     6.2420    24.5050 
  221.3750     2.3870    -4.4510    66.1490     5.8630     5.0240     6.2640    24.4270 
  221.5000     2.4010    -4.5100    60.6380     5.8350     5.0360     6.2000    24.3220 
  221.6250     2.4170    -4.6340    55.5930     5.6900     4.9950     6.0520    24.1310 
  221.7500     2.4280    -4.7970    52.3780     5.4660     4.8920     5.9420    23.9210 
  221.8750     2.4230    -5.0000    52.7310     5.2750     4.7530     5.9240    23.8220 
  222.0000     2.4070    -5.2150    54.8120     5.2120     4.6420     5.9070    23.7790 
  222.1250     2.3920    -5.4080    55.3730     5.2980     4.6050     5.8710    23.7940 
  222.2500     2.3890    -5.5420    53.7860     5.4960     4.6730     5.9430    23.9260 
  222.3750     2.3940    -5.6080    52.8820     5.7400     4.8590     6.2410    24.2640 
  222.5000     2.3970    -5.6370    55.0250     5.9630     5.0860     6.7850    24.6530 
  222.6250     2.3940    -5.6200    58.2780     6.1350     5.2880     7.3180    24.9350 
  222.7500     2.3860    -5.5910    60.3100     6.2450     5.4220     7.5480    25.0590 
  222.8750     2.3770    -5.5040    61.6980     6.2840     5.4580     7.4170    25.0850 
  223.0000     2.3700    -5.4080    64.4380     6.2230     5.4080     7.1540    25.0900 
  223.1250     2.3620    -5.3120    68.6460     6.0150     5.2670     6.7260    25.0900 
  223.2500     2.3510    -5.2250    71.0390     5.6610     5.0380     6.1240    25.0860 
  223.3750     2.3400    -5.1650    67.3210     5.2490     4.7470     5.6630    25.0880 
  223.5000     2.3340    -5.1240    61.5490     4.9280     4.4770     5.4880    25.0960 
  223.6250     2.3310    -5.1280    56.8100     4.7920     4.3040     5.4820    25.1240 
  223.7500     2.3300    -5.1820    54.8560     4.8600     4.2750     5.6460    25.1790 
  223.8750     2.3310    -5.2900    55.9920     5.0650     4.4190     5.9910    25.2460 
  224.0000     2.3360    -5.4500    59.0510     5.2950     4.6630     6.3740    25.2740 
  224.1250     2.3460    -5.6560    62.2570     5.5390     4.9360     6.6700    25.2800 
  224.2500     2.3610    -5.8900    64.1810     5.8230     5.1780     7.0300    25.2800 
  224.3750     2.3760    -6.1140    65.9130     6.1410     5.3550     7.5570    25.2800 
  224.5000     2.3860    -6.3570    68.6900     6.3820     5.4780     7.9960    25.2800 
  224.6250     2.3900    -6.5860    70.0200     6.4420     5.5560     8.2210    25.2800 
  224.7500     2.3890    -6.7690    66.7640     6.3030     5.5900     8.2600    25.2800 
  224.8750     2.3860    -6.9170    61.7170     6.0630     5.5610     8.0970    25.2800 
  225.0000     2.3850    -6.9890    62.6210     5.8880     5.4770     7.9630    25.2720 
  225.1250     2.3880    -7.0140    68.6840     5.8380     5.3630     7.8350    25.2520 
  225.2500     2.3930    -7.0430    72.6450     5.8860     5.2580     7.7310    25.2250 
  225.3750     2.3970    -7.0480    68.8270     5.9640     5.1820     7.6410    25.2140 
  225.5000     2.3990    -6.9980    64.8450     6.0140     5.1320     7.5060    25.2100 
  225.6250     2.3980    -6.9340    66.3740     6.0250     5.1190     7.4040    25.2060 
  225.7500     2.3980    -6.8480    71.4780     6.0120     5.1590     7.5200    25.2030 
  225.8750     2.4020    -6.7080    72.8630     5.9990     5.2550     7.8360    25.1970 
  226.0000     2.4070    -6.6010    69.2740     6.0010     5.3610     7.9830    25.1980 
  226.1250     2.4110    -6.5080    65.9580     6.0080     5.4360     7.9460    25.1880 
  226.2500     2.4130    -6.3960    66.5080     5.9950     5.4510     7.9500    25.1590 
  226.3750     2.4100    -6.2870    69.6330     5.9180     5.3950     7.8930    25.1440 
  226.5000     2.3970    -6.1980    72.5860     5.7780     5.2900     7.4510    25.1390 
  226.6250     2.3770    -6.1050    74.6920     5.5980     5.1300     6.7350    25.1390 
  226.7500     2.3510    -6.0180    76.0530     5.4190     4.9040     6.0820    25.1390 
  226.8750     2.3290    -5.9830    75.0700     5.2770     4.6270     5.8000    25.1390 
