~V
VERS. 2.00: Ver 2.00
~W
STRT.M 42.0000:
STOP.M 223.0000:
STEP.M 0.1250:
NULL. -999.2500:
UWI. F10538:
~C
DEPT.M :
DEN.GM/CC :
SP.MV :
GR.API :
RML.OHMM :
RI. :
RXO.OHMM :
CALI.CM :
~A
# ...
  165.7500     2.2340   -31.5620    83.3040     9.7080    10.4660    13.4030    24.4930 
  165.8750     2.2510   -31.3970    90.8020     7.6160     8.3620     8.1810    24.4110 
  166.0000     2.2660   -31.2720    98.0060     6.1260     6.7340     6.7250    24.3830 
  166.1250     2.2830   -31.1650   107.2180     5.2810     5.6670     6.1300    24.3790 
  166.2500     2.3010   -31.1220   114.1100     4.9730     5.1210     5.8280    24.3700 
  166.3750     2.3100   -31.1210   114.4600     5.0720     5.0280     5.8600    24.3480 
  166.5000     2.3090   -31.1610   110.0540     5.3190     5.1550     6.0960    24.3180 
  166.6250     2.3010   -31.2050   105.2790     5.5570     5.3500     6.2490    24.3040 
  166.7500     2.2950   -31.2490   104.0800     5.6910     5.5020     6.2820    24.3030 
  166.8750     2.2990   -31.3080   109.5030     5.6810     5.5440     6.2240    24.3030 
  167.0000     2.3080   -31.3210   114.3640     5.5840     5.4950     6.1530    24.3030 
  167.1250     2.3180   -31.3260   113.0100     5.4390     5.3820     6.0510    24.3030 
  167.2500     2.3270   -31.2840   110.1200     5.2860     5.2420     5.9240    24.3030 
  167.3750     2.3370   -31.2060   110.3670     5.1740     5.1170     5.5720    24.3030 
  167.5000     2.3440   -31.1010   111.3480     5.1480     5.0560     5.3520    24.3030 
  167.6250     2.3460   -30.9860   111.1370     5.2560     5.1080     5.6380    24.3030 
  167.7500     2.3410   -30.8740   110.9470     5.5040     5.3000     6.3360    24.3030 
  167.8750     2.3250   -30.7380   108.5690     5.8310     5.6070     6.7010    24.3030 
  168.0000     2.3110   -30.6260   102.3450     6.0950     5.9060     6.8870    24.3030 
  168.1250     2.3100   -30.5060    97.3950     6.1940     6.0920     7.0950    24.3030 
  168.2500     2.3230   -30.4150    97.8920     6.0970     6.1110     7.2700    24.3030 
  168.3750     2.3360   -30.3140   102.2890     5.8390     5.9530     6.8750    24.3030 
  168.5000     2.3340   -30.2100   105.8140     5.5450     5.7140     6.3340    24.3030 
  168.6250     2.3290   -30.1020   108.9980     5.2810     5.4500     5.9190    24.3030 
  168.7500     2.3340   -29.9810   112.5040     5.0780     5.2030     5.6450    24.3030 
  168.8750     2.3530   -29.8860   112.1750     4.9620     5.0040     5.3140    24.3030 
  169.0000     2.3730   -29.7880   107.6780     4.9080     4.8560     5.1130    24.3030 
  169.1250     2.3850   -29.7310   102.1490     4.8850     4.7430     5.0800    24.3030 
  169.2500     2.3880   -29.6930   101.0310     4.8580     4.6360     5.0950    24.3030 
  169.3750     2.3920   -29.7310   106.3060     4.8330     4.5320     4.7540    24.3030 
  169.5000     2.3990   -29.7960   112.5190     4.8890     4.4850     4.5200    24.3080 
  169.6250     2.4020   -29.9070   113.3800     5.1700     4.5990     4.5870    24.3320 
  169.7500     2.4000   -30.0760   108.2860     5.8680     5.0210     5.1110    24.3840 
  169.8750     2.3960   -30.2580   103.7390     7.3470     6.0340     6.5620    24.4290 
  170.0000     2.4000   -30.4540   100.9550     9.7310     7.7770     9.0100    24.4290 
  170.1250     2.4220   -30.6230    96.5600    13.0620    10.4010    13.2630    24.3790 
  170.2500     2.4660   -30.7710    88.9010    16.9810    13.8210    19.2530    24.3070 
  170.3750     2.5160   -30.8800    80.2700    20.2070    17.2000    23.7780    24.2560 
  170.5000     2.5350   -30.9690    75.5780    21.3550    19.0670    21.6560    24.2400 
  170.6250     2.5120   -31.0390    77.5990    20.1380    18.7650    16.9740    24.2370 
  170.7500     2.4750   -31.0630    83.2970    17.6790    17.0510    14.9400    24.2320 
  170.8750     2.4570   -31.0720    85.8860    15.5510    15.2840    18.2970    24.1920 
  171.0000     2.4490   -31.0410    84.0050    14.2770    14.0910    19.4400    24.0800 
  171.1250     2.4280   -31.0150    81.6510    13.7370    13.4640    15.0620    23.9210 
  171.2500     2.3890   -30.9880    82.0020    13.7630    13.3100    13.3030    23.8210 
  171.3750     2.3660   -30.9550    82.7140    14.3330    13.6760    16.9850    23.7920 
  171.5000     2.3730   -30.9270    82.2800    15.2230    14.4340    20.3300    23.7780 
  171.6250     2.3980   -30.8990    81.7000    16.2010    15.4110    17.7530    23.7350 
  171.7500     2.4260   -30.8840    82.0350    17.0570    16.3800    15.6030    23.6700 
  171.8750     2.4550   -30.8560    82.6780    17.6990    17.1800    18.9600    23.5760 
  172.0000     2.4800   -30.8740    80.4920    18.1870    17.8310    22.9120    23.5470 
  172.1250     2.4790   -30.8870    76.8600    18.4210    18.2760    22.0560    23.7140 
  172.2500     2.4400   -30.9190    75.6580    18.0890    18.2340    20.4660    24.1280 
  172.3750     2.3900   -30.9740    79.3220    16.7930    17.2300    18.3460    24.5960 
  172.5000     2.3570   -31.0370    82.2540    15.0090    15.6130    16.1830    24.7830 
  172.6250     2.3330   -31.0970    80.1610    13.3780    13.9810    14.9820    24.8210 
  172.7500     2.3090   -31.1380    75.8770    12.3370    12.8000    13.6940    24.8200 
  172.8750     2.2950   -31.2090    76.6420    12.1330    12.3390    12.4450    24.8220 
  173.0000     2.2970   -31.2500    81.2020    12.6400    12.5210    12.7760    24.8280 
  173.1250     2.3130   -31.3000    85.0650    13.7620    13.3150    15.5730    24.8370 
  173.2500     2.3330   -31.3260    86.1750    15.2490    14.5560    17.9130    24.8440 
  173.3750     2.3530   -31.3320    85.9740    16.7760    15.9520    16.0990    24.8390 
  173.5000     2.3840   -31.3370    86.0420    18.2090    17.2970    17.2000    24.8370 
  173.6250     2.4200   -31.3250    84.5360    19.5580    18.5880    22.7900    24.8350 
  173.7500     2.4390   -31.3310    82.4180    20.7470    19.7920    26.2700    24.8410 
  173.8750     2.4190   -31.2890    83.1750    21.4090    20.6250    23.5780    24.8550 
  174.0000     2.3840   -31.2630    87.5780    21.3360    20.8060    19.3460    24.8760 
  174.1250     2.3620   -31.2140    92.0440    20.7280    20.3610    16.9510    24.8860 
  174.2500     2.3590   -31.1590    92.0770    20.3220    19.8630    16.8550    24.8910 
  174.3750     2.3670   -31.1160    89.7260    21.0550    20.2290    19.6190    24.8630 
  174.5000     2.3770   -31.0540    88.5970    22.7820    21.5780    22.6580    24.7770 
  174.6250     2.3890   -30.9840    89.3110    24.8290    23.4750    24.4940    24.6570 
  174.7500     2.4010   -30.8830    91.5350    26.2670    25.1040    24.6900    24.5730 
  174.8750     2.4080   -30.8200    92.6640    26.1790    25.4660    24.3840    24.5730 
  175.0000     2.4080   -30.7390    92.3960    24.9760    24.6940    23.1270    24.6020 
  175.1250     2.4010   -30.6810    91.9430    23.3790    23.3850    22.3750    24.6100 
  175.2500     2.3980   -30.6380    93.3320    21.9900    22.1340    22.3500    24.6070 
  175.3750     2.4130   -30.5700    94.8380    21.1190    21.2730    22.5310    24.5950 
  175.5000     2.4450   -30.5300    93.5330    20.7610    20.8290    22.6030    24.5620 
  175.6250     2.4870   -30.4950    90.4010    20.9330    20.8530    25.5230    24.5080 
  175.7500     2.5250   -30.4840    85.3370    21.4650    21.2560    29.8120    24.4760 
  175.8750     2.5380   -30.4360    81.9750    21.8160    21.6140    29.5190    24.4730 
  176.0000     2.5280   -30.4190    83.6690    21.3730    21.3140    27.8760    24.4620 
  176.1250     2.5060   -30.3980    86.1940    19.8950    20.0390    26.3170    24.4550 
  176.2500     2.4850   -30.3790    85.1570    17.6880    17.9890    21.5160    24.4570 
  176.3750     2.4640   -30.4140    82.9060    15.6570    15.8890    15.8880    24.4740 
  176.5000     2.4480   -30.4360    85.6540    14.6950    14.5480    13.9520    24.4980 
  176.6250     2.4480   -30.4870    92.1720    15.1340    14.3460    17.6760    24.5030 
  176.7500     2.4690   -30.5240    96.0540    16.8080    15.3090    21.3960    24.4760 
  176.8750     2.5020   -30.5740    92.1820    19.1080    17.1850    21.3840    24.4540 
