~V
VERS. 2.00: Ver 2.00
~W
STRT.M 58.0000:
STOP.M 197.0000:
STEP.M 0.1250:
NULL. -999.2500:
UWI. F10573:
~C
DEPT.M :
SP.MV :
GR.API :
RML.OHMM :
RI. :
RXO.OHMM :
CALI.CM :
DEN.GM/CC :
~A
# ...
  159.2500   -23.3500    52.9870    55.6710    46.1520    52.2830    24.4360     2.5270 
  159.3750   -23.5090    50.3510    57.4580    47.9990    57.4770    24.4110     2.6210 
  159.5000   -23.7010    47.7850    56.2710    47.4190    61.4940    24.3890     2.7140 
  159.6250   -23.9150    45.6400    51.3510    43.5440    60.4270    24.3990     2.7450 
  159.7500   -24.1220    44.6210    44.9540    38.2040    46.6380    24.3650     2.7290 
  159.8750   -24.3070    45.0750    39.0070    33.0810    30.3360    24.2890     2.6820 
  160.0000   -24.4460    46.5700    34.6480    29.2490    20.6090    24.2290     2.6270 
  160.1250   -24.5040    46.7480    32.1820    27.1040    25.6840    24.2850     2.5810 
  160.2500   -24.4910    45.6700    30.6480    25.8940    27.5540    24.3440     2.5550 
  160.3750   -24.3880    44.6520    29.4660    25.1350    26.7450    24.3620     2.5490 
  160.5000   -24.1770    43.8750    28.4250    24.6060    27.1980    24.3510     2.5560 
  160.6250   -23.8480    42.7200    27.7180    24.4270    25.9390    24.4220     2.5610 
  160.7500   -23.4200    42.7670    27.3540    24.6030    24.1820    24.5080     2.5550 
  160.8750   -22.9200    46.9180    26.9060    24.8010    22.1620    24.5190     2.5490 
  161.0000   -22.3830    53.5170    25.5270    24.2260    25.6550    24.4110     2.5560 
  161.1250   -21.8330    58.2910    22.2500    21.7710    34.4880    24.2940     2.5750 
  161.2500   -21.2900    60.4640    17.8400    18.0050    33.7470    24.1490     2.5800 
  161.3750   -20.7790    60.7250    14.4400    14.0400    19.9730    24.0310     2.5570 
  161.5000   -20.3320    57.7130    11.1140    10.7690     8.7490    23.9980     2.5090 
  161.6250   -19.9930    53.0460     8.8830     8.6370     6.4310    24.1730     2.4520 
  161.7500   -19.7830    50.5050     7.6350     7.3390     6.0080    24.3360     2.4070 
  161.8750   -19.7050    51.1020     7.0560     6.6760     6.0580    24.4170     2.3830 
  162.0000   -19.7400    53.7690     6.9200     6.4810     5.8970    24.4290     2.3750 
  162.1250   -19.9110    56.4830     7.1070     6.6550     5.9580    24.4540     2.3770 
  162.2500   -20.1850    58.2460     7.4570     7.0290     6.6020    24.5500     2.3840 
  162.3750   -20.5420    59.8810     7.8890     7.5120     7.7480    24.6840     2.3920 
  162.5000   -20.9540    63.3010     8.3210     8.0130     8.5330    24.7300     2.4020 
  162.6250   -21.3790    70.3890     8.6420     8.4040     8.8960    24.6880     2.4110 
  162.7500   -21.7750    77.3890     8.8040     8.6140     9.0360    24.6300     2.4170 
  162.8750   -22.1260    81.7290     8.8110     8.6220     9.0710    24.6010     2.4200 
  163.0000   -22.4320    84.3510     8.7130     8.4650     8.9870    24.6020     2.4210 
  163.1250   -22.6650    86.4690     8.6030     8.2230     8.8900    24.6220     2.4230 
  163.2500   -22.8370    89.6800     8.5790     8.0170     8.8290    24.6390     2.4260 
  163.3750   -22.9550    93.2030     8.7170     7.9290     8.8810    24.6390     2.4260 
  163.5000   -23.0240    95.5520     9.0870     8.0380     9.1460    24.6220     2.4170 
  163.6250   -23.0690    96.0790     9.8030     8.4530     9.8980    24.6000     2.4010 
  163.7500   -23.1120    93.9910    10.8650     9.1740    11.7700    24.6010     2.3820 
  163.8750   -23.1460    89.4890    12.2970    10.2180    14.7830    24.5890     2.3670 
  164.0000   -23.1760    84.9180    14.0900    11.5820    17.1890    24.5490     2.3600 
  164.1250   -23.2070    83.8290    16.2340    13.2680    19.3640    24.5290     2.3580 
  164.2500   -23.2400    84.2440    18.6120    15.1650    21.2290    24.5250     2.3560 
  164.3750   -23.2880    81.7850    19.7250    17.2380    23.9600    24.5220     2.3550 
  164.5000   -23.3470    76.4830    21.8660    19.4850    26.8800    24.5430     2.3540 
  164.6250   -23.4080    71.2350    24.7880    21.9780    30.1310    24.5740     2.3510 
  164.7500   -23.4720    67.1860    28.0240    24.7120    33.3930    24.6180     2.3450 
  164.8750   -23.5450    64.9760    31.4900    27.6440    36.7110    24.6230     2.3320 
  165.0000   -23.6280    63.8610    34.9660    30.6210    41.5210    24.6020     2.3150 
  165.1250   -23.7300    62.2240    38.0200    33.3180    46.8640    24.5950     2.3010 
  165.2500   -23.8480    59.2890    40.3190    35.4610    48.5680    24.5870     2.2950 
  165.3750   -23.9790    57.1900    41.5930    36.8040    47.3520    24.5480     2.2940 
  165.5000   -24.1280    57.4880    41.7610    37.2280    45.0010    24.4560     2.2940 
  165.6250   -24.2790    59.0340    41.0230    36.8200    40.8070    24.3220     2.2920 
  165.7500   -24.4210    59.1160    40.1920    36.2250    37.2980    24.1530     2.2880 
  165.8750   -24.5540    57.7180    39.9080    35.9920    35.5020    23.9510     2.2850 
  166.0000   -24.6650    56.4640    40.6110    36.5460    34.1950    23.7590     2.2850 
  166.1250   -24.7430    56.4650    42.5590    38.2130    34.6840    23.6200     2.2870 
  166.2500   -24.7870    57.0750    45.2170    40.6280    38.0090    23.5650     2.2900 
  166.3750   -24.8040    57.7840    47.9690    43.3130    46.7200    23.5490     2.2940 
  166.5000   -24.8000    57.7470    50.1000    45.6300    52.3530    23.5540     2.2960 
  166.6250   -24.7920    56.3890    50.8510    46.7980    48.6590    23.5890     2.2950 
  166.7500   -24.7870    54.4450    50.4750    46.8590    44.5090    23.6520     2.2890 
  166.8750   -24.7830    52.2230    49.5770    46.2580    46.3360    23.7240     2.2830 
  167.0000   -24.7810    50.8660    48.9230    45.6790    46.3510    23.7210     2.2800 
  167.1250   -24.8100    53.3940    49.2760    45.8730    45.5240    23.7080     2.2800 
  167.2500   -24.8730    57.7720    50.7190    47.0270    44.8030    23.8850     2.2810 
  167.3750   -24.9540    59.4980    53.1200    49.0920    50.2830    24.2140     2.2800 
  167.5000   -25.0440    56.7550    56.0760    51.7640    63.5110    24.4970     2.2770 
  167.6250   -25.1140    53.5600    58.8170    54.4220    73.5830    24.5520     2.2730 
  167.7500   -25.1510    55.8460    60.5990    56.3720    78.5900    24.4970     2.2700 
  167.8750   -25.1640    61.3450    61.1130    57.2520    81.0340    24.4120     2.2660 
  168.0000   -25.1480    63.9960    60.6910    57.2290    78.9410    24.3300     2.2570 
  168.1250   -25.0790    62.4620    60.2140    57.0290    68.0940    24.1920     2.2480 
  168.2500   -24.9640    60.4450    60.1850    57.2470    59.0870    24.0100     2.2530 
  168.3750   -24.8040    59.1830    60.2120    57.6940    56.8800    23.8990     2.2820 
  168.5000   -24.5980    57.0810    59.3750    57.6100    60.3300    23.8540     2.3290 
  168.6250   -24.3790    55.1580    56.5260    55.8470    64.4210    23.7600     2.3640 
  168.7500   -24.1650    56.4350    52.0350    52.4490    60.1820    23.6610     2.3670 
  168.8750   -23.9560    59.5540    50.2410    48.0660    49.1560    23.6280     2.3380 
  169.0000   -23.7560    62.3500    46.0920    43.6570    39.2520    23.6300     2.2990 
  169.1250   -23.5520    63.8530    41.9830    40.1190    35.8310    23.5660     2.2740 
  169.2500   -23.3560    64.4810    39.0530    37.5290    33.6950    23.4140     2.2660 
  169.3750   -23.1650    64.3300    36.9540    35.6630    33.1080    23.2210     2.2700 
  169.5000   -22.9690    65.0980    35.1920    34.1180    30.8920    23.0680     2.2830 
  169.6250   -22.7530    71.0900    33.3310    32.4830    26.8230    22.9460     2.3040 
  169.7500   -22.5260    78.5550    31.3690    30.7050    23.6690    22.9150     2.3270 
  169.8750   -22.2900    80.7320    29.6760    29.0680    23.4230    23.0030     2.3450 
  170.0000   -22.0590    76.9970    28.7790    28.0240    25.1600    23.3230     2.3520 
  170.1250   -21.8500    74.9660    29.4280    28.2450    26.1730    23.8440     2.3440 
  170.2500   -21.6690    76.2350    31.6790    29.8600    29.5500    24.2750     2.3260 
  170.3750   -21.5140    75.0730    35.5560    32.9580    35.1370    24.4570     2.3080 
