~V
VERS. 2.00: Ver 2.00
~W
STRT.M 58.0000:
STOP.M 208.0000:
STEP.M 0.1250:
NULL. -999.2500:
UWI. F10592:
~C
DEPT.M :
GR.API :
RML.OHMM :
RI. :
RXO.OHMM :
CALI.CM :
DEN.GM/CC :
SP.MV :
~A
# ...
  181.7500    47.9780     9.2390     8.9420     6.0950    24.4200     2.4660    -0.9700 
  181.8750    52.1080     8.6190     8.4810     6.3810    24.5140     2.4570    -1.0360 
  182.0000    53.2170     7.9850     7.9210     6.9330    24.5550     2.4210    -1.0920 
  182.1250    54.6820     7.5860     7.4790     7.3540    24.5420     2.3730    -1.1720 
  182.2500    56.6300     7.5200     7.2760     7.3920    24.3990     2.3330    -1.2510 
  182.3750    56.3530     7.7530     7.3400     6.7250    24.0260     2.3240    -1.3490 
  182.5000    54.3060     8.0610     7.5080     6.6400    23.6900     2.3430    -1.4620 
  182.6250    51.4890     8.2840     7.6410     7.1600    23.7120     2.3800    -1.5650 
  182.7500    48.4670     8.2530     7.6390     7.8140    24.0190     2.4160    -1.7090 
  182.8750    48.8180     7.8670     7.4470     7.9580    24.2000     2.4350    -1.8510 
  183.0000    52.4850     7.3090     7.1480     7.7670    24.2590     2.4370    -1.9810 
  183.1250    55.6410     6.8990     6.8210     7.2800    24.2330     2.4290    -2.1060 
  183.2500    56.7340     6.6340     6.5350     6.9340    24.1960     2.4210    -2.2220 
  183.3750    57.9390     6.4630     6.3440     6.8440    24.1840     2.4170    -2.2830 
  183.5000    60.0730     6.3650     6.2340     6.7160    24.1790     2.4160    -2.3190 
  183.6250    61.1290     6.3390     6.1790     6.6040    24.1530     2.4170    -2.3560 
  183.7500    61.5350     6.3660     6.1520     6.7050    24.1410     2.4150    -2.3440 
  183.8750    64.2630     6.4070     6.1270     6.8240    24.1760     2.4090    -2.3160 
  184.0000    66.2780     6.4200     6.0990     6.8080    24.2420     2.4030    -2.2890 
  184.1250    64.0390     6.3900     6.0730     6.6310    24.2830     2.4000    -2.2250 
  184.2500    58.2620     6.3340     6.0550     6.7580    24.3010     2.4020    -2.1480 
  184.3750    52.8720     6.2880     6.0390     6.8840    24.3370     2.4080    -2.0920 
  184.5000    50.1700     6.2660     6.0070     6.7230    24.3100     2.4100    -2.0540 
  184.6250    49.5680     6.2500     5.9440     6.4430    24.2020     2.4070    -2.0110 
  184.7500    50.2210     6.2030     5.8400     5.9900    23.9810     2.3970    -1.9710 
  184.8750    50.7100     6.1030     5.7060     5.8260    23.7410     2.3840    -1.9410 
  185.0000    49.6240     6.0050     5.5920     5.7100    23.7000     2.3700    -1.9160 
  185.1250    47.8490     5.9970     5.5580     5.5460    23.8470     2.3590    -1.9150 
  185.2500    45.5780     6.1620     5.6520     5.4900    24.0630     2.3540    -1.9410 
  185.3750    44.1090     6.5490     5.8980     5.7390    24.1510     2.3630    -1.9870 
  185.5000    44.9720     7.0180     6.2050     6.2390    24.1550     2.3830    -2.0450 
  185.6250    47.2750     7.3870     6.4610     7.5270    24.1090     2.4040    -2.1580 
  185.7500    48.9180     7.4840     6.5550     9.7280    24.1520     2.4140    -2.3190 
  185.8750    49.0600     7.2000     6.4080     9.3320    24.1970     2.4040    -2.5300 
  186.0000    50.5910     6.7290     6.1160     7.3460    24.2020     2.3860    -2.8050 
  186.1250    53.6610     6.2890     5.8010     6.1660    24.1780     2.3690    -3.1160 
  186.2500    57.9410     6.0650     5.5790     5.8450    24.1440     2.3620    -3.4790 
  186.3750    64.0910     6.2000     5.5700     5.9320    24.1440     2.3590    -3.9140 
  186.5000    71.6140     6.6150     5.7750     6.0900    24.2000     2.3500    -4.3360 
  186.6250    78.7390     7.2140     6.1800     6.6860    24.2480     2.3310    -4.7500 
  186.7500    82.5370     7.8790     6.7290     8.1900    24.2650     2.3100    -5.1700 
  186.8750    82.9190     8.4730     7.3270     9.6680    24.2520     2.2960    -5.5040 
  187.0000    83.4210     8.9090     7.8340     9.9090    24.1770     2.2930    -5.8040 
  187.1250    83.4340     9.1260     8.1380     9.5820    24.0140     2.3000    -6.0640 
  187.2500    81.3290     9.0860     8.1710    10.0800    23.8710     2.3110    -6.2070 
  187.3750    76.5410     8.7560     7.9020    10.1320    23.9160     2.3220    -6.2960 
  187.5000    72.9060     8.2590     7.4660    10.1180    24.1100     2.3320    -6.3660 
  187.6250    73.7380     7.7260     6.9840     9.1740    24.3020     2.3380    -6.4320 
  187.7500    77.4790     7.3110     6.5760     7.5600    24.3870     2.3400    -6.5060 
  187.8750    79.7390     7.2030     6.3790     7.0330    24.3930     2.3350    -6.5920 
  188.0000    81.5290     7.4110     6.4180     7.3440    24.3920     2.3250    -6.6710 
  188.1250    86.2520     7.8860     6.6850     8.2630    24.3910     2.3130    -6.7280 
  188.2500    92.6910     8.5090     7.1280     9.1430    24.3910     2.3020    -6.7750 
  188.3750    95.2140     9.0960     7.6490     9.4830    24.3920     2.2970    -6.6950 
  188.5000    94.9280     9.4860     8.0990     9.8070    24.3900     2.2990    -6.5150 
  188.6250    94.8540     9.5910     8.3640    10.1290    24.3750     2.3100    -6.2030 
  188.7500    94.2090     9.3980     8.3660    10.6650    24.3520     2.3250    -5.7130 
  188.8750    90.8910     8.9380     8.0640    11.1710    24.3820     2.3380    -5.1130 
  189.0000    85.1630     8.3740     7.5910    10.8320    24.5010     2.3390    -4.4490 
  189.1250    77.7360     7.8160     7.0660     9.2060    24.8090     2.3240    -3.7490 
  189.2500    70.5460     7.3400     6.5930     7.3280    25.4160     2.2950    -3.0390 
  189.3750    66.0480     6.9950     6.2510     6.3990    25.8690     2.2530    -2.4370 
  189.5000    62.3600     6.7500     6.0260     6.2510    25.8340     2.2070    -1.9040 
  189.6250    57.3130     6.5780     5.8880     6.3820    25.8690     2.1640    -1.4500 
  189.7500    51.3930     6.4500     5.7910     5.9650    26.4670     2.1330    -1.1660 
  189.8750    48.8680     6.3350     5.6860     5.3910    26.9340     2.1350    -1.0020 
  190.0000    50.1650     6.2080     5.5500     5.0880    26.8580     2.1670    -0.9280 
  190.1250    50.7710     6.0670     5.3950     5.0800    26.4980     2.2180    -0.9540 
  190.2500    47.9520     5.9370     5.2580     5.0750    26.2650     2.2690    -1.0500 
  190.3750    44.2740     5.8840     5.1970     5.1520    25.9810     2.3020    -1.2190 
  190.5000    43.4930     5.9460     5.2260     5.1230    25.7330     2.3230    -1.4370 
  190.6250    44.7510     6.1300     5.3370     4.9790    25.4300     2.3400    -1.6690 
  190.7500    45.6180     6.3900     5.5010     5.1920    24.9740     2.3570    -1.8860 
  190.8750    45.4280     6.6340     5.6710     6.0150    24.7440     2.3740    -2.0840 
  191.0000    45.2900     6.7820     5.7980     6.6780    24.7850     2.3890    -2.2400 
  191.1250    45.5860     6.8090     5.8480     6.7800    24.9310     2.4050    -2.3680 
  191.2500    46.2250     6.7440     5.8100     6.4880    25.0510     2.4170    -2.4470 
  191.3750    45.8250     6.6390     5.6900     6.2620    25.2210     2.4110    -2.4700 
  191.5000    44.9150     6.5440     5.5380     6.1460    25.5520     2.3730    -2.4960 
  191.6250    44.5310     6.4700     5.3910     5.9280    25.9850     2.3020    -2.5180 
  191.7500    44.0300     6.4230     5.2800     5.6530    26.4090     2.2220    -2.5390 
  191.8750    42.7550     6.4310     5.2410     5.5520    26.4730     2.1740    -2.6090 
  192.0000    43.9010     6.5230     5.2850     5.7010    25.9870     2.1760    -2.6760 
  192.1250    48.0940     6.7210     5.4130     6.1110    25.2870     2.2240    -2.7480 
  192.2500    51.6620     7.0040     5.6090     6.5830    24.7570     2.2940    -2.8560 
  192.3750    51.2300     7.2870     5.8300     6.9460    24.5970     2.3560    -2.8990 
  192.5000    49.0420     7.4670     6.0220     6.9300    24.5650     2.3920    -2.9050 
  192.6250    47.1130     7.4960     6.1580     6.9900    24.5640     2.4030    -2.9160 
  192.7500    45.9850     7.3910     6.2290     7.1630    24.5590     2.3970    -2.8560 
  192.8750    47.4360     7.2150     6.2260     7.0200    24.5520     2.3920    -2.7270 
