~V
VERS. 2.00: Ver 2.00
~W
STRT.M 58.0000:
STOP.M 215.0000:
STEP.M 0.1250:
NULL. -999.2500:
UWI. F10587:
~C
DEPT.M :
DEN.GM/CC :
GR.API :
RML.OHMM :
RI. :
RXO.OHMM :
CALI.CM :
SP.MV :
~A
# ...
   69.2500     2.1750    56.8040    15.7240    11.4760    12.3650    23.0720   -28.5820 
   69.3750     2.2030    57.5390    15.6890    11.6810    12.8810    23.3060   -28.3840 
   69.5000     2.2400    60.5610    14.6060    11.2140    12.9100    23.3310   -28.2430 
   69.6250     2.2690    64.6870    12.6520    10.0510    11.6680    23.1990   -28.1070 
   69.7500     2.2760    69.6100    10.6270     8.6990     9.8820    23.0910   -27.9990 
   69.8750     2.2640    75.2420     8.9930     7.5020     8.2510    23.1260   -27.9270 
   70.0000     2.2400    79.0670     7.9480     6.6450     7.2450    23.1920   -27.8400 
   70.1250     2.2180    77.9790     7.5660     6.2410     7.3190    23.2290   -27.7400 
   70.2500     2.2060    74.7670     7.6210     6.1830     7.7020    23.2240   -27.6330 
   70.3750     2.2040    72.8840     7.9610     6.3870     7.7070    23.2210   -27.5400 
   70.5000     2.2120    73.8010     8.4220     6.7370     7.6830    23.2350   -27.4380 
   70.6250     2.2290    73.4700     8.8210     7.0790     7.9500    23.2220   -27.3420 
   70.7500     2.2520    72.0960     9.0420     7.2850     8.4930    23.1740   -27.2300 
   70.8750     2.2780    72.8830     9.0340     7.2930     8.4700    23.1250   -27.0590 
   71.0000     2.3050    74.7900     8.7740     7.0840     7.9870    23.1030   -26.9070 
   71.1250     2.3340    74.4660     8.2260     6.6310     7.6190    23.1090   -26.7370 
   71.2500     2.3630    72.7330     7.5050     6.0300     7.5100    23.2140   -26.5340 
   71.3750     2.3800    74.7940     6.7650     5.3940     7.4050    23.2870   -26.3080 
   71.5000     2.3750    80.9680     6.1990     4.8610     6.9640    23.2840   -26.0400 
   71.6250     2.3540    84.9190     6.1070     4.6230     6.4580    23.2590   -25.7580 
   71.7500     2.3400    83.8160     6.6770     4.7910     6.4460    23.2520   -25.4510 
   71.8750     2.3570    77.5700     8.1880     5.5440     7.3970    23.2570   -25.1670 
   72.0000     2.4090    69.0890    10.9720     7.1380     9.8670    23.2310   -24.8990 
   72.1250     2.4700    62.8360    15.6890    10.1700    15.1050    23.1030   -24.6620 
   72.2500     2.5050    59.7220    22.1730    14.7270    23.5060    22.8970   -24.4680 
   72.3750     2.5100    57.6430    29.7330    20.5270    35.3760    22.7140   -24.3110 
   72.5000     2.4990    55.0370    36.5810    26.3840    45.0000    22.5800   -24.2030 
   72.6250     2.4740    52.4200    40.0180    30.2020    40.2120    22.4690   -24.1400 
   72.7500     2.4250    51.5080    40.2350    31.5760    29.6620    22.3450   -24.1170 
   72.8750     2.3510    52.4690    38.5540    31.1170    23.4660    22.1830   -24.1400 
   73.0000     2.2620    54.7160    36.2920    29.7150    21.7890    22.1430   -24.1840 
   73.1250     2.1780    55.9030    34.2790    28.0800    20.8570    22.5770   -24.2560 
   73.2500     2.1140    54.1940    32.6660    26.6020    19.6050    23.4670   -24.3680 
   73.3750     2.0770    50.7190    31.1560    25.2150    19.2510    24.3150   -24.4930 
   73.5000     2.0730    48.5720    29.2020    23.6000    19.4300    24.6890   -24.6540 
   73.6250     2.1090    50.1120    26.2320    21.3310    19.2110    24.6140   -24.8500 
   73.7500     2.1670    54.7110    22.5280    18.5250    18.2960    24.3990   -25.1460 
   73.8750     2.2250    60.0460    18.6270    15.5090    16.0680    24.0340   -25.4740 
   74.0000     2.2640    65.7960    15.1330    12.7010    12.6610    23.5500   -25.8390 
   74.1250     2.2790    70.3440    12.6180    10.5420     9.9750    23.1190   -26.2120 
   74.2500     2.2800    73.4070    11.0240     9.0520     9.2910    22.7000   -26.5190 
   74.3750     2.2670    76.7700    10.2950     8.2090     9.0340    22.3070   -26.7940 
   74.5000     2.2400    79.3450    10.3910     7.9900     8.6330    22.0300   -26.9980 
   74.6250     2.2110    77.3430    11.3820     8.4660     8.5080    21.9350   -27.1370 
   74.7500     2.1960    71.3490    12.9520     9.4490     8.9950    21.8500   -27.1660 
   74.8750     2.1980    65.2250    14.7440    10.7380    10.2360    21.6980   -27.1450 
   75.0000     2.2030    61.8090    16.2530    12.0010    12.3220    21.6160   -27.0710 
   75.1250     2.1890    61.7680    16.8100    12.7350    14.6520    21.6880   -26.9590 
   75.2500     2.1720    63.1660    16.5000    12.8410    14.0540    21.8810   -26.8550 
   75.3750     2.1770    63.5210    15.8600    12.5730    11.6690    22.1500   -26.7650 
   75.5000     2.2200    61.7650    15.5880    12.3720    11.1720    22.3890   -26.6990 
   75.6250     2.2820    59.6140    16.3170    12.7140    12.7030    22.5140   -26.6850 
   75.7500     2.3150    59.1910    17.9800    13.7020    13.7620    22.5590   -26.7080 
   75.8750     2.3010    59.7600    20.2360    15.2540    13.2600    22.5700   -26.7360 
   76.0000     2.2620    59.9150    22.2770    16.9350    13.6070    22.5700   -26.7850 
   76.1250     2.2370    60.7240    22.6570    17.7320    15.7370    22.5460   -26.8530 
   76.2500     2.2340    63.5090    21.1280    17.1690    16.8890    22.4920   -26.9590 
   76.3750     2.2400    66.9610    18.3300    15.4780    15.6480    22.4380   -27.0780 
   76.5000     2.2460    69.8420    15.2440    13.2930    12.8230    22.4140   -27.2300 
   76.6250     2.2570    73.1030    12.6970    11.2510    10.1470    22.4130   -27.3510 
   76.7500     2.2800    76.8060    10.8790     9.6460     9.1550    22.4150   -27.4740 
   76.8750     2.3060    79.3740     9.7670     8.5430     8.9650    22.4120   -27.5800 
   77.0000     2.3200    81.0460     9.2600     7.9070     8.7030    22.3880   -27.6270 
   77.1250     2.3150    83.2860     9.2910     7.7070     7.8990    22.3270   -27.6590 
   77.2500     2.3050    84.5180     9.5850     7.7490     7.7760    22.2920   -27.6020 
   77.3750     2.3030    85.0010     9.8720     7.8540     8.6050    22.3120   -27.4820 
   77.5000     2.3180    86.1430     9.8210     7.7930     9.4780    22.3530   -27.2850 
   77.6250     2.3440    88.1230     9.1080     7.3160     8.9150    22.3810   -27.0290 
   77.7500     2.3640    88.8800     8.0160     6.5550     7.8970    22.3670   -26.7240 
   77.8750     2.3660    88.1840     7.0180     5.7930     6.9900    22.3390   -26.3450 
   78.0000     2.3490    89.6130     6.5770     5.3290     6.2930    22.3110   -25.9240 
   78.1250     2.3170    92.5810     7.2010     5.5000     6.2650    22.2790   -25.4540 
   78.2500     2.2770    90.0730     8.9790     6.4170     7.6090    22.3010   -24.9630 
   78.3750     2.2340    80.2110    12.0390     8.2560    11.2510    22.4330   -24.4710 
   78.5000     2.1910    68.1690    16.3130    11.1270    16.1720    22.7180   -23.9950 
   78.6250     2.1540    62.2560    21.1960    14.8710    18.3140    23.0820   -23.5340 
   78.7500     2.1300    61.1540    25.2600    18.4220    18.8610    23.4010   -23.1100 
   78.8750     2.1200    60.3340    27.5150    20.8170    19.4470    23.5760   -22.7550 
   79.0000     2.1250    57.4590    27.9760    21.7650    20.0620    23.6420   -22.4880 
   79.1250     2.1440    55.4060    27.4890    21.6780    20.8330    23.6640   -22.3000 
   79.2500     2.1680    57.0030    27.1220    21.4080    19.8940    23.6640   -22.1860 
   79.3750     2.1880    61.4720    27.3350    21.3670    18.3680    23.6350   -22.1170 
   79.5000     2.1930    64.2540    28.3430    21.8020    17.9020    23.5010   -22.0670 
   79.6250     2.1750    63.5250    30.2380    22.8840    18.9290    23.1560   -22.0450 
   79.7500     2.1520    60.6750    32.5750    24.3910    20.7860    22.9590   -22.0120 
   79.8750     2.1400    56.4590    34.8700    26.0450    23.1440    23.1890   -21.9960 
   80.0000     2.1460    53.2230    36.6020    27.4810    24.4120    23.4770   -21.9320 
   80.1250     2.1610    53.8210    37.2510    28.2580    23.3000    23.3770   -21.8320 
   80.2500     2.1670    56.1910    37.0000    28.3640    21.0400    22.8580   -21.7030 
   80.3750     2.1620    57.8120    36.0750    27.8910    19.1400    22.2670   -21.5480 
