~V
VERS. 2.00: Ver 2.00
~W
STRT.M 55.0000:
STOP.M 217.0000:
STEP.M 0.1250:
NULL. -999.2500:
UWI. F10537:
~C
DEPT.M :
SP.MV :
DEN.GM/CC :
GR.API :
RML.OHMM :
RI. :
RXO.OHMM :
CALI.CM :
~A
# ...
  111.2500   -14.2840     2.3590    87.1790     4.4440     3.7780     3.6370    24.3940 
  111.3750   -14.5610     2.4020    84.9970     4.5330     3.7660     3.8260    24.4180 
  111.5000   -14.9010     2.4140    81.5590     4.7940     3.9030     4.2400    24.4180 
  111.6250   -15.3650     2.3960    81.0540     5.1620     4.1550     4.6830    24.3610 
  111.7500   -15.8650     2.3670    85.2480     5.5370     4.4490     4.9670    24.1880 
  111.8750   -16.4160     2.3390    89.6580     5.8720     4.7420     5.1380    23.8410 
  112.0000   -16.9580     2.3160    89.3890     6.1560     5.0060     5.2540    23.3980 
  112.1250   -17.4400     2.2940    85.6620     6.4150     5.2360     5.4390    23.2020 
  112.2500   -17.9070     2.2720    81.0760     6.6920     5.4560     5.4760    23.1110 
  112.3750   -18.3100     2.2490    74.9350     7.0000     5.6790     5.8880    23.0000 
  112.5000   -18.6860     2.2280    69.6290     7.3320     5.9080     6.2400    22.8530 
  112.6250   -19.0120     2.2120    68.2570     7.6620     6.1320     6.2350    22.7870 
  112.7500   -19.2840     2.2030    67.1780     7.9630     6.3340     6.4510    22.7710 
  112.8750   -19.4960     2.1980    63.7210     8.2130     6.4990     6.6850    22.7710 
  113.0000   -19.6620     2.1950    60.2950     8.4000     6.6140     6.7420    22.7690 
  113.1250   -19.8270     2.1940    60.3670     8.5110     6.6700     6.5630    22.7330 
  113.2500   -19.9740     2.1970    62.0850     8.5700     6.6830     6.4590    22.6200 
  113.3750   -20.1290     2.2050    64.5030     8.5980     6.6700     6.5520    22.4220 
  113.5000   -20.2970     2.2140    66.7610     8.6260     6.6550     6.6920    22.2380 
  113.6250   -20.4450     2.2190    68.2920     8.6840     6.6620     6.7320    22.0540 
  113.7500   -20.6090     2.2170    68.7360     8.7720     6.6990     6.6750    21.9030 
  113.8750   -20.7630     2.2090    68.5130     8.8810     6.7630     6.5720    21.6970 
  114.0000   -20.9020     2.2030    66.7930     8.9950     6.8460     6.4640    21.4340 
  114.1250   -21.0210     2.2080    62.3670     9.0930     6.9280     6.3300    21.1460 
  114.2500   -21.0910     2.2220    58.5260     9.1610     6.9900     6.2760    21.0220 
  114.3750   -21.1380     2.2390    57.7070     9.1900     7.0220     6.2330    20.9780 
  114.5000   -21.1280     2.2530    60.0080     9.1790     7.0220     6.1790    20.9290 
  114.6250   -21.1060     2.2560    63.7710     9.1320     6.9960     6.0830    20.8740 
  114.7500   -21.0300     2.2500    66.3750     9.0750     6.9590     6.0410    20.8560 
  114.8750   -20.9080     2.2330    66.4750     9.0270     6.9200     6.1480    20.8970 
  115.0000   -20.7680     2.2120    62.6480     9.0020     6.8870     6.4320    21.0310 
  115.1250   -20.5570     2.1920    56.4030     9.0020     6.8670     6.7630    21.3010 
  115.2500   -20.3560     2.1800    53.2610     9.0050     6.8600     7.0260    21.8010 
  115.3750   -20.1220     2.1820    55.9880     8.9960     6.8610     7.1980    22.3580 
  115.5000   -19.8830     2.1960    61.7960     8.9670     6.8650     7.2780    22.6920 
  115.6250   -19.6250     2.2130    65.4760     8.9230     6.8690     7.2810    22.7680 
  115.7500   -19.3490     2.2240    67.6560     8.8740     6.8700     7.3440    22.7730 
  115.8750   -19.0870     2.2260    69.6950     8.8190     6.8690     7.4010    22.7800 
  116.0000   -18.8270     2.2200    70.1430     8.7490     6.8600     7.4110    22.8060 
  116.1250   -18.5940     2.2120    65.6320     8.6580     6.8360     7.3500    22.8630 
  116.2500   -18.3730     2.2090    60.0030     8.5560     6.7950     7.2480    22.9300 
  116.3750   -18.1470     2.2110    56.9600     8.4640     6.7470     7.1620    22.9850 
  116.5000   -17.9060     2.2160    56.3750     8.3900     6.7050     7.0800    23.0220 
  116.6250   -17.6250     2.2170    57.3850     8.3150     6.6670     7.0210    23.0600 
  116.7500   -17.3110     2.2120    59.2080     8.1850     6.6040     6.9430    23.0800 
  116.8750   -16.9420     2.2020    61.1520     7.9550     6.4740     6.8770    23.0920 
  117.0000   -16.5080     2.1940    61.7310     7.6110     6.2550     6.6980    23.1400 
  117.1250   -16.0440     2.1950    62.8950     7.1810     5.9540     6.2360    23.2790 
  117.2500   -15.5260     2.2020    68.9130     6.7480     5.6330     5.5870    23.4400 
  117.3750   -15.0390     2.2140    78.5560     6.3760     5.3380     5.0690    23.5070 
  117.5000   -14.5550     2.2300    85.2340     6.1070     5.1050     5.0500    23.4880 
  117.6250   -14.1100     2.2450    85.2050     5.9610     4.9590     5.0460    23.4950 
  117.7500   -13.7130     2.2580    85.0380     5.8890     4.8750     4.7940    23.5460 
  117.8750   -13.3620     2.2690    87.6110     5.8430     4.8270     4.5470    23.5580 
  118.0000   -13.1150     2.2800    90.4150     5.7810     4.7820     4.6360    23.4510 
  118.1250   -12.8850     2.2920    89.8640     5.6710     4.7110     4.8070    23.3260 
  118.2500   -12.6940     2.3060    89.9450     5.5250     4.6130     4.6990    23.5800 
  118.3750   -12.5310     2.3180    92.1600     5.3600     4.4950     4.2790    24.0600 
  118.5000   -12.4070     2.3240    93.4820     5.1950     4.3710     3.9210    24.3580 
  118.6250   -12.3490     2.3230    93.1750     5.0580     4.2580     3.9390    24.4200 
  118.7500   -12.3590     2.3230    93.2700     4.9770     4.1780     4.1800    24.4110 
  118.8750   -12.4320     2.3290    94.3320     4.9760     4.1510     4.3090    24.3970 
  119.0000   -12.5600     2.3380    93.5280     5.0710     4.1930     4.2710    24.3690 
  119.1250   -12.7740     2.3430    90.0240     5.2770     4.3200     4.4050    24.3010 
  119.2500   -13.0610     2.3350    89.3090     5.5500     4.5090     4.7600    24.1990 
  119.3750   -13.3570     2.3140    92.4250     5.8410     4.7290     5.0940    24.0220 
  119.5000   -13.6530     2.2890    94.2310     6.0870     4.9370     5.2260    23.8470 
  119.6250   -13.9240     2.2720    89.3800     6.2150     5.0750     5.2760    23.7840 
  119.7500   -14.1500     2.2670    83.2560     6.2240     5.1220     5.4030    23.8160 
  119.8750   -14.3580     2.2730    82.1510     6.1440     5.0910     5.2860    23.9170 
  120.0000   -14.5140     2.2840    85.6010     6.0280     5.0120     5.1220    24.0500 
  120.1250   -14.6420     2.2910    88.6370     5.9260     4.9260     5.0250    23.9840 
  120.2500   -14.7090     2.2900    87.1640     5.8590     4.8540     4.9440    23.8710 
  120.3750   -14.7490     2.2830    82.2290     5.8380     4.8100     4.9250    23.8520 
  120.5000   -14.7700     2.2690    78.7210     5.8790     4.8110     4.9860    24.0480 
  120.6250   -14.7370     2.2530    79.4440     5.9960     4.8780     4.9720    24.3940 
  120.7500   -14.7090     2.2510    80.5010     6.1560     4.9940     4.8780    24.6950 
  120.8750   -14.6270     2.2740    82.3260     6.3230     5.1310     4.9430    24.8190 
  121.0000   -14.5260     2.3170    85.4330     6.4510     5.2570     5.4060    24.7260 
  121.1250   -14.3810     2.3520    86.7020     6.4930     5.3290     5.9710    24.5710 
  121.2500   -14.2150     2.3590    86.1140     6.4690     5.3470     5.8630    24.6270 
  121.3750   -14.0490     2.3340    84.9950     6.4110     5.3260     5.3210    24.7720 
  121.5000   -13.8550     2.2900    83.4390     6.3490     5.2830     5.0990    24.7580 
  121.6250   -13.6660     2.2510    81.5990     6.2920     5.2310     5.7120    24.5210 
  121.7500   -13.4400     2.2330    82.6640     6.2280     5.1690     6.4820    24.3120 
  121.8750   -13.2140     2.2380    86.1380     6.1390     5.0910     6.4710    24.2760 
  122.0000   -13.0130     2.2610    88.7180     6.0090     4.9890     5.6310    24.3160 
  122.1250   -12.8450     2.2890    90.0360     5.8440     4.8660     5.0550    24.3580 
  122.2500   -12.7170     2.3010    90.2160     5.6990     4.7570     4.9040    24.3880 
  122.3750   -12.6160     2.2930    89.6370     5.6660     4.7210     4.9680    24.3990 
