~V
VERS. 2.00: Ver 2.00
~W
STRT.M 46.0000:
STOP.M 208.0000:
STEP.M 0.1250:
NULL. -999.2500:
UWI. F10533:
~C
DEPT.M :
GR.API :
RML.OHMM :
RI. :
RXO.OHMM :
CALI.CM :
DEN.GM/CC :
SP.MV :
~A
# ...
   68.5000    82.3790     6.8520     5.8680     5.3240    23.1820     2.3150   -20.8560 
   68.6250    87.2880     5.7710     4.9750     4.8300    23.1000     2.2780   -20.5930 
   68.7500    90.3780     5.1840     4.4070     4.6820    23.0460     2.2810   -20.4100 
   68.8750    94.4020     5.0210     4.1490     4.5520    23.1460     2.3130   -20.3090 
   69.0000    97.4920     5.1950     4.1540     4.5750    23.4270     2.3430   -20.2940 
   69.1250    94.5460     5.6310     4.3770     4.7030    23.6950     2.3360   -20.3660 
   69.2500    87.6050     6.1580     4.6960     5.0270    23.7470     2.3010   -20.5050 
   69.3750    80.5960     6.6290     5.0180     5.5190    23.4590     2.2570   -20.7080 
   69.5000    77.1290     6.9110     5.2530     5.7030    23.0570     2.2230   -20.9590 
   69.6250    78.4950     6.9170     5.3310     5.4640    23.0060     2.2080   -21.2580 
   69.7500    80.8680     6.7690     5.2980     5.2770    22.9640     2.2000   -21.5640 
   69.8750    81.0190     6.5850     5.2120     5.3800    22.8020     2.1910   -21.8690 
   70.0000    78.0270     6.4660     5.1310     5.5990    22.6970     2.1850   -22.1680 
   70.1250    76.9090     6.4870     5.1130     5.7130    22.6530     2.1980   -22.4550 
   70.2500    79.7030     6.6150     5.1550     5.6780    22.6890     2.2180   -22.7260 
   70.3750    81.0730     6.7990     5.2370     5.5280    22.7460     2.2280   -22.9750 
   70.5000    75.7150     6.9880     5.3320     5.6080    22.7870     2.2200   -23.2060 
   70.6250    67.3500     7.1310     5.4150     6.0850    22.8230     2.2060   -23.3870 
   70.7500    65.8170     7.2190     5.4780     6.2270    22.8860     2.2020   -23.5530 
   70.8750    69.7540     7.2690     5.5290     5.9990    23.0050     2.2100   -23.6830 
   71.0000    70.9540     7.3270     5.5870     5.7790    23.0990     2.2160   -23.7850 
   71.1250    67.2190     7.4600     5.6860     5.9140    23.1500     2.2040   -23.8650 
   71.2500    63.6830     7.6880     5.8350     6.3760    23.2710     2.1820   -23.9100 
   71.3750    60.8500     7.9970     6.0260     6.7080    23.5290     2.1610   -23.9240 
   71.5000    57.0490     8.3350     6.2350     6.7720    23.7870     2.1470   -23.9070 
   71.6250    53.6220     8.6160     6.4120     6.7730    23.8360     2.1370   -23.8890 
   71.7500    52.7230     8.7880     6.5280     6.8810    23.7370     2.1250   -23.8560 
   71.8750    52.9820     8.8440     6.5720     6.9760    23.6830     2.1110   -23.8270 
   72.0000    53.3640     8.7960     6.5480     6.9200    23.7360     2.1020   -23.8040 
   72.1250    54.8570     8.6530     6.4540     6.7910    23.8260     2.1090   -23.7780 
   72.2500    57.9030     8.4840     6.3310     6.7590    23.8260     2.1280   -23.7730 
   72.3750    60.5950     8.4100     6.2500     6.9120    23.7230     2.1430   -23.7910 
   72.5000    61.3920     8.5700     6.3040     7.0180    23.6580     2.1530   -23.8340 
   72.6250    60.0840     9.0870     6.5920     7.0420    23.7360     2.1710   -23.8880 
   72.7500    57.1860     9.8350     7.0540     7.5770    23.8650     2.2120   -23.9500 
   72.8750    53.6330    10.6060     7.5770     9.8500    23.8190     2.2650   -24.0260 
   73.0000    52.3750    11.1110     7.9860    15.1160    23.4940     2.2990   -24.1030 
   73.1250    55.0320    11.0360     8.0530    13.7790    23.1390     2.2810   -24.1910 
   73.2500    58.0080    10.5250     7.8120     9.2340    22.8960     2.2310   -24.2680 
   73.3750    60.1530     9.8370     7.3960     7.4860    22.8230     2.1820   -24.3300 
   73.5000    61.8780     9.2250     6.9680     7.2280    22.8980     2.1590   -24.3710 
   73.6250    62.3590     8.8750     6.6770     7.2690    22.9830     2.1590   -24.3930 
   73.7500    60.0670     8.7480     6.5390     7.3230    23.0260     2.1600   -24.3960 
   73.8750    56.0620     8.7500     6.5140     7.2500    23.1360     2.1540   -24.3670 
   74.0000    53.7510     8.7900     6.5380     7.0520    23.3690     2.1470   -24.3040 
   74.1250    55.5590     8.8220     6.5670     6.8600    23.6690     2.1480   -24.1910 
   74.2500    57.9960     8.8480     6.5910     6.9770    23.7840     2.1540   -24.0480 
   74.3750    57.3730     8.8720     6.6110     7.1360    23.7510     2.1580   -23.8910 
   74.5000    54.9990     8.8940     6.6290     7.1980    23.7820     2.1530   -23.7370 
   74.6250    55.4710     8.9110     6.6470     7.1010    23.9570     2.1440   -23.5790 
   74.7500    56.9800     8.9210     6.6620     7.1290    24.0990     2.1420   -23.4370 
   74.8750    56.6960     8.9230     6.6720     7.2720    24.1470     2.1530   -23.3140 
   75.0000    55.9130     8.9250     6.6790     7.2970    24.0910     2.1730   -23.2180 
   75.1250    58.2280     8.9300     6.6840     7.2430    23.8320     2.1850   -23.1610 
   75.2500    60.6330     8.9400     6.6870     7.2450    23.3940     2.1810   -23.1350 
   75.3750    60.8640     8.9480     6.6850     7.1710    22.9960     2.1670   -23.1510 
   75.5000    59.6960     8.9460     6.6760     7.1030    22.7940     2.1520   -23.1870 
   75.6250    59.5600     8.9320     6.6580     7.1000    22.7470     2.1480   -23.2510 
   75.7500    60.9470     8.9170     6.6360     7.0750    22.7480     2.1520   -23.3030 
   75.8750    62.4170     8.9160     6.6150     7.0140    22.7650     2.1590   -23.3600 
   76.0000    62.6360     8.9420     6.6040     6.9410    22.7710     2.1600   -23.4070 
   76.1250    61.2580     9.0030     6.6090     6.9170    22.7470     2.1560   -23.4370 
   76.2500    61.2940     9.0820     6.6250     6.9320    22.7000     2.1470   -23.4560 
   76.3750    62.3080     9.1600     6.6470     6.9850    22.6310     2.1340   -23.4280 
   76.5000    62.9480     9.2200     6.6680     7.0310    22.5770     2.1180   -23.3640 
   76.6250    63.4930     9.2530     6.6810     6.8900    22.5250     2.1060   -23.2470 
   76.7500    63.6990     9.2670     6.6870     6.8010    22.4030     2.1020   -23.1020 
   76.8750    62.5240     9.2700     6.6900     6.7560    22.2660     2.1090   -22.9250 
   77.0000    59.9120     9.2670     6.6940     6.7070    22.2260     2.1240   -22.7230 
   77.1250    58.4360     9.2590     6.7000     6.6770    22.3860     2.1400   -22.4840 
   77.2500    59.3440     9.2450     6.7040     6.7140    22.5850     2.1490   -22.2290 
   77.3750    60.1680     9.2200     6.7040     6.8610    22.7200     2.1500   -21.9700 
   77.5000    59.9950     9.1880     6.7000     6.9120    22.7280     2.1450   -21.7040 
   77.6250    60.1810     9.1630     6.6990     6.7460    22.6440     2.1370   -21.4430 
   77.7500    62.3620     9.1550     6.7060     6.5470    22.5660     2.1290   -21.2100 
   77.8750    65.1940     9.1480     6.7130     6.4070    22.4850     2.1210   -20.9950 
   78.0000    65.7650     9.1010     6.6980     6.3090    22.4040     2.1130   -20.7950 
   78.1250    65.0110     8.9330     6.6140     6.2910    22.3150     2.1140   -20.6310 
   78.2500    66.4090     8.6260     6.4460     6.2200    22.2530     2.1310   -20.4960 
   78.3750    70.8990     8.1970     6.1940     5.9970    22.1780     2.1650   -20.4060 
   78.5000    76.2220     7.7080     5.8840     5.6830    22.1060     2.2110   -20.3730 
   78.6250    81.4880     7.2630     5.5740     5.5390    22.2010     2.2510   -20.4310 
   78.7500    87.6900     6.9320     5.3220     5.4890    22.4240     2.2750   -20.5290 
   78.8750    93.6270     6.7440     5.1580     5.4630    22.5220     2.2800   -20.6730 
   79.0000    95.3870     6.6920     5.0850     5.4980    22.5200     2.2720   -20.8560 
   79.1250    92.1060     6.7600     5.0970     5.6820    22.4740     2.2620   -21.0780 
   79.2500    89.7100     6.8870     5.1510     5.8910    22.4190     2.2550   -21.3070 
   79.3750    89.6780     7.0360     5.2270     5.8840    22.3490     2.2540   -21.5180 
   79.5000    89.5550     7.1780     5.3100     5.7810    22.3010     2.2550   -21.7100 
   79.6250    87.5810     7.2810     5.3880     5.8200    22.2500     2.2550   -21.8490 
