~V
VERS. 2.00: Ver 2.00
~W
STRT.M 42.0000:
STOP.M 223.0000:
STEP.M 0.1250:
NULL. -999.2500:
UWI. F10538:
~C
DEPT.M :
DEN.GM/CC :
SP.MV :
GR.API :
RML.OHMM :
RI. :
RXO.OHMM :
CALI.CM :
~A
# ...
  109.5000     2.1550   -33.1160    65.8980     8.9860     7.3950     8.2370    24.2570 
  109.6250     2.1570   -33.1090    65.2650     8.9680     7.3810     8.2410    24.2590 
  109.7500     2.1600   -33.0930    68.0070     8.9640     7.3860     8.2930    24.2580 
  109.8750     2.1650   -33.0600    70.6310     8.9860     7.4190     8.4720    24.2590 
  110.0000     2.1720   -33.0110    70.6240     9.0470     7.4840     8.6840    24.2550 
  110.1250     2.1770   -32.9450    69.0300     9.1580     7.5870     9.1330    24.2420 
  110.2500     2.1830   -32.8690    69.1160     9.3080     7.7220    10.7190    24.2320 
  110.3750     2.2020   -32.7860    71.6040     9.4150     7.8330    13.5910    24.3120 
  110.5000     2.2250   -32.6990    73.9490     9.3780     7.8390    14.3960    24.4610 
  110.6250     2.2310   -32.5900    74.5620     9.1550     7.6950    11.3590    24.5800 
  110.7500     2.2110   -32.4680    72.5210     8.8000     7.4220     9.4860    24.6230 
  110.8750     2.1780   -32.3390    71.5850     8.4390     7.1050     9.1030    24.6230 
  111.0000     2.1550   -32.2160    74.4010     8.1700     6.8340     8.8680    24.6230 
  111.1250     2.1480   -32.1110    79.1740     8.0070     6.6350     8.4210    24.6230 
  111.2500     2.1580   -32.0370    80.0020     7.9340     6.5040     7.8990    24.6230 
  111.3750     2.1770   -31.9870    76.2730     7.9560     6.4470     7.6970    24.6230 
  111.5000     2.1880   -31.9670    75.5980     8.0580     6.4580     7.9230    24.6230 
  111.6250     2.1880   -31.9850    77.6600     8.2050     6.5250     8.1390    24.6230 
  111.7500     2.1880   -32.0140    79.6580     8.3330     6.6050     8.0080    24.6250 
  111.8750     2.1900   -32.0790    80.0650     8.3940     6.6640     7.6700    24.6550 
  112.0000     2.1890   -32.1620    78.5080     8.4520     6.7320     7.7020    24.7250 
  112.1250     2.1760   -32.2310    74.0830     8.5830     6.8660     8.2510    24.8000 
  112.2500     2.1510   -32.2420    69.8010     8.8130     7.0970     8.7610    24.8350 
  112.3750     2.1260   -32.1880    70.6150     9.0560     7.3820     9.0010    24.8390 
  112.5000     2.1180   -32.0810    73.1530     9.1720     7.6050     9.0710    24.8350 
  112.6250     2.1340   -31.9060    75.0910     9.0910     7.6920     9.1500    24.8190 
  112.7500     2.1650   -31.6460    77.0330     8.8340     7.6300     9.2210    24.7880 
  112.8750     2.1920   -31.2650    77.9720     8.4680     7.4480     9.1530    24.7710 
  113.0000     2.2040   -30.7680    75.6690     8.0630     7.1980     8.9700    24.7660 
  113.1250     2.2050   -30.1790    73.4270     7.6080     6.8760     8.6630    24.7630 
  113.2500     2.2060   -29.5240    75.9660     7.0780     6.4630     8.2160    24.7640 
  113.3750     2.2160   -28.8250    83.1100     6.4560     5.9380     7.4770    24.7670 
  113.5000     2.2320   -28.0870    91.4400     5.8190     5.3630     6.7430    24.7710 
  113.6250     2.2500   -27.3590    99.3970     5.2580     4.8180     6.4050    24.7740 
  113.7500     2.2650   -26.6820   105.7130     4.8380     4.3720     6.1990    24.7840 
  113.8750     2.2790   -26.1110   109.0110     4.5850     4.0690     5.5120    24.8030 
  114.0000     2.2980   -25.6630   108.7190     4.4330     3.8660     4.7690    24.8040 
  114.1250     2.3250   -25.3430   105.6630     4.3490     3.7380     4.1560    24.7550 
  114.2500     2.3530   -25.1520   103.1310     4.3380     3.6790     4.0000    24.6720 
  114.3750     2.3740   -25.1220   105.2230     4.4500     3.7240     4.2810    24.6220 
  114.5000     2.3850   -25.2320   108.8220     4.6810     3.8730     4.6400    24.5850 
  114.6250     2.3840   -25.4610   110.7420     4.9990     4.1050     4.9320    24.5590 
  114.7500     2.3710   -25.8070   111.3100     5.3390     4.3730     5.0780    24.5470 
  114.8750     2.3440   -26.2530   112.7360     5.6430     4.6310     5.2000    24.5360 
  115.0000     2.3110   -26.7600   111.8750     5.9070     4.8640     5.3930    24.5100 
  115.1250     2.2750   -27.3080   108.3830     6.1530     5.0820     5.7060    24.4830 
  115.2500     2.2440   -27.8840   103.4140     6.3910     5.2900     6.1730    24.4720 
  115.3750     2.2250   -28.4490    99.2190     6.5930     5.4670     6.3930    24.4720 
  115.5000     2.2200   -29.0080    97.4070     6.7490     5.6020     6.3050    24.4710 
  115.6250     2.2290   -29.5480    96.2310     6.9100     5.7260     6.0980    24.4580 
  115.7500     2.2440   -30.0650    93.7250     7.1730     5.9090     6.6220    24.4220 
  115.8750     2.2500   -30.5150    87.6660     7.6240     6.2300     7.1310    24.3630 
  116.0000     2.2410   -30.9200    82.2430     8.1670     6.6420     7.6750    24.3420 
  116.1250     2.2180   -31.2750    80.9780     8.6260     7.0270     7.7110    24.3510 
  116.2500     2.1870   -31.5920    83.2580     8.8120     7.2370     7.4620    24.3720 
  116.3750     2.1580   -31.8920    84.3650     8.5940     7.1440     7.1840    24.3660 
  116.5000     2.1380   -32.1670    83.3330     8.1650     6.8600     6.9660    24.3420 
  116.6250     2.1280   -32.4240    83.4470     7.7410     6.5340     6.8260    24.3280 
  116.7500     2.1270   -32.6320    85.1360     7.5080     6.3090     6.9050    24.3320 
  116.8750     2.1330   -32.8280    83.7720     7.5930     6.3070     7.3580    24.3650 
  117.0000     2.1380   -33.0140    80.0630     7.9060     6.4950     7.9130    24.4100 
  117.1250     2.1460   -33.1920    77.5440     8.3160     6.7960     8.2900    24.4250 
  117.2500     2.1610   -33.3540    76.0420     8.6700     7.1000     8.5230    24.4140 
  117.3750     2.1820   -33.4830    74.1240     8.8270     7.2880     8.6770    24.4010 
  117.5000     2.1980   -33.5810    74.1730     8.8170     7.3540     8.7230    24.3970 
  117.6250     2.2010   -33.6650    76.5030     8.7190     7.3350     8.5670    24.3970 
  117.7500     2.1950   -33.7350    77.6230     8.6150     7.2880     8.3980    24.4010 
  117.8750     2.1850   -33.7850    76.2400     8.5760     7.2680     8.4210    24.4200 
  118.0000     2.1790   -33.8000    76.0100     8.6120     7.3010     8.6410    24.4490 
  118.1250     2.1780   -33.8090    77.6650     8.7000     7.3760     8.8430    24.4670 
  118.2500     2.1770   -33.8040    78.6300     8.7780     7.4520     8.8160    24.4720 
  118.3750     2.1750   -33.7840    78.2030     8.7600     7.4530     8.5830    24.4720 
  118.5000     2.1750   -33.7410    79.3170     8.6460     7.3690     8.4860    24.4720 
  118.6250     2.1800   -33.6560    80.6780     8.4930     7.2360     8.5280    24.4720 
  118.7500     2.1930   -33.5370    80.3550     8.3720     7.1190     8.5950    24.4720 
  118.8750     2.2040   -33.3680    78.8660     8.3270     7.0680     8.5870    24.4730 
  119.0000     2.2110   -33.1540    76.9670     8.3290     7.0680     8.6290    24.4810 
  119.1250     2.2120   -32.8890    74.7190     8.3560     7.1020     8.7270    24.5140 
  119.2500     2.2090   -32.5810    72.8800     8.4050     7.1660     8.8080    24.5710 
  119.3750     2.2010   -32.1950    73.7610     8.5080     7.2820     8.7250    24.5570 
  119.5000     2.1880   -31.7460    74.6600     8.6690     7.4540     8.6240    24.4710 
  119.6250     2.1790   -31.2360    74.5970     8.8740     7.6720     8.8550    24.4280 
  119.7500     2.1860   -30.6910    73.4960     9.1070     7.9210    10.0030    24.5290 
  119.8750     2.2270   -30.0960    70.7260     9.3310     8.1770    13.8530    24.7120 
  120.0000     2.2970   -29.5050    69.5760     9.4010     8.3430    21.2230    24.8040 
  120.1250     2.3770   -28.9220    74.2720     9.0840     8.2290    23.7490    24.8140 
  120.2500     2.4230   -28.3920    85.3820     8.2210     7.6610    15.1290    24.7890 
  120.3750     2.3930   -27.9340    98.4770     6.9690     6.6610     7.7620    24.7770 
  120.5000     2.3320   -27.5720   109.2090     5.8670     5.6520     5.7830    24.7730 
  120.6250     2.2850   -27.3010   115.6890     5.2200     4.9340     5.4550    24.7730 
