~V
VERS. 2.00: Ver 2.00
~W
STRT.M 50.0000:
STOP.M 233.0000:
STEP.M 0.1250:
NULL. -999.2500:
UWI. F10598:
~C
DEPT.M :
DEN.GM/CC :
SP.MV :
GR.API :
RML.OHMM :
RI. :
RXO.OHMM :
CALI.CM :
~A
# ...
  128.7500     2.1250   -10.1170    67.3460    76.6840    69.8280    48.7570    24.3050 
  128.8750     2.1500    -9.9990    67.1140    69.0540    65.7520    53.9230    24.3990 
  129.0000     2.2090    -9.9000    69.3760    59.3050    58.3780    52.1070    24.4230 
  129.1250     2.3100    -9.8400    68.8930    51.3690    51.0000    45.9080    24.2840 
  129.2500     2.4250    -9.8020    65.0940    46.4590    45.9190    42.1540    24.0040 
  129.3750     2.5260    -9.7500    61.8600    44.3000    43.6590    43.1920    23.7820 
  129.5000     2.5890    -9.7410    63.8900    44.1760    43.9110    41.3080    23.7000 
  129.6250     2.6100    -9.7050    67.8700    45.5800    46.2580    40.7990    23.7350 
  129.7500     2.6150    -9.6830    66.4990    47.4990    49.4300    39.9940    23.8270 
  129.8750     2.6050    -9.6570    61.4210    48.7930    52.1700    41.5320    23.9350 
  130.0000     2.5720    -9.6440    57.9740    47.9510    52.6950    44.8180    23.9920 
  130.1250     2.5060    -9.6210    57.8290    43.0840    48.3860    41.1360    24.0000 
  130.2500     2.4300    -9.5860    60.0250    35.1910    40.0430    34.9280    24.0000 
  130.3750     2.3720    -9.5640    65.6040    26.3460    30.1410    28.2510    23.9990 
  130.5000     2.3430    -9.4910    73.8170    18.7600    21.5000    18.9210    23.9960 
  130.6250     2.3430    -9.4420    80.5330    13.8530    15.8550    11.4570    23.9870 
  130.7500     2.3550    -9.3750    85.7900    10.9340    12.4310     8.5010    23.9710 
  130.8750     2.3780    -9.3220    90.2330     9.3520    10.5100     9.0300    23.9420 
  131.0000     2.4030    -9.2650    92.7790     8.5880     9.5200    12.1530    23.8960 
  131.1250     2.4130    -9.2240    91.3320     8.3860     9.1860    14.6590    23.8210 
  131.2500     2.4060    -9.1950    89.1900     8.5570     9.2590    11.5900    23.7380 
  131.3750     2.4020    -9.1660    88.4850     9.1870     9.7770     9.6200    23.7000 
  131.5000     2.4180    -9.1370    85.6910    10.4010    10.8820    11.5760    23.6820 
  131.6250     2.4410    -9.1020    80.2090    12.3510    12.8590    17.2320    23.6350 
  131.7500     2.4520    -9.0700    76.1160    14.8630    15.6240    19.4140    23.5650 
  131.8750     2.4560    -9.0100    74.7680    17.7420    18.9850    21.2400    23.5470 
  132.0000     2.4570    -8.9480    73.6560    20.6330    22.4650    23.9850    23.5880 
  132.1250     2.4490    -8.8760    71.0090    23.0710    25.2910    26.0910    23.6140 
  132.2500     2.4410    -8.8290    68.5000    25.0300    27.3470    25.0860    23.6200 
  132.3750     2.4430    -8.7860    67.2340    26.6810    28.8770    26.2680    23.6200 
  132.5000     2.4510    -8.7650    67.0850    28.1150    30.0400    29.9070    23.6210 
  132.6250     2.4570    -8.7390    67.4270    29.2350    30.7600    30.9040    23.6240 
  132.7500     2.4710    -8.7190    66.6380    30.0100    31.1140    30.9230    23.6380 
  132.8750     2.4970    -8.7310    66.0910    30.3070    31.1250    30.8120    23.6690 
  133.0000     2.5220    -8.7280    66.1690    30.0720    30.8250    29.4240    23.6920 
  133.1250     2.5200    -8.7490    65.7600    29.5160    30.2990    27.9930    23.7000 
  133.2500     2.4920    -8.7550    64.3100    29.0180    29.7310    26.6020    23.6970 
  133.3750     2.4520    -8.7570    63.1740    28.7270    29.1870    25.4380    23.6840 
  133.5000     2.4170    -8.7590    63.8900    28.6780    28.7220    25.2500    23.6380 
  133.6250     2.4040    -8.7800    63.3480    28.8820    28.4820    27.0560    23.5640 
  133.7500     2.4090    -8.8130    60.4130    29.2260    28.5110    28.2950    23.4900 
  133.8750     2.4290    -8.8380    58.3080    29.6190    28.7880    28.0310    23.4520 
  134.0000     2.4580    -8.8990    60.3910    30.0260    29.2110    27.5870    23.4480 
  134.1250     2.4870    -8.9550    64.9790    30.4040    29.5990    28.3170    23.4520 
  134.2500     2.5090    -9.0240    67.4070    30.6630    29.7850    28.7000    23.4350 
  134.3750     2.5190    -9.0880    68.8410    30.7410    29.6740    27.6080    23.3850 
  134.5000     2.5190    -9.1800    69.1450    30.6010    29.2450    26.6010    23.3010 
  134.6250     2.5170    -9.2530    67.3110    30.1320    28.5700    25.7030    23.1770 
  134.7500     2.5160    -9.3290    66.4460    29.3940    27.8690    25.5720    23.1020 
  134.8750     2.5130    -9.4100    68.2360    28.5530    27.2980    26.1530    23.0510 
  135.0000     2.4980    -9.4730    71.0640    27.8510    26.9820    26.3440    22.9820 
  135.1250     2.4730    -9.5150    70.7650    27.6250    27.0630    25.2660    22.8960 
  135.2500     2.4530    -9.5250    69.7670    27.9710    27.5070    23.9910    22.7380 
  135.3750     2.4460    -9.5520    70.5680    28.8090    28.2490    23.4980    22.4390 
  135.5000     2.4540    -9.5400    71.7490    29.8380    29.1420    23.9830    21.9630 
  135.6250     2.4680    -9.5230    72.1830    30.6030    29.9360    25.1820    21.4680 
  135.7500     2.4780    -9.4820    71.9760    30.8610    30.4220    25.4050    21.3320 
  135.8750     2.4770    -9.4220    71.4080    30.5350    30.4860    24.4590    21.4690 
  136.0000     2.4630    -9.3570    70.9650    29.7540    30.1290    23.2870    21.6930 
  136.1250     2.4310    -9.2790    70.9470    28.8080    29.4220    23.6710    21.7270 
  136.2500     2.3880    -9.2100    71.4470    27.9490    28.6050    23.9870    21.5190 
  136.3750     2.3440    -9.1090    70.7170    27.2520    27.8190    21.5490    21.0760 
  136.5000     2.3190    -9.0330    69.5900    26.7770    27.1530    17.0280    20.5220 
  136.6250     2.3220    -8.9430    71.1250    26.6180    26.6830    14.2910    19.6650 
  136.7500     2.3450    -8.8740    72.5910    26.7070    26.3970    12.6550    18.5760 
  136.8750     2.3810    -8.8290    71.3720    26.9810    26.3220    11.8860    17.6950 
  137.0000     2.4280    -8.8200    67.5950    27.3800    26.4700    11.2400    17.2830 
  137.1250     2.4800    -8.8390    64.5560    27.8220    26.8240    10.8880    17.2310 
  137.2500     2.5200    -8.8590    65.5800    28.2830    27.2660    10.8210    17.3060 
  137.3750     2.5360    -8.8930    69.5460    28.8480    27.7260    10.4960    17.4050 
  137.5000     2.5350    -8.9170    72.7800    29.5740    28.1660     9.9660    17.4900 
  137.6250     2.5250    -8.9600    71.9470    30.3620    28.5700     9.7770    17.7690 
  137.7500     2.5100    -8.9940    69.2500    31.0360    28.9610    11.7920    18.5820 
  137.8750     2.4940    -9.0270    66.6120    31.5240    29.3570    16.7020    19.9910 
  138.0000     2.4820    -9.0210    64.2760    31.8170    29.7240    23.6210    21.5690 
  138.1250     2.4790    -9.0130    62.7790    31.8690    29.9690    27.7950    22.4490 
  138.2500     2.4800    -9.0000    62.6340    31.7550    30.0620    28.5780    22.7880 
  138.3750     2.4770    -8.9900    64.4810    31.6330    30.0370    28.5970    22.8550 
  138.5000     2.4730    -8.9720    68.2570    31.6760    30.0240    28.5880    22.8620 
  138.6250     2.4750    -8.9480    70.9690    32.0480    30.2380    28.6540    22.8610 
  138.7500     2.4840    -8.9360    69.5800    32.6660    30.7230    29.9920    22.8640 
  138.8750     2.4940    -8.9050    66.0310    33.3010    31.3830    32.0490    22.8660 
  139.0000     2.4970    -8.8930    63.7370    33.6270    31.9820    32.3410    22.8650 
  139.1250     2.4860    -8.8580    62.3890    33.2670    32.1330    31.0040    22.8620 
  139.2500     2.4660    -8.8350    59.5960    32.2800    31.6980    29.9880    22.8620 
  139.3750     2.4540    -8.7890    58.0030    30.8100    30.7250    29.4310    22.8510 
  139.5000     2.4640    -8.7400    60.5500    29.1300    29.4690    28.8930    22.8120 
  139.6250     2.4950    -8.6550    64.4810    27.7040    28.2890    26.8250    22.7250 
  139.7500     2.5250    -8.5330    66.0080    26.7800    27.3940    23.7540    22.6610 
  139.8750     2.5410    -8.3970    67.5140    26.3470    26.8360    22.1120    22.6380 
