~V
VERS. 2.00: Ver 2.00
~W
STRT.M 60.0000:
STOP.M 190.0000:
STEP.M 0.1250:
NULL. -999.2500:
UWI. F10561:
~C
DEPT.M :
SP.MV :
GR.API :
RML.OHMM :
RI. :
RXO.OHMM :
CALI.CM :
DEN.GM/CC :
~A
# ...
   71.2500   -16.6020    73.3610     9.9540     9.0480     7.8490    24.4370     2.4600 
   71.3750   -16.4610    70.9030    11.1350    10.1810     9.1490    24.4370     2.4670 
   71.5000   -16.2790    71.5460    12.5730    11.5870    11.6710    24.4380     2.4490 
   71.6250   -16.1110    71.7330    14.2590    13.2450    12.6240    24.4730     2.4010 
   71.7500   -15.9070    69.9170    16.0720    15.0210    12.0930    24.5340     2.3470 
   71.8750   -15.7300    67.3710    17.9240    16.8170    12.7300    24.5490     2.3040 
   72.0000   -15.5890    66.0360    19.7440    18.5530    15.8770    24.4900     2.2780 
   72.1250   -15.4380    67.1070    21.4190    20.1200    20.3830    24.4560     2.2590 
   72.2500   -15.3180    68.4450    22.7160    21.3480    19.3130    24.4650     2.2370 
   72.3750   -15.2930    68.8190    23.1720    21.8680    16.1580    24.4850     2.2210 
   72.5000   -15.3450    69.0770    22.2980    21.2490    14.7790    24.4930     2.2250 
   72.6250   -15.4140    71.7420    19.8080    19.1490    15.0270    24.4870     2.2630 
   72.7500   -15.5710    74.8630    16.5780    16.2390    14.5420    24.4630     2.3150 
   72.8750   -15.7460    78.6180    13.4140    13.2060    12.2600    24.4220     2.3630 
   73.0000   -15.9130    84.7780    10.8920    10.6180     8.4260    24.3760     2.3910 
   73.1250   -16.1330    90.1990     9.3320     8.8620     6.8980    24.3030     2.3900 
   73.2500   -16.3740    92.1650     8.4470     7.7780     6.6410    24.1990     2.3730 
   73.3750   -16.5740    93.6590     8.0160     7.2090     6.6830    24.1440     2.3550 
   73.5000   -16.7310    97.3040     7.8670     7.0020     6.7260    24.2110     2.3470 
   73.6250   -16.9170    99.7230     7.9880     7.1090     6.8100    24.3650     2.3530 
   73.7500   -17.0570    98.3650     8.4330     7.4990     6.9410    24.5520     2.3600 
   73.8750   -17.1430    94.2380     9.3260     8.2460     6.9590    24.7000     2.3530 
   74.0000   -17.2190    86.5860    10.7010     9.4010     7.5020    24.8330     2.3220 
   74.1250   -17.2740    76.9380    12.3410    10.8730     9.2050    24.9250     2.2720 
   74.2500   -17.3010    72.1880    13.6270    12.1890    12.0890    24.9850     2.2300 
   74.3750   -17.3650    75.0340    14.0110    12.8460    13.6050    24.9620     2.2160 
   74.5000   -17.5120    81.6660    13.2950    12.5360    12.7180    24.8470     2.2290 
   74.6250   -17.6250    85.9220    11.7560    11.2880     9.9800    24.6970     2.2560 
   74.7500   -17.7220    88.6260    10.1460     9.7370     8.0820    24.5950     2.2770 
   74.8750   -17.8890    92.4880     8.8230     8.2940     7.1800    24.5600     2.2900 
   75.0000   -18.0430    97.6890     7.8870     7.1780     6.9910    24.5570     2.3040 
   75.1250   -18.1470   102.4850     7.3390     6.4970     6.5050    24.5570     2.3270 
   75.2500   -18.2720   104.8480     7.0530     6.1400     5.8950    24.5570     2.3530 
   75.3750   -18.3560   104.5950     6.9980     6.0450     5.5890    24.5570     2.3690 
   75.5000   -18.3110   100.8190     7.1450     6.1380     5.7630    24.5570     2.3680 
   75.6250   -18.2030    93.2620     7.4360     6.3400     6.0160    24.5470     2.3560 
   75.7500   -18.0610    87.1940     7.7190     6.5290     6.5020    24.5250     2.3490 
   75.8750   -17.8320    86.8740     7.8860     6.6360     7.0470    24.5030     2.3520 
   76.0000   -17.5360    91.4640     7.9220     6.6560     7.1060    24.4880     2.3600 
   76.1250   -17.1960    92.8520     7.9470     6.6710     6.5220    24.4700     2.3650 
   76.2500   -16.8280    88.1520     8.1340     6.7990     6.2500    24.4410     2.3610 
   76.3750   -16.4420    82.0590     8.5680     7.1110     6.6010    24.3960     2.3510 
   76.5000   -16.0780    80.0350     9.2020     7.6010     8.4010    24.2940     2.3340 
   76.6250   -15.7750    83.3960     9.8060     8.1340    11.8340    24.0920     2.3090 
   76.7500   -15.5310    88.2470    10.0950     8.4760    11.5520    23.8580     2.2780 
   76.8750   -15.3280    92.7090     9.9320     8.4580     9.6140    23.6140     2.2520 
   77.0000   -15.1990    94.8680     9.3760     8.0510     9.1450    23.4190     2.2410 
   77.1250   -15.1680    94.1350     8.6360     7.3630     8.9800    23.3300     2.2570 
   77.2500   -15.1250    92.9500     7.9670     6.6590     7.4420    23.2630     2.2900 
   77.3750   -15.0740    94.3190     7.4600     6.0880     6.5320    23.1880     2.3260 
   77.5000   -15.0460    98.5150     7.1210     5.7130     6.3140    23.1010     2.3510 
   77.6250   -15.0350   102.3700     6.9440     5.5550     6.4620    23.0510     2.3570 
   77.7500   -15.0030   104.2300     6.8850     5.5370     6.3550    23.0710     2.3490 
   77.8750   -14.9480   104.8780     6.9270     5.6130     5.9990    23.1740     2.3390 
   78.0000   -14.8690   103.3900     7.0380     5.7430     5.8820    23.3940     2.3310 
   78.1250   -14.7790   100.2160     7.1730     5.8930     6.0170    23.6890     2.3290 
   78.2500   -14.6980    98.5590     7.2870     6.0260     6.0300    23.9860     2.3250 
   78.3750   -14.6220    99.5220     7.3590     6.1110     6.2240    24.2950     2.3180 
   78.5000   -14.5700    99.8950     7.3750     6.1160     6.5550    24.4910     2.3110 
   78.6250   -14.5260    97.2410     7.3170     6.0110     6.6050    24.5480     2.3140 
   78.7500   -14.4630    95.8650     7.2010     5.8400     6.1690    24.5510     2.3310 
   78.8750   -14.4280    97.7890     7.0620     5.6650     5.8820    24.5500     2.3550 
   79.0000   -14.4050   101.1490     6.9670     5.5670     5.8120    24.5490     2.3780 
   79.1250   -14.3470   102.1910     7.0340     5.6360     5.7630    24.5490     2.3850 
   79.2500   -14.2860    97.9070     7.3010     5.8640     5.7310    24.5490     2.3800 
   79.3750   -14.2660    91.1160     7.7360     6.2050     6.0750    24.5470     2.3680 
   79.5000   -14.2340    87.3840     8.2200     6.5650     6.7000    24.5310     2.3560 
   79.6250   -14.1550    88.8540     8.5490     6.8120     7.4380    24.4980     2.3440 
   79.7500   -14.0540    91.1730     8.6760     6.9210     7.8030    24.4950     2.3360 
   79.8750   -13.9440    91.4910     8.7240     6.9710     7.4170    24.5530     2.3390 
   80.0000   -13.8680    91.1280     8.9270     7.1090     6.9210    24.5990     2.3570 
   80.1250   -13.8030    90.3130     9.5560     7.5290     6.9740    24.5910     2.3860 
   80.2500   -13.6970    89.0460    10.5220     8.2110     8.0520    24.5520     2.4050 
   80.3750   -13.5460    88.3950    11.5210     8.9910    11.3150    24.5330     2.4000 
   80.5000   -13.4040    88.1400    12.0870     9.5680    15.1850    24.5400     2.3720 
   80.6250   -13.2820    89.7930    11.7250     9.5400    12.6240    24.5480     2.3390 
   80.7500   -13.1630    93.6350    10.6950     8.9600     9.0750    24.5490     2.3230 
   80.8750   -13.0400    98.1310     9.4450     8.0640     7.0050    24.5480     2.3260 
   81.0000   -12.8980   100.0480     8.3880     7.1600     6.2660    24.5400     2.3390 
   81.1250   -12.7630    97.3330     7.7760     6.5190     5.9460    24.5200     2.3440 
   81.2500   -12.6600    93.8600     7.5030     6.1760     5.8280    24.5010     2.3390 
   81.3750   -12.6020    91.7080     7.4690     6.1060     6.0560    24.4940     2.3290 
   81.5000   -12.5380    91.8150     7.6240     6.2710     6.3630    24.4860     2.3210 
   81.6250   -12.4610    93.4710     8.0260     6.6750     6.2360    24.4660     2.3140 
   81.7500   -12.4280    93.5870     8.6630     7.2410     6.3180    24.4360     2.3000 
   81.8750   -12.4120    90.7540     9.4410     7.8770     6.9400    24.4010     2.2740 
   82.0000   -12.4150    87.3790    10.1220     8.4210     8.0260    24.3570     2.2400 
   82.1250   -12.4440    89.0570    10.2840     8.6100    10.0920    24.3700     2.2110 
   82.2500   -12.4520    93.6410     9.8270     8.3810    12.1490    24.4090     2.2010 
   82.3750   -12.4320    97.8510     8.9090     7.8070    10.4660    24.4290     2.2170 
