~V
VERS. 2.00: Ver 2.00
~W
STRT.M 50.0000:
STOP.M 215.0000:
STEP.M 0.1250:
NULL. -999.2500:
UWI. F10588:
~C
DEPT.M :
DEN.GM/CC :
GR.API :
RML.OHMM :
RI. :
RXO.OHMM :
CALI.CM :
SP.MV :
~A
# ...
  196.2500     2.2620    86.2720     7.7110     6.9060     8.7610    23.6560   -23.9670 
  196.3750     2.2470    86.2840     6.9170     6.2530     7.1540    23.6090   -23.1840 
  196.5000     2.2440    84.7430     6.3100     5.6940     6.2480    23.5460   -22.3620 
  196.6250     2.2600    81.1940     5.9470     5.3100     6.0740    23.4510   -21.5620 
  196.7500     2.2860    74.0140     5.7370     5.0610     5.9970    23.3270   -20.8450 
  196.8750     2.3100    63.9450     5.6220     4.9110     5.9270    23.2230   -20.2460 
  197.0000     2.3260    53.4850     5.5570     4.8270     5.6140    23.0700   -19.8100 
  197.1250     2.3330    46.9090     5.5180     4.7840     5.2530    22.7890   -19.5560 
  197.2500     2.3330    46.5040     5.4910     4.7590     5.0170    22.4880   -19.4430 
  197.3750     2.3280    50.2880     5.4700     4.7450     5.0570    22.3090   -19.4490 
  197.5000     2.3210    51.8820     5.4450     4.7350     5.2930    22.2490   -19.5280 
  197.6250     2.3190    49.6940     5.4140     4.7230     5.3670    22.3340   -19.6620 
  197.7500     2.3260    48.8470     5.3890     4.7180     5.1700    22.4900   -19.8450 
  197.8750     2.3380    48.3410     5.3990     4.7330     5.0940    22.7550   -20.0740 
  198.0000     2.3490    45.7330     5.4740     4.7880     5.3230    23.1700   -20.3090 
  198.1250     2.3550    43.0810     5.6340     4.8960     5.7100    23.4040   -20.5080 
  198.2500     2.3600    43.4810     5.8330     5.0350     5.9030    23.4950   -20.6590 
  198.3750     2.3670    45.1660     6.0100     5.1640     6.0180    23.5160   -20.7640 
  198.5000     2.3780    46.1810     6.0910     5.2300     6.2280    23.5140   -20.8330 
  198.6250     2.3890    45.2680     6.0050     5.1730     6.5490    23.5010   -20.8860 
  198.7500     2.3920    42.5710     5.7960     5.0120     6.4560    23.4840   -20.9060 
  198.8750     2.3840    40.2070     5.5360     4.7980     5.9340    23.4790   -20.8800 
  199.0000     2.3700    40.5030     5.3140     4.5970     5.3800    23.4750   -20.8200 
  199.1250     2.3590    41.9760     5.2340     4.4920     5.1320    23.4470   -20.7510 
  199.2500     2.3590    41.6780     5.3120     4.5140     5.2050    23.4130   -20.6850 
  199.3750     2.3700    39.8740     5.5330     4.6600     5.5820    23.3980   -20.6060 
  199.5000     2.3860    38.7780     5.8400     4.8990     6.0040    23.3960   -20.5140 
  199.6250     2.3980    40.2470     6.1460     5.1640     6.3650    23.3950   -20.3900 
  199.7500     2.4030    42.9710     6.3690     5.3810     6.7720    23.3900   -20.2480 
  199.8750     2.4050    45.6780     6.4600     5.5080     6.8480    23.3760   -20.1060 
  200.0000     2.4020    47.1600     6.4080     5.5250     6.6240    23.3600   -19.9580 
  200.1250     2.3920    46.5730     6.2200     5.4240     6.4010    23.3440   -19.8340 
  200.2500     2.3710    45.3370     5.9590     5.2460     6.4060    23.3280   -19.7220 
  200.3750     2.3460    45.2990     5.6680     5.0200     6.4630    23.3230   -19.6290 
  200.5000     2.3240    46.5940     5.3910     4.7800     6.1880    23.3480   -19.5970 
  200.6250     2.3200    46.4570     5.1660     4.5600     5.5180    23.3000   -19.6520 
  200.7500     2.3330    44.3200     4.9920     4.3790     5.0400    23.2440   -19.7160 
  200.8750     2.3540    41.2840     4.8580     4.2400     4.9130    23.2130   -19.7750 
  201.0000     2.3690    38.4480     4.7470     4.1380     4.8370    23.2070   -19.8340 
  201.1250     2.3660    36.7790     4.6500     4.0640     4.7170    23.2020   -19.8570 
  201.2500     2.3510    36.3640     4.5610     4.0050     4.5970    23.1930   -19.8520 
  201.3750     2.3330    35.9180     4.4840     3.9540     4.4830    23.1860   -19.8150 
  201.5000     2.3200    33.9830     4.4240     3.9080     4.4090    23.1820   -19.6990 
  201.6250     2.3160    32.2040     4.3800     3.8680     4.3820    23.1830   -19.4980 
  201.7500     2.3160    32.0670     4.3460     3.8310     4.3530    23.1860   -19.3080 
  201.8750     2.3140    33.2980     4.3230     3.7980     4.3160    23.1850   -19.1510 
  202.0000     2.3100    34.6990     4.3120     3.7770     4.2570    23.1820   -19.0030 
  202.1250     2.3120    35.2030     4.3180     3.7730     4.2100    23.1790   -18.8510 
  202.2500     2.3190    34.7780     4.3420     3.7880     4.1960    23.1810   -18.7340 
  202.3750     2.3270    33.4940     4.3880     3.8180     4.2410    23.1890   -18.6480 
  202.5000     2.3320    32.3270     4.4490     3.8600     4.3270    23.1960   -18.5690 
  202.6250     2.3300    31.9530     4.5090     3.9070     4.4430    23.1980   -18.4920 
  202.7500     2.3260    31.0930     4.5520     3.9500     4.5530    23.2080   -18.4340 
  202.8750     2.3220    29.5190     4.5740     3.9810     4.6480    23.2140   -18.3760 
  203.0000     2.3190    28.5640     4.5750     3.9920     4.6770    23.2250   -18.3300 
  203.1250     2.3150    29.2080     4.5560     3.9760     4.6600    23.2580   -18.3590 
  203.2500     2.3130    29.8030     4.5190     3.9340     4.5860    23.3010   -18.3930 
  203.3750     2.3150    30.5350     4.4650     3.8700     4.4620    23.3220   -18.4650 
  203.5000     2.3190    31.7100     4.4120     3.7980     4.3050    23.3310   -18.6040 
  203.6250     2.3170    32.3910     4.4150     3.7640     4.2550    23.4290   -18.7810 
  203.7500     2.3110    32.5870     4.5170     3.8130     4.2350    23.6700   -18.9700 
  203.8750     2.3060    33.9160     4.7310     3.9640     4.3170    23.8970   -19.1590 
  204.0000     2.3040    36.7600     5.0260     4.2010     4.7160    23.8210   -19.3780 
  204.1250     2.2990    37.8550     5.3160     4.4630     5.9590    23.5500   -19.5500 
  204.2500     2.2890    36.6540     5.5000     4.6570     7.9240    23.4160   -19.6830 
  204.3750     2.2770    34.6910     5.5270     4.7300     8.7360    23.3930   -19.7610 
  204.5000     2.2700    33.4180     5.4170     4.6820     6.7500    23.3960   -19.7740 
  204.6250     2.2810    32.9070     5.2490     4.5620     5.2890    23.3960   -19.7460 
  204.7500     2.3050    31.8330     5.1080     4.4430     5.0800    23.3940   -19.6820 
  204.8750     2.3290    30.4040     5.0290     4.3610     5.3920    23.3960   -19.6000 
  205.0000     2.3440    30.1320     5.0190     4.3340     5.4940    23.4230   -19.4500 
  205.1250     2.3470    30.1320     5.0860     4.3750     5.3770    23.4760   -19.2800 
  205.2500     2.3420    30.1320     5.2170     4.4740     5.1940    23.4670   -19.1140 
  205.3750     2.3380    30.1320     5.4080     4.6260     5.0620    23.3530   -18.9700 
  205.5000     2.3410    30.1320     5.6270     4.8070     5.1910    23.2560   -18.8510 
  205.6250     2.3510    30.1320     5.7820     4.9520     5.6570    23.2250   -18.7520 
  205.7500     2.3540    30.1320     5.7960     4.9910     6.1290    23.2340   -18.6310 
  205.8750     2.3400    30.1320     5.6440     4.8950     6.1920    23.2660   -18.4460 
  206.0000     2.3140    30.1320     5.3730     4.6890     5.4450    23.3220   -18.2760 
  206.1250     2.2870    30.1320     5.0880     4.4440     4.8180    23.3450   -18.1540 
  206.2500     2.2730    30.1320     4.8800     4.2400     4.5410    23.2660   -18.0990 
  206.3750     2.2750    30.1320     4.7850     4.1190     4.5550    22.9710   -18.0940 
  206.5000     2.2860    30.1320     4.8060     4.0990     4.6950    22.5500   -18.1350 
  206.6250     2.3010    30.1320     4.9470     4.1970     4.7610    22.3630   -18.2650 
  206.7500     2.3120    30.1320     5.1680     4.3860     4.9180    22.3480   -18.4740 
  206.8750     2.3130    30.1320     5.4460     4.6400     5.3030    22.5090   -18.7700 
  207.0000     2.2950    30.1320     5.7330     4.9170     6.0370    22.8830   -19.0810 
  207.1250     2.2590    30.1320     5.9410     5.1370     6.2640    23.1000   -19.3080 
  207.2500     2.2250    30.1320     6.0100     5.2450     6.3220    23.1630   -19.4160 
  207.3750     2.2110    30.1320     5.9240     5.2140     5.9640    23.1360   -19.4460 
