~V
VERS. 2.00: Ver 2.00
~W
STRT.M 47.0000:
STOP.M 254.0000:
STEP.M 0.1250:
NULL. -999.2500:
UWI. F10599:
~C
DEPT.M :
DEN.GM/CC :
SP.MV :
GR.API :
RML.OHMM :
RI. :
RXO.OHMM :
CALI.CM :
~A
# ...
  204.5000     2.4010    -5.0660    90.7820    23.3940    24.0900    30.0030    25.0580 
  204.6250     2.4140    -5.1620    85.1020    32.3360    34.4100    54.4710    25.0000 
  204.7500     2.4090    -5.2800    84.7640    45.1870    48.0580    89.8850    24.8750 
  204.8750     2.3840    -5.4180    84.5980    59.5810    61.4480    88.0100    24.8060 
  205.0000     2.3580    -5.5570    82.2320    69.3010    68.6540    79.9290    24.7820 
  205.1250     2.3460    -5.6870    79.8310    70.9270    67.5810    74.7780    24.7810 
  205.2500     2.3440    -5.7920    78.6970    66.7540    61.9070    68.4000    24.7810 
  205.3750     2.3270    -5.8910    81.8130    62.0220    57.6720    59.0240    24.7810 
  205.5000     2.2860    -5.9880    86.7020    59.9250    57.3480    51.7100    24.7760 
  205.6250     2.2370    -6.0700    88.5730    61.0970    60.7800    51.9600    24.7530 
  205.7500     2.1950    -6.1280    85.0500    65.2650    66.8040    61.0430    24.7120 
  205.8750     2.1690    -6.1660    80.1450    71.4780    73.6280    74.1220    24.7340 
  206.0000     2.1550    -6.2130    78.5630    77.2990    78.9600    81.4800    24.8160 
  206.1250     2.1520    -6.2700    77.1210    80.6490    81.2400    80.9440    24.8660 
  206.2500     2.1570    -6.3230    75.6050    80.3170    80.0080    76.1170    24.8620 
  206.3750     2.1640    -6.3260    76.5020    76.4680    76.0760    67.9800    24.8510 
  206.5000     2.1700    -6.3170    77.4120    71.6910    71.7690    61.9940    24.8500 
  206.6250     2.1770    -6.3310    76.9460    67.8200    68.3910    59.1870    24.8500 
  206.7500     2.1860    -6.3600    78.1440    66.0850    66.7420    58.2420    24.8500 
  206.8750     2.1950    -6.3720    83.0750    67.7570    67.8800    58.7590    24.8510 
  207.0000     2.1990    -6.3570    86.3880    72.7260    71.8950    65.0430    24.8490 
  207.1250     2.1970    -6.3230    84.1690    80.6890    78.6900    76.4140    24.8480 
  207.2500     2.1870    -6.2930    78.6620    90.4830    87.3060    88.8670    24.8470 
  207.3750     2.1770    -6.2930    75.9060    99.8780    95.6590    90.8790    24.8480 
  207.5000     2.1730    -6.2870    77.0600   106.9510   101.9220    89.9210    24.8490 
  207.6250     2.1760    -6.2620    79.8890   111.3200   105.9050    91.1740    24.8510 
  207.7500     2.1820    -6.2260    81.2640   114.0510   108.8760    95.1220    24.8490 
  207.8750     2.1820    -6.1970    80.9390   116.9000   112.4570    98.2340    24.8480 
  208.0000     2.1780    -6.1920    79.2520   120.4050   116.3910   106.0580    24.8470 
  208.1250     2.1740    -6.2060    76.3650   123.6900   119.2080   111.8400    24.8470 
  208.2500     2.1760    -6.2130    71.9900   125.5850   119.8820   114.6520    24.8470 
  208.3750     2.1830    -6.2000    69.3300   125.3710   118.6610   118.1750    24.8470 
  208.5000     2.1920    -6.1980    68.6970   124.2390   117.2590   110.4210    24.8470 
  208.6250     2.2070    -6.2010    69.0970   123.5360   116.6500    98.7130    24.8500 
  208.7500     2.2320    -6.2130    69.1420   124.1580   116.7910    93.0260    24.8690 
  208.8750     2.2730    -6.2320    67.0790   125.8830   116.3100   105.1740    24.9330 
  209.0000     2.3130    -6.2130    63.6900   126.9120   113.8700   123.9640    25.0260 
  209.1250     2.3240    -6.1810    63.2490   125.7310   109.3900   136.2920    25.1000 
  209.2500     2.2930    -6.1650    67.6070   121.7770   103.9770   123.7040    25.1330 
  209.3750     2.2390    -6.1770    71.9670   115.6650    98.9930    99.9730    25.1390 
  209.5000     2.2000    -6.1680    72.9190   109.4980    94.9150    89.9620    25.1390 
  209.6250     2.1850    -6.1400    72.6700   104.6210    91.5540    88.6130    25.1390 
  209.7500     2.1850    -6.0730    72.1930   101.6880    88.5660    91.9340    25.1390 
  209.8750     2.1890    -5.9720    72.2730   101.0670    86.1260    96.5160    25.1390 
  210.0000     2.1970    -5.8690    74.6140   102.2780    84.9390    91.9890    25.1390 
  210.1250     2.2070    -5.7560    78.1180   105.3570    86.0440    83.7360    25.1390 
  210.2500     2.2170    -5.6340    79.4320   110.3970    90.1780    88.9290    25.1390 
  210.3750     2.2190    -5.5010    77.3400   117.5710    97.4560    94.2150    25.1390 
  210.5000     2.2160    -5.3860    73.4720   125.8850   105.9220   103.4190    25.1390 
  210.6250     2.2090    -5.2760    68.7560   134.2090   113.7860   114.3350    25.1390 
  210.7500     2.2050    -5.2000    66.7900   141.3460   119.8610   123.2350    25.1390 
  210.8750     2.2130    -5.1650    70.5380   146.1150   124.0150   119.5670    25.1390 
  211.0000     2.2290    -5.1760    75.5880   148.9940   127.7880   116.4160    25.1390 
  211.1250     2.2510    -5.2140    77.1210   150.9410   132.4000   121.9590    25.1390 
  211.2500     2.2800    -5.2800    73.9290   153.0220   138.1530   140.8120    25.1390 
  211.3750     2.3060    -5.3730    68.9440   156.0140   144.3110   169.5110    25.1390 
  211.5000     2.3160    -5.4780    64.2310   160.0100   149.9790   158.3610    25.1440 
  211.6250     2.3040    -5.6150    60.4250   165.4890   155.3530   124.4670    25.1610 
  211.7500     2.2810    -5.7560    58.4630   173.4890   161.9200   108.7920    25.1940 
  211.8750     2.2670    -5.8790    60.7650   185.2590   171.6710   116.7290    25.2040 
  212.0000     2.2720    -5.9810    63.9580   198.0070   182.1230   130.9550    25.1690 
  212.1250     2.3000    -6.0750    64.1100   205.6020   186.0540   160.5260    25.0730 
  212.2500     2.3480    -6.1520    61.7480   200.4710   174.8870   199.6990    24.9720 
  212.3750     2.4090    -6.2090    64.2780   177.9650   147.1510   206.0660    24.9300 
  212.5000     2.4560    -6.2560    73.2540   148.1070   116.7860   141.9390    24.9230 
  212.6250     2.4660    -6.2990    84.2210   119.7770    92.1660    82.2360    24.9230 
  212.7500     2.4370    -6.3350    91.3600    98.0670    75.6740    54.7940    24.9230 
  212.8750     2.3950    -6.3580    93.1470    84.5010    66.4950    52.8610    24.9230 
  213.0000     2.3590    -6.3810    95.1270    75.4670    60.4750    53.2810    24.9220 
  213.1250     2.3290    -6.4040    98.7110    68.4510    55.2570    50.2080    24.8850 
  213.2500     2.2990    -6.4150    99.4280    61.5510    49.4570    43.5130    24.7130 
  213.3750     2.2710    -6.4130    94.3560    53.7450    42.7230    37.8450    24.3270 
  213.5000     2.2560    -6.3870    88.2030    45.7780    36.0530    34.1030    24.0960 
  213.6250     2.2600    -6.3380    84.5550    38.9430    30.5200    30.9980    24.2660 
  213.7500     2.2730    -6.3050    84.2330    34.2940    26.8940    29.5720    24.6670 
  213.8750     2.2810    -6.2990    86.2540    32.8830    26.0810    28.1710    24.7890 
  214.0000     2.2800    -6.3050    87.2580    34.4690    27.8800    26.6840    24.6640 
  214.1250     2.2760    -6.3020    86.3340    38.8500    32.0130    28.1420    24.3870 
  214.2500     2.2710    -6.2740    84.1040    44.9600    37.4380    31.9200    24.1200 
  214.3750     2.2710    -6.2160    80.6900    49.9160    41.5900    24.9890    23.8550 
  214.5000     2.2790    -6.1430    78.7120    51.0700    42.2900    21.6080    23.6680 
  214.6250     2.2900    -6.0610    79.5230    48.2140    39.3770    26.8390    23.7270 
  214.7500     2.2970    -5.9510    82.0340    43.2910    34.7190    27.5680    24.0050 
  214.8750     2.3050    -5.7920    84.5930    38.3990    30.5100    21.5440    24.2140 
  215.0000     2.3310    -5.5910    86.8500    33.8790    27.0430    19.8940    24.3640 
  215.1250     2.3670    -5.3570    88.6890    29.0870    23.5690    24.2960    24.4220 
  215.2500     2.3930    -5.1150    90.3420    23.6550    19.4030    28.2060    24.3320 
  215.3750     2.3840    -4.8810    94.4690    18.1140    14.5150    23.4200    24.2430 
  215.5000     2.3570    -4.6510    98.6430    13.3870    10.0940    14.3570    24.1610 
  215.6250     2.3240    -4.4110    99.5610     9.9010     7.6800     8.3210    24.0860 
