~V
VERS. 2.00: Ver 2.00
~W
STRT.M 50.0000:
STOP.M 198.0000:
STEP.M 0.1250:
NULL. -999.2500:
UWI. F10574:
~C
DEPT.M :
DEN.GM/CC :
SP.MV :
GR.API :
RML.OHMM :
RI. :
RXO.OHMM :
CALI.CM :
~A
# ...
  151.2500     2.2110   -13.4340    58.7050    25.4730    27.0640    24.0470    24.7310 
  151.3750     2.2060   -13.3960    62.9100    24.8970    26.1110    22.6360    24.7310 
  151.5000     2.1960   -13.3790    62.9120    25.5920    26.3390    24.8610    24.7320 
  151.6250     2.1830   -13.3420    59.4370    27.3920    27.7860    29.3270    24.7300 
  151.7500     2.1730   -13.3360    60.1890    29.5820    29.8500    32.7830    24.7280 
  151.8750     2.1710   -13.3990    65.1280    31.5890    31.9600    34.0940    24.7280 
  152.0000     2.1730   -13.4830    68.1840    32.9170    33.5160    33.9220    24.7290 
  152.1250     2.1750   -13.5800    65.3320    33.2080    34.0020    33.3590    24.7350 
  152.2500     2.1750   -13.7180    62.0180    32.8020    33.6910    32.6740    24.7440 
  152.3750     2.1770   -13.8870    61.1480    31.9930    32.8970    32.2670    24.7440 
  152.5000     2.1840   -14.0380    61.8160    31.0210    31.8750    31.3140    24.7280 
  152.6250     2.2000   -14.1280    63.3330    30.0640    30.7990    30.2800    24.6840 
  152.7500     2.2220   -14.1600    64.6160    29.2570    29.8240    29.0750    24.6220 
  152.8750     2.2430   -14.1370    64.1420    28.7030    29.0650    28.3400    24.5680 
  153.0000     2.2610   -14.0990    63.1180    28.4980    28.6310    28.5150    24.5140 
  153.1250     2.2770   -14.0200    63.2810    28.7610    28.6670    29.6940    24.4760 
  153.2500     2.2850   -13.8920    63.5730    29.3850    29.1060    30.6780    24.4570 
  153.3750     2.2870   -13.7540    62.2120    30.3140    29.8980    30.9680    24.4670 
  153.5000     2.2890   -13.6410    59.6340    31.5390    30.9970    31.6600    24.4880 
  153.6250     2.2930   -13.5960    58.3440    33.0950    32.4010    33.8440    24.5010 
  153.7500     2.2880   -13.5830    58.7040    34.7990    33.9360    34.5970    24.5050 
  153.8750     2.2810   -13.5710    60.6830    36.3560    35.3530    35.5460    24.5060 
  154.0000     2.2870   -13.5440    63.4480    37.3460    36.2930    38.1520    24.5100 
  154.1250     2.3060   -13.5090    65.8250    37.2060    36.2650    42.6520    24.5260 
  154.2500     2.3080   -13.4920    67.3990    36.0740    35.3580    40.9340    24.5530 
  154.3750     2.2820   -13.4930    67.9170    34.3000    33.8490    34.6630    24.5680 
  154.5000     2.2480   -13.5010    67.2560    32.3730    32.1510    30.9210    24.5590 
  154.6250     2.2320   -13.4750    66.6720    30.8060    30.7030    30.2550    24.5250 
  154.7500     2.2310   -13.4490    68.2700    29.7560    29.6720    30.2210    24.5100 
  154.8750     2.2360   -13.4600    70.9390    29.1560    29.0270    29.9270    24.5070 
  155.0000     2.2430   -13.5250    72.8020    28.7470    28.5850    29.2610    24.5100 
  155.1250     2.2530   -13.6550    72.3330    28.1750    28.0420    28.8430    24.5080 
  155.2500     2.2640   -13.7690    70.4230    27.3050    27.2320    29.3970    24.5080 
  155.3750     2.2680   -13.8430    69.8380    26.2240    26.1940    28.1230    24.5090 
  155.5000     2.2640   -13.9040    71.4750    25.1510    25.1040    25.6330    24.5080 
  155.6250     2.2580   -13.9980    74.1440    24.3920    24.2390    23.5090    24.5060 
  155.7500     2.2600   -14.0990    74.7620    24.0600    23.7520    23.2000    24.5060 
  155.8750     2.2700   -14.1910    73.7130    24.1610    23.6910    24.3240    24.5060 
  156.0000     2.2820   -14.2640    73.4040    24.5890    23.9710    25.7520    24.5060 
  156.1250     2.2990   -14.3040    73.3450    25.1680    24.4130    26.6170    24.5060 
  156.2500     2.3140   -14.3650    71.7780    25.6830    24.7850    27.8450    24.5070 
  156.3750     2.3160   -14.4620    69.6800    26.0600    24.9990    27.3520    24.5100 
  156.5000     2.3010   -14.5690    67.8760    26.3400    25.1010    24.9820    24.5120 
  156.6250     2.2850   -14.6580    65.2270    26.6780    25.2760    25.2450    24.5260 
  156.7500     2.2800   -14.7280    61.4770    27.2080    25.6670    26.2910    24.5410 
  156.8750     2.2820   -14.7800    60.9770    27.9940    26.3220    27.2060    24.5490 
  157.0000     2.2800   -14.8250    65.0770    29.0380    27.2190    28.0940    24.5680 
  157.1250     2.2690   -14.8800    68.9810    30.3400    28.3210    28.7670    24.5780 
  157.2500     2.2550   -14.9260    71.4130    31.7670    29.4970    31.0400    24.5820 
  157.3750     2.2480   -14.9220    71.9610    33.1530    30.6240    33.2440    24.5810 
  157.5000     2.2480   -14.9110    69.9440    34.2480    31.5480    34.5920    24.5790 
  157.6250     2.2540   -14.9320    67.2750    34.6700    32.0340    35.0730    24.5800 
  157.7500     2.2640   -14.9290    66.0980    34.3900    32.0960    34.9380    24.5780 
  157.8750     2.2820   -14.8710    65.6990    33.5970    31.8890    33.3020    24.5770 
  158.0000     2.3090   -14.7700    66.0110    32.7900    31.7400    31.3030    24.5790 
  158.1250     2.3480   -14.6640    69.6470    32.9460    32.2570    31.9340    24.5800 
  158.2500     2.4010   -14.5570    72.2180    34.6810    33.8430    34.7370    24.5800 
  158.3750     2.4700   -14.4640    69.4170    38.0620    36.6180    37.5750    24.5820 
  158.5000     2.5470   -14.3550    63.9550    42.0510    39.9110    39.5100    24.5830 
  158.6250     2.6060   -14.1980    59.6030    43.3070    40.9740    43.8920    24.5850 
  158.7500     2.6310   -14.0780    56.0330    39.0820    37.2690    52.6840    24.5970 
  158.8750     2.6180   -14.0170    53.5070    29.8470    29.1990    55.1340    24.6240 
  159.0000     2.5660   -13.9770    55.0100    19.4980    20.1460    34.2940    24.6460 
  159.1250     2.4670   -13.9500    62.5860    12.1780    13.4770    15.1380    24.7450 
  159.2500     2.3650   -13.9530    70.8770     8.0040     9.3260     7.4180    24.9250 
  159.3750     2.3090   -14.0010    74.3130     6.0600     7.0880     5.1590    25.0070 
  159.5000     2.3170   -14.0870    74.4120     5.4780     6.1630     5.4600    24.7900 
  159.6250     2.3680   -14.2180    76.5550     5.8120     6.2470     6.9030    24.6340 
  159.7500     2.4120   -14.3460    81.1550     6.5890     6.8870     8.1520    24.5780 
  159.8750     2.4330   -14.4560    85.6040     7.5340     7.8130     8.7140    24.5750 
  160.0000     2.4430   -14.5810    91.5910     8.3600     8.7340     8.9100    24.5740 
  160.1250     2.4490   -14.7280   100.4580     8.7700     9.3590     9.0210    24.5770 
  160.2500     2.4510   -14.8680   106.9750     8.8070     9.6670     9.1080    24.5810 
  160.3750     2.4440   -14.9810   108.5770     8.5990     9.7370     8.9920    24.5800 
  160.5000     2.4340   -15.0880   109.6600     8.3080     9.6810     8.6540    24.5760 
  160.6250     2.4270   -15.2010   113.3060     8.0950     9.5720     8.7850    24.5750 
  160.7500     2.4270   -15.3560   114.8480     8.0330     9.4400     9.1570    24.5780 
  160.8750     2.4290   -15.5620   112.8130     8.1160     9.2840     9.4240    24.5790 
  161.0000     2.4270   -15.7840   113.0110     8.2770     9.1030     9.4240    24.5760 
  161.1250     2.4150   -15.9900   117.6060     8.4120     8.8930     9.3470    24.5750 
  161.2500     2.4010   -16.2110   120.7050     8.4700     8.6610     9.2420    24.5760 
  161.3750     2.3870   -16.4730   120.7630     8.4690     8.4400     9.1950    24.5760 
  161.5000     2.3740   -16.7480   121.7160     8.5180     8.3050     9.3180    24.5740 
  161.6250     2.3610   -16.9800   122.9170     8.8710     8.4300     9.5820    24.5740 
  161.7500     2.3500   -17.1630   121.2290     9.7550     8.9700    10.0310    24.5750 
  161.8750     2.3480   -17.3550   114.8410    11.4620    10.1470    11.7820    24.5790 
  162.0000     2.3540   -17.5480   102.8350    14.3120    12.2380    16.3350    24.5810 
  162.1250     2.3530   -17.7250    87.9130    18.8200    15.8090    26.0860    24.5800 
  162.2500     2.3340   -17.8620    78.8500    24.7470    20.8810    35.4030    24.5780 
  162.3750     2.3100   -17.9530    77.5160    31.6410    27.2370    41.5700    24.5760 
