~V
VERS. 2.00: Ver 2.00
~W
STRT.M 61.0000:
STOP.M 190.0000:
STEP.M 0.1250:
NULL. -999.2500:
UWI. F10559:
~C
DEPT.M :
SP.MV :
DEN.GM/CC :
GR.API :
RML.OHMM :
RI. :
RXO.OHMM :
CALI.CM :
~A
# ...
  173.5000    -5.0870     2.3650    78.5770     7.5760     6.6210     6.7340    26.4280 
  173.6250    -4.7550     2.3550    78.7450     7.4390     6.5240     6.7520    26.3610 
  173.7500    -4.3920     2.3380    79.2780     7.3070     6.4190     6.7900    26.3280 
  173.8750    -4.0000     2.3180    79.3770     7.1920     6.3170     7.0000    26.3370 
  174.0000    -3.5900     2.2960    79.4070     7.0980     6.2190     7.3590    26.4130 
  174.1250    -3.2460     2.2750    80.6100     7.0290     6.1240     7.4980    26.4680 
  174.2500    -2.9020     2.2600    81.8820     6.9800     6.0290     7.3620    26.4570 
  174.3750    -2.5530     2.2550    81.9730     6.9470     5.9390     7.0540    26.3700 
  174.5000    -2.2540     2.2660    81.3180     6.9220     5.8610     6.7770    26.3010 
  174.6250    -1.9940     2.2860    81.4600     6.8900     5.8030     6.6770    26.3620 
  174.7500    -1.7400     2.3040    82.5330     6.8510     5.7640     6.5870    26.4780 
  174.8750    -1.5120     2.3120    83.8720     6.8160     5.7400     6.3870    26.4690 
  175.0000    -1.2940     2.3130    84.6320     6.7990     5.7330     6.2690    26.3750 
  175.1250    -1.1080     2.3170    84.3340     6.8170     5.7520     6.3530    26.4660 
  175.2500    -0.9450     2.3320    82.9790     6.8640     5.8050     6.5300    26.5670 
  175.3750    -0.7820     2.3520    82.0160     6.9240     5.8890     6.8140    26.5510 
  175.5000    -0.5820     2.3690    80.7630     6.9740     5.9870     7.3390    26.4230 
  175.6250    -0.3610     2.3700    79.1520     6.9810     6.0590     8.6640    26.3460 
  175.7500    -0.1220     2.3580    78.4590     6.9330     6.0750    10.3320    26.3860 
  175.8750     0.1210     2.3410    79.8090     6.8380     6.0250    10.1030    26.4310 
  176.0000     0.3910     2.3260    82.8160     6.7200     5.9230     8.1280    26.4090 
  176.1250     0.7100     2.3230    83.9960     6.6200     5.8050     6.7320    26.4490 
  176.2500     1.0630     2.3260    82.7070     6.5610     5.7080     6.0720    26.5440 
  176.3750     1.3950     2.3300    79.9060     6.5450     5.6520     5.8870    26.5660 
  176.5000     1.7270     2.3310    77.6190     6.5580     5.6350     5.8860    26.5200 
  176.6250     2.0310     2.3250    78.9570     6.5840     5.6440     5.9420    26.4890 
  176.7500     2.2610     2.3160    81.3550     6.6100     5.6570     6.0000    26.4900 
  176.8750     2.4610     2.3080    81.9930     6.6270     5.6640     5.7420    26.5690 
  177.0000     2.5930     2.3020    80.5470     6.6320     5.6590     5.1860    26.6090 
  177.1250     2.6990     2.3020    80.4430     6.6190     5.6440     4.7200    26.6040 
  177.2500     2.8050     2.3060    83.5910     6.5940     5.6240     4.5030    26.4810 
  177.3750     2.8950     2.3120    87.7040     6.5630     5.6060     4.5460    26.3540 
  177.5000     2.9760     2.3170    89.5630     6.5360     5.5950     4.7510    26.3110 
  177.6250     3.0230     2.3210    88.0040     6.5240     5.5980     4.8580    26.3430 
  177.7500     3.0870     2.3240    86.7930     6.5300     5.6100     4.8560    26.3920 
  177.8750     3.1300     2.3250    87.9280     6.5500     5.6270     4.7770    26.5170 
  178.0000     3.1710     2.3250    88.3950     6.5740     5.6420     4.5070    26.7480 
  178.1250     3.2380     2.3220    86.1310     6.5870     5.6440     4.2040    27.0130 
  178.2500     3.3020     2.3120    85.2980     6.5810     5.6310     4.1170    27.1640 
  178.3750     3.3200     2.2960    87.4160     6.5620     5.6100     4.2480    27.1720 
  178.5000     3.3050     2.2760    90.2990     6.5380     5.5880     4.3900    27.0390 
  178.6250     3.3130     2.2610    90.5940     6.5230     5.5790     4.5260    26.8060 
  178.7500     3.3290     2.2580    89.4540     6.5190     5.5810     4.7160    26.6220 
  178.8750     3.3790     2.2680    88.1610     6.5180     5.5910     4.9570    26.5100 
  179.0000     3.4590     2.2860    87.1890     6.5100     5.5970     5.0260    26.4550 
  179.1250     3.5570     2.3010    86.6730     6.4850     5.5880     5.0000    26.4510 
  179.2500     3.6580     2.3080    86.5150     6.4440     5.5650     4.9550    26.3730 
  179.3750     3.8540     2.3080    86.6950     6.3950     5.5310     4.9180    26.3300 
  179.5000     4.0840     2.3050    88.0320     6.3470     5.4910     4.8200    26.3550 
  179.6250     4.3190     2.2990    89.5330     6.3100     5.4550     4.6690    26.4450 
  179.7500     4.5340     2.2910    90.2820     6.2850     5.4220     4.5360    26.4240 
  179.8750     4.7130     2.2830    90.2820     6.2660     5.3930     4.6250    26.3800 
  180.0000     4.9100     2.2770    90.2820     6.2420     5.3640     4.9750    26.3950 
  180.1250     5.0300     2.2770    90.2820     6.2010     5.3250     5.1060    26.4840 
  180.2500     5.1010     2.2750    90.2820     6.1420     5.2730     4.8270    26.5770 
  180.3750     5.1610     2.2670    90.2820     6.0690     5.2070     4.4100    26.6390 
  180.5000     5.2180     2.2520    90.2820     5.9980     5.1340     4.3440    26.7390 
  180.6250     5.2240     2.2380    90.2820     5.9650     5.0830     4.5530    26.7650 
  180.7500     5.1610     2.2360    90.2820     6.0060     5.0870     5.0080    26.7580 
  180.8750     5.0240     2.2480    90.2820     6.1550     5.1800     5.4030    26.7250 
  181.0000     4.7620     2.2640    90.2820     6.4280     5.3880     5.9740    26.7740 
  181.1250     4.3880     2.2690    90.2820     6.8140     5.7290     6.9500    26.7380 
  181.2500     3.9730     2.2580    90.2820     7.2220     6.1360     7.9890    26.5420 
  181.3750     3.5030     2.2390    90.2820     7.5550     6.5250     8.4770    26.3910 
  181.5000     2.9890     2.2260    90.2820     7.7200     6.7930     8.4050    26.2230 
  181.6250     2.5310     2.2280    90.2820     7.6210     6.8140     8.0110    26.0570 
  181.7500     2.2680     2.2430    90.2820     7.3200     6.6140     7.2480    26.1320 
  181.8750     2.2560     2.2610    90.2820     6.8970     6.2570     6.2610    26.3580 
  182.0000     2.4790     2.2740    90.2820     6.4540     5.8370     5.6060    26.6950 
  182.1250     2.8700     2.2760    90.2820     6.1010     5.4580     5.1760    27.0540 
  182.2500     3.3150     2.2740    90.2820     5.8750     5.1740     4.9140    27.5510 
  182.3750     3.7550     2.2730    90.2820     5.7810     5.0090     4.8620    28.1800 
  182.5000     4.1780     2.2780    90.2820     5.8010     4.9620     5.0260    28.3870 
  182.6250     4.4950     2.2880    90.2820     5.9180     5.0340     5.2640    28.0860 
  182.7500     4.6440     2.2990    90.2820     6.0890     5.1810     5.3390    27.7780 
  182.8750     4.5770     2.3040    90.2820     6.2900     5.3800     5.3260    27.5000 
  183.0000     4.2720     2.3040    90.2820     6.4980     5.6020     5.3420    27.1990 
  183.1250     3.8660     2.2970    90.2820     6.6840     5.8180     5.6830    26.8900 
  183.2500     3.4430     2.2870    90.2820     6.8320     6.0040     6.2200    26.6450 
  183.3750     3.0000     2.2760    90.2820     6.9310     6.1420     6.8140    26.5080 
  183.5000     2.5930     2.2670    90.2820     6.9830     6.2240     7.1350    26.4610 
  183.6250     2.3130     2.2680    90.2820     6.9930     6.2440     7.2700    26.4160 
  183.7500     2.1030     2.2770    90.2820     6.9820     6.2240     7.1850    26.3070 
  183.8750     1.9490     2.2930    90.2820     6.9670     6.1850     7.0390    26.2780 
  184.0000     1.9220     2.3090    90.2820     6.9610     6.1480     6.9320    26.2680 
  184.1250     1.7880     2.3230    90.2820     6.9770     6.1290     6.7550    26.2540 
  184.2500     1.7790     2.3360    90.2820     7.0070     6.1270     6.5880    26.2690 
  184.3750     1.8250     2.3440    90.2820     7.0440     6.1350     6.3680    26.3560 
  184.5000     1.9510     2.3360    90.2820     7.0780     6.1440     6.1030    26.4400 
  184.6250     2.0970     2.2970    90.2820     7.1020     6.1490     5.9320    26.4820 
