~V
VERS. 2.00: Ver 2.00
~W
STRT.M 50.0000:
STOP.M 236.0000:
STEP.M 0.1250:
NULL. -999.2500:
UWI. F10596:
~C
DEPT.M :
DEN.GM/CC :
SP.MV :
GR.API :
RML.OHMM :
RI. :
RXO.OHMM :
CALI.CM :
~A
# ...
  151.2500     2.4230   -14.1670    64.1370    23.5070    22.8240    23.5580    24.7240 
  151.3750     2.4250   -14.1670    63.4380    24.4010    23.7700    26.0780    24.7530 
  151.5000     2.4280   -14.1670    63.4420    24.9180    24.4420    28.6480    24.7700 
  151.6250     2.4330   -14.1670    63.5760    24.5910    24.4090    28.9770    24.7740 
  151.7500     2.4400   -14.1670    63.0560    23.5080    23.6570    27.2250    24.7740 
  151.8750     2.4450   -14.1670    61.8030    21.9530    22.3670    23.6270    24.7710 
  152.0000     2.4420   -14.1670    60.6430    20.4040    20.9270    21.6960    24.7600 
  152.1250     2.4330   -14.1670    59.4210    19.3730    19.7990    22.2240    24.7330 
  152.2500     2.4290   -14.1670    58.0050    18.8490    19.0890    23.3890    24.7080 
  152.3750     2.4350   -14.1670    56.7090    18.5880    18.6610    22.5440    24.6900 
  152.5000     2.4470   -14.1670    57.7170    18.2670    18.2650    19.9910    24.6610 
  152.6250     2.4610   -14.1670    58.8910    17.7160    17.7290    17.3220    24.6120 
  152.7500     2.4700   -14.1670    59.5530    17.1850    17.2010    16.7450    24.5720 
  152.8750     2.4730   -14.1670    61.9190    16.9700    16.9260    17.4150    24.5580 
  153.0000     2.4700   -14.1670    64.8300    17.1930    17.0480    18.6690    24.5640 
  153.1250     2.4610   -14.1670    63.9800    17.6980    17.5020    19.1430    24.5850 
  153.2500     2.4500   -14.1670    61.1110    18.0880    17.9320    18.5490    24.6120 
  153.3750     2.4400   -14.1670    60.4590    18.1850    18.1220    17.8600    24.6220 
  153.5000     2.4340   -14.1670    61.6810    18.0660    18.0740    17.9320    24.6220 
  153.6250     2.4350   -14.0000    61.4730    18.0240    17.9960    18.5220    24.6120 
  153.7500     2.4410   -14.0000    61.5810    18.2290    18.0810    19.2910    24.5890 
  153.8750     2.4480   -14.0000    61.9060    18.6340    18.3430    19.5240    24.5660 
  154.0000     2.4530   -13.9720    62.0210    19.0570    18.6670    19.3180    24.5530 
  154.1250     2.4550   -13.9380    61.1470    19.2530    18.8570    19.3750    24.5400 
  154.2500     2.4560   -13.9030    58.5470    19.1820    18.8190    19.2420    24.5170 
  154.3750     2.4540   -13.8470    57.0790    18.8980    18.5660    18.4670    24.4940 
  154.5000     2.4510   -13.8330    58.6670    18.5170    18.2030    18.2290    24.5040 
  154.6250     2.4510   -13.8330    61.4200    18.2140    17.8880    19.2600    24.5870 
  154.7500     2.4530   -13.8330    62.9520    18.1080    17.7020    20.5380    24.7260 
  154.8750     2.4530   -13.8330    63.7870    18.2470    17.6480    21.0230    24.8470 
  155.0000     2.4500   -13.8330    64.6910    18.5930    17.7110    21.3490    24.8950 
  155.1250     2.4480   -13.7920    63.8250    19.0430    17.9250    21.3010    24.8800 
  155.2500     2.4500   -13.6670    62.4780    19.4880    18.3010    21.7100    24.8400 
  155.3750     2.4510   -13.5420    62.2840    19.8880    18.8300    22.5520    24.7990 
  155.5000     2.4490   -13.5000    61.7830    20.2040    19.4000    23.0780    24.7650 
  155.6250     2.4420   -13.3330    60.8450    20.2980    19.7510    22.9160    24.7320 
  155.7500     2.4330   -13.3330    60.4300    20.1110    19.7390    22.0810    24.7030 
  155.8750     2.4290   -13.2080    60.0870    19.7140    19.3860    21.1490    24.7100 
  156.0000     2.4340   -13.1670    59.1350    19.2840    18.8510    20.9940    24.7940 
  156.1250     2.4480   -13.1670    58.9810    19.0270    18.3230    21.8020    24.8760 
  156.2500     2.4630   -13.1670    60.8870    18.9490    17.9160    22.1050    24.9100 
  156.3750     2.4750   -13.1670    64.2400    18.9650    17.6700    21.7910    24.9150 
  156.5000     2.4840   -13.1670    65.9980    18.9700    17.5850    21.7130    24.9150 
  156.6250     2.4870   -13.1670    62.9510    18.8890    17.6230    22.0470    24.9130 
  156.7500     2.4810   -13.1530    57.7080    18.7600    17.6860    22.2960    24.9000 
  156.8750     2.4690   -13.1180    54.5610    18.6100    17.7130    22.3960    24.8700 
  157.0000     2.4560   -13.0830    54.7780    18.4460    17.6750    21.5670    24.8470 
  157.1250     2.4460   -13.0420    55.7590    18.3220    17.5840    21.2630    24.8280 
  157.2500     2.4400   -13.0000    57.2080    18.2800    17.4990    21.0910    24.8020 
  157.3750     2.4430   -13.0000    59.5490    18.3300    17.4560    20.7490    24.7750 
  157.5000     2.4500   -12.8330    60.9130    18.4470    17.4650    20.4180    24.7640 
  157.6250     2.4550   -12.6670    61.8730    18.5710    17.5370    21.0770    24.7640 
  157.7500     2.4520   -12.6670    63.3250    18.5960    17.6300    23.1350    24.7640 
  157.8750     2.4420   -12.6670    62.7800    18.4360    17.6590    24.9840    24.7640 
  158.0000     2.4330   -12.6670    60.2360    18.0730    17.5220    22.7150    24.7640 
  158.1250     2.4310   -12.5000    59.1010    17.5460    17.1470    20.9980    24.7640 
  158.2500     2.4330   -12.4170    60.2790    16.9930    16.6510    20.1700    24.7640 
  158.3750     2.4340   -12.3330    60.3670    16.5260    16.1620    19.9700    24.7640 
  158.5000     2.4320   -12.1670    58.4550    16.2060    15.7820    19.0160    24.7640 
  158.6250     2.4330   -12.1670    57.4800    16.0450    15.5640    18.6640    24.7640 
  158.7500     2.4340   -12.1670    57.2240    15.9510    15.4300    18.6840    24.7640 
  158.8750     2.4290   -12.0420    56.9770    15.8630    15.3090    18.5440    24.7640 
  159.0000     2.4210   -12.0000    56.7320    15.7510    15.1710    18.0120    24.7640 
  159.1250     2.4120   -12.0000    57.4600    15.6340    15.0390    17.8160    24.7640 
  159.2500     2.4030   -12.0000    58.5150    15.5430    14.9520    17.9070    24.7640 
  159.3750     2.3930   -12.0000    58.2440    15.4750    14.9160    18.4160    24.7640 
  159.5000     2.3870   -12.0000    57.9350    15.3960    14.8960    18.7710    24.7630 
  159.6250     2.3880   -12.0000    59.5180    15.2370    14.8080    18.4250    24.7500 
  159.7500     2.3930   -12.0830    60.8940    14.9830    14.6110    18.0400    24.7230 
  159.8750     2.4030   -12.1670    60.4150    14.6850    14.3360    17.6170    24.6990 
  160.0000     2.4140   -12.1950    60.3430    14.4400    14.0710    17.0310    24.6890 
  160.1250     2.4240   -12.3220    62.7690    14.3890    13.9540    16.7680    24.6890 
  160.2500     2.4340   -12.4310    63.7610    14.5620    14.0370    16.9950    24.6890 
  160.3750     2.4420   -12.5260    60.9010    14.9390    14.3250    17.3160    24.6890 
  160.5000     2.4410   -12.5920    57.7310    15.4230    14.7590    17.6300    24.7060 
  160.6250     2.4220   -12.6190    59.2600    15.8340    15.2030    17.7570    24.7530 
  160.7500     2.3960   -12.6250    62.2990    16.0590    15.5100    17.7260    24.8130 
  160.8750     2.3770   -12.5990    62.8650    16.0940    15.6020    17.7820    24.8300 
  161.0000     2.3620   -12.5490    60.0150    15.9860    15.4700    17.7450    24.7940 
  161.1250     2.3440   -12.4800    56.7130    15.7490    15.1430    17.2760    24.7730 
  161.2500     2.3290   -12.4110    54.5830    15.4140    14.7540    16.3290    24.7640 
  161.3750     2.3300   -12.3520    53.1710    15.0380    14.4170    15.4670    24.7640 
  161.5000     2.3430   -12.2860    52.7670    14.7400    14.2320    15.0990    24.7640 
  161.6250     2.3580   -12.2300    52.9050    14.7280    14.3060    15.2770    24.7640 
  161.7500     2.3690   -12.1670    55.4950    15.0830    14.6220    16.0510    24.7640 
  161.8750     2.3790   -12.1230    59.4710    15.7820    15.1570    17.4900    24.7650 
  162.0000     2.3850   -12.0910    61.3290    16.6920    15.8630    18.3620    24.7660 
  162.1250     2.3810   -12.0770    60.2320    17.6320    16.7010    19.4090    24.7670 
  162.2500     2.3750   -12.0730    60.6550    18.4320    17.5550    21.2370    24.7650 
  162.3750     2.3710   -12.0730    64.9150    18.9540    18.2900    23.3440    24.7640 
