~V
VERS. 2.00: Ver 2.00
~W
STRT.M 54.0000:
STOP.M 217.0000:
STEP.M 0.1250:
NULL. -999.2500:
UWI. F10593:
~C
DEPT.M :
SP.MV :
GR.API :
RML.OHMM :
RI. :
RXO.OHMM :
CALI.CM :
DEN.GM/CC :
~A
   54.0000  -999.2500    45.4030     0.6000     0.3950     0.6940    25.0370  -999.2500 
   54.1250  -999.2500    47.5970     0.6300     0.3930     0.6100    25.0380  -999.2500 
   54.2500  -999.2500    48.2650     0.6320     0.3930     0.5460    25.0420  -999.2500 
   54.3750  -999.2500    47.3980     0.6010     0.3920     0.5490    25.0370  -999.2500 
   54.5000  -999.2500    46.1000     0.5560     0.3890     0.5590    25.0300  -999.2500 
   54.6250  -999.2500    44.5560     0.5260     0.3830     0.5360    25.0240  -999.2500 
   54.7500  -999.2500    42.3460     0.5150     0.3810     0.5200    25.0180  -999.2500 
   54.8750  -999.2500    40.0880     0.5180     0.3860     0.5300    25.0170  -999.2500 
   55.0000  -999.2500    40.8340     0.5250     0.3940     0.5780    25.0130  -999.2500 
   55.1250  -999.2500    43.6740     0.5330     0.3950     0.6360    25.0130  -999.2500 
   55.2500  -999.2500    45.2430     0.5430     0.3880     0.7700    25.0160  -999.2500 
   55.3750  -999.2500    45.7840     0.5540     0.3780     0.7130    25.0210     2.6050 
   55.5000  -999.2500    45.9270     0.5650     0.3720     0.7340    25.0220     2.6050 
   55.6250    85.3980    44.9470     0.5720     0.3730     0.7990    25.0180     2.6030 
   55.7500    85.3980    43.4180     0.5670     0.3770     0.9070    25.0110     2.6010 
   55.8750    85.0520    42.9680     0.5460     0.3830     1.8330    25.0120     2.6000 
   56.0000    84.9840    43.5420     0.5180     0.3860     1.5840    25.0150     2.6000 
   56.1250    85.1890    43.7610     0.5010     0.3880     0.8240    25.0150     2.6010 
   56.2500    85.6300    43.9840     0.4970     0.3910     0.5930    25.0140     2.6050 
   56.3750    86.2050    43.6600     0.5010     0.3970     0.6020    25.0200     2.6120 
   56.5000    86.7740    42.3850     0.5080     0.4020     0.7120    25.0240     2.6230 
   56.6250    87.2370    41.8520     0.5150     0.4060     0.7900    25.0250     2.6350 
   56.7500    87.5040    41.8460     0.5180     0.4090     0.7450    25.0250     2.6450 
   56.8750    87.4560    41.3150     0.5180     0.4130     0.9990    25.0250     2.6440 
   57.0000    87.1350    41.0180     0.5190     0.4270     1.2810    25.0240     2.6330 
   57.1250    86.5350    41.6170     0.5230     0.4570     2.0180    25.0230     2.6150 
   57.2500    85.6300    42.7590     0.5290     0.4810     1.5980    25.0240     2.5970 
   57.3750    84.4700    44.3830     0.5360     0.4830     1.1620    25.0240     2.5870 
   57.5000    83.1660    46.8560     0.5430     0.4720     0.8840    25.0250     2.5840 
   57.6250    81.8040    48.9670     0.5540     0.4630     0.8480    25.0250     2.5860 
   57.7500    80.4360    49.5120     0.5710     0.4590     0.9320    25.0250     2.5900 
   57.8750    79.0720    48.9240     0.5960     0.4580     1.2300    25.0250     2.5920 
   58.0000    77.7650    47.7320     0.6090     0.4600     1.1790    25.0250     2.5930 
   58.1250    76.6000    46.6250     0.6050     0.4620     0.9330    25.0250     2.5970 
   58.2500    75.6630    45.0100     0.5910     0.4650     0.7100    25.0240     2.6060 
   58.3750    75.0380    41.8080     0.5840     0.4660     0.5950    25.0230     2.6140 
   58.5000    74.6240    38.8530     0.5880     0.4780     0.5490    25.0260     2.6110 
   58.6250    74.3100    38.6380     0.5970     0.4990     0.5330    25.0390     2.5820 
   58.7500    74.0970    41.2380     0.6110     0.5090     0.5560    25.0610     2.5230 
   58.8750    73.9240    43.8260     0.6310     0.4970     0.5740    25.0750     2.4400 
   59.0000    73.7750    44.3840     0.6620     0.4720     0.5750    25.0850     2.3590 
   59.1250    73.6360    43.4680     0.6940     0.4570     0.5740    25.1020     2.3000 
   59.2500    73.3880    42.9960     0.7230     0.4520     0.5970    25.1180     2.2730 
   59.3750    72.8460    44.2410     0.7430     0.4530     0.6080    25.1290     2.2730 
   59.5000    71.9990    45.0080     0.7610     0.4540     0.6190    25.1350     2.2790 
   59.6250    70.7350    44.6520     0.7470     0.4450     0.6150    25.1470     2.2890 
   59.7500    68.8050    44.2440     0.6630     0.4160     0.6930    25.1670     2.3090 
   59.8750    65.9080    42.7660     0.4990     0.3580     0.6010    25.1790     2.3430 
   60.0000    62.2000    40.7380     0.3750     0.3150     0.5860    25.1890     2.3790 
   60.1250    57.6030    43.3650     0.3340     0.2930     0.8550    25.2020     2.3980 
   60.2500    52.1210    52.9280     0.3900     0.3630     2.3360    25.2180     2.3950 
   60.3750    45.8090    62.6430     0.6060     0.7530     4.9880    25.2360     2.3900 
   60.5000    38.9950    66.3450     1.1220     1.7220    10.3510    25.2190     2.4170 
   60.6250    31.9240    65.3910     2.4050     3.3740    19.2920    25.0970     2.4810 
   60.7500    24.9710    65.0350     4.7100     5.5440    39.2010    24.8950     2.5590 
   60.8750    18.5280    68.8170     7.4780     7.1760    55.5730    24.7980     2.5970 
   61.0000    12.5650    73.8460     8.6650     7.9110    51.5940    24.7790     2.5770 
   61.1250     7.2340    77.4040     8.7730     8.1420    32.7280    24.8120     2.5070 
   61.2500     2.6440    79.5730     8.5140     7.9630    15.7480    24.8880     2.4130 
   61.3750    -1.1170    81.9600     8.2810     7.6690    11.8650    24.9730     2.3300 
   61.5000    -4.2740    81.6780     8.0640     7.3880    11.1960    25.0450     2.2700 
   61.6250    -6.8460    77.3660     7.8180     7.2340    10.7950    25.0950     2.2340 
   61.7500    -8.9730    72.6000     7.7260     7.1490    10.1330    25.1490     2.2130 
   61.8750   -10.7050    71.5210     7.8810     7.1670     9.5550    25.2180     2.2010 
   62.0000   -12.1070    71.8610     8.1760     7.2680     9.1250    25.2420     2.1910 
   62.1250   -13.2400    70.7190     8.5110     7.4340     9.0540    25.1750     2.1810 
   62.2500   -14.1950    66.9290     8.8220     7.6310     9.4160    25.0660     2.1720 
   62.3750   -14.9880    61.7940     9.0180     7.9170    10.0260    25.0550     2.1610 
   62.5000   -15.6300    59.7770     9.0940     8.1780    10.4060    25.0500     2.1450 
   62.6250   -16.2250    61.8990     9.1160     8.3820    10.4540    25.0380     2.1220 
   62.7500   -16.7500    65.7220     9.2160     8.4970    10.3930    25.0550     2.0980 
   62.8750   -17.1360    65.9230     9.5950     8.5640    10.5900    25.1510     2.0960 
   63.0000   -17.4310    62.6340    10.3390     8.6410    10.5650    25.2800     2.1390 
   63.1250   -17.6620    59.2390    11.4610     8.8230    11.8560    25.3820     2.2360 
   63.2500   -17.8170    58.2760    12.7940     9.2060    17.6970    25.4680     2.3730 
   63.3750   -17.9730    60.8860    13.8250     9.5300    27.3060    25.5670     2.5030 
   63.5000   -18.1500    64.3760    14.0940     9.5360    22.9000    25.7340     2.5760 
   63.6250   -18.2850    65.9180    13.4490     9.3010    13.7350    25.9680     2.5710 
   63.7500   -18.3360    64.3260    12.1410     9.0730     9.7380    26.1380     2.4980 
   63.8750   -18.3620    61.6890    10.6400     8.8150     9.3070    26.1730     2.3900 
   64.0000   -18.4380    61.3310     9.6470     8.5780     9.3780    26.1130     2.2870 
   64.1250   -18.5290    62.4830     9.1860     8.4170     9.6120    25.9800     2.2040 
   64.2500   -18.5960    62.8170     9.1450     8.3610     9.8140    25.8290     2.1460 
   64.3750   -18.6050    62.1630     9.3630     8.4370     9.6100    25.7350     2.1110 
   64.5000   -18.5400    61.5540     9.5650     8.5920     9.6220    25.6650     2.0930 
   64.6250   -18.3480    62.7730     9.5350     8.6620    10.1410    25.5820     2.0920 
   64.7500   -18.1120    66.2680     9.1570     8.4700    10.5690    25.5170     2.1050 
   64.8750   -17.8340    70.6240     8.4750     7.8860     9.8820    25.5290     2.1290 
   65.0000   -17.4410    73.6450     7.7610     7.3270     8.5920    25.6520     2.1580 
   65.1250   -17.0640    74.8800     7.2140     6.8550     7.4580    25.7860     2.1880 
