~V
VERS. 2.00: Ver 2.00
~W
STRT.M 50.0000:
STOP.M 233.0000:
STEP.M 0.1250:
NULL. -999.2500:
UWI. F10598:
~C
DEPT.M :
DEN.GM/CC :
SP.MV :
GR.API :
RML.OHMM :
RI. :
RXO.OHMM :
CALI.CM :
~A
# ...
  162.5000     2.4090    -6.5860    61.5030    18.9630    17.4480    16.4190    23.7800 
  162.6250     2.4260    -6.5930    65.6640    19.5930    18.0210    16.3050    23.4580 
  162.7500     2.4270    -6.6100    68.4370    19.9210    18.4290    16.4240    23.0450 
  162.8750     2.4170    -6.6590    68.8080    19.9570    18.6010    16.2270    22.8020 
  163.0000     2.4060    -6.7200    68.6030    19.8090    18.5470    15.9240    22.7740 
  163.1250     2.3970    -6.7990    70.0360    19.6280    18.3270    16.0100    22.9650 
  163.2500     2.3940    -6.8880    71.8980    19.5150    18.0790    16.4240    23.2860 
  163.3750     2.3980    -6.9580    71.3210    19.4170    17.8810    17.0050    23.7220 
  163.5000     2.4110    -6.9820    68.7170    19.2140    17.7620    17.4890    24.0320 
  163.6250     2.4270    -6.9890    68.3660    18.8740    17.7270    17.7590    24.1240 
  163.7500     2.4360    -6.9790    71.9740    18.5770    17.7650    18.1360    24.1350 
  163.8750     2.4340    -6.9470    76.4530    18.4920    17.8870    18.1380    24.1350 
  164.0000     2.4260    -6.9210    76.5950    18.6690    18.0670    18.0490    24.1340 
  164.1250     2.4160    -6.8890    72.6170    18.9780    18.2080    17.7950    24.1330 
  164.2500     2.4120    -6.8510    68.8630    19.1600    18.2040    18.2960    24.1320 
  164.3750     2.4100    -6.8220    67.8910    19.0650    18.0010    18.5730    24.1260 
  164.5000     2.4100    -6.8180    69.8540    18.7000    17.6150    17.7980    24.1080 
  164.6250     2.4120    -6.8530    72.0580    18.1710    17.1180    17.0040    24.0730 
  164.7500     2.4220    -6.9030    73.6650    17.6270    16.6240    16.6320    24.0290 
  164.8750     2.4350    -6.9490    74.8370    17.1720    16.1950    16.3720    23.9160 
  165.0000     2.4430    -6.9580    74.6270    16.9090    15.8690    15.9260    23.7010 
  165.1250     2.4360    -6.9400    71.8550    16.9420    15.7240    15.0020    23.4750 
  165.2500     2.4250    -6.9060    69.8970    17.1760    15.7840    14.9720    23.3510 
  165.3750     2.4170    -6.8630    71.2270    17.4660    16.0290    16.3430    23.3100 
  165.5000     2.4150    -6.8240    72.9620    17.6380    16.3410    18.4500    23.3030 
  165.6250     2.4170    -6.7930    71.1390    17.5040    16.5040    19.1290    23.3030 
  165.7500     2.4190    -6.7720    67.8600    17.1190    16.4260    19.0040    23.3030 
  165.8750     2.4200    -6.7870    65.7660    16.6400    16.1440    18.2180    23.3030 
  166.0000     2.4190    -6.8600    64.7830    16.2310    15.7850    16.7430    23.3030 
  166.1250     2.4200    -7.0070    64.8650    15.9310    15.4430    15.4320    23.3070 
  166.2500     2.4250    -7.1990    67.3510    15.5700    15.0600    15.5350    23.3370 
  166.3750     2.4320    -7.4190    71.8700    14.9410    14.4910    16.6390    23.4650 
  166.5000     2.4340    -7.6540    75.3050    13.8930    13.6240    16.7080    23.7550 
  166.6250     2.4250    -7.8750    76.2710    12.4460    12.4220    14.1690    24.1470 
  166.7500     2.4100    -8.0630    76.5880    10.9620    11.1060    11.5110    24.4000 
  166.8750     2.3980    -8.2410    76.8190     9.7370     9.8900    10.0390    24.4960 
  167.0000     2.3900    -8.4050    76.7170     8.9450     8.9490     9.2140    24.5120 
  167.1250     2.3840    -8.5130    76.0200     8.6580     8.4230     8.5230    24.5120 
  167.2500     2.3770    -8.5880    76.1350     8.6800     8.2080     8.6610    24.5120 
  167.3750     2.3680    -8.6260    79.6550     8.8420     8.1920     9.5080    24.5120 
  167.5000     2.3550    -8.6180    88.1950     8.9870     8.2410    10.2810    24.5200 
  167.6250     2.3440    -8.5510    97.1260     8.9900     8.2340     9.7020    24.5420 
  167.7500     2.3410    -8.4410    99.6810     8.8410     8.1500     8.9110    24.5690 
  167.8750     2.3400    -8.2760    96.2980     8.5780     8.0320     8.7880    24.5800 
  168.0000     2.3360    -8.0630    93.4710     8.2660     7.9480     9.0690    24.5800 
  168.1250     2.3250    -7.8230    96.4990     8.0020     7.9700     9.2100    24.5800 
  168.2500     2.3060    -7.5620    99.8940     7.8750     8.0860     9.3400    24.5800 
  168.3750     2.2830    -7.2880    98.3050     7.9270     8.2690     9.8350    24.5800 
  168.5000     2.2610    -7.0130    90.9310     8.1460     8.4840    10.2690    24.5800 
  168.6250     2.2470    -6.7400    83.8960     8.4890     8.6830    10.4000    24.5800 
  168.7500     2.2370    -6.4820    82.4960     8.8660     8.8440    10.5950    24.5800 
  168.8750     2.2330    -6.2560    86.1400     9.2480     8.9810    11.4560    24.5800 
  169.0000     2.2420    -6.0610    89.5340     9.6470     9.1460    12.5810    24.5800 
  169.1250     2.2710    -5.8930    88.4880    10.1610     9.4410    12.4040    24.5800 
  169.2500     2.3100    -5.7280    86.9400    10.8780     9.9410    12.4820    24.5800 
  169.3750     2.3490    -5.5770    87.4030    11.8350    10.7010    14.5370    24.5800 
  169.5000     2.3810    -5.4570    86.3500    12.9760    11.6990    16.9290    24.5800 
  169.6250     2.3960    -5.4060    82.5200    14.1530    12.8140    18.1580    24.5800 
  169.7500     2.3910    -5.4110    79.3420    15.1820    13.8260    18.9170    24.5800 
  169.8750     2.3610    -5.4380    77.6650    15.9640    14.5990    19.9640    24.5800 
  170.0000     2.3100    -5.4690    77.5330    16.4980    15.1100    19.4180    24.5800 
  170.1250     2.2530    -5.5070    79.7600    16.9110    15.4900    17.3240    24.5800 
  170.2500     2.2090    -5.5570    81.2040    17.3980    15.9840    17.1110    24.5800 
  170.3750     2.1850    -5.6260    80.4640    18.0290    16.7130    19.6610    24.5800 
  170.5000     2.1790    -5.6880    78.7510    18.7960    17.6580    22.1480    24.5800 
  170.6250     2.1820    -5.7050    76.1210    19.6170    18.6430    23.3700    24.5800 
  170.7500     2.1840    -5.6920    71.0920    20.3570    19.4330    23.7250    24.5800 
  170.8750     2.1870    -5.6590    67.2610    20.9720    19.9350    23.9310    24.5800 
  171.0000     2.1920    -5.6270    71.2090    21.5620    20.2630    23.9480    24.5800 
  171.1250     2.1960    -5.6060    80.6950    22.3410    20.7450    23.1920    24.5800 
  171.2500     2.1950    -5.5820    83.7040    23.3430    21.5820    23.3670    24.5800 
  171.3750     2.1890    -5.5440    78.9180    24.3940    22.7060    25.7270    24.5800 
  171.5000     2.1810    -5.4990    72.8390    25.1620    23.7790    29.5660    24.5800 
  171.6250     2.1770    -5.4520    73.1820    25.7430    23.7040    31.8580    24.5800 
  171.7500     2.1780    -5.4110    75.1630    25.4330    23.0990    31.3770    24.5800 
  171.8750     2.1830    -5.4150    74.4190    24.6210    22.1800    28.3770    24.5800 
  172.0000     2.1860    -5.4440    74.9840    23.8100    21.4330    25.1250    24.5800 
  172.1250     2.1840    -5.4870    79.2060    23.5740    21.4180    24.4470    24.5800 
  172.2500     2.1800    -5.5510    80.6940    24.0260    22.1590    26.1970    24.5800 
  172.3750     2.1770    -5.6340    76.6380    25.0490    23.4300    29.2120    24.5800 
  172.5000     2.1750    -5.7190    72.1270    26.3420    24.8200    31.3040    24.5800 
  172.6250     2.1750    -5.8180    72.6000    27.4850    25.8330    31.6890    24.5800 
  172.7500     2.1750    -5.9390    73.2990    28.3050    26.4020    31.4740    24.5800 
  172.8750     2.1740    -6.0410    72.4840    28.9220    26.7900    31.5420    24.5800 
  173.0000     2.1690    -6.1460    73.0660    29.6410    27.3690    31.8310    24.5800 
  173.1250     2.1620    -6.2390    74.7150    30.8070    28.4360    32.2150    24.5800 
  173.2500     2.1550    -6.3380    74.1590    32.3860    29.8730    32.9210    24.5800 
  173.3750     2.1480    -6.4290    72.6250    34.1920    31.5150    34.2030    24.5800 
  173.5000     2.1420    -6.5060    72.6630    35.9480    33.1780    36.2370    24.5800 
  173.6250     2.1360    -6.5810    73.2190    37.3470    34.5170    37.4380    24.5800 
