~V
VERS. 2.00: Ver 2.00
~W
STRT.M 42.0000:
STOP.M 195.0000:
STEP.M 0.1250:
NULL. -999.2500:
UWI. F10590:
~C
DEPT.M :
GR.API :
RML.OHMM :
RI. :
RXO.OHMM :
CALI.CM :
DEN.GM/CC :
SP.MV :
~A
# ...
  154.5000    73.7190    22.9540    23.3240    18.4970    22.9260     2.2350   -19.8370 
  154.6250    72.2540    21.3510    21.6180    17.5440    22.9260     2.2370   -19.7920 
  154.7500    68.2500    20.3440    20.4870    17.0140    22.9240     2.2360   -19.7650 
  154.8750    64.1380    19.7500    19.7860    16.5880    22.9240     2.2350   -19.7430 
  155.0000    62.6700    19.3860    19.3530    15.8400    22.9240     2.2360   -19.7120 
  155.1250    66.9980    19.1310    19.0790    16.1810    22.9240     2.2380   -19.6960 
  155.2500    72.3270    18.9450    18.8990    16.6330    22.9250     2.2370   -19.6860 
  155.3750    73.3430    18.8930    18.8550    16.5870    22.9440     2.2330   -19.6850 
  155.5000    71.2050    19.0840    19.0280    16.2260    23.0100     2.2240   -19.7150 
  155.6250    71.9270    19.6920    19.5640    17.0790    23.1520     2.2150   -19.7630 
  155.7500    72.8380    20.6890    20.4590    18.3470    23.2450     2.2120   -19.7960 
  155.8750    70.6560    21.9870    21.6650    19.6760    23.2670     2.2190   -19.8520 
  156.0000    67.0390    23.3740    23.0180    21.4080    23.2300     2.2360   -19.9680 
  156.1250    63.7180    24.4830    24.1840    22.4530    23.1420     2.2600   -20.0810 
  156.2500    61.4040    25.0910    24.8960    23.6180    23.0600     2.2840   -20.1650 
  156.3750    61.9950    25.1400    25.0530    24.1800    22.9930     2.3020   -20.2680 
  156.5000    65.5460    24.7450    24.7390    23.5610    22.9450     2.3090   -20.3680 
  156.6250    67.7910    24.1400    24.1650    21.7400    22.9270     2.3010   -20.4550 
  156.7500    67.9300    23.6270    23.6400    20.9280    22.9240     2.2830   -20.5680 
  156.8750    68.2490    23.3660    23.3300    21.0290    22.9270     2.2600   -20.6680 
  157.0000    68.9530    23.4160    23.3050    21.3430    22.9350     2.2390   -20.6890 
  157.1250    68.3110    23.7560    23.5890    22.1990    22.9580     2.2260   -20.6610 
  157.2500    66.8450    24.1880    24.0380    23.3610    22.9890     2.2200   -20.6630 
  157.3750    65.5580    24.5590    24.5150    24.2060    23.0210     2.2170   -20.6740 
  157.5000    65.6740    24.7530    24.8820    24.7270    23.0480     2.2180   -20.6310 
  157.6250    66.8860    24.6880    24.9840    24.1310    23.0720     2.2210   -20.5250 
  157.7500    67.0060    24.4250    24.8190    23.6050    23.0810     2.2260   -20.4370 
  157.8750    65.4170    24.0270    24.4290    23.4120    23.0820     2.2300   -20.3540 
  158.0000    63.4180    23.5700    23.9110    23.1820    23.0730     2.2320   -20.2860 
  158.1250    63.3640    23.1650    23.4020    22.1480    23.0500     2.2280   -20.2790 
  158.2500    64.0950    22.9020    23.0120    20.4900    23.0280     2.2220   -20.2690 
  158.3750    63.5800    22.8250    22.7820    19.9240    23.0240     2.2190   -20.2270 
  158.5000    61.4310    22.9120    22.6920    20.6850    23.0430     2.2270   -20.2220 
  158.6250    60.0940    23.1010    22.6960    22.2950    23.0910     2.2560   -20.2430 
  158.7500    60.9890    23.3310    22.7580    22.8990    23.1410     2.3010   -20.2240 
  158.8750    61.6160    23.6760    22.9460    22.6760    23.1600     2.3490   -20.2180 
  159.0000    60.7460    24.2980    23.3980    21.3840    23.1460     2.3860   -20.2680 
  159.1250    58.5000    25.4240    24.3130    20.8300    23.1040     2.4090   -20.2900 
  159.2500    55.0500    26.9280    25.5930    21.2870    23.0760     2.4320   -20.2910 
  159.3750    50.9070    28.5340    27.0170    24.5640    23.1040     2.4630   -20.3100 
  159.5000    48.4670    29.8730    28.2690    31.7510    23.1360     2.4990   -20.3320 
  159.6250    52.0840    30.6050    29.0090    37.0540    23.1170     2.5130   -20.3930 
  159.7500    58.7790    30.8680    29.3470    33.6300    23.0170     2.4890   -20.4960 
  159.8750    63.3610    30.9050    29.5780    27.0610    22.8650     2.4290   -20.5940 
  160.0000    63.1060    30.9770    30.0670    27.6590    22.7930     2.3510   -20.6410 
  160.1250    60.8360    32.0670    31.1340    33.4110    22.8240     2.2850   -20.6760 
  160.2500    60.8130    33.7540    32.6090    38.0190    22.8390     2.2440   -20.7640 
  160.3750    61.2670    35.5080    34.1690    37.0150    22.8140     2.2250   -20.8930 
  160.5000    60.4560    36.8240    35.4460    33.6590    22.8000     2.2190   -21.0160 
  160.6250    59.2810    37.4890    36.1630    33.3590    22.8390     2.2160   -21.0990 
  160.7500    58.9670    37.8330    36.5300    33.9750    22.9510     2.2120   -21.1610 
  160.8750    59.7760    38.1790    36.8100    33.9770    23.1340     2.2080   -21.2690 
  161.0000    61.1900    38.7520    37.2270    33.8590    23.3620     2.2060   -21.4590 
  161.1250    63.2650    39.6590    37.9190    34.4410    23.4860     2.2070   -21.6530 
  161.2500    63.8260    40.7820    38.8090    33.7810    23.5230     2.2080   -21.7960 
  161.3750    62.3600    42.0090    39.7990    33.2320    23.5260     2.2110   -21.9290 
  161.5000    60.3710    43.2280    40.7870    34.3640    23.5260     2.2160   -22.1090 
  161.6250    61.1460    44.3470    41.6900    37.9230    23.5260     2.2240   -22.3280 
  161.7500    64.6240    45.3940    42.5530    40.3830    23.5250     2.2320   -22.5380 
  161.8750    66.2930    46.4590    43.4980    40.3290    23.5140     2.2380   -22.7150 
  162.0000    63.8920    47.6400    44.6610    40.1790    23.4850     2.2430   -22.8690 
  162.1250    60.5340    48.9950    46.1640    41.3670    23.4490     2.2500   -23.0770 
  162.2500    59.8100    50.4080    47.8950    44.3210    23.4320     2.2600   -23.3460 
  162.3750    61.3370    51.9840    49.7260    47.3420    23.4270     2.2730   -23.6290 
  162.5000    63.7440    53.8590    51.5310    48.4160    23.4110     2.2820   -23.8850 
  162.6250    65.8280    56.1170    53.1270    45.8170    23.3510     2.2890   -24.1010 
  162.7500    65.7930    57.1360    54.2940    39.7670    23.2570     2.3060   -24.3050 
  162.8750    63.6040    56.8450    54.6480    36.0420    23.1920     2.3450   -24.5130 
  163.0000    61.1490    54.8780    53.5460    40.1030    23.2090     2.4100   -24.7120 
  163.1250    60.4300    50.0060    49.5900    46.4920    23.2730     2.4910   -24.7850 
  163.2500    62.6210    42.3250    42.6970    42.6890    23.3010     2.5590   -24.7260 
  163.3750    67.4640    32.8310    33.6900    36.4330    23.3010     2.5910   -24.5800 
  163.5000    70.5850    23.3410    24.3550    33.1560    23.2710     2.5780   -24.3800 
  163.6250    68.6080    15.9190    16.8070    21.4160    23.1860     2.5240   -24.1270 
  163.7500    66.4030    10.9050    11.5300    10.1390    23.0940     2.4560   -23.8440 
  163.8750    69.0460     8.0060     8.3110     6.2050    23.0390     2.3950   -23.5520 
  164.0000    77.2450     6.6550     6.6530     5.3430    23.0220     2.3530   -23.2780 
  164.1250    84.5120     6.4640     6.2320     5.5620    23.0220     2.3410   -23.0730 
  164.2500    87.8240     6.8920     6.5320     6.3870    23.0220     2.3480   -22.9260 
  164.3750    90.5070     7.7270     7.3230     7.7010    23.0220     2.3660   -22.8290 
  164.5000    96.4730     8.7250     8.3540     8.5920    23.0200     2.3870   -22.7870 
  164.6250   102.2480     9.6400     9.3120     8.8820    22.9930     2.4030   -22.7970 
  164.7500   103.3540    10.1540     9.9780     8.9030    22.9240     2.4100   -22.8280 
  164.8750   101.7900    10.3820    10.2940     8.8270    22.8390     2.4090   -22.8460 
  165.0000   100.8200    10.4270    10.3320     8.8010    22.7850     2.4040   -22.8200 
  165.1250   102.7510    10.3660    10.2260     8.7000    22.7570     2.3980   -22.8240 
  165.2500   107.6170    10.2840    10.1130     8.6170    22.7290     2.3960   -22.9010 
  165.3750   111.6080    10.1700    10.0220     8.5130    22.6880     2.3980   -23.0010 
  165.5000   110.1990    10.0760     9.9330     8.4440    22.6120     2.4040   -23.0800 
  165.6250   107.0810    10.0210     9.8020     8.4190    22.5250     2.4090   -23.1650 
