~V
VERS. 2.00: Ver 2.00
~W
STRT.M 47.0000:
STOP.M 236.0000:
STEP.M 0.1250:
NULL. -999.2500:
UWI. F10597:
~C
DEPT.M :
SP.MV :
DEN.GM/CC :
GR.API :
RML.OHMM :
RI. :
RXO.OHMM :
CALI.CM :
~A
# ...
  114.5000   -19.8440     2.0610    73.8130    28.4390    25.7380    22.8280    23.9640 
  114.6250   -19.7170     2.0590    73.3560    29.8020    26.8600    24.0610    23.9090 
  114.7500   -19.5590     2.0640    71.9720    31.2310    28.2690    26.1290    23.8320 
  114.8750   -19.3730     2.0730    70.3200    32.1670    29.3590    27.4500    23.7650 
  115.0000   -19.1270     2.0800    69.8740    32.2080    29.6410    27.7810    23.7400 
  115.1250   -18.8380     2.0840    70.2780    31.5820    29.3020    28.3250    23.7350 
  115.2500   -18.5640     2.0870    71.3940    30.4760    28.5630    28.8860    23.7350 
  115.3750   -18.3530     2.0930    72.4130    29.0730    27.6050    29.1780    23.7350 
  115.5000   -18.2220     2.1080    72.6310    27.6450    26.6000    27.8810    23.7350 
  115.6250   -18.1270     2.1220    74.9620    26.3870    25.6330    29.6200    23.7350 
  115.7500   -18.0790     2.1300    79.0980    25.1920    24.5990    30.7860    23.7350 
  115.8750   -18.0970     2.1320    80.6410    23.7390    23.2640    28.3630    23.7330 
  116.0000   -18.2070     2.1290    76.6950    21.7450    21.4010    21.7800    23.7160 
  116.1250   -18.3750     2.1220    73.5240    19.5860    19.3300    16.5480    23.6740 
  116.2500   -18.5560     2.1110    74.0850    17.7810    17.4870    14.7050    23.6210 
  116.3750   -18.7070     2.1010    75.2150    16.6840    16.1980    14.3670    23.5910 
  116.5000   -18.8190     2.0960    73.6180    16.3220    15.5870    13.9130    23.5840 
  116.6250   -18.9150     2.0920    73.4030    16.2040    15.3150    13.6880    23.5840 
  116.7500   -18.9970     2.0890    75.0870    16.0680    15.1450    13.4870    23.5840 
  116.8750   -19.0370     2.0890    76.0230    15.9410    14.9800    13.2590    23.5840 
  117.0000   -18.9830     2.0960    75.5820    16.1490    14.9490    13.1840    23.5840 
  117.1250   -18.8420     2.1020    75.1320    16.8650    15.2410    13.3060    23.5840 
  117.2500   -18.6400     2.1040    76.4820    18.1090    16.0060    13.8360    23.5840 
  117.3750   -18.4080     2.0980    78.3600    19.8630    17.3420    14.9790    23.5840 
  117.5000   -18.1380     2.0850    78.1890    22.1570    19.3300    17.1780    23.5840 
  117.6250   -17.7980     2.0700    74.1160    24.6270    21.5990    20.2200    23.5860 
  117.7500   -17.3800     2.0570    68.2830    26.6990    23.6000    22.7100    23.6070 
  117.8750   -16.9190     2.0490    64.4080    27.7110    24.6520    24.4880    23.6640 
  118.0000   -16.4760     2.0500    64.9400    27.0340    24.1140    24.5010    23.7540 
  118.1250   -16.0770     2.0620    68.3670    25.1950    22.5240    22.7280    23.7920 
  118.2500   -15.7040     2.0950    72.6360    22.8420    20.5060    20.6280    23.8010 
  118.3750   -15.3690     2.1570    75.2950    20.6660    18.6260    19.0570    23.8010 
  118.5000   -15.0990     2.2520    75.8320    19.3350    17.3940    20.0880    23.7980 
  118.6250   -14.9140     2.3610    75.2760    18.7520    16.7470    28.1780    23.7830 
  118.7500   -14.8350     2.4550    74.7720    18.3870    16.2870    38.2240    23.7480 
  118.8750   -14.8190     2.4970    77.0650    17.3570    15.3360    34.3550    23.7000 
  119.0000   -14.8210     2.4600    84.7280    14.8990    13.2960    20.3270    23.6240 
  119.1250   -14.8250     2.3860    90.7680    11.8510    10.8000    11.2260    23.5550 
  119.2500   -14.8120     2.3160    92.2080     9.2390     8.6320     8.6190    23.5290 
  119.3750   -14.7700     2.2780    92.3500     7.6350     7.2300     8.3860    23.5930 
  119.5000   -14.7020     2.2830    94.9940     7.1050     6.6870     8.4290    23.7840 
  119.6250   -14.6270     2.3000    99.1770     7.0660     6.5790     8.0710    23.9850 
  119.7500   -14.5160     2.3070   104.9620     7.1410     6.6110     7.3520    24.0730 
  119.8750   -14.3490     2.2970   111.0410     7.0970     6.5890     6.9080    24.0880 
  120.0000   -14.1540     2.2850   112.7000     6.8960     6.4610     6.8500    24.0860 
  120.1250   -13.9830     2.2780   109.3990     6.6870     6.3020     6.8110    24.0850 
  120.2500   -13.8530     2.2730   106.3320     6.5580     6.1620     6.7170    24.0850 
  120.3750   -13.7570     2.2710   106.3570     6.5250     6.0620     6.6280    24.0850 
  120.5000   -13.6750     2.2780   107.7570     6.5680     6.0380     6.4730    24.0850 
  120.6250   -13.6080     2.2930   109.7040     6.6960     6.1250     6.5230    24.0850 
  120.7500   -13.5860     2.3130   113.6620     7.0340     6.3950     6.9340    24.0850 
  120.8750   -13.6350     2.3320   118.1500     7.7800     6.9430     8.3190    24.0830 
  121.0000   -13.7440     2.3500   117.1140     9.1360     7.9100    12.5030    24.0660 
  121.1250   -13.8640     2.3720   111.4820    10.7390     9.1270    20.7280    24.0180 
  121.2500   -14.0080     2.3910   108.4760    11.9100    10.1540    25.2310    23.9390 
  121.3750   -14.1660     2.3850   109.0070    11.8840    10.3630    17.7530    23.8630 
  121.5000   -14.3620     2.3310   105.8400    10.4270     9.4280     9.7520    23.8120 
  121.6250   -14.5750     2.2650    97.4810     8.6810     8.1540     7.7390    23.7950 
  121.7500   -14.7700     2.2250    91.5730     7.4370     7.1440     7.4050    23.7920 
  121.8750   -14.9230     2.2230    95.1080     6.9570     6.6220     7.2360    23.7920 
  122.0000   -15.0710     2.2470   104.3580     7.1640     6.5560     7.0440    23.8040 
  122.1250   -15.2280     2.2700   110.6000     7.6600     6.6650     7.0380    23.8680 
  122.2500   -15.3580     2.2790   112.5450     8.2110     6.7960     7.1300    24.0070 
  122.3750   -15.4480     2.2770   112.9910     8.6430     6.8830     7.0030    24.1190 
  122.5000   -15.4910     2.2740   112.8730     8.7960     6.8890     6.6650    24.1590 
  122.6250   -15.4660     2.2790   112.3210     8.6520     6.8070     6.4960    24.1710 
  122.7500   -15.3870     2.2860   113.0920     8.2450     6.6380     6.5350    24.1930 
  122.8750   -15.2950     2.2890   114.4920     7.7010     6.4320     6.6480    24.2140 
  123.0000   -15.1670     2.2890   113.1840     7.2200     6.2770     6.5240    24.2060 
  123.1250   -15.0120     2.2870   110.4120     7.0150     6.2550     6.2510    24.1380 
  123.2500   -14.8600     2.2810   109.1050     7.3790     6.4900     6.0710    23.9450 
  123.3750   -14.7340     2.2650   109.3860     8.7590     7.2070     6.3000    23.5760 
  123.5000   -14.6100     2.2360   107.5660    12.0480     9.0030     7.6770    23.2160 
  123.6250   -14.5390     2.1980   102.0390    17.4350    12.2670    11.1740    23.0510 
  123.7500   -14.5350     2.1640    95.0490    24.7600    17.2570    16.4870    23.0410 
  123.8750   -14.5690     2.1470    88.3080    32.9250    23.5460    19.9230    23.0890 
  124.0000   -14.6330     2.1560    82.8770    39.7620    29.6270    21.6210    23.2240 
  124.1250   -14.7120     2.1850    78.4340    44.8190    34.6540    26.9920    23.4830 
  124.2500   -14.8100     2.2280    74.4120    49.5170    39.4730    35.6100    23.8200 
  124.3750   -14.9350     2.2670    70.8040    55.3360    45.2330    44.5860    24.1060 
  124.5000   -15.0890     2.2530    69.3400    62.2630    52.0450    51.3640    24.2040 
  124.6250   -15.2340     2.1890    70.6200    68.1430    58.1360    57.0640    24.2260 
  124.7500   -15.3380     2.1140    72.2930    71.3080    61.9040    61.8610    24.2210 
  124.8750   -15.4240     2.0650    71.8960    71.7350    63.0060    65.5460    24.1930 
  125.0000   -15.4910     2.0470    71.1500    70.1970    61.9110    66.3760    24.1180 
  125.1250   -15.5520     2.0440    72.1800    67.4220    59.4790    63.7050    24.0220 
  125.2500   -15.6040     2.0470    73.9240    63.3950    55.8660    59.0160    23.9140 
  125.3750   -15.6250     2.0520    76.2310    58.4670    51.4780    53.7380    23.7860 
  125.5000   -15.5960     2.0590    79.5480    53.6290    47.1880    48.1760    23.6890 
  125.6250   -15.5400     2.0650    80.6660    49.8640    43.7810    43.5180    23.6550 
