~V
VERS. 2.00: Ver 2.00
~W
STRT.M 47.0000:
STOP.M 254.0000:
STEP.M 0.1250:
NULL. -999.2500:
UWI. F10599:
~C
DEPT.M :
DEN.GM/CC :
SP.MV :
GR.API :
RML.OHMM :
RI. :
RXO.OHMM :
CALI.CM :
~A
# ...
  137.0000     2.2750    -3.9370   102.3820     8.5260     7.6970    11.3130    25.3840 
  137.1250     2.2680    -3.9120   100.6630     9.3310     8.3830    14.5380    25.3840 
  137.2500     2.2440    -3.8700    96.1680    10.9710     9.9250    16.8020    25.3850 
  137.3750     2.2060    -3.8470    90.0490    13.9100    12.8310    20.5050    25.4090 
  137.5000     2.1660    -3.8240    86.3500    20.2560    17.1380    27.2620    25.4620 
  137.6250     2.1290    -3.8190    83.8370    28.2110    22.7200    36.8960    25.5130 
  137.7500     2.0990    -3.8450    79.8250    34.8290    28.9230    45.9160    25.5350 
  137.8750     2.0810    -3.8820    76.2040    40.7820    34.4480    48.2270    25.5350 
  138.0000     2.0720    -3.9090    76.1470    45.3460    38.4960    47.8550    25.5350 
  138.1250     2.0740    -3.9460    78.7240    48.3340    41.0100    48.4010    25.5350 
  138.2500     2.0820    -3.9980    80.3230    50.1710    42.4700    49.9760    25.5350 
  138.3750     2.0930    -4.0600    76.8510    51.5100    43.5210    50.7380    25.5340 
  138.5000     2.1020    -4.1320    72.5190    52.9530    44.6690    52.3040    25.5290 
  138.6250     2.1090    -4.1990    70.7320    54.5820    46.0010    53.4570    25.5100 
  138.7500     2.1130    -4.2420    71.0060    56.2120    47.4630    53.7640    25.4660 
  138.8750     2.1170    -4.2680    70.7890    57.5350    48.9850    53.0910    25.4240 
  139.0000     2.1230    -4.2690    70.2340    58.5480    50.5400    54.6400    25.3990 
  139.1250     2.1290    -4.2530    70.0880    59.5050    52.1660    56.5110    25.3900 
  139.2500     2.1360    -4.2050    69.5350    60.8460    53.9610    57.6640    25.3890 
  139.3750     2.1390    -4.1180    68.7650    62.8590    56.0880    58.3290    25.3860 
  139.5000     2.1380    -4.0190    69.6240    65.0310    58.3660    61.1090    25.3810 
  139.6250     2.1340    -3.9150    71.9030    66.6430    60.3760    64.4610    25.3650 
  139.7500     2.1310    -3.8150    73.8680    67.0620    61.5080    68.0720    25.3250 
  139.8750     2.1270    -3.7160    74.0150    65.4330    60.7760    69.3190    25.2780 
  140.0000     2.1220    -3.6220    74.3190    61.9940    58.1840    62.8440    25.2300 
  140.1250     2.1160    -3.5430    76.0330    57.4600    54.2770    51.8520    25.1920 
  140.2500     2.1110    -3.4790    77.7490    52.8940    50.0880    48.7120    25.1700 
  140.3750     2.1110    -3.4330    76.9570    49.4970    46.7910    47.4800    25.1410 
  140.5000     2.1120    -3.3870    74.6490    47.7280    44.7950    46.3140    25.0690 
  140.6250     2.1150    -3.3460    73.5090    47.5200    44.1130    45.1140    24.9490 
  140.7500     2.1240    -3.3080    75.4290    48.2760    44.4380    43.6110    24.8280 
  140.8750     2.1510    -3.2710    77.5640    49.2630    45.3650    41.6730    24.7590 
  141.0000     2.1960    -3.2440    76.5120    50.1170    46.4750    41.7220    24.7380 
  141.1250     2.2480    -3.2260    72.9360    50.9580    47.6700    45.1320    24.7420 
  141.2500     2.2860    -3.2230    69.4510    52.0510    48.9280    49.4670    24.7670 
  141.3750     2.2860    -3.2260    68.4410    53.5880    50.3390    49.1400    24.8170 
  141.5000     2.2490    -3.2440    67.4760    55.3210    52.0200    51.1530    24.8370 
  141.6250     2.1960    -3.2710    66.3310    56.9810    54.0510    55.4120    24.7920 
  141.7500     2.1540    -3.3020    66.9710    58.5580    56.4630    60.1290    24.6830 
  141.8750     2.1360    -3.3550    70.1270    60.4910    59.2100    62.7790    24.5730 
  142.0000     2.1280    -3.4090    72.4140    63.0440    61.8630    64.2110    24.4600 
  142.1250     2.1200    -3.4620    71.6750    65.8920    63.8170    63.6760    24.3320 
  142.2500     2.1090    -3.5030    70.2760    67.9800    64.4230    62.8870    24.0650 
  142.3750     2.0970    -3.5310    70.1540    67.6370    62.9780    63.5550    23.6340 
  142.5000     2.0870    -3.5370    69.1760    64.8170    59.9550    62.0920    23.2310 
  142.6250     2.0860    -3.5200    67.8380    60.2160    56.0890    56.0970    22.9820 
  142.7500     2.1030    -3.4850    68.5070    55.1620    52.4170    48.5740    22.8750 
  142.8750     2.1430    -3.4150    70.0070    51.4870    49.8580    45.2780    22.8250 
  143.0000     2.2100    -3.3290    69.3020    49.9000    48.7190    45.9970    22.8780 
  143.1250     2.3090    -3.2210    67.9980    50.2340    49.2840    52.8400    23.1750 
  143.2500     2.4260    -3.1010    68.0980    51.7950    50.2370    65.7020    23.7690 
  143.3750     2.5070    -2.9800    67.1020    53.7540    51.3170    73.2020    24.4040 
  143.5000     2.5110    -2.8720    64.7480    55.5330    52.0140    71.6790    24.8350 
  143.6250     2.4620    -2.7730    61.9210    57.0500    53.1320    68.2450    24.9960 
  143.7500     2.4130    -2.6860    59.9390    57.9010    53.6890    64.5810    25.0220 
  143.8750     2.4160    -2.6200    60.7960    55.8920    52.0500    65.5420    25.0250 
  144.0000     2.4620    -2.5670    63.5230    49.2950    49.1600    68.6780    25.0250 
  144.1250     2.5240    -2.5180    66.3490    38.5110    42.4850    61.7120    25.0250 
  144.2500     2.5620    -2.4720    68.6290    26.7120    29.9360    42.1920    25.0220 
  144.3750     2.5410    -2.4350    76.3760    17.9440    20.7260    23.1580    25.0220 
  144.5000     2.4880    -2.4050    87.4190    12.8520    14.9750    13.4210    25.0100 
  144.6250     2.4420    -2.3880    94.1970    10.6820    11.9220    11.0180    24.9710 
  144.7500     2.4250    -2.3860    93.8630    10.4340    10.7860    11.9840    24.9090 
  144.8750     2.4380    -2.3800    88.8040    11.7090    11.3780    14.5890    24.8380 
  145.0000     2.4600    -2.3900    82.6170    14.1750    13.3890    15.9760    24.8270 
  145.1250     2.4850    -2.4120    76.1210    17.7690    16.8050    21.2570    24.8800 
  145.2500     2.5120    -2.4480    70.7140    22.0570    21.3130    28.5600    24.9740 
  145.3750     2.5280    -2.4930    68.0030    25.9940    25.9550    31.5170    25.0560 
  145.5000     2.5220    -2.5420    65.4780    28.7050    29.4620    32.2900    25.0820 
  145.6250     2.4970    -2.5910    64.0370    29.9200    31.1580    31.0770    25.0650 
  145.7500     2.4700    -2.6310    63.9500    29.8810    31.1250    29.4770    25.0110 
  145.8750     2.4600    -2.6750    63.3570    29.1390    30.0260    29.7020    24.9560 
  146.0000     2.4660    -2.7130    64.1970    28.4040    28.8720    29.4940    24.9130 
  146.1250     2.4790    -2.7470    68.0510    28.0510    28.1160    28.6910    24.8860 
  146.2500     2.4860    -2.7830    70.7750    28.3860    27.9760    29.3480    24.8760 
  146.3750     2.4920    -2.8020    67.6560    29.5820    28.6050    31.4750    24.8690 
  146.5000     2.5070    -2.8020    65.4550    31.1670    29.7520    34.1160    24.8490 
  146.6250     2.5290    -2.8020    66.5420    32.7080    31.1440    36.3990    24.8210 
  146.7500     2.5510    -2.8080    66.9810    33.8970    32.4180    39.1170    24.8040 
  146.8750     2.5650    -2.8260    65.0680    34.5750    33.1910    37.4690    24.8000 
  147.0000     2.5810    -2.8590    63.7220    34.8980    33.5030    37.8870    24.8000 
  147.1250     2.6070    -2.9070    63.4750    34.9850    33.5240    37.5040    24.8000 
  147.2500     2.6400    -2.9720    62.6780    34.9980    33.4640    36.8570    24.8000 
  147.3750     2.6640    -3.0700    62.5130    35.2300    33.5590    35.8280    24.7920 
  147.5000     2.6710    -3.1950    62.5500    35.8050    33.8740    36.4290    24.7470 
  147.6250     2.6530    -3.3340    62.3800    36.5290    34.3140    35.4210    24.6390 
  147.7500     2.6130    -3.4790    63.6010    36.8770    34.6250    34.1810    24.5050 
  147.8750     2.5700    -3.6220    64.3650    36.1020    34.3540    35.2200    24.4470 
  148.0000     2.5460    -3.7570    63.1540    34.2620    33.3450    36.7210    24.4330 
  148.1250     2.5380    -3.8820    62.9870    31.8520    31.6850    34.6180    24.4280 
