~V
VERS. 2.00: Ver 2.00
~W
STRT.M 52.0000:
STOP.M 220.0000:
STEP.M 0.1250:
NULL. -999.2500:
UWI. F10539:
~C
DEPT.M :
SP.MV :
DEN.GM/CC :
GR.API :
RML.OHMM :
RI. :
RXO.OHMM :
CALI.CM :
~A
# ...
  187.0000   -13.4840     2.2170    50.0510   232.1460   205.6260   156.8160    24.2670 
  187.1250   -13.3300     2.2310    51.5780   236.2150   206.4040   145.4460    24.2670 
  187.2500   -13.2120     2.2380    53.3210   254.9690   220.9420   170.6180    24.2660 
  187.3750   -13.1450     2.2380    53.9880   289.5420   250.7890   231.0840    24.2650 
  187.5000   -13.1050     2.2300    53.0860   338.6230   294.5130   298.2180    24.2630 
  187.6250   -13.1120     2.2210    50.5540   396.7930   346.7730   314.1280    24.2630 
  187.7500   -13.1500     2.2120    47.8130   448.7290   394.0280   321.2370    24.2620 
  187.8750   -13.2060     2.2040    45.9870   480.6570   424.7510   331.5160    24.2540 
  188.0000   -13.2560     2.1960    47.2360   487.6230   434.4430   341.3570    24.2510 
  188.1250   -13.2610     2.1890    50.3030   473.7650   425.9040   330.0970    24.2520 
  188.2500   -13.2350     2.1840    51.0700   450.0300   408.7210   305.4660    24.2510 
  188.3750   -13.1810     2.1820    50.3040   418.2180   384.8090   281.5140    24.2500 
  188.5000   -13.1030     2.1810    50.5570   377.6950   353.6390   256.6980    24.2530 
  188.6250   -12.9670     2.1840    50.5530   327.8320   313.6480   239.9120    24.2590 
  188.7500   -12.8000     2.1920    49.3710   274.9720   268.9700   224.1760    24.2600 
  188.8750   -12.6020     2.2050    48.7700   225.4980   224.6960   190.9700    24.2570 
  189.0000   -12.3880     2.2210    49.8300   184.0880   185.6740   147.2620    24.2670 
  189.1250   -12.1860     2.2370    51.5490   153.9200   156.0040   108.0960    24.2880 
  189.2500   -11.9810     2.2510    52.7610   132.2800   134.2530    92.0610    24.2890 
  189.3750   -11.7900     2.2640    53.3010   117.2550   118.9360    84.8280    24.2720 
  189.5000   -11.6120     2.2770    52.6640   106.9100   108.2850    80.5300    24.2660 
  189.6250   -11.4800     2.2900    53.1310   100.0140   101.1090    76.6030    24.2510 
  189.7500   -11.3760     2.3030    55.1110    95.1350    95.8990    72.9850    24.2140 
  189.8750   -11.3090     2.3130    56.9770    92.0570    92.3600    71.3480    24.1450 
  190.0000   -11.2870     2.3210    57.4980    90.8580    90.5220    70.6540    24.0520 
  190.1250   -11.3000     2.3200    57.2600    92.1660    90.9470    70.1690    24.0790 
  190.2500   -11.3690     2.3120    58.0220    96.0200    93.6920    69.8440    24.2660 
  190.3750   -11.4600     2.3030    59.4440   102.7390    99.0540    73.2110    24.4800 
  190.5000   -11.6030     2.2950    59.3490   112.4060   107.0710    80.4560    24.4920 
  190.6250   -11.7160     2.2880    54.8180   124.7470   117.3780    91.6840    24.3990 
  190.7500   -11.8590     2.2790    49.1470   137.6720   128.0090   101.9570    24.3920 
  190.8750   -11.9750     2.2660    47.5480   149.0960   137.0920   119.6350    24.4660 
  191.0000   -12.0910     2.2500    50.1190   157.4200   143.2760   135.8690    24.4910 
  191.1250   -12.1640     2.2370    51.7400   162.2220   146.2060   137.6180    24.4580 
  191.2500   -12.1850     2.2270    50.5510   165.8070   147.9150   129.6320    24.4100 
  191.3750   -12.1600     2.2180    49.6720   169.6650   149.8250   121.3680    24.3290 
  191.5000   -12.0770     2.2070    50.5510   173.5180   151.9890   121.2510    24.2980 
  191.6250   -11.9490     2.1980    51.6560   173.6430   151.7310   124.3250    24.3590 
  191.7500   -11.7780     2.1940    51.5170   166.5790   146.1370   125.4060    24.4710 
  191.8750   -11.5880     2.1970    50.8590   151.6190   134.1620   129.7230    24.5090 
  192.0000   -11.3680     2.2090    51.9450   131.9900   117.8080   119.7840    24.3870 
  192.1250   -11.1210     2.2320    55.9950   113.2490   101.3660    90.6520    24.1690 
  192.2500   -10.8860     2.2580    60.4360    98.6180    88.0620    69.2290    23.9710 
  192.3750   -10.6370     2.2790    63.3950    88.5120    78.6380    60.5830    23.8630 
  192.5000   -10.4090     2.2920    64.8280    82.1630    72.5950    60.9940    23.8380 
  192.6250   -10.1870     2.2950    65.1460    78.8040    69.3230    64.8140    23.8650 
  192.7500    -9.9900     2.2940    64.3100    76.9480    67.4610    64.5890    23.8450 
  192.8750    -9.8250     2.2940    61.6670    75.9110    66.3330    60.6880    23.7640 
  193.0000    -9.7920     2.2940    58.2360    75.2660    65.5070    58.3980    23.6850 
  193.1250    -9.6690     2.2930    57.7780    74.8280    64.8390    60.1820    23.6860 
  193.2500    -9.5710     2.2910    59.7860    74.5390    64.3610    63.4610    23.7170 
  193.3750    -9.4780     2.2910    59.8800    74.4430    64.1840    66.9310    23.8110 
  193.5000    -9.3880     2.2930    57.0010    74.5950    64.3950    66.6840    23.9210 
  193.6250    -9.2970     2.2970    55.9890    75.0320    65.0840    66.5360    24.0150 
  193.7500    -9.2070     2.2990    57.6380    75.6810    66.1440    68.2630    24.0460 
  193.8750    -9.1120     2.2990    58.2000    76.6950    67.6330    69.0190    23.9920 
  194.0000    -9.0020     2.2960    57.2310    78.2970    69.6930    67.4190    23.8540 
  194.1250    -8.8490     2.2890    56.6500    79.8660    71.8430    64.7290    23.6360 
  194.2500    -8.6900     2.2810    56.6950    79.2490    72.2060    61.9220    23.4480 
  194.3750    -8.5220     2.2770    56.2360    74.1560    68.6060    59.7020    23.4080 
  194.5000    -8.3540     2.2860    55.2750    64.0080    60.2550    63.3570    23.4680 
  194.6250    -8.1820     2.3150    56.7820    50.9880    48.8470    56.0670    23.5270 
  194.7500    -8.0270     2.3590    62.8640    39.1660    38.1450    35.8040    23.4790 
  194.8750    -7.8730     2.4040    70.6670    30.3460    29.9170    20.4510    23.2700 
  195.0000    -7.7370     2.4400    76.6840    24.6700    24.4190    14.1030    22.9980 
  195.1250    -7.6630     2.4560    80.2360    21.6920    21.3380    11.9570    23.0430 
  195.2500    -7.6200     2.4590    82.1500    20.2190    19.6550    11.4940    23.2470 
  195.3750    -7.6320     2.4530    81.7100    19.8700    19.0440    11.7620    23.4710 
  195.5000    -7.7050     2.4430    79.5840    20.5460    19.3760    12.8840    23.6500 
  195.6250    -7.8600     2.4350    79.4910    22.6520    20.8870    14.6240    23.6830 
  195.7500    -8.0770     2.4250    80.0590    26.4230    23.7110    17.1040    23.6350 
  195.8750    -8.3670     2.4070    77.7590    32.2380    28.2480    24.4070    23.6560 
  196.0000    -8.7230     2.3810    72.6020    40.1500    34.7460    41.4800    23.7710 
  196.1250    -9.1170     2.3530    66.8080    49.7090    43.0710    53.8280    23.8450 
  196.2500    -9.5590     2.3340    61.9270    59.3810    51.7280    57.2290    23.8640 
  196.3750   -10.0150     2.3240    58.9160    68.1510    59.4210    58.9410    23.8650 
  196.5000   -10.4920     2.3220    57.4180    75.8540    65.5860    58.6220    23.8560 
  196.6250   -10.9280     2.3220    54.9670    83.3990    70.7690    62.4640    23.8700 
  196.7500   -11.3580     2.3200    50.7370    91.6990    76.1740    69.9660    23.8870 
  196.8750   -11.7380     2.3170    47.4870    99.8710    81.6190    82.3130    23.8880 
  197.0000   -12.0960     2.3110    49.2170   104.3560    84.8420    93.1190    23.8840 
  197.1250   -12.3910     2.3020    54.1430    98.3220    80.7400    92.9470    23.8720 
  197.2500   -12.6330     2.2890    56.6500    83.0320    69.5680    86.1200    23.8510 
  197.3750   -12.8300     2.2830    57.8170    64.5610    55.4570    76.3760    23.8010 
  197.5000   -12.9680     2.2950    60.8010    49.3140    43.2550    52.7750    23.7060 
  197.6250   -13.0640     2.3250    64.5630    41.3650    36.2620    32.4400    23.5520 
  197.7500   -13.1050     2.3530    66.2000    39.6540    33.9910    24.5410    23.4530 
  197.8750   -13.1190     2.3630    66.4600    43.2270    36.0060    31.6770    23.4990 
  198.0000   -13.0770     2.3490    65.3200    50.7300    41.6420    54.9480    23.6350 
  198.1250   -13.0370     2.3220    61.4100    59.7850    49.5660    72.2180    23.6920 
