~V
VERS. 2.00: Ver 2.00
~W
STRT.M 61.0000:
STOP.M 190.0000:
STEP.M 0.1250:
NULL. -999.2500:
UWI. F10559:
~C
DEPT.M :
SP.MV :
DEN.GM/CC :
GR.API :
RML.OHMM :
RI. :
RXO.OHMM :
CALI.CM :
~A
# ...
  106.0000    -5.6110     2.1660    84.0680    13.4530    12.7810     9.2480    24.9040 
  106.1250    -5.5300     2.1780    86.2350    12.1550    11.3040     8.5770    24.6350 
  106.2500    -5.4530     2.1860    85.1140    11.6630    10.6190     8.6550    24.5980 
  106.3750    -5.3460     2.1900    84.6110    11.7140    10.4980     8.6900    24.6220 
  106.5000    -5.2420     2.1940    84.0720    12.1130    10.7500     8.7430    24.6280 
  106.6250    -5.1040     2.1980    81.3930    12.7640    11.2590     8.9620    24.6440 
  106.7500    -4.9870     2.1990    79.6040    13.5770    11.9180     9.2880    24.7330 
  106.8750    -4.8690     2.1920    78.8210    14.5320    12.7170     9.8430    24.9910 
  107.0000    -4.7720     2.1750    75.9850    15.5920    13.6480    10.7210    25.4530 
  107.1250    -4.6640     2.1520    72.1280    16.6840    14.6790    11.8290    26.0480 
  107.2500    -4.5940     2.1340    71.8060    17.7100    15.7110    12.8000    26.4780 
  107.3750    -4.5430     2.1240    73.5020    18.6220    16.6630    13.7700    26.6790 
  107.5000    -4.5170     2.1230    73.9600    19.4380    17.4870    14.5520    26.7470 
  107.6250    -4.5170     2.1280    72.6620    20.2440    18.2060    15.0040    26.7940 
  107.7500    -4.5640     2.1320    71.1260    21.1120    18.9620    15.3940    26.8320 
  107.8750    -4.6760     2.1350    69.5560    21.9760    19.8460    15.8630    26.8150 
  108.0000    -4.8390     2.1430    69.2770    22.5970    20.7810    16.5760    26.7660 
  108.1250    -5.1260     2.1660    72.3730    22.4610    21.3160    18.0340    26.7400 
  108.2500    -5.4300     2.2080    76.0890    21.3730    20.9660    20.3390    26.7350 
  108.3750    -5.7590     2.2680    76.9850    19.3670    19.5130    21.3420    26.6840 
  108.5000    -6.0740     2.3300    77.1730    16.7830    17.2070    18.3710    26.5360 
  108.6250    -6.4080     2.3700    81.0810    14.1780    14.6510    13.1900    26.3160 
  108.7500    -6.6990     2.3810    86.0750    11.9850    12.4100     9.7200    26.1710 
  108.8750    -6.9590     2.3690    90.1690    10.3510    10.6790     8.6040    26.1190 
  109.0000    -7.1620     2.3490    95.2300     9.2640     9.4750     8.2560    26.1430 
  109.1250    -7.2840     2.3320    99.9040     8.7000     8.7980     8.3260    26.1860 
  109.2500    -7.3530     2.3220   100.7640     8.4830     8.4760     7.4830    26.2030 
  109.3750    -7.3770     2.3160    97.7400     8.5640     8.4540     7.1080    26.2110 
  109.5000    -7.3500     2.3080    94.2570     8.9430     8.7180     7.4160    26.2300 
  109.6250    -7.2610     2.2910    92.0250     9.7410     9.3550     8.2680    26.2560 
  109.7500    -7.1820     2.2640    88.7750    10.9920    10.3780     8.8040    26.2200 
  109.8750    -7.0880     2.2330    84.7970    12.7530    11.8570     9.3840    26.0720 
  110.0000    -7.0410     2.2150    81.3600    15.0050    13.8560    11.3160    25.8750 
  110.1250    -7.0040     2.2280    79.8880    17.6200    16.4180    13.5070    25.7600 
  110.2500    -7.0340     2.2720    76.8670    20.2180    19.2020    16.3420    25.7550 
  110.3750    -7.1350     2.3300    71.3100    22.5060    21.7950    19.7070    25.7320 
  110.5000    -7.3230     2.3850    66.6610    24.3470    23.8320    22.6750    25.6200 
  110.6250    -7.5650     2.4240    65.3010    25.9050    25.2070    23.7380    25.4980 
  110.7500    -7.8370     2.4560    64.9190    27.7270    26.4520    20.0660    25.4310 
  110.8750    -8.1190     2.4880    63.7620    30.3000    28.1140    19.1520    25.4310 
  111.0000    -8.3570     2.5110    61.6020    33.8970    30.6540    25.8380    25.5000 
  111.1250    -8.6090     2.5080    58.5850    38.4850    34.4360    39.5910    25.6580 
  111.2500    -8.8240     2.4840    56.6370    43.2640    38.9570    45.1690    25.8530 
  111.3750    -9.0130     2.4570    56.2950    47.4370    43.4480    39.5800    26.0830 
  111.5000    -9.1830     2.4430    55.5610    50.3280    46.9460    39.2570    26.2410 
  111.6250    -9.3300     2.4450    56.0020    51.4550    48.5920    43.7210    26.1410 
  111.7500    -9.4410     2.4530    59.0440    51.4420    48.9690    44.7120    25.9250 
  111.8750    -9.5620     2.4580    62.3170    50.8340    48.6730    42.4430    25.8400 
  112.0000    -9.6860     2.4580    61.7940    50.0720    48.0880    38.4890    25.7790 
  112.1250    -9.8120     2.4590    58.1210    49.5150    47.4900    35.9340    25.6530 
  112.2500    -9.9450     2.4630    57.0610    49.3740    47.2020    36.1120    25.5110 
  112.3750   -10.0770     2.4730    58.3570    49.7630    47.4230    36.4040    25.4020 
  112.5000   -10.1970     2.4830    58.3320    50.6440    48.1750    35.6820    25.3740 
  112.6250   -10.3190     2.4870    55.4240    51.8660    49.4100    37.9680    25.5050 
  112.7500   -10.4450     2.4810    52.4980    53.0850    50.8210    43.7250    25.7330 
  112.8750   -10.5360     2.4690    52.1600    54.0530    52.0970    47.8260    25.9630 
  113.0000   -10.6260     2.4590    54.1220    54.6260    52.9780    48.9080    26.0850 
  113.1250   -10.6930     2.4600    56.1560    54.8070    53.3660    46.9640    26.0480 
  113.2500   -10.7670     2.4670    57.8650    54.8550    53.5290    49.4070    25.9450 
  113.3750   -10.8110     2.4710    57.9340    54.9290    53.6950    44.0590    25.7760 
  113.5000   -10.8680     2.4690    55.5560    55.0720    54.0020    39.2530    25.6800 
  113.6250   -10.8930     2.4630    53.1620    55.1820    54.3730    42.4920    25.7930 
  113.7500   -10.9120     2.4640    54.1660    55.1410    54.5820    51.0120    25.9220 
  113.8750   -10.9500     2.4750    56.9650    54.9660    54.5460    52.1520    25.8490 
  114.0000   -11.0090     2.4930    56.4690    54.8280    54.3680    45.7240    25.6150 
  114.1250   -11.0880     2.5140    52.5300    55.0550    54.3740    42.0660    25.4400 
  114.2500   -11.1600     2.5310    50.5150    55.7490    54.8520    44.5960    25.4480 
  114.3750   -11.2520     2.5400    52.4280    56.7980    55.8820    49.7760    25.5020 
  114.5000   -11.3380     2.5400    56.0550    57.8640    57.2200    46.6140    25.5620 
  114.6250   -11.4350     2.5260    57.1190    58.3930    58.2020    43.4050    25.7140 
  114.7500   -11.5260     2.5060    54.6340    58.1760    58.3080    45.0530    25.9230 
  114.8750   -11.6010     2.4890    50.3870    57.3080    57.4590    50.1150    26.1320 
  115.0000   -11.6800     2.4790    47.6220    56.1730    56.0170    47.3090    26.2190 
  115.1250   -11.6850     2.4770    48.7500    55.4240    54.6500    45.6670    26.0470 
  115.2500   -11.6840     2.4760    52.0420    55.5590    53.9390    45.1970    25.7990 
  115.3750   -11.6670     2.4730    53.7550    56.9300    54.2760    45.9180    25.7580 
  115.5000   -11.6400     2.4680    52.4250    59.7040    55.9430    45.6740    25.9210 
  115.6250   -11.6150     2.4720    51.0240    63.9180    59.2420    47.2090    26.0240 
  115.7500   -11.5900     2.4890    51.7380    68.7230    63.6120    52.7360    26.0440 
  115.8750   -11.5700     2.5180    52.9340    73.1760    68.3760    61.0530    26.1000 
  116.0000   -11.4990     2.5530    53.2170    76.1930    72.5450    64.2850    26.1720 
  116.1250   -11.4350     2.5830    52.8880    76.3740    74.4850    67.5800    26.1710 
  116.2500   -11.3310     2.5990    53.2120    73.8010    73.5750    69.1090    26.1350 
  116.3750   -11.2120     2.5950    54.0640    68.9790    69.8860    69.9290    26.1240 
  116.5000   -11.0630     2.5720    53.9330    62.9220    64.3420    68.6730    26.0390 
  116.6250   -10.8950     2.5330    52.7990    56.8710    58.3100    60.6270    25.9670 
  116.7500   -10.7270     2.4900    53.3290    51.6920    52.9810    49.8140    25.9930 
  116.8750   -10.5640     2.4500    55.0840    47.7490    48.8260    42.9330    25.9830 
  117.0000   -10.4720     2.4200    54.9310    45.1460    45.9580    41.9510    25.9190 
  117.1250   -10.3950     2.4120    52.7120    44.0190    44.5160    39.4330    25.8480 
