~V
VERS. 2.00: Ver 2.00
~W
STRT.M 50.0000:
STOP.M 215.0000:
STEP.M 0.1250:
NULL. -999.2500:
UWI. F10588:
~C
DEPT.M :
DEN.GM/CC :
GR.API :
RML.OHMM :
RI. :
RXO.OHMM :
CALI.CM :
SP.MV :
~A
# ...
  173.7500     2.2570    60.8020    55.6520    49.8170    52.9140    23.3830   -24.0040 
  173.8750     2.2490    59.1470    60.4030    54.0800    66.4090    23.3670   -24.1870 
  174.0000     2.2420    57.4750    64.7560    58.1890    75.9390    23.3490   -24.4040 
  174.1250     2.2350    57.0020    67.8160    61.3480    73.0900    23.3130   -24.6990 
  174.2500     2.2280    56.9110    69.3550    63.2200    68.5650    23.2860   -24.9920 
  174.3750     2.2200    57.7430    69.4450    63.7390    67.4840    23.2810   -25.2940 
  174.5000     2.2120    58.8210    68.5770    63.2370    70.8200    23.3100   -25.5810 
  174.6250     2.2030    59.2330    67.4900    62.3350    69.7910    23.3450   -25.8020 
  174.7500     2.1990    59.2430    66.7170    61.6240    64.2660    23.3780   -25.9860 
  174.8750     2.1990    59.0460    66.1990    61.1340    59.6030    23.4110   -26.1070 
  175.0000     2.2010    59.1280    65.5160    60.5270    58.2480    23.4450   -26.1780 
  175.1250     2.2050    57.8040    64.0950    59.2710    63.4820    23.4640   -26.1750 
  175.2500     2.2110    56.0450    62.1020    57.4450    66.4690    23.4390   -26.0950 
  175.3750     2.2170    56.1040    60.1690    55.5500    58.9750    23.4010   -25.9610 
  175.5000     2.2210    57.8310    59.1790    54.3160    47.5550    23.3680   -25.7810 
  175.6250     2.2210    58.4780    60.2860    54.7350    42.7310    23.3460   -25.6040 
  175.7500     2.2190    55.9430    63.5490    56.9770    52.1360    23.3320   -25.4260 
  175.8750     2.2170    52.9730    68.7240    60.9360    72.7550    23.3220   -25.2630 
  176.0000     2.2170    52.3740    75.1940    66.1480    84.1610    23.3040   -25.1150 
  176.1250     2.2200    53.6560    80.6740    72.1120    81.6520    23.2800   -24.9940 
  176.2500     2.2200    56.0180    84.0570    78.5380    79.8960    23.2920   -24.9620 
  176.3750     2.2140    57.6070    89.2780    85.8260    84.8890    23.3150   -24.9750 
  176.5000     2.2040    57.1570    97.3750    94.5950    90.2800    23.3270   -25.0770 
  176.6250     2.1920    55.2950   106.9270   105.3540   109.6450    23.3260   -25.2220 
  176.7500     2.1810    53.2100   119.5040   116.9440   131.6330    23.3180   -25.4220 
  176.8750     2.1730    50.7260   131.3490   127.7640   149.8780    23.2930   -25.6400 
  177.0000     2.1680    48.9530   140.6830   136.1920   149.3000    23.2550   -25.8880 
  177.1250     2.1690    50.9490   145.9630   140.7640   133.4010    23.2170   -26.1190 
  177.2500     2.1810    53.6080   148.1360   142.3560   119.3140    23.1820   -26.3340 
  177.3750     2.2100    53.8640   147.9900   141.7850   113.2990    23.1080   -26.5030 
  177.5000     2.2470    52.9130   146.2070   139.7560   109.5170    22.9960   -26.6080 
  177.6250     2.2710    53.0990   143.1460   136.5500   107.1910    22.8530   -26.6490 
  177.7500     2.2810    52.7390   139.2510   132.4030   110.7560    22.7900   -26.6380 
  177.8750     2.2840    51.5080   134.6600   127.3360   113.7670    22.7770   -26.5770 
  178.0000     2.2910    51.8910   129.4440   121.5290   105.6360    22.8250   -26.4480 
  178.1250     2.2990    56.2240   122.9850   114.8490   103.6920    22.9980   -26.2620 
  178.2500     2.2950    60.9340   114.6140   106.9630   119.4030    23.2090   -26.0240 
  178.3750     2.2740    63.5720   104.1770    97.6560   125.3590    23.3970   -25.7580 
  178.5000     2.2420    63.2970    92.6510    87.5200   116.8840    23.5280   -25.4770 
  178.6250     2.2210    63.1460    81.7930    77.8980    91.8440    23.5650   -25.1490 
  178.7500     2.2140    64.9450    72.6450    69.6860    73.6650    23.4780   -24.7900 
  178.8750     2.2140    67.5270    65.5150    63.1790    63.0970    23.2630   -24.3950 
  179.0000     2.2190    68.1120    60.1850    58.2340    63.7550    22.9670   -23.9870 
  179.1250     2.2400    67.1230    55.7680    54.1820    72.1580    22.9360   -23.5610 
  179.2500     2.2770    68.7800    50.4160    49.3650    71.1320    23.2870   -23.1290 
  179.3750     2.3150    71.8780    42.9410    42.5340    61.6880    23.6760   -22.6790 
  179.5000     2.3330    72.9930    33.6480    33.8020    50.0450    23.8990   -22.2160 
  179.6250     2.3270    69.8930    24.4920    24.9580    35.9610    23.9290   -21.7740 
  179.7500     2.3220    65.5770    17.1730    17.7290    17.9180    23.8810   -21.3340 
  179.8750     2.3350    58.9090    12.1000    12.5490     8.4080    23.8090   -20.9450 
  180.0000     2.3620    47.9560     8.9240     9.1410     5.2950    23.8520   -20.5980 
  180.1250     2.3820    37.4470     7.1810     7.1350     5.5800    23.9260   -20.3550 
  180.2500     2.3780    33.0240     6.1670     5.8930     6.5530    23.9600   -20.1580 
  180.3750     2.3540    34.6070     5.6190     5.1840     5.9830    23.9830   -20.0530 
  180.5000     2.3250    39.1490     5.3540     4.8380     4.9810    24.0050   -20.0180 
  180.6250     2.3110    43.9080     5.2680     4.7450     4.6470    24.0160   -20.0540 
  180.7500     2.3210    46.4370     5.2690     4.7760     4.7470    24.0200   -20.1300 
  180.8750     2.3530    44.9440     5.3160     4.8740     4.8160    24.0200   -20.2150 
  181.0000     2.4000    39.6350     5.3610     4.9820     5.0890    24.0130   -20.3040 
  181.1250     2.4370    34.4000     5.3500     5.0270     5.7550    24.0010   -20.3390 
  181.2500     2.4510    32.2240     5.2780     4.9870     6.0010    23.9970   -20.3670 
  181.3750     2.4400    33.3030     5.1590     4.8730     5.5590    24.0010   -20.3690 
  181.5000     2.4150    35.3290     5.0230     4.7170     5.0810    24.0050   -20.3580 
  181.6250     2.3870    35.3930     4.9140     4.5660     5.0690    24.0000   -20.3530 
  181.7500     2.3670    34.7950     4.8630     4.4540     4.8200    23.9950   -20.3540 
  181.8750     2.3610    34.2340     4.8760     4.3910     4.4730    23.9850   -20.3880 
  182.0000     2.3650    32.5980     4.9290     4.3630     4.4390    23.9680   -20.4240 
  182.1250     2.3660    30.5030     4.9750     4.3390     4.6710    23.9380   -20.5290 
  182.2500     2.3540    32.2140     4.9730     4.2860     4.8810    23.9260   -20.6470 
  182.3750     2.3330    37.2330     4.9200     4.1980     4.8780    23.9260   -20.8050 
  182.5000     2.3140    41.4900     4.8440     4.0910     4.5870    23.9300   -20.9610 
  182.6250     2.3100    40.3890     4.8130     4.0150     4.2740    23.9290   -21.1240 
  182.7500     2.3180    36.6560     4.8770     4.0120     4.0650    23.9310   -21.3050 
  182.8750     2.3290    34.5720     5.0560     4.1040     4.1320    23.9450   -21.4960 
  183.0000     2.3390    36.0900     5.3370     4.2860     4.4490    23.9770   -21.7170 
  183.1250     2.3480    41.2250     5.6750     4.5290     5.0740    23.9950   -21.9450 
  183.2500     2.3580    45.2420     6.0010     4.7720     5.6640    24.0020   -22.1860 
  183.3750     2.3660    46.3950     6.2740     4.9790     5.9910    24.0000   -22.4410 
  183.5000     2.3670    47.1150     6.4780     5.1320     5.9870    23.9960   -22.7170 
  183.6250     2.3620    48.1820     6.6120     5.2250     5.8770    23.9890   -22.9910 
  183.7500     2.3580    48.7570     6.7060     5.2840     6.0560    23.9800   -23.2380 
  183.8750     2.3590    49.3120     6.7770     5.3250     6.5150    23.9710   -23.4490 
  184.0000     2.3650    51.1270     6.8470     5.3650     6.8520    23.9670   -23.6010 
  184.1250     2.3720    52.7980     6.9590     5.4290     6.8380    23.9550   -23.7060 
  184.2500     2.3780    51.4510     7.1580     5.5530     6.9250    23.9610   -23.7780 
  184.3750     2.3860    48.7950     7.4810     5.7660     7.1710    23.9840   -23.8130 
  184.5000     2.3990    48.5150     7.9320     6.0830     7.4390    23.9960   -23.8080 
  184.6250     2.4110    50.1800     8.4710     6.4870     7.7820    23.9680   -23.7830 
  184.7500     2.4120    50.4330     8.9750     6.8900     8.4880    23.9180   -23.7650 
  184.8750     2.4040    48.8620     9.3180     7.1940     9.3500    23.8990   -23.7510 
