~V
VERS. 2.00: Ver 2.00
~W
STRT.M 55.0000:
STOP.M 318.0000:
STEP.M 0.1250:
NULL. -999.2500:
UWI. F10558:
~C
DEPT.M :
DEN.GM/CC :
GR.API :
RML.OHMM :
RI. :
RXO.OHMM :
CALI.CM :
SP.MV :
~A
# ...
  156.2500     2.2810   107.3310     5.9760     4.9170     6.0300    23.9030   -13.1080 
  156.3750     2.2820   110.2570     5.6640     4.8950     6.0270    23.8880   -13.0910 
  156.5000     2.2810   110.8320     5.3080     4.8850     5.8710    23.8870   -13.0800 
  156.6250     2.2800   107.9930     5.0200     4.9070     5.7920    23.8870   -13.0720 
  156.7500     2.2800   106.6550     4.8410     4.9390     5.7150    23.8870   -13.0760 
  156.8750     2.2850   107.4140     4.7570     4.9450     5.5430    23.8870   -13.0850 
  157.0000     2.2940   108.4540     4.7170     4.8930     5.4050    23.8870   -13.1100 
  157.1250     2.3080   110.3980     4.6550     4.7670     5.3220    23.8870   -13.1610 
  157.2500     2.3240   114.9510     4.5740     4.6010     5.2220    23.8870   -13.2340 
  157.3750     2.3360   119.0430     4.5020     4.4230     5.0210    23.8870   -13.3760 
  157.5000     2.3420   120.0860     4.4620     4.2600     4.8020    23.8870   -13.5970 
  157.6250     2.3400   117.9540     4.4780     4.1430     4.6470    23.8870   -13.9190 
  157.7500     2.3350   113.6010     4.5700     4.0870     4.5850    23.8870   -14.3140 
  157.8750     2.3290   111.4660     4.7970     4.1310     4.6050    23.8870   -14.8050 
  158.0000     2.3230   114.6690     5.2820     4.3510     4.8170    23.8860   -15.3790 
  158.1250     2.3160   118.3590     6.3180     4.9480     5.7370    23.8500   -16.0100 
  158.2500     2.3000   114.1030     7.9700     6.0110     7.3010    23.7490   -16.6720 
  158.3750     2.2750   102.0160    10.1120     7.5500     8.5770    23.6120   -17.3200 
  158.5000     2.2490    90.2490    12.2750     9.3440     9.1570    23.5310   -17.9410 
  158.6250     2.2320    85.1390    13.4620    10.7410     9.1210    23.5170   -18.5120 
  158.7500     2.2190    83.7060    13.2810    11.2390     9.2860    23.5330   -19.0360 
  158.8750     2.1990    83.1610    12.0370    10.8550     9.3380    23.5830   -19.5150 
  159.0000     2.1710    81.7840    10.4540     9.9910     9.0730    23.6770   -19.9420 
  159.1250     2.1430    79.6390     9.2040     9.0500     8.5920    23.8970   -20.3270 
  159.2500     2.1200    78.6450     8.4450     8.2300     8.6660    24.1730   -20.6900 
  159.3750     2.1070    79.2670     8.1450     7.5940     8.9250    24.4220   -21.0210 
  159.5000     2.1040    79.9240     8.2030     7.1930     9.1760    24.5390   -21.3150 
  159.6250     2.1070    78.9910     8.4520     7.0720     9.2930    24.5570   -21.5570 
  159.7500     2.1130    77.7580     8.6710     7.1270     9.3540    24.5570   -21.7480 
  159.8750     2.1190    78.5240     8.7590     7.2590     9.4130    24.5570   -21.8740 
  160.0000     2.1250    81.0810     8.7060     7.3860     9.4960    24.5570   -21.9430 
  160.1250     2.1300    81.3310     8.5880     7.4630     9.6030    24.5570   -21.9400 
  160.2500     2.1330    77.7630     8.5100     7.5120     9.7140    24.5570   -21.8840 
  160.3750     2.1330    72.8520     8.5260     7.5520     9.7350    24.5570   -21.7880 
  160.5000     2.1320    70.5850     8.6400     7.5900     9.6320    24.5570   -21.6550 
  160.6250     2.1260    72.4000     8.7970     7.6190     9.6600    24.5570   -21.4720 
  160.7500     2.1180    75.3660     8.9130     7.6240     9.6680    24.5640   -21.2150 
  160.8750     2.1100    78.4370     8.9460     7.5930     9.6040    24.6450   -20.9040 
  161.0000     2.1050    80.8810     8.8920     7.5230     9.4470    24.8940   -20.5130 
  161.1250     2.1080    80.9880     8.8070     7.4140     9.1540    25.3600   -20.0310 
  161.2500     2.1150    78.7920     8.7340     7.2900     8.7620    25.7910   -19.4660 
  161.3750     2.1280    75.0520     8.6220     7.1560     8.4610    26.1930   -18.8460 
  161.5000     2.1440    71.8770     8.3740     7.0010     8.5060    26.3740   -18.1930 
  161.6250     2.1650    74.9530     7.8910     6.7840     8.3360    25.8620   -17.5530 
  161.7500     2.1880    83.8850     7.2430     6.5040     7.7150    24.8770   -16.9690 
  161.8750     2.2030    93.6070     6.5740     6.2020     7.4330    24.1440   -16.4250 
  162.0000     2.2060    98.7050     6.0730     5.9390     7.7940    23.8600   -15.9580 
  162.1250     2.2030    97.8520     5.7890     5.7610     7.9630    23.8860   -15.6060 
  162.2500     2.2060    96.0630     5.6440     5.6450     7.6280    24.0440   -15.3810 
  162.3750     2.2130    96.0010     5.5800     5.5610     7.2340    24.3050   -15.2530 
  162.5000     2.2140    96.9980     5.5780     5.4970     6.8480    24.5810   -15.2010 
  162.6250     2.2040    97.0780     5.5440     5.4720     6.8020    24.7670   -15.1930 
  162.7500     2.1930    97.9160     5.5570     5.4940     6.7350    24.8630   -15.2000 
  162.8750     2.1900   100.3980     5.5980     5.5500     6.7990    24.8800   -15.2260 
  163.0000     2.2020   101.5650     5.7200     5.5950     7.0790    24.8360   -15.2550 
  163.1250     2.2280    98.0040     5.7650     5.5590     7.2990    24.7890   -15.2910 
  163.2500     2.2500    94.4750     5.7910     5.4290     7.0750    24.7880   -15.2880 
  163.3750     2.2540    95.1290     5.7460     5.2240     6.6590    24.8200   -15.2660 
  163.5000     2.2420    99.0180     5.6570     4.9900     6.4390    24.8420   -15.2170 
  163.6250     2.2340   102.8930     5.6380     4.7810     6.2840    24.8300   -15.1740 
  163.7500     2.2430   104.6700     5.7350     4.6280     5.8840    24.7920   -15.1710 
  163.8750     2.2620   105.4260     5.9020     4.5460     5.6300    24.7380   -15.2370 
  164.0000     2.2770   107.0400     6.0590     4.5490     5.6670    24.7070   -15.3570 
  164.1250     2.2720   107.8990     6.1910     4.6940     5.9660    24.7000   -15.5230 
  164.2500     2.2530   106.5670     6.4000     4.9920     6.2770    24.7000   -15.7260 
  164.3750     2.2290   103.1640     6.7660     5.4390     6.7350    24.7000   -15.9470 
  164.5000     2.2090    99.6670     7.2780     5.9710     7.3150    24.7000   -16.2110 
  164.6250     2.1990    96.1760     7.8050     6.4560     7.5160    24.6890   -16.4880 
  164.7500     2.1930    91.5900     8.1850     6.8150     7.5430    24.5920   -16.7290 
  164.8750     2.1850    84.7040     8.4250     7.0730     7.9330    24.3070   -16.8920 
  165.0000     2.1710    76.8300     8.6120     7.3060     8.9740    23.8750   -16.9850 
  165.1250     2.1580    72.9170     8.7300     7.5590     9.3740    23.7730   -16.9680 
  165.2500     2.1560    74.6440     8.7330     7.7810     9.5290    23.8970   -16.8660 
  165.3750     2.1700    78.5170     8.6500     7.9280     9.7940    24.0030   -16.6760 
  165.5000     2.1980    80.8650     8.6140     8.0340    10.3980    24.0300   -16.3680 
  165.6250     2.2300    80.3750     8.8340     8.2630    11.5490    24.0350   -15.9430 
  165.7500     2.2660    78.0750     9.3080     8.7210    14.0150    24.0670   -15.4640 
  165.8750     2.3110    75.5670     9.8560     9.3450    19.5770    24.1410   -14.9660 
  166.0000     2.3580    76.7540    10.0840     9.8160    28.4700    24.2160   -14.4810 
  166.1250     2.3710    84.8970     9.3790     9.4830    24.3490    24.2450   -14.0410 
  166.2500     2.3420    96.1220     7.9040     8.2950    12.9110    24.2510   -13.6780 
  166.3750     2.3030   107.7940     6.2270     6.6880     6.9250    24.2520   -13.4060 
  166.5000     2.2800   118.5980     4.9260     5.2270     5.4020    24.2540   -13.2590 
  166.6250     2.2770   123.5730     4.3270     4.3160     5.2530    24.2500   -13.2580 
  166.7500     2.2820   120.7380     4.1980     3.8940     5.1080    24.2380   -13.3570 
  166.8750     2.3020   113.5530     4.3210     3.8490     5.0260    24.2100   -13.5750 
  167.0000     2.3370   108.2190     4.5710     4.0530     5.0360    24.1890   -13.8930 
  167.1250     2.3770   105.5180     5.0580     4.4740     5.1990    24.1640   -14.3420 
  167.2500     2.4100   103.1010     6.0190     5.1530     5.8450    24.1180   -14.8760 
  167.3750     2.4270    99.8870     7.6960     6.2260     7.4960    24.0640   -15.4780 
