~V
VERS. 2.00: Ver 2.00
~W
STRT.M 47.0000:
STOP.M 254.0000:
STEP.M 0.1250:
NULL. -999.2500:
UWI. F10599:
~C
DEPT.M :
DEN.GM/CC :
SP.MV :
GR.API :
RML.OHMM :
RI. :
RXO.OHMM :
CALI.CM :
~A
   47.0000     2.1060  -999.2500  -999.2500  -999.2500  -999.2500  -999.2500  -999.2500 
   47.1250     2.1090  -999.2500  -999.2500  -999.2500  -999.2500  -999.2500  -999.2500 
   47.2500     2.1290  -999.2500  -999.2500  -999.2500  -999.2500  -999.2500  -999.2500 
   47.3750     2.1750  -999.2500     0.0000     0.0000     0.0000     0.0000     0.0000 
   47.5000     2.2570  -999.2500     0.0000     0.0000     0.0000     0.0000     0.0000 
   47.6250     2.3760  -999.2500     0.0000     0.0000     0.0000     0.0000     0.0000 
   47.7500     2.4830  2500.0000     0.0000     0.0000     0.0000     0.0000     0.0000 
   47.8750     2.4870  2500.0000     0.0000     0.0000     0.0000     0.0000     0.0000 
   48.0000     2.4250  1250.0000     0.0000     0.0000     0.0000     0.0000     0.0000 
   48.1250     2.3760     0.0000     0.0000     0.0000     0.0000     0.0000     0.0000 
   48.2500     2.3830    99.4320    69.6230    19.4900     0.1460     1.0020    24.8290 
   48.3750     2.4410    99.5800    68.1050    19.1400     0.1360     1.0070    24.8290 
   48.5000     2.4940    99.7010    64.3980    19.3970     0.1260     1.0180    24.8290 
   48.6250     2.5120    99.7660    62.2960    19.9490     0.1220     1.0340    24.8290 
   48.7500     2.4970    99.7680    63.1290    20.4990     0.1250     1.0500    24.8360 
   48.8750     2.4810    99.7750    64.0900    20.9010     0.1300     1.0590    24.8710 
   49.0000     2.4830    99.7430    62.8010    21.1450     0.1270     1.0670    24.9490 
   49.1250     2.4960    99.6930    60.7660    21.1340     0.1170     1.0710    25.0460 
   49.2500     2.5080    99.6400    60.1080    20.6540     0.1070     1.0690    25.0670 
   49.3750     2.5140    99.6410    59.7470    19.4350     0.1030     1.0620    25.1500 
   49.5000     2.5160    99.7400    58.3320    17.5180     0.1040     1.0540    25.2330 
   49.6250     2.5180    99.9490    57.8730    14.9960     0.1090     1.0440    25.2670 
   49.7500     2.5200   100.2930    58.1440    12.5420     0.1200     1.0360    25.2670 
   49.8750     2.5200   100.7320    56.4980    10.9980     0.1430     1.0330    25.2670 
   50.0000     2.5210   101.2360    53.6380    10.3290     0.1730     1.0280    25.2670 
   50.1250     2.5240   101.7580    52.1640    10.3340     0.2010     1.0210    25.2670 
   50.2500     2.5250   102.2150    52.4160    10.7250     0.2120     1.0160    25.2670 
   50.3750     2.5150   102.5170    53.6840    11.0140     0.1950     1.0140    25.2670 
   50.5000     2.5020   102.6550    55.3860    10.7780     0.1610     1.0100    25.2670 
   50.6250     2.4970   102.6230    56.9750    10.2410     0.1260     1.0040    25.2670 
   50.7500     2.5010   102.4660    57.4080     9.9160     0.1040     0.9980    25.2670 
   50.8750     2.5010   102.2670    57.5430    10.0240     0.1020     0.9930    25.2670 
   51.0000     2.4930   102.0600    57.8750    10.2970     0.1050     0.9880    25.2670 
   51.1250     2.4800   101.8570    58.2000    10.4810     0.0980     0.9820    25.2670 
   51.2500     2.4690   101.7030    58.8880    10.4690     0.0780     0.9770    25.2670 
   51.3750     2.4590   101.6060    58.2110    10.3320     0.0600     0.9770    25.3330 
   51.5000     2.4480   101.5840    55.2430    10.1420     0.0640     0.9640    25.3330 
   51.6250     2.4370   101.6250    52.6240     9.8840     0.0870     0.9470    25.3330 
   51.7500     2.4290   101.6600    52.8050     9.6440     0.1150     0.9240    25.3330 
   51.8750     2.4310   101.5960    53.5970     9.7660     0.1310     0.9400    25.3330 
   52.0000     2.4360   101.3580    52.3630    10.3590     0.1330     0.9900    25.3330 
   52.1250     2.4380   100.8820    50.6110    11.2620     0.1270     1.0630    25.3330 
   52.2500     2.4300   100.1770    51.0620    12.0490     0.1250     1.1490    25.3330 
   52.3750     2.4060    99.2730    52.4650    11.9470     0.1290     1.2170    25.3330 
   52.5000     2.3700    98.2080    53.4560    11.0600     0.1360     1.2360    25.3330 
   52.6250     2.3290    97.0010    54.7420     9.9500     0.1420     1.2240    25.3330 
   52.7500     2.2990    95.7460    56.1060     9.0140     0.1480     1.2100    25.3330 
   52.8750     2.2920    94.5510    55.8690     8.3230     0.1470     1.2060    25.3330 
   53.0000     2.3000    93.5420    53.9510     7.7120     0.1340     1.2060    25.3330 
   53.1250     2.3150    92.7900    51.3700     7.1060     0.1120     1.2070    25.3330 
   53.2500     2.3300    92.2670    49.5650     6.5570     0.0910     1.1980    25.3330 
   53.3750     2.3360    91.9000    49.9320     6.3300     0.0840     1.1880    25.3330 
   53.5000     2.3300    91.5650    52.6770     6.5060     0.0960     1.2030    25.3330 
   53.6250     2.3150    91.2290    54.8220     6.9210     0.1240     1.2640    25.3330 
   53.7500     2.2930    90.8750    54.5920     7.3670     0.1550     1.3800    25.3330 
   53.8750     2.2630    90.4980    54.4160     7.7010     0.1770     1.4580    25.3330 
   54.0000     2.2280    90.0970    55.6270     7.8920     0.1840     1.4570    25.3330 
   54.1250     2.1860    89.6630    56.5720     7.9830     0.1750     1.4090    25.3330 
   54.2500     2.1370    89.2270    56.8780     8.0590     0.1560     1.3620    25.3330 
   54.3750     2.0800    88.8620    58.2220     8.2080     0.1410     1.3710    25.3330 
   54.5000     2.0260    88.6080    60.5480     8.3680     0.1390     1.3960    25.3330 
   54.6250     1.9830    88.4720    62.3090     8.4420     0.1440     1.3520    25.3330 
   54.7500     1.9590    88.4280    62.2520     8.4060     0.1510     1.2480    25.3330 
   54.8750     1.9510    88.4280    59.5430     8.4380     0.1470     1.1950    25.3330 
   55.0000     1.9440    88.4210    56.9760     8.7480     0.1340     1.2180    25.3240 
   55.1250     1.9360    88.4020    57.2230     9.3730     0.1150     1.2860    25.3260 
   55.2500     1.9300    88.3850    59.2480    10.1080     0.1020     1.3370    25.3370 
   55.3750     1.9330    88.4050    58.9650    10.3020     0.1150     1.3780    25.3370 
   55.5000     1.9420    88.5070    56.1360     9.8400     0.1600     1.3930    25.3370 
   55.6250     1.9510    88.7100    53.6010     9.2020     0.2260     1.4040    25.3370 
   55.7500     1.9580    88.9890    52.9710     8.7640     0.2850     1.4140    25.3370 
   55.8750     1.9600    89.3050    53.3340     8.5050     0.3020     1.4130    25.3370 
   56.0000     1.9580    89.6360    53.8070     8.3150     0.2800     1.3860    25.3370 
   56.1250     1.9550    89.9670    55.1530     8.4260     0.2330     1.3310    25.3310 
   56.2500     1.9550    90.3010    57.4390     9.2640     0.1800     1.2690    25.3100 
   56.3750     1.9620    90.6630    59.5610    11.4110     0.1360     1.1860    25.2410 
   56.5000     1.9750    91.0370    61.1560    14.1410     0.1050     1.0770    25.1420 
   56.6250     1.9880    91.3690    62.1760    15.2320     0.0900     0.9830    25.0240 
   56.7500     2.0010    91.5890    61.8970    13.4270     0.0870     0.9330    24.8950 
   56.8750     2.0100    91.6750    61.0490    10.7140     0.0900     0.9000    24.8440 
   57.0000     2.0140    91.6290    60.9400     8.7650     0.0890     0.8910    24.8270 
   57.1250     2.0140    91.4370    60.6620     7.6870     0.0780     0.9180    24.8080 
   57.2500     2.0150    91.0400    60.2570     7.3540     0.0620     0.9620    24.7540 
   57.3750     2.0310    90.2660    60.8370     7.5360     0.0460     0.9920    24.6300 
   57.5000     2.0680    89.0230    60.7570     7.5780     0.0330     1.0080    24.4950 
   57.6250     2.1290    87.1880    60.3690     6.8880     0.0220     1.0230    24.3480 
   57.7500     2.2130    84.6430    62.3460     5.5420     0.0130     1.0550    24.1880 
   57.8750     2.3250    81.0590    67.0820     4.3380     0.0090     1.0880    23.9920 
   58.0000     2.4500    76.3700    70.4480     3.5950     0.0070     1.1110    23.8220 
   58.1250     2.5580    70.3860    71.7770     3.2380     0.0080     1.1700    23.7270 
