~V
VERS. 2.00: Ver 2.00
~W
STRT.M 60.0000:
STOP.M 190.0000:
STEP.M 0.1250:
NULL. -999.2500:
UWI. F10561:
~C
DEPT.M :
SP.MV :
GR.API :
RML.OHMM :
RI. :
RXO.OHMM :
CALI.CM :
DEN.GM/CC :
~A
# ...
  105.0000   -10.3040    87.0700    14.8440    15.7360    33.0030    24.7230     2.4620 
  105.1250   -10.3530    94.3790    10.9050    11.4920    15.7040    24.6090     2.4540 
  105.2500   -10.4070    98.4960     8.7200     9.0210     8.1060    24.4920     2.4280 
  105.3750   -10.4260   101.0040     7.7700     7.7960     6.5170    24.3880     2.4030 
  105.5000   -10.3890   103.4250     7.6550     7.3970     6.8050    24.3150     2.3850 
  105.6250   -10.3360   103.5500     8.0860     7.5670     7.1670    24.2850     2.3740 
  105.7500   -10.3280   100.3550     8.6480     7.9670     7.4890    24.2680     2.3630 
  105.8750   -10.3160    96.3180     9.1140     8.4270     7.5730    24.2300     2.3510 
  106.0000   -10.2670    96.0510     9.3930     8.8590     7.7290    24.1300     2.3400 
  106.1250   -10.2520    99.3080     9.5530     9.2710     8.0160    24.0230     2.3310 
  106.2500   -10.2300    99.2250     9.7500     9.7100     8.2070    23.9600     2.3200 
  106.3750   -10.2140    96.2750    10.0490    10.1710     8.5940    24.0520     2.3020 
  106.5000   -10.2430    93.8650    10.4420    10.6130    10.4780    24.2930     2.2800 
  106.6250   -10.3010    92.6170    10.8980    10.9920    14.9510    24.5880     2.2670 
  106.7500   -10.3460    89.3120    11.4040    11.3480    17.1910    24.7670     2.2710 
  106.8750   -10.4200    84.4540    12.0040    11.7620    13.5280    24.9140     2.2910 
  107.0000   -10.5230    80.2010    12.7360    12.3030    12.4650    25.0200     2.3130 
  107.1250   -10.5600    77.6500    13.5290    12.9510    18.6160    25.0500     2.3250 
  107.2500   -10.5630    77.4270    14.1300    13.4870    23.7470    25.0350     2.3330 
  107.3750   -10.5940    79.7270    14.2730    13.6600    20.7490    25.0060     2.3470 
  107.5000   -10.6520    84.8040    13.8200    13.3020    15.5560    24.9710     2.3760 
  107.6250   -10.6670    89.9650    12.8360    12.4040    12.3980    24.9080     2.4140 
  107.7500   -10.6420    92.6470    11.7630    11.3350    11.5650    24.8100     2.4430 
  107.8750   -10.6090    91.4930    10.9440    10.4040    11.1800    24.7110     2.4550 
  108.0000   -10.5910    89.5750    10.6320     9.8560    11.0800    24.6780     2.4490 
  108.1250   -10.5770    91.0520    11.1480     9.9990    10.6770    24.7650     2.4380 
  108.2500   -10.5840    90.2810    12.6020    10.9650    10.3330    24.9010     2.4390 
  108.3750   -10.6200    82.1830    15.2800    13.0450    11.2310    24.9480     2.4610 
  108.5000   -10.6330    69.9020    19.2230    16.5750    17.7920    24.9100     2.5000 
  108.6250   -10.6260    62.3480    24.4260    21.9590    34.1950    24.8120     2.5430 
  108.7500   -10.6700    60.2090    30.1630    28.3970    49.9780    24.7520     2.5730 
  108.8750   -10.7230    59.1860    36.0470    34.7090    50.7450    24.7260     2.5850 
  109.0000   -10.7250    57.8800    40.6310    39.5620    43.6160    24.6960     2.5830 
  109.1250   -10.7830    57.4130    42.7190    41.9640    38.7250    24.6290     2.5770 
  109.2500   -10.8740    57.4000    43.3740    42.8480    39.0530    24.5790     2.5730 
  109.3750   -10.9290    57.4250    43.6880    43.1860    40.3220    24.5930     2.5670 
  109.5000   -10.9630    58.5850    44.3390    43.6610    45.2160    24.6860     2.5570 
  109.6250   -10.9980    61.1440    45.4480    44.4630    48.1950    24.8110     2.5410 
  109.7500   -11.0450    62.9000    46.6490    45.3360    44.9410    24.8900     2.5240 
  109.8750   -11.0700    62.2120    47.6980    46.0800    42.2830    24.9260     2.5080 
  110.0000   -11.0790    60.1930    48.5030    46.6170    44.8030    24.9360     2.4960 
  110.1250   -11.0830    58.5170    49.1470    47.0320    48.4060    24.9370     2.4870 
  110.2500   -11.0760    56.5580    49.8730    47.5620    46.4030    24.9350     2.4790 
  110.3750   -11.0730    54.0150    50.7890    48.3520    44.1020    24.9310     2.4770 
  110.5000   -11.0910    51.9500    51.8060    49.3740    44.7130    24.9170     2.4840 
  110.6250   -11.1090    52.5140    52.5670    50.3590    48.9260    24.8900     2.5010 
  110.7500   -11.1150    54.8590    52.7360    50.9430    52.9750    24.8440     2.5190 
  110.8750   -11.1350    56.2580    52.1420    50.8710    52.5210    24.8070     2.5300 
  111.0000   -11.1580    56.4050    50.8910    50.1000    45.7420    24.8240     2.5320 
  111.1250   -11.1920    56.7150    49.3710    48.8280    39.8680    24.8430     2.5290 
  111.2500   -11.2380    57.8170    48.1020    47.5650    38.7630    24.8510     2.5270 
  111.3750   -11.2600    58.2220    47.3700    46.6770    40.6570    24.8500     2.5280 
  111.5000   -11.2560    56.4960    47.3290    46.4480    45.5280    24.8470     2.5280 
  111.6250   -11.2940    54.6050    48.2040    47.2340    53.1800    24.8470     2.5260 
  111.7500   -11.3630    54.2740    49.9000    48.9520    55.3070    24.8460     2.5290 
  111.8750   -11.4270    53.8080    52.3390    51.4650    49.8100    24.8530     2.5390 
  112.0000   -11.4880    52.5250    55.1980    54.3900    49.0110    24.8730     2.5560 
  112.1250   -11.5670    53.0190    57.5850    56.8690    63.3100    24.8950     2.5730 
  112.2500   -11.6560    54.8360    58.5320    58.0440    76.6540    24.8940     2.5840 
  112.3750   -11.7440    54.0150    57.5270    57.4270    70.7890    24.8820     2.5880 
  112.5000   -11.8420    51.9750    54.8320    55.1460    52.3110    24.8830     2.5850 
  112.6250   -11.9130    54.3880    51.4500    51.9340    45.6310    24.8720     2.5710 
  112.7500   -11.9610    59.3870    48.6550    49.0120    43.3390    24.8510     2.5480 
  112.8750   -12.0130    61.9390    47.2070    47.0690    41.7690    24.8280     2.5200 
  113.0000   -12.0920    60.7590    47.3910    46.3900    41.7990    24.7960     2.4920 
  113.1250   -12.1100    58.1450    49.3160    47.0660    45.1780    24.7180     2.4710 
  113.2500   -12.0800    55.3440    51.2830    48.5340    50.2790    24.6140     2.4560 
  113.3750   -12.0580    53.0250    53.0800    50.3310    51.6420    24.5300     2.4460 
  113.5000   -12.0550    51.3750    54.4830    51.9480    51.5230    24.6480     2.4410 
  113.6250   -12.0830    51.1300    55.1110    52.8210    52.9420    24.7970     2.4410 
  113.7500   -12.0830    52.6140    54.9660    52.9080    54.7350    24.8550     2.4440 
  113.8750   -12.0650    55.2640    54.2240    52.3820    48.5860    24.8410     2.4540 
  114.0000   -12.0680    57.2030    53.2070    51.5800    41.2950    24.8060     2.4690 
  114.1250   -12.0680    57.0350    52.2780    50.8710    39.8360    24.7780     2.4860 
  114.2500   -12.0800    56.3960    51.5430    50.3640    44.9340    24.7530     2.5000 
  114.3750   -12.1290    55.2050    50.8260    49.9070    51.9060    24.7310     2.5070 
  114.5000   -12.2080    52.9090    49.7940    49.2010    46.6990    24.7010     2.5080 
  114.6250   -12.2780    52.5340    48.0850    47.8980    38.0330    24.6610     2.5050 
  114.7500   -12.3300    56.1800    45.9290    46.1310    34.8840    24.6550     2.4960 
  114.8750   -12.3960    61.0380    43.7790    44.2490    35.3450    24.7080     2.4820 
  115.0000   -12.4340    62.7700    42.1440    42.6960    36.1450    24.8190     2.4690 
  115.1250   -12.4840    59.3130    41.4280    41.8940    36.6140    24.9170     2.4710 
  115.2500   -12.5470    54.7560    41.3310    41.6890    39.0800    24.9570     2.4930 
  115.3750   -12.5860    52.2640    41.4300    41.7850    43.3920    24.9720     2.5260 
  115.5000   -12.5860    54.1530    41.2770    41.8020    48.2230    24.9910     2.5550 
  115.6250   -12.5420    59.8380    40.5380    41.3610    46.3200    25.0090     2.5560 
  115.7500   -12.5160    63.4030    39.4560    40.5120    40.1220    25.0080     2.5310 
  115.8750   -12.5130    62.5650    38.4410    39.5250    35.5940    24.9880     2.4890 
  116.0000   -12.5010    59.3030    37.9030    38.7780    33.3290    24.9640     2.4470 
  116.1250   -12.4770    56.3800    38.1570    38.6760    34.3220    24.9230     2.4260 
