~V
VERS. 2.00: Ver 2.00
~W
STRT.M 50.0000:
STOP.M 214.0000:
STEP.M 0.1250:
NULL. -999.2500:
UWI. F10534:
~C
DEPT.M :
DEN.GM/CC :
SP.MV :
GR.API :
RML.OHMM :
RI. :
RXO.OHMM :
CALI.CM :
~A
# ...
  173.7500     2.5130   -18.9930    74.1200    15.5760    14.5810    16.5710    24.0540 
  173.8750     2.5110   -18.9970    75.4300    15.4320    14.4790    17.2700    24.0530 
  174.0000     2.5080   -18.9710    77.7840    15.1860    14.2670    16.4390    24.0550 
  174.1250     2.5020   -18.8980    81.3300    14.9970    14.0710    15.3730    24.0540 
  174.2500     2.4920   -18.7970    81.9080    14.9460    13.9750    14.9210    24.0550 
  174.3750     2.4780   -18.6780    77.4230    15.0300    14.0020    15.3600    24.0540 
  174.5000     2.4630   -18.5560    72.1850    15.1960    14.1310    16.0870    24.0570 
  174.6250     2.4510   -18.4430    72.6990    15.3790    14.3250    15.9150    24.0680 
  174.7500     2.4420   -18.3370    74.7860    15.5640    14.5410    15.4600    24.0810 
  174.8750     2.4390   -18.2300    74.4200    15.7830    14.7770    15.4980    24.0840 
  175.0000     2.4400   -18.1230    71.8690    16.0690    15.0470    16.0840    24.0810 
  175.1250     2.4470   -18.0100    69.6690    16.4300    15.3540    16.5660    24.0810 
  175.2500     2.4530   -17.8700    69.4340    16.8050    15.6570    16.8880    24.0810 
  175.3750     2.4540   -17.7340    72.4510    17.1240    15.9050    16.4380    24.0770 
  175.5000     2.4530   -17.6220    76.5040    17.3140    16.0550    16.2740    24.0780 
  175.6250     2.4580   -17.5220    76.9070    17.2950    16.0700    15.9790    24.0910 
  175.7500     2.4700   -17.4150    74.9660    17.1070    15.9840    15.5300    24.1030 
  175.8750     2.4800   -17.3080    74.2600    16.7950    15.8130    14.0100    24.0890 
  176.0000     2.4850   -17.2010    74.3430    16.4250    15.5720    13.0640    24.0460 
  176.1250     2.4890   -17.1270    73.5460    16.0670    15.2810    12.8960    23.9880 
  176.2500     2.4930   -17.0980    74.5270    15.7570    14.9900    13.5290    23.9460 
  176.3750     2.4980   -17.0780    77.3180    15.5070    14.7330    13.9550    23.9190 
  176.5000     2.5030   -17.0550    80.1510    15.3220    14.5290    13.7850    23.9080 
  176.6250     2.5080   -17.0440    80.9700    15.2550    14.4210    13.6540    23.9170 
  176.7500     2.5160   -17.0580    78.4370    15.3670    14.4570    13.3560    23.9450 
  176.8750     2.5270   -17.0760    74.4030    15.7220    14.7070    13.1680    23.9700 
  177.0000     2.5410   -17.0850    73.2380    16.3280    15.2090    13.8190    23.9870 
  177.1250     2.5500   -17.0700    75.4480    17.1020    15.9430    15.8250    24.0150 
  177.2500     2.5450   -17.0240    75.4360    17.8220    16.7030    17.5810    24.0670 
  177.3750     2.5280   -16.9880    72.7230    18.2980    17.2900    18.6490    24.1100 
  177.5000     2.5120   -16.9820    71.8950    18.4070    17.5540    19.7310    24.1270 
  177.6250     2.5070   -16.9920    74.5160    18.0970    17.3880    18.8000    24.1270 
  177.7500     2.5100   -16.9820    75.8750    17.5870    16.9670    16.4330    24.1270 
  177.8750     2.5160   -16.9710    74.1530    17.0960    16.5050    14.9760    24.1270 
  178.0000     2.5190   -16.9690    72.4200    16.8170    16.2190    14.8040    24.1260 
  178.1250     2.5240   -16.9850    74.1780    16.8960    16.3030    14.9740    24.1240 
  178.2500     2.5330   -17.0370    77.3620    17.2220    16.7000    15.2800    24.1240 
  178.3750     2.5420   -17.1110    79.9380    17.6600    17.3050    15.7560    24.1260 
  178.5000     2.5430   -17.2070    81.2960    17.9710    18.0650    16.9250    24.1350 
  178.6250     2.5380   -17.3490    81.4560    18.5150    18.2670    18.0860    24.1570 
  178.7500     2.5300   -17.5650    80.3160    18.8250    18.2090    17.9080    24.1810 
  178.8750     2.5200   -17.8570    78.3300    18.8430    17.8890    16.5690    24.1910 
  179.0000     2.5050   -18.2150    77.5090    18.5990    17.4060    15.2810    24.1910 
  179.1250     2.4830   -18.6400    78.1970    18.2470    16.9730    14.4950    24.1740 
  179.2500     2.4590   -19.0960    79.2350    17.9930    16.7460    14.3030    24.1300 
  179.3750     2.4370   -19.5660    79.8570    17.8920    16.7260    14.3620    24.0650 
  179.5000     2.4240   -20.0330    79.9430    17.8820    16.8030    13.9450    23.9950 
  179.6250     2.4170   -20.4960    78.0390    17.8560    16.8540    13.5420    23.8400 
  179.7500     2.4110   -20.9310    75.9600    17.8070    16.9040    13.6000    23.5530 
  179.8750     2.4070   -21.3150    75.6970    17.8290    17.0730    14.2410    23.3240 
  180.0000     2.4050   -21.6630    76.9340    18.0510    17.5070    14.3280    23.3400 
  180.1250     2.4010   -21.9710    77.9240    18.7410    18.5610    13.9000    23.5970 
  180.2500     2.3880   -22.2610    78.5430    20.2940    20.8090    13.5490    23.7510 
  180.3750     2.3640   -22.5460    78.5680    23.9680    25.5900    14.4860    23.7900 
  180.5000     2.3360   -22.8170    77.2240    32.4890    34.9510    18.7920    23.8530 
  180.6250     2.3060   -23.0490    75.4450    51.8890    52.9580    34.0400    24.0570 
  180.7500     2.2740   -23.2560    73.6630    84.1410    80.6090    61.0850    24.2930 
  180.8750     2.2470   -23.4540    72.8200   125.6480   114.7740    85.7670    24.4000 
  181.0000     2.2320   -23.6470    74.9340   158.7700   140.1380    93.3640    24.4200 
  181.1250     2.2300   -23.8210    77.3260   155.3390   133.2840    92.8850    24.4200 
  181.2500     2.2300   -23.9730    76.6040   128.6840   109.2790    97.3200    24.4200 
  181.3750     2.2280   -24.0800    74.7040   100.2810    86.2160    94.5440    24.4200 
  181.5000     2.2250   -24.1470    73.9500    79.9150    69.9800    70.7590    24.4200 
  181.6250     2.2260   -24.1820    73.7180    68.0350    60.2130    46.2890    24.4030 
  181.7500     2.2310   -24.2020    72.6200    61.1360    54.7780    36.3400    24.3530 
  181.8750     2.2370   -24.2080    71.5440    59.0540    53.7980    34.6630    24.2240 
  182.0000     2.2370   -24.1900    71.3860    62.3650    57.5260    36.9140    23.9920 
  182.1250     2.2250   -24.1500    71.1190    71.7860    65.9730    41.6680    23.7340 
  182.2500     2.2110   -24.1070    71.5370    84.1370    76.0450    53.8200    23.8250 
  182.3750     2.2080   -24.0780    73.4370    95.0380    83.9180    69.9160    24.1440 
  182.5000     2.2190   -24.0430    75.3870    99.8170    86.0310    77.8340    24.3990 
  182.6250     2.2330   -23.9820    75.6550    96.2180    81.4590    79.4840    24.4920 
  182.7500     2.2440   -23.9240    74.6180    89.0600    74.7870    86.4530    24.5310 
  182.8750     2.2520   -23.8710    72.3810    81.9540    68.8820    82.3520    24.5730 
  183.0000     2.2590   -23.8240    68.2430    76.8310    65.0620    56.9980    24.6370 
  183.1250     2.2590   -23.7580    65.3870    75.4350    64.7900    36.8350    24.7350 
  183.2500     2.2470   -23.6620    66.4660    78.9440    68.8750    31.0350    24.7770 
  183.3750     2.2260   -23.5200    68.5830    88.9350    78.3600    44.4720    24.7880 
  183.5000     2.2040   -23.3600    68.3340   105.8490    93.4580    72.6400    24.7880 
  183.6250     2.1920   -23.2000    67.4110   127.8420   112.7510    99.9310    24.7880 
  183.7500     2.1890   -22.9970    66.7680   148.0680   130.5680   109.8730    24.7880 
  183.8750     2.1880   -22.7660    64.8550   160.8200   141.8530   114.7800    24.7880 
  184.0000     2.1860   -22.5110    61.7740   164.3620   145.0810   114.7800    24.7880 
  184.1250     2.1810   -22.2490    60.3640   161.1780   142.6690   114.0680    24.7880 
  184.2500     2.1770   -21.9650    62.1160   156.3610   138.9610   108.6760    24.7880 
  184.3750     2.1760   -21.6770    64.1940   151.5170   135.1890   100.3050    24.7880 
  184.5000     2.1770   -21.3940    65.0230   147.2810   131.8920    93.1210    24.7880 
  184.6250     2.1800   -21.1090    66.2500   144.7690   130.0070    92.9590    24.7880 
  184.7500     2.1840   -20.8450    67.6590   144.4350   129.7560    97.4270    24.7880 
  184.8750     2.1870   -20.4350    68.8720   146.1150   130.7800   105.1850    24.7970 
