~V
VERS. 2.00: Ver 2.00
~W
STRT.M 50.0000:
STOP.M 199.0000:
STEP.M 0.1250:
NULL. -999.2500:
UWI. F10575:
~C
DEPT.M :
DEN.GM/CC :
SP.MV :
GR.API :
RML.OHMM :
RI. :
RXO.OHMM :
CALI.CM :
~A
# ...
  151.2500     2.1770   -16.4120    58.4630    42.7280    37.6780    46.9370    23.7610 
  151.3750     2.1750   -16.4690    59.5240    41.1210    36.8510    43.4390    23.7150 
  151.5000     2.1780   -16.5220    62.2970    39.3650    36.0520    40.6920    23.5710 
  151.6250     2.1790   -16.5820    63.6740    37.9030    35.2710    35.6270    23.0780 
  151.7500     2.1820   -16.6260    61.7760    36.8110    34.5070    29.3000    22.3150 
  151.8750     2.1890   -16.6560    59.0980    36.0110    33.8110    25.0040    21.7690 
  152.0000     2.2010   -16.6810    59.9970    35.4120    33.2270    23.9430    21.5840 
  152.1250     2.2160   -16.6930    64.7770    35.0790    32.8350    26.1400    21.6730 
  152.2500     2.2290   -16.6960    66.8240    35.1230    32.6600    30.6080    22.0140 
  152.3750     2.2330   -16.7130    64.4330    35.6570    32.7150    36.5250    22.6960 
  152.5000     2.2250   -16.7300    60.0920    36.6710    33.0230    42.4570    23.4950 
  152.6250     2.2030   -16.7240    60.1540    38.0330    33.6520    45.0820    24.0040 
  152.7500     2.1780   -16.7050    64.7130    39.5000    34.5220    46.7730    24.2200 
  152.8750     2.1600   -16.7100    68.3070    40.9900    35.5500    47.5930    24.2800 
  153.0000     2.1540   -16.7050    68.3230    42.4160    36.5670    47.3950    24.2810 
  153.1250     2.1580   -16.6990    66.8320    43.4570    37.2320    47.3470    24.2260 
  153.2500     2.1720   -16.6990    66.1210    43.8050    37.3230    48.3990    24.1010 
  153.3750     2.2010   -16.6630    66.0700    43.1510    36.7020    52.2510    23.9320 
  153.5000     2.2460   -16.5950    66.2310    41.2960    35.2600    56.7330    23.7780 
  153.6250     2.2980   -16.5340    67.4670    38.2000    32.7640    48.5500    23.6030 
  153.7500     2.3450   -16.4700    67.9950    34.5930    29.6060    37.8990    23.2740 
  153.8750     2.3830   -16.4200    67.9290    31.0250    26.2860    31.9980    22.7780 
  154.0000     2.3970   -16.4180    68.1430    27.9180    23.3500    25.6120    22.4460 
  154.1250     2.3600   -16.4250    68.7930    25.7010    21.4160    22.0360    22.5170 
  154.2500     2.2950   -16.4210    69.8920    24.3640    20.4530    22.0400    22.8010 
  154.3750     2.2410   -16.4370    70.5120    23.8570    20.2410    23.1090    22.9850 
  154.5000     2.2140   -16.4920    70.8980    24.0800    20.4990    24.4860    22.9410 
  154.6250     2.2080   -16.5510    70.4640    24.9560    21.0830    26.3030    22.8310 
  154.7500     2.2090   -16.5920    68.8940    26.1260    21.8830    28.4810    22.7650 
  154.8750     2.2140   -16.5790    66.6330    27.2980    22.8770    30.0450    22.6830 
  155.0000     2.2280   -16.4980    64.9540    28.2620    24.0160    31.1180    22.5390 
  155.1250     2.2550   -16.3820    64.7840    28.9400    25.1910    31.9410    22.3840 
  155.2500     2.2850   -16.2690    64.8230    29.4940    26.2390    32.0490    22.2910 
  155.3750     2.3050   -16.1830    65.8020    30.0760    27.1000    31.3350    22.2620 
  155.5000     2.3050   -16.1010    68.5250    30.7910    27.8400    31.0050    22.2680 
  155.6250     2.2860   -16.0220    69.0600    31.6810    28.6380    32.9900    22.3750 
  155.7500     2.2600   -15.9670    67.3260    32.6920    29.6220    35.9300    22.6760 
  155.8750     2.2340   -15.9260    65.9130    33.7650    30.7900    39.1050    23.1320 
  156.0000     2.2060   -15.9060    67.7450    34.8410    32.0310    40.8280    23.5210 
  156.1250     2.1820   -15.9500    70.2530    35.8670    33.2220    41.1410    23.6630 
  156.2500     2.1680   -16.0160    70.4400    36.8430    34.3790    41.2640    23.6520 
  156.3750     2.1680   -16.0670    69.5040    37.8100    35.6270    42.2650    23.6170 
  156.5000     2.1800   -16.1190    68.3890    38.8810    37.1360    44.7670    23.5980 
  156.6250     2.1980   -16.2400    68.3400    40.3150    39.2010    46.4960    23.5840 
  156.7500     2.2130   -16.4030    67.7580    42.2660    41.9000    48.2910    23.5550 
  156.8750     2.2260   -16.6400    64.0650    44.8470    45.2410    50.5400    23.5020 
  157.0000     2.2360   -16.9190    57.7210    48.1330    49.1200    54.7180    23.4240 
  157.1250     2.2360   -17.2130    54.4640    52.1470    53.3510    61.5310    23.4640 
  157.2500     2.2240   -17.5260    56.9060    56.4800    57.6540    66.3030    23.6350 
  157.3750     2.2070   -17.8390    60.3430    60.8200    61.9780    69.6420    23.8110 
  157.5000     2.1930   -18.1460    60.3500    65.0160    66.4800    73.1720    23.8880 
  157.6250     2.1830   -18.3810    58.3850    69.1560    71.4860    75.3870    23.8510 
  157.7500     2.1800   -18.5610    58.0850    73.3420    76.7100    76.1100    23.7320 
  157.8750     2.1930   -18.6630    59.5530    77.2200    81.1940    78.8300    23.6020 
  158.0000     2.2270   -18.7010    60.2180    79.8620    83.4660    83.7470    23.5680 
  158.1250     2.2800   -18.6610    60.7520    79.4200    81.3730    90.4800    23.5530 
  158.2500     2.3320   -18.5520    62.4000    75.5660    75.2460    93.6030    23.5030 
  158.3750     2.3780   -18.4330    64.5930    68.8420    66.3900    83.3480    23.3570 
  158.5000     2.4290   -18.2860    66.8990    60.6910    56.7090    68.0070    23.0530 
  158.6250     2.5000   -18.1180    68.9420    52.9780    48.2070    66.5490    22.7320 
  158.7500     2.5710   -17.9530    68.9940    46.8620    41.7970    64.4550    22.5620 
  158.8750     2.6120   -17.7980    66.2050    42.7690    37.8120    60.0770    22.5210 
  159.0000     2.6250   -17.6390    64.0390    40.6390    36.0110    51.5820    22.5670 
  159.1250     2.6270   -17.4030    68.7750    39.7480    35.3150    47.1650    22.6410 
  159.2500     2.6210   -17.0470    76.7190    37.9690    33.5880    51.4630    22.6930 
  159.3750     2.5880   -16.5130    81.6880    33.4870    29.4130    67.9530    22.7640 
  159.5000     2.5110   -15.8260    83.7600    26.2980    22.9250    83.6530    22.9440 
  159.6250     2.3880   -15.0280    84.5710    18.8070    16.1240    46.0810    23.2720 
  159.7500     2.2700   -14.1660    82.5950    13.0820    10.9440    18.6110    23.5010 
  159.8750     2.2020   -13.2900    78.1800     9.4190     7.7800     8.0810    23.5930 
  160.0000     2.2010   -12.4510    75.6230     7.4420     6.2590     6.3990    23.6060 
  160.1250     2.2500   -11.7520    78.4240     6.8530     5.9780     7.6810    23.5910 
  160.2500     2.2990   -11.2090    83.7050     7.1140     6.3390     9.2020    23.5410 
  160.3750     2.3310   -10.8490    89.8770     7.9870     7.0450     9.8530    23.4500 
  160.5000     2.3560   -10.6870    95.3210     9.1890     7.7710     9.8160    23.3650 
  160.6250     2.3800   -10.7040    97.6340    10.3150     8.1890    10.1630    23.3510 
  160.7500     2.3940   -10.8400    99.4770    11.0910     8.3150    10.9690    23.3630 
  160.8750     2.3950   -11.0170   102.7090    11.4670     8.2800    11.5420    23.3570 
  161.0000     2.3870   -11.2000   107.4000    11.5250     8.2250    11.7060    23.3270 
  161.1250     2.3730   -11.3780   113.2720    11.3640     8.2360    11.6090    23.3020 
  161.2500     2.3600   -11.5870   121.9670    11.1100     8.3050    11.4730    23.2910 
  161.3750     2.3510   -11.8380   129.5020    10.8010     8.4080    11.5400    23.3500 
  161.5000     2.3520   -12.1090   131.0170    10.4540     8.5210    11.6490    23.5320 
  161.6250     2.3620   -12.3870   127.8360    10.0710     8.5930    11.9360    23.6710 
  161.7500     2.3720   -12.6490   125.6420     9.6580     8.5600    11.9920    23.7410 
  161.8750     2.3780   -12.9300   125.5390     9.2450     8.4070    11.7990    23.7560 
  162.0000     2.3780   -13.2690   123.8760     8.9070     8.2530    11.8620    23.7580 
  162.1250     2.3700   -13.7190   120.0410     8.8490     8.4090    12.2990    23.7580 
  162.2500     2.3560   -14.2580   118.8580     9.2670     9.1610    13.2230    23.7580 
  162.3750     2.3410   -14.8830   117.8690    10.4310    10.8400    15.4720    23.7580 
