~V
VERS. 2.00: Ver 2.00
~W
STRT.M 42.0000:
STOP.M 223.0000:
STEP.M 0.1250:
NULL. -999.2500:
UWI. F10538:
~C
DEPT.M :
DEN.GM/CC :
SP.MV :
GR.API :
RML.OHMM :
RI. :
RXO.OHMM :
CALI.CM :
~A
# ...
  143.2500     2.1950   -36.8990    78.9470     8.6410     8.3570     9.8970    24.3410 
  143.3750     2.1910   -36.8870    76.0160     8.9360     8.6070     9.9730    24.3260 
  143.5000     2.1860   -36.8970    71.4070     9.0310     8.7440     9.9670    24.3210 
  143.6250     2.1770   -36.9020    69.8330     8.8960     8.7000     9.8550    24.3210 
  143.7500     2.1640   -36.9190    70.3350     8.6120     8.5050     9.6550    24.3210 
  143.8750     2.1530   -36.9540    68.4790     8.3080     8.2470     9.4110    24.3210 
  144.0000     2.1520   -36.9930    66.8180     8.0960     8.0320     9.3220    24.3100 
  144.1250     2.1610   -37.0590    69.1470     8.0120     7.9100     9.3620    24.2740 
  144.2500     2.1770   -37.1340    73.1990     8.0440     7.8890     9.3820    24.2100 
  144.3750     2.1910   -37.2170    71.4200     8.1570     7.9540     9.4920    24.1800 
  144.5000     2.1990   -37.3000    67.2980     8.2850     8.0520     9.5400    24.1620 
  144.6250     2.2000   -37.3880    67.0530     8.3910     8.1450     9.5180    24.1240 
  144.7500     2.1970   -37.4780    70.9190     8.4610     8.2130     9.4550    24.0660 
  144.8750     2.1910   -37.5790    72.5000     8.5020     8.2580     9.3580    24.0910 
  145.0000     2.1850   -37.6780    72.2910     8.5380     8.2990     9.3800    24.2150 
  145.1250     2.1790   -37.7210    71.6020     8.5670     8.3360     9.5610    24.2980 
  145.2500     2.1740   -37.7490    69.6620     8.5730     8.3540     9.6650    24.3210 
  145.3750     2.1740   -37.7680    67.3270     8.5400     8.3290     9.6870    24.3210 
  145.5000     2.1780   -37.7620    67.4200     8.4800     8.2750     9.8340    24.3210 
  145.6250     2.1840   -37.7150    70.0140     8.4120     8.2150    10.0250    24.3210 
  145.7500     2.1890   -37.6410    72.7440     8.3490     8.1680     9.9830    24.3250 
  145.8750     2.1910   -37.5220    72.4700     8.3020     8.1450     9.7560    24.3410 
  146.0000     2.1900   -37.4010    70.7060     8.2760     8.1410     9.7770    24.3650 
  146.1250     2.1850   -37.2840    69.7440     8.2790     8.1560     9.7450    24.3700 
  146.2500     2.1790   -37.1240    72.1200     8.3040     8.1880     9.5890    24.3410 
  146.3750     2.1710   -36.9230    75.0780     8.3160     8.2140     9.4450    24.2970 
  146.5000     2.1650   -36.6790    74.5440     8.2720     8.2010     9.3810    24.3460 
  146.6250     2.1640   -36.4310    73.4570     8.1480     8.1210     9.3860    24.4830 
  146.7500     2.1680   -36.1250    73.1560     7.9480     7.9680     9.3130    24.5830 
  146.8750     2.1720   -35.7520    71.9870     7.7010     7.7510     9.1920    24.6070 
  147.0000     2.1710   -35.3200    69.6080     7.4490     7.5110     9.0490    24.5690 
  147.1250     2.1720   -34.8200    69.7930     7.2110     7.2710     8.9340    24.4850 
  147.2500     2.1790   -34.2960    74.1630     6.9890     7.0430     8.7750    24.4150 
  147.3750     2.2020   -33.7440    79.0160     6.7670     6.8210     8.4800    24.4190 
  147.5000     2.2400   -33.2230    83.5040     6.5390     6.5990     8.4360    24.5360 
  147.6250     2.2930   -32.7100    89.2350     6.3070     6.3780     8.9350    24.7530 
  147.7500     2.3520   -32.2780    95.4500     6.0680     6.1520     9.4560    24.9210 
  147.8750     2.3790   -31.9300    99.0660     5.8110     5.9050     7.5760    24.9750 
  148.0000     2.3600   -31.6450   101.1360     5.5510     5.6420     6.5580    24.9800 
  148.1250     2.3190   -31.4610   101.7240     5.3140     5.3860     6.2350    24.9800 
  148.2500     2.2930   -31.3330   101.2150     5.1290     5.1700     6.2520    24.9800 
  148.3750     2.2940   -31.2750   101.6730     5.0180     5.0270     6.0200    24.9800 
  148.5000     2.3080   -31.2320   102.8010     4.9670     4.9470     5.7860    24.9800 
  148.6250     2.3240   -31.2300   103.6420     4.9630     4.9140     5.5780    24.9800 
  148.7500     2.3350   -31.2220   104.7190     5.0020     4.9150     5.5870    24.9800 
  148.8750     2.3340   -31.2190   105.2450     5.1010     4.9630     5.6800    24.9800 
  149.0000     2.3220   -31.2150   102.6580     5.2450     5.0570     5.8610    24.9800 
  149.1250     2.3090   -31.1940    97.8170     5.4020     5.1830     6.0700    24.9800 
  149.2500     2.3020   -31.1720    94.9890     5.5270     5.3040     6.2290    24.9800 
  149.3750     2.3110   -31.1230    94.7400     5.5580     5.3660     6.1990    24.9800 
  149.5000     2.3270   -31.0890    94.0230     5.4920     5.3440     6.1620    24.9800 
  149.6250     2.3340   -31.0410    94.2630     5.3570     5.2410     5.9870    24.9800 
  149.7500     2.3270   -31.0060    97.6380     5.2100     5.0950     5.8010    24.9800 
  149.8750     2.3170   -30.9740   104.0210     5.1220     4.9620     5.6540    24.9800 
  150.0000     2.3120   -30.9410   108.8050     5.1170     4.8880     5.6430    24.9800 
  150.1250     2.3070   -30.9410   110.0320     5.1850     4.8840     5.8300    24.9800 
  150.2500     2.2950   -30.9560   106.5040     5.2780     4.9270     6.1690    24.9800 
  150.3750     2.2860   -30.9820    99.8760     5.2990     4.9440     6.3370    24.9800 
  150.5000     2.2910   -30.9740    95.4940     5.2010     4.8710     5.9340    24.9800 
  150.6250     2.3060   -30.9750    95.2380     5.0080     4.7050     5.4660    24.9800 
  150.7500     2.3240   -30.9730    97.1210     4.8160     4.5090     5.1550    24.9800 
  150.8750     2.3390   -30.9550   101.4000     4.7730     4.4100     5.2290    24.9800 
  151.0000     2.3490   -30.9820   106.2710     4.9330     4.4780     5.6330    24.9800 
  151.1250     2.3590   -31.0000   108.0760     5.2920     4.7310     6.1260    24.9800 
  151.2500     2.3770   -31.0330   105.8570     5.8010     5.1410     6.9790    24.9800 
  151.3750     2.4190   -31.0760   101.5280     6.3700     5.6570     8.9800    24.9800 
  151.5000     2.4670   -31.1460    95.0910     6.8280     6.1410    11.2910    24.9800 
  151.6250     2.4880   -31.2250    90.5790     7.0050     6.4320    10.6900    24.9800 
  151.7500     2.4520   -31.2950    93.2600     6.8130     6.4130     7.8860    24.9800 
  151.8750     2.3750   -31.3570    99.1620     6.3370     6.0860     6.7180    24.9800 
  152.0000     2.3150   -31.3430    99.6000     5.8590     5.6880     6.6160    24.9800 
  152.1250     2.2900   -31.3010    95.8030     5.5220     5.3710     6.4570    24.9800 
  152.2500     2.2940   -31.2140    92.7060     5.3440     5.1820     6.1610    24.9800 
  152.3750     2.3120   -31.0950    93.0960     5.2470     5.0740     5.9380    24.9800 
  152.5000     2.3310   -30.9300    97.0150     5.1430     4.9570     5.7140    24.9800 
  152.6250     2.3420   -30.7280   102.1330     5.0330     4.8190     5.7160    24.9800 
  152.7500     2.3390   -30.5170   104.7720     4.9410     4.6870     5.8230    24.9800 
  152.8750     2.3320   -30.3000   105.7770     4.8580     4.5710     5.4740    24.9800 
  153.0000     2.3310   -30.1380   106.7740     4.7570     4.4500     5.0780    24.9800 
  153.1250     2.3340   -29.9940   107.6810     4.6390     4.3180     4.7930    24.9800 
  153.2500     2.3360   -29.9000   109.2060     4.5380     4.1970     4.6020    24.9800 
  153.3750     2.3350   -29.8730   112.1920     4.5200     4.1420     4.5030    24.9810 
  153.5000     2.3390   -29.9170   112.5840     4.6270     4.1940     4.3930    24.9870 
  153.6250     2.3510   -30.0160   110.6780     4.9000     4.3920     4.5310    24.9900 
  153.7500     2.3610   -30.1610   111.4120     5.3740     4.7700     5.1750    24.9650 
  153.8750     2.3650   -30.3820   111.1730     6.0750     5.3670     6.8950    24.8590 
  154.0000     2.3650   -30.6000   105.4950     6.8460     6.0720     8.9840    24.7840 
  154.1250     2.3540   -30.8500    97.9350     7.4680     6.7020     9.2940    24.7570 
  154.2500     2.3230   -31.0880    95.9010     7.7400     7.0530     7.7880    24.7540 
  154.3750     2.2730   -31.2840   100.0800     7.5760     6.9890     7.0540    24.7540 
