~V
VERS. 2.00: Ver 2.00
~W
STRT.M 57.0000:
STOP.M 205.0000:
STEP.M 0.1250:
NULL. -999.2500:
UWI. F10591:
~C
DEPT.M :
SP.MV :
GR.API :
RML.OHMM :
RI. :
RXO.OHMM :
CALI.CM :
DEN.GM/CC :
~A
# ...
  113.2500    -9.8300    50.9410    57.8990    45.8220    64.3750    24.5260     2.6350 
  113.3750    -9.8460    48.7020    57.9410    46.6000    62.9470    24.5010     2.5840 
  113.5000    -9.8390    47.5400    55.9620    45.7700    52.2550    24.6290     2.5140 
  113.6250    -9.7930    48.6940    52.7740    43.7210    44.1410    24.9790     2.4530 
  113.7500    -9.7410    49.8310    49.7240    41.4860    42.5720    25.1130     2.4190 
  113.8750    -9.6760    50.0460    47.4390    39.6400    42.8180    25.0860     2.4060 
  114.0000    -9.6010    50.0990    46.1090    38.4530    41.2550    25.0250     2.4040 
  114.1250    -9.5280    50.3730    45.7380    38.0440    40.0730    24.9780     2.4100 
  114.2500    -9.4670    51.7370    45.9250    38.1400    41.6450    24.8800     2.4270 
  114.3750    -9.4240    53.3130    46.4750    38.5800    42.3650    24.8020     2.4500 
  114.5000    -9.4540    54.0140    47.2800    39.2600    41.5870    24.8950     2.4650 
  114.6250    -9.5030    53.3030    48.2960    40.1450    40.2280    24.9330     2.4630 
  114.7500    -9.5790    52.2450    49.4170    41.1460    38.8050    24.9770     2.4540 
  114.8750    -9.6740    52.1280    50.5700    42.1950    38.3770    25.0440     2.4480 
  115.0000    -9.7720    52.8000    51.6600    43.2130    41.1310    25.1140     2.4480 
  115.1250    -9.8890    52.1300    52.4420    44.0250    48.2580    25.0790     2.4500 
  115.2500   -10.0190    50.0070    52.7430    44.4860    50.5780    25.0300     2.4500 
  115.3750   -10.1350    48.1180    52.5890    44.5710    44.7920    25.0240     2.4500 
  115.5000   -10.2360    47.5260    52.2930    44.4760    39.7340    25.0200     2.4560 
  115.6250   -10.3390    46.7430    52.4860    44.6520    38.5410    24.9470     2.4800 
  115.7500   -10.4280    45.4200    53.5240    45.4420    40.9120    24.8740     2.5180 
  115.8750   -10.5120    45.7390    55.3190    46.8930    44.2920    24.8720     2.5590 
  116.0000   -10.5900    47.1140    57.2580    48.6310    48.3110    24.9080     2.5860 
  116.1250   -10.6540    48.5310    58.1620    49.7530    54.1130    24.9340     2.5830 
  116.2500   -10.7060    49.7950    57.5050    49.6690    57.0470    24.9370     2.5580 
  116.3750   -10.7620    49.5650    55.4300    48.3280    53.6880    24.9560     2.5230 
  116.5000   -10.7730    48.1930    52.6350    46.1930    44.8890    24.9690     2.4860 
  116.6250   -10.8080    48.1210    50.1160    44.0480    38.9760    24.8960     2.4540 
  116.7500   -10.8370    49.7770    48.4450    42.4930    38.6380    24.7870     2.4320 
  116.8750   -10.8380    49.7550    47.7530    41.7280    39.0740    24.8490     2.4250 
  117.0000   -10.8890    47.3650    47.9390    41.7430    38.9820    24.8960     2.4390 
  117.1250   -10.8930    47.5420    48.8070    42.4430    40.3790    24.6820     2.4650 
  117.2500   -10.9010    49.7210    49.8370    43.3970    43.0320    24.3680     2.4840 
  117.3750   -10.9310    50.3230    50.6390    44.2670    44.6290    24.3860     2.4800 
  117.5000   -10.9500    48.1360    50.9250    44.7790    43.2950    24.7000     2.4560 
  117.6250   -10.9470    46.9760    50.5190    44.7280    43.7840    24.8650     2.4290 
  117.7500   -10.9710    47.7490    49.7810    44.3400    43.7170    24.8760     2.4190 
  117.8750   -10.9860    46.9150    49.1520    43.9560    40.5460    24.8090     2.4300 
  118.0000   -10.9800    45.2490    48.9670    43.8770    38.3170    24.6710     2.4610 
  118.1250   -11.0340    46.6250    49.2910    44.2070    40.0890    24.6900     2.4940 
  118.2500   -11.0630    49.8800    49.7610    44.6930    43.4590    24.7280     2.5110 
  118.3750   -11.0640    51.9970    50.0920    45.1370    46.2700    24.8270     2.5050 
  118.5000   -11.1080    52.2290    50.0440    45.3610    44.3400    24.9250     2.4920 
  118.6250   -11.1250    50.4340    49.3020    45.0750    39.0330    25.0020     2.4840 
  118.7500   -11.1300    47.0860    47.8000    44.1210    36.9940    25.0610     2.4810 
  118.8750   -11.1530    44.6690    45.4450    42.3490    40.2310    25.0600     2.4740 
  119.0000   -11.1510    46.5450    42.2920    39.7640    44.8540    25.0160     2.4600 
  119.1250   -11.1190    50.6130    38.6650    36.6220    38.6680    25.0160     2.4420 
  119.2500   -11.0960    52.1480    35.2670    33.5790    31.7080    25.0370     2.4240 
  119.3750   -11.0820    50.8880    32.6260    31.1130    27.6750    25.0710     2.4120 
  119.5000   -11.0350    48.2290    31.0680    29.5240    25.5450    25.2340     2.4100 
  119.6250   -11.0430    46.7120    30.8070    29.0560    25.4530    25.4440     2.4250 
  119.7500   -11.0440    48.4880    31.3630    29.3680    25.5330    25.5560     2.4530 
  119.8750   -11.0690    51.7330    32.3210    30.1370    27.5900    25.5410     2.4750 
  120.0000   -11.1080    52.8200    33.3120    31.0200    30.3990    25.5770     2.4740 
  120.1250   -11.1480    50.6500    34.0970    31.7490    33.5340    25.8700     2.4490 
  120.2500   -11.2120    48.8060    34.6990    32.2980    34.0860    26.1530     2.4300 
  120.3750   -11.2670    48.6320    35.1680    32.7000    32.6430    26.0810     2.4340 
  120.5000   -11.3710    49.4870    35.4930    32.9550    31.6860    25.6800     2.4620 
  120.6250   -11.4430    50.1450    35.5730    32.9730    33.5040    25.2840     2.4880 
  120.7500   -11.5420    49.2500    35.4600    32.7860    37.3300    25.1580     2.4960 
  120.8750   -11.6410    47.2250    35.3280    32.5270    37.3920    25.1790     2.4900 
  121.0000   -11.7550    45.6050    35.4370    32.4150    34.4310    25.2980     2.4860 
  121.1250   -11.9280    45.6220    36.0560    32.7090    32.0580    25.4460     2.4970 
  121.2500   -12.1000    45.4140    37.0290    33.3420    32.8850    25.4980     2.5170 
  121.3750   -12.3090    45.0860    38.0260    34.0850    36.4760    25.4300     2.5320 
  121.5000   -12.5120    45.2720    38.6240    34.5970    40.7980    25.2430     2.5360 
  121.6250   -12.7320    45.4120    38.3410    34.4490    38.1730    24.8900     2.5350 
  121.7500   -12.9610    46.1530    37.2420    33.6170    33.1670    24.6050     2.5460 
  121.8750   -13.1710    46.7970    35.5580    32.2360    30.2980    24.4190     2.5760 
  122.0000   -13.3910    46.1900    33.6670    30.6100    29.8640    24.2780     2.6030 
  122.1250   -13.5440    44.0280    32.0440    29.1420    30.0340    24.2010     2.5930 
  122.2500   -13.6900    43.8160    30.9970    28.1090    27.4730    24.2180     2.5450 
  122.3750   -13.7860    46.9720    30.7470    27.6950    25.2040    24.4450     2.4790 
  122.5000   -13.8550    49.7720    31.4000    28.0000    26.7650    24.9270     2.4150 
  122.6250   -13.9070    48.9880    32.9490    29.0910    30.0650    25.4080     2.3810 
  122.7500   -13.8820    48.1000    34.7950    30.5670    32.4110    25.6310     2.3830 
  122.8750   -13.8580    48.7570    36.2720    31.9270    34.5190    25.6580     2.4230 
  123.0000   -13.8180    49.9430    36.7250    32.5770    37.9190    25.6000     2.4800 
  123.1250   -13.7570    48.6050    35.7090    31.9900    38.0480    25.4530     2.5120 
  123.2500   -13.7050    47.2710    33.9210    30.6080    35.1210    25.3480     2.5070 
  123.3750   -13.6720    48.6350    32.0660    28.9960    28.7120    25.3930     2.4790 
  123.5000   -13.6110    50.4310    30.6760    27.6330    24.3500    25.5340     2.4580 
  123.6250   -13.5560    48.7830    30.0530    26.8560    23.8040    25.4360     2.4720 
  123.7500   -13.5620    45.1630    29.9480    26.5600    25.3520    25.2000     2.5100 
  123.8750   -13.5680    43.7370    30.1120    26.5930    27.3890    25.0170     2.5510 
  124.0000   -13.6050    46.0470    30.3270    26.7730    27.8060    24.9410     2.5800 
  124.1250   -13.6690    49.1660    30.4990    26.9530    26.3440    24.9340     2.5910 
  124.2500   -13.7210    50.5840    30.7690    27.1380    26.3350    24.9410     2.5960 
  124.3750   -13.8180    49.7370    31.4050    27.4750    27.0320    24.9420     2.6030 
