~V
VERS. 2.00: Ver 2.00
~W
STRT.M 58.0000:
STOP.M 199.0000:
STEP.M 0.1250:
NULL. -999.2500:
UWI. F10565:
~C
DEPT.M :
SP.MV :
GR.API :
RML.OHMM :
RI. :
RXO.OHMM :
CALI.CM :
DEN.GM/CC :
~A
   58.0000    50.5490    54.0510     0.3140     0.1560     0.7980    25.2700     2.3870 
   58.1250    42.1140    60.5910     0.4130     0.1480     2.3080    25.2410     2.2690 
   58.2500    33.5720    66.5540     0.6550     0.3360     3.1080    25.0010     2.1410 
   58.3750    25.3050    74.3860     1.1090     0.8490     4.2750    24.7330     2.0750 
   58.5000    17.5960    83.8600     1.8270     1.6060     5.3410    24.5950     2.0880 
   58.6250    10.7540    93.0960     2.6810     2.4060     5.7130    24.5990     2.1580 
   58.7500     5.2380   100.2520     3.2890     3.1350     5.6270    24.6470     2.2370 
   58.8750     1.0590   104.6370     3.5460     3.7450     5.7050    24.6710     2.2940 
   59.0000    -1.8840   106.5150     3.6150     4.1910     5.9400    24.6670     2.3270 
   59.1250    -3.9790   105.7310     3.6820     4.5160     5.9090    24.6490     2.3450 
   59.2500    -5.5680   101.3340     3.8600     4.8050     5.5490    24.6300     2.3500 
   59.3750    -6.9240    93.4650     4.1640     5.1410     5.7180    24.6210     2.3440 
   59.5000    -8.1300    83.7710     4.5930     5.5610     6.0920    24.6210     2.3260 
   59.6250    -9.1920    74.6440     5.0990     6.0630     6.4570    24.6230     2.3000 
   59.7500   -10.0950    70.1160     5.5830     6.6050     6.8140    24.6170     2.2740 
   59.8750   -10.8700    69.4060     5.9590     7.0850     7.3310    24.6000     2.2530 
   60.0000   -11.4810    70.8780     6.1830     7.4120     7.5060    24.5730     2.2420 
   60.1250   -11.9200    73.4530     6.2360     7.5190     7.4850    24.5360     2.2370 
   60.2500   -12.2440    76.8610     6.1140     7.3640     7.4260    24.4890     2.2370 
   60.3750   -12.4690    78.4170     5.9030     7.0450     7.2730    24.4360     2.2390 
   60.5000   -12.5530    76.7460     5.6710     6.6530     6.4530    24.3790     2.2470 
   60.6250   -12.5670    74.9260     5.4730     6.2860     6.0320    24.3160     2.2610 
   60.7500   -12.5790    75.8440     5.3570     6.0430     5.8620    24.2540     2.2780 
   60.8750   -12.5760    78.1480     5.3210     5.9370     5.5830    24.1990     2.2910 
   61.0000   -12.5820    81.5040     5.3530     5.9410     5.5450    24.1450     2.2960 
   61.1250   -12.6160    84.9220     5.4190     5.9870     5.7120    24.0850     2.2930 
   61.2500   -12.6460    86.9970     5.4570     5.9710     6.1080    24.0200     2.2850 
   61.3750   -12.6920    88.8310     5.4130     5.8290     6.1020    23.9620     2.2820 
   61.5000   -12.7840    91.5780     5.2680     5.5580     5.7970    23.9150     2.2820 
   61.6250   -12.9150    93.7880     5.0510     5.2250     5.3210    23.8760     2.2820 
   61.7500   -13.0900    92.4720     4.8870     4.9880     5.1560    23.8500     2.2780 
   61.8750   -13.3120    88.3400     4.9280     5.0110     5.0600    23.8290     2.2790 
   62.0000   -13.5740    82.3400     5.2890     5.4380     5.2500    23.7820     2.3000 
   62.1250   -13.8670    75.1370     6.0360     6.3730     5.9910    23.6750     2.3530 
   62.2500   -14.2410    68.2640     7.2590     7.8880     8.7720    23.5160     2.4370 
   62.3750   -14.6790    63.8470     8.7560     9.6290    16.0590    23.3950     2.5210 
   62.5000   -15.1210    63.2530    10.0920    11.1050    25.2230    23.3750     2.5740 
   62.6250   -15.6070    65.6490    10.6870    11.7870    25.7800    23.4370     2.5750 
   62.7500   -16.1240    67.9870    10.2440    11.3180    17.8690    23.4990     2.5190 
   62.8750   -16.5980    69.6590     9.3790    10.2350    11.2650    23.5190     2.4370 
   63.0000   -17.0820    70.6850     8.5710     9.0720     8.2920    23.5310     2.3570 
   63.1250   -17.5900    70.2600     8.0780     8.2200     7.8500    23.5830     2.2980 
   63.2500   -18.0710    69.0350     8.0290     7.9030     8.0280    23.7030     2.2710 
   63.3750   -18.5330    69.7070     8.3000     7.9870     8.3090    23.8430     2.2630 
   63.5000   -19.0190    71.0440     8.7710     8.3450     8.9330    23.9460     2.2600 
   63.6250   -19.4460    69.9060     9.3010     8.8220    10.1880    23.9830     2.2510 
   63.7500   -19.7940    67.3010     9.7250     9.2560    10.7520    23.9700     2.2280 
   63.8750   -20.1080    66.1040     9.9610     9.5590    10.7070    23.9660     2.2010 
   64.0000   -20.3400    65.1750     9.9910     9.7200    10.4850    23.9960     2.1780 
   64.1250   -20.4960    63.3510     9.8680     9.7710    10.5110    24.0650     2.1700 
   64.2500   -20.6100    62.3570     9.7050     9.7430    10.4530    24.1570     2.1790 
   64.3750   -20.6540    63.2980     9.5970     9.6760    10.1810    24.2320     2.1950 
   64.5000   -20.6120    63.9820     9.5540     9.5800    10.1890    24.2650     2.2110 
   64.6250   -20.5690    62.6780     9.5450     9.4640    10.1330    24.2540     2.2210 
   64.7500   -20.5310    61.2510     9.5390     9.3490     9.9720    24.2220     2.2260 
   64.8750   -20.4930    62.1180     9.5270     9.2620     9.9560    24.2030     2.2260 
   65.0000   -20.4500    63.9030     9.5320     9.2220    10.0680    24.2080     2.2210 
   65.1250   -20.4160    64.8150     9.5920     9.2310     9.9210    24.2320     2.2100 
   65.2500   -20.3730    65.7700     9.7470     9.2810     9.3960    24.2620     2.1950 
   65.3750   -20.3190    67.2840     9.9550     9.3390     9.1280    24.2950     2.1820 
   65.5000   -20.2870    69.4890    10.1510     9.3680     9.0270    24.3430     2.1770 
   65.6250   -20.2760    72.0480    10.2790     9.3300     9.0770    24.4170     2.1820 
   65.7500   -20.2480    74.0200    10.3050     9.1870     9.1640    24.5230     2.1960 
   65.8750   -20.2210    73.2190    10.2560     8.9670     9.1540    24.6420     2.2100 
   66.0000   -20.2530    69.4120    10.1660     8.7180     9.0170    24.7450     2.2190 
   66.1250   -20.2880    65.6130    10.0750     8.5030     8.8610    24.8100     2.2200 
   66.2500   -20.3120    63.9190    10.0370     8.3930     8.8400    24.8190     2.2100 
   66.3750   -20.3950    65.3610    10.0690     8.3860     8.8990    24.7980     2.1980 
   66.5000   -20.5090    67.5970    10.1610     8.4570     8.9520    24.7600     2.1930 
   66.6250   -20.5750    67.4760    10.2790     8.5530     9.1290    24.6880     2.1960 
   66.7500   -20.6180    63.7500    10.3710     8.6050     9.2600    24.5330     2.2030 
   66.8750   -20.6700    59.5700    10.4270     8.5930     9.3190    24.3350     2.1980 
   67.0000   -20.6760    59.6640    10.4780     8.5510     9.3480    24.1870     2.1780 
   67.1250   -20.6300    63.3550    10.5850     8.5480     9.3990    24.1710     2.1570 
   67.2500   -20.5750    64.8100    10.8130     8.6760     9.4970    24.2950     2.1730 
   67.3750   -20.4930    62.7430    11.1300     8.9260     9.6630    24.4420     2.2350 
   67.5000   -20.3510    61.7200    11.4570     9.2380     9.7490    24.5300     2.3200 
   67.6250   -20.2090    64.4900    11.6840     9.5110     9.6140    24.5300     2.3860 
   67.7500   -20.0970    66.1510    11.6890     9.6110     9.5710    24.4670     2.3910 
   67.8750   -19.9580    64.7350    11.5140     9.5180     9.6830    24.4020     2.3480 
   68.0000   -19.8420    63.5360    11.2460     9.2730     9.8160    24.3640     2.2870 
   68.1250   -19.8300    63.5870    10.9970     8.9610     9.7990    24.3700     2.2380 
   68.2500   -19.8490    63.5660    10.8710     8.6940     9.6310    24.4370     2.2140 
   68.3750   -19.8640    62.8240    10.8680     8.5300     9.4850    24.5440     2.2000 
   68.5000   -19.9340    61.8750    10.9520     8.4830     9.5380    24.6610     2.1880 
   68.6250   -19.9950    61.3240    11.0740     8.5390     9.7490    24.7600     2.1770 
   68.7500   -20.0090    60.1200    11.2010     8.6890     9.9310    24.8200     2.1680 
   68.8750   -20.0470    58.1240    11.3440     8.9100     9.9860    24.8570     2.1620 
   69.0000   -20.0390    56.2390    11.5460     9.2030    10.0680    24.8950     2.1600 
   69.1250   -19.9460    56.4870    11.8630     9.5740    10.1910    24.9400     2.1610 
