~V
VERS. 2.00: Ver 2.00
~W
STRT.M 50.0000:
STOP.M 199.0000:
STEP.M 0.1250:
NULL. -999.2500:
UWI. F10575:
~C
DEPT.M :
DEN.GM/CC :
SP.MV :
GR.API :
RML.OHMM :
RI. :
RXO.OHMM :
CALI.CM :
~A
# ...
   95.0000     2.2670   -17.1390    84.6240     7.0970     6.0890     5.6070    24.0940 
   95.1250     2.2650   -17.1330    86.8940     7.5930     6.3470     5.3650    23.9630 
   95.2500     2.2610   -17.1690    86.9150     8.3470     6.7330     5.4640    23.7430 
   95.3750     2.2550   -17.2010    82.0000     9.1700     7.1500     6.0540    23.4010 
   95.5000     2.2520   -17.2180    75.1190     9.7750     7.4520     6.7100    22.9780 
   95.6250     2.2670   -17.2530    74.8470     9.8350     7.4670     6.3790    22.7780 
   95.7500     2.2920   -17.3030    80.8480     9.4550     7.2460     5.8800    22.7220 
   95.8750     2.3140   -17.3350    86.7340     8.8800     6.8950     5.6560    22.7200 
   96.0000     2.3230   -17.3640    88.4330     8.3520     6.5410     5.6960    22.7210 
   96.1250     2.3250   -17.4090    88.3300     8.0310     6.2920     5.9550    22.7220 
   96.2500     2.3260   -17.3830    89.0580     7.8810     6.1710     6.2400    22.7300 
   96.3750     2.3210   -17.2970    89.5210     7.9000     6.1970     6.4350    22.7590 
   96.5000     2.3020   -17.2420    89.9540     8.2040     6.4270     6.3950    22.8360 
   96.6250     2.2720   -17.2070    90.9260     9.1310     7.0340     6.6060    23.0510 
   96.7500     2.2500   -17.1540    88.4100    10.8130     8.0740     7.7200    23.5290 
   96.8750     2.2420   -17.1100    80.2710    13.1690     9.5230    10.4640    24.1390 
   97.0000     2.2420   -17.0780    70.9030    15.6620    11.1270    13.7820    24.5780 
   97.1250     2.2370   -17.0730    68.3980    17.0960    12.1940    15.2570    24.7030 
   97.2500     2.2260   -17.1330    70.4740    16.9110    12.3030    13.6210    24.6800 
   97.3750     2.2100   -17.2330    71.5300    15.5680    11.6490    11.0240    24.5950 
   97.5000     2.1940   -17.3160    70.5960    14.2690    10.8970     8.7800    24.5560 
   97.6250     2.1890   -17.3140    69.6630    14.4430    10.8960     8.9920    24.7010 
   97.7500     2.1920   -17.2760    68.9430    16.5680    12.0580    11.7590    24.9760 
   97.8750     2.1980   -17.2330    65.4700    20.8700    14.7280    17.7590    25.3090 
   98.0000     2.2100   -17.1570    57.8670    27.2050    19.0980    28.5600    25.7390 
   98.1250     2.2410   -17.0230    50.4940    34.5060    24.8110    37.1570    26.1030 
   98.2500     2.2700   -16.8760    47.9010    40.2640    29.9090    39.7880    26.2830 
   98.3750     2.2530   -16.7430    48.3840    42.7450    32.6660    38.0160    26.3280 
   98.5000     2.1850   -16.6200    49.6760    42.0680    32.8020    33.9580    26.3170 
   98.6250     2.1240   -16.5330    52.5360    39.9270    31.4820    30.4000    26.2710 
   98.7500     2.1020   -16.4760    56.3410    38.1700    30.2800    29.1200    26.1920 
   98.8750     2.1010   -16.4610    58.7720    37.0400    29.5970    28.8460    26.0570 
   99.0000     2.1030   -16.4920    59.6320    35.8730    29.1130    27.1300    25.7840 
   99.1250     2.1050   -16.5300    59.7610    33.3800    27.8710    25.1870    25.3910 
   99.2500     2.1100   -16.5340    61.1120    29.4800    25.5040    23.6840    25.1780 
   99.3750     2.1160   -16.5480    64.1300    25.0430    22.4510    21.3750    25.0440 
   99.5000     2.1230   -16.5710    67.8530    21.2730    19.5930    17.2600    24.8450 
   99.6250     2.1340   -16.5940    69.7110    19.3180    17.8430    13.3140    24.6460 
   99.7500     2.1450   -16.6110    69.7840    18.9990    17.2350    12.4580    24.7360 
   99.8750     2.1450   -16.6090    67.3880    19.7490    17.4790    15.6750    25.1410 
  100.0000     2.1320   -16.5770    62.9890    20.5720    17.9120    20.7930    25.5620 
  100.1250     2.1250   -16.5370    60.4320    19.9450    17.4040    22.0330    25.6220 
  100.2500     2.1430   -16.5280    61.9750    17.6510    15.6570    17.1280    25.4450 
  100.3750     2.1830   -16.5240    66.9720    14.5860    13.2670    11.9860    25.1840 
  100.5000     2.2230   -16.5160    74.9290    12.0460    11.1790     9.0410    24.9790 
  100.6250     2.2430   -16.5280    82.4380    11.2460    10.2420     8.4190    24.8340 
  100.7500     2.2400   -16.5710    83.2570    12.3090    10.5850     9.7760    24.7440 
  100.8750     2.2170   -16.6460    76.4560    15.3570    12.4040    13.7900    24.8220 
  101.0000     2.1800   -16.7360    68.1030    20.4220    15.9400    20.6070    25.2240 
  101.1250     2.1450   -16.8500    62.9680    27.3760    21.5380    30.7490    26.0480 
  101.2500     2.1230   -17.0040    59.3070    34.8290    28.1760    35.5760    26.5400 
  101.3750     2.1140   -17.1770    56.5150    41.2490    34.3330    36.4570    26.6970 
  101.5000     2.1090   -17.3580    55.6400    45.3260    38.4260    36.2080    26.7080 
  101.6250     2.1040   -17.5600    55.9820    46.2670    39.4650    37.8930    26.7070 
  101.7500     2.0980   -17.7550    55.6370    45.1220    38.5940    39.9590    26.6810 
  101.8750     2.0900   -17.8910    55.7910    42.5930    36.6610    39.3680    26.5790 
  102.0000     2.0850   -18.0240    57.2640    39.2660    34.2500    36.0680    26.3350 
  102.1250     2.0900   -18.1690    57.8870    35.7280    31.7540    32.1420    25.9890 
  102.2500     2.0980   -18.2560    59.3800    32.5870    29.4820    29.1340    25.6410 
  102.3750     2.1050   -18.2780    63.5430    30.2460    27.6480    26.5510    25.3650 
  102.5000     2.1070   -18.3100    67.1860    28.8550    26.3770    24.7730    25.1750 
  102.6250     2.1010   -18.3620    66.8370    28.3120    25.7020    24.0640    25.0430 
  102.7500     2.0940   -18.4140    65.9060    27.8960    25.1850    23.3710    24.8400 
  102.8750     2.0940   -18.4840    66.4860    26.8900    24.2840    22.1130    24.4990 
  103.0000     2.1040   -18.5610    68.0890    24.7640    22.5120    21.5600    24.1820 
  103.1250     2.1220   -18.6360    71.3630    21.4330    19.7120    20.4230    23.9950 
  103.2500     2.1430   -18.7040    75.7350    17.7890    16.5980    16.7760    23.8750 
  103.3750     2.1710   -18.7590    78.4310    14.5380    13.7390    12.3690    23.7550 
  103.5000     2.2090   -18.7620    77.9810    12.0580    11.4640     9.9720    23.6030 
  103.6250     2.2500   -18.7120    76.2100    10.5110     9.9470     9.0170    23.5420 
  103.7500     2.2760   -18.6310    76.9890     9.5930     8.9870     8.5670    23.6410 
  103.8750     2.2770   -18.5130    80.7900     9.1140     8.4690     8.3480    23.9610 
  104.0000     2.2570   -18.3840    84.6990     8.9520     8.2840     8.3090    24.3370 
  104.1250     2.2360   -18.2360    84.0920     9.1170     8.4060     8.5930    24.5640 
  104.2500     2.2230   -18.0880    79.9820     9.6190     8.7970     8.9210    24.7170 
  104.3750     2.2120   -17.9810    75.3720    10.5510     9.5230     9.5090    24.8300 
  104.5000     2.1950   -17.8830    71.7510    11.9940    10.6600    11.0240    24.9140 
  104.6250     2.1760   -17.7520    70.9000    14.0170    12.3130    13.8940    25.0270 
  104.7500     2.1590   -17.6270    70.7420    16.3000    14.2790    16.8170    25.2420 
  104.8750     2.1410   -17.5480    69.5850    18.4410    16.2390    18.3410    25.5820 
  105.0000     2.1220   -17.4800    68.0420    20.0300    17.7700    18.5090    26.0200 
  105.1250     2.1090   -17.3950    67.0640    20.7430    18.4740    18.9860    26.2140 
  105.2500     2.1070   -17.3030    66.1750    20.8890    18.6150    19.3640    26.1090 
  105.3750     2.1140   -17.2260    64.2790    20.8520    18.5800    19.3760    25.8870 
  105.5000     2.1210   -17.1750    62.1130    21.0540    18.7580    19.7270    25.7890 
  105.6250     2.1230   -17.1340    61.7020    21.9800    19.5380    20.7590    25.8520 
  105.7500     2.1230   -17.0810    62.1400    23.9190    21.0560    21.6940    25.9660 
  105.8750     2.1230   -17.0180    63.0190    27.2990    23.5600    22.2550    26.1120 
  106.0000     2.1260   -16.9190    62.8380    32.3270    27.2510    25.1600    26.2640 
  106.1250     2.1240   -16.7950    60.2750    38.2260    31.7570    31.6760    26.4290 
