~V
VERS. 2.00: Ver 2.00
~W
STRT.M 61.0000:
STOP.M 190.0000:
STEP.M 0.1250:
NULL. -999.2500:
UWI. F10559:
~C
DEPT.M :
SP.MV :
DEN.GM/CC :
GR.API :
RML.OHMM :
RI. :
RXO.OHMM :
CALI.CM :
~A
   61.0000    33.4910     1.9400    58.5260     0.3390     0.4440     5.0770    36.1060 
   61.1250    25.5090     1.8400    57.7580     0.7340     0.8970     5.0350    38.4830 
   61.2500    18.5050     1.7830    58.4540     1.2890     1.6050     4.7910    39.1440 
   61.3750    12.5330     1.7690    60.6140     1.9240     2.4840     4.2030    37.8640 
   61.5000     7.6150     1.7940    64.1440     2.5120     3.3500     3.5020    34.5280 
   61.6250     3.8240     1.8620    67.2090     2.9530     4.0560     3.6710    31.5430 
   61.7500     0.9150     1.9560    68.8840     3.3390     4.6920     4.0020    29.6230 
   61.8750    -1.2740     2.0580    70.4340     3.7740     5.3810     4.3640    28.1090 
   62.0000    -3.0060     2.1390    71.7750     4.3030     6.1810     4.8470    26.7280 
   62.1250    -4.4390     2.1770    71.4320     4.9050     7.0700     5.9370    26.0540 
   62.2500    -5.6580     2.1820    70.3760     5.4930     7.9360     6.9660    25.9230 
   62.3750    -6.6900     2.1720    70.3950     6.0030     8.6720     7.5150    25.9550 
   62.5000    -7.6520     2.1630    69.9270     6.4000     9.2010     7.6570    25.9300 
   62.6250    -8.5630     2.1630    65.9460     6.6830     9.4920     7.8220    25.8960 
   62.7500    -9.4310     2.1700    61.5220     6.9250     9.6670     7.9550    25.9340 
   62.8750   -10.3290     2.1790    60.0960     7.1690     9.8180     7.9390    26.0210 
   63.0000   -11.2440     2.1900    61.5190     7.4360     9.9990     7.9160    26.1170 
   63.1250   -12.0920     2.1960    63.4580     7.7110    10.2130     8.0470    26.1800 
   63.2500   -12.9190     2.1980    64.4180     7.9590    10.4100     8.1790    26.1720 
   63.3750   -13.7720     2.1950    64.2840     8.1450    10.5440     8.1320    26.1360 
   63.5000   -14.5740     2.1910    64.5920     8.2510    10.5930     7.8240    26.0750 
   63.6250   -15.2690     2.1870    65.6890     8.2500    10.5390     7.6020    26.0120 
   63.7500   -15.9200     2.1860    66.2220     8.1520    10.3950     7.5560    25.9780 
   63.8750   -16.5260     2.1870    66.5080     7.9590    10.1510     7.4950    25.9960 
   64.0000   -16.9980     2.1840    66.8650     7.6860     9.8100     7.6690    26.0540 
   64.1250   -17.3920     2.1710    64.3760     7.3870     9.3990     7.7130    26.1300 
   64.2500   -17.7560     2.1480    60.9320     7.1510     9.0100     7.4090    26.2490 
   64.3750   -18.0300     2.1230    62.0150     7.0530     8.7530     6.9260    26.4080 
   64.5000   -18.2530     2.1090    66.8250     7.1260     8.7350     6.6230    26.4880 
   64.6250   -18.4760     2.1270    67.3320     7.3380     9.0050     7.0070    26.4790 
   64.7500   -18.7030     2.1740    63.1940     7.5210     9.3690     7.5330    26.4530 
   64.8750   -18.9190     2.2340    60.1400     7.5260     9.5840     8.0000    26.4280 
   65.0000   -19.2000     2.2860    60.2590     7.2570     9.4280     9.2110    26.2860 
   65.1250   -19.4780     2.3080    63.6790     6.7150     8.7850    10.6600    26.0400 
   65.2500   -19.7270     2.3060    70.2600     6.1110     7.9460     9.1140    25.8340 
   65.3750   -19.9850     2.2930    77.5010     5.6140     7.1820     6.6480    25.6890 
   65.5000   -20.2810     2.2760    81.5850     5.3140     6.6660     5.9020    25.6540 
   65.6250   -20.5660     2.2610    82.8700     5.2180     6.4640     6.0590    25.6180 
   65.7500   -20.7940     2.2470    82.5580     5.2010     6.4370     6.2890    25.7010 
   65.8750   -21.0530     2.2380    80.0140     5.1680     6.4440     6.6360    25.9120 
   66.0000   -21.2610     2.2360    76.4950     5.0520     6.3520     6.6300    26.2070 
   66.1250   -21.4470     2.2430    75.9760     4.8350     6.0940     5.7180    26.5020 
   66.2500   -21.6670     2.2510    79.9730     4.5950     5.7670     4.8930    26.7310 
   66.3750   -21.8110     2.2570    85.1580     4.3980     5.4640     4.6220    26.8180 
   66.5000   -21.8790     2.2630    89.0770     4.2880     5.2500     4.7740    26.7520 
   66.6250   -21.9520     2.2720    90.3980     4.2950     5.1750     4.7500    26.6930 
   66.7500   -21.9930     2.2840    89.5490     4.3970     5.2210     4.7190    26.7030 
   66.8750   -21.9780     2.2920    88.8360     4.5840     5.3690     4.6740    26.7240 
   67.0000   -21.9660     2.2910    86.7600     4.8460     5.5990     4.4980    26.7430 
   67.1250   -21.8890     2.2810    82.9260     5.1840     5.9050     4.7950    26.8140 
   67.2500   -21.7710     2.2680    79.6880     5.5790     6.2620     5.4560    26.9360 
   67.3750   -21.6440     2.2560    77.8330     6.0250     6.6490     5.8810    27.0650 
   67.5000   -21.4690     2.2470    77.0250     6.5190     7.0580     5.8450    27.1630 
   67.6250   -21.2790     2.2350    75.2370     7.0580     7.5010     5.9250    27.2480 
   67.7500   -21.0830     2.2190    73.1510     7.5930     7.9750     6.2190    27.3840 
   67.8750   -20.8310     2.2000    70.8520     8.0470     8.4260     6.7350    27.4860 
   68.0000   -20.5360     2.1840    68.8980     8.3360     8.7440     7.2420    27.5370 
   68.1250   -20.2760     2.1820    68.0720     8.3940     8.7770     7.6990    27.5020 
   68.2500   -20.0460     2.1980    67.8260     8.3500     8.5880     7.9790    27.4160 
   68.3750   -19.8210     2.2260    68.4860     8.3880     8.3400     7.4520    27.2510 
   68.5000   -19.6160     2.2530    71.7720     8.7030     8.2540     6.2520    27.0150 
   68.6250   -19.3490     2.2530    74.9990     9.4870     8.5840     5.9750    26.6440 
   68.7500   -19.0660     2.2180    73.7060    10.6430     9.3380     6.8920    26.2450 
   68.8750   -18.7920     2.1600    68.4050    12.0280    10.4500     8.6340    25.9030 
   69.0000   -18.5750     2.1020    64.9370    13.4740    11.7700    10.1270    25.7660 
   69.1250   -18.4110     2.0810    65.6460    14.9050    13.1280    10.5580    25.9260 
   69.2500   -18.3100     2.1170    65.8900    16.5010    14.5160    10.5200    26.1080 
   69.3750   -18.3610     2.2160    64.8900    18.6040    16.1420    11.9070    26.0450 
   69.5000   -18.5350     2.3580    63.9450    21.4790    18.3240    17.2910    25.8990 
   69.6250   -18.8570     2.5000    62.6830    25.0180    21.4930    35.0800    25.7820 
   69.7500   -19.3070     2.5990    60.9640    28.1940    25.3090    50.4170    25.7040 
   69.8750   -19.8530     2.6430    59.8970    29.7440    28.5760    59.4290    25.6640 
   70.0000   -20.3550     2.6360    59.5680    28.5740    29.1970    58.0770    25.7170 
   70.1250   -20.8680     2.5830    59.9620    24.1960    25.3710    54.7870    25.7790 
   70.2500   -21.3010     2.5050    61.7950    18.5750    19.5600    44.6970    25.7620 
   70.3750   -21.6440     2.4190    66.8400    13.4190    14.1000    26.1210    25.8060 
   70.5000   -21.9120     2.3410    73.5800     9.6900    10.1200    11.2900    25.9980 
   70.6250   -22.1040     2.2870    78.4710     7.6870     7.8760     6.7730    26.2120 
   70.7500   -22.2480     2.2530    80.7550     6.7450     6.6980     5.7200    26.3110 
   70.8750   -22.3120     2.2340    81.3320     6.4560     6.2340     5.5870    26.2900 
   71.0000   -22.3750     2.2270    80.7670     6.4750     6.1940     5.6370    26.1930 
   71.1250   -22.4120     2.2320    78.6730     6.5240     6.2990     5.9990    26.1890 
   71.2500   -22.4330     2.2480    77.8320     6.4570     6.3060     5.9700    26.2750 
   71.3750   -22.4480     2.2710    80.9630     6.2890     6.1730     5.7240    26.3520 
   71.5000   -22.4220     2.2870    85.6940     6.1270     5.9820     5.2760    26.3510 
   71.6250   -22.3330     2.2820    88.3290     6.1290     5.8880     4.9590    26.3050 
   71.7500   -22.1670     2.2610    87.6020     6.3470     5.9810     4.9100    26.2850 
   71.8750   -21.9410     2.2360    84.6030     6.7830     6.2890     5.7940    26.3080 
   72.0000   -21.6440     2.2160    82.1290     7.4100     6.7850     6.6430    26.3470 
   72.1250   -21.2610     2.2080    82.3780     8.2350     7.4470     6.8680    26.3500 
