~V
VERS. 2.00: Ver 2.00
~W
STRT.M 58.0000:
STOP.M 197.0000:
STEP.M 0.1250:
NULL. -999.2500:
UWI. F10573:
~C
DEPT.M :
SP.MV :
GR.API :
RML.OHMM :
RI. :
RXO.OHMM :
CALI.CM :
DEN.GM/CC :
~A
# ...
   91.7500   -15.6440    69.7040    15.1830    12.8800    11.9680    23.8280     2.2380 
   91.8750   -15.9650    69.1090    15.9740    13.5960    12.8770    24.3800     2.2380 
   92.0000   -16.1880    70.2360    16.6890    14.3060    14.6930    24.5910     2.2660 
   92.1250   -16.3220    72.3300    17.1300    14.8230    15.6820    24.4640     2.3260 
   92.2500   -16.4500    73.4890    17.2820    15.0910    16.0190    24.2160     2.3830 
   92.3750   -16.5650    73.7540    17.2110    15.1330    15.7990    24.0370     2.4030 
   92.5000   -16.6330    73.6000    17.0460    15.0330    13.8590    24.0100     2.3760 
   92.6250   -16.7200    71.7260    16.9530    14.9120    13.0340    24.0300     2.3190 
   92.7500   -16.8100    68.8200    17.0390    14.8790    12.7860    24.0170     2.2680 
   92.8750   -16.8820    67.3280    17.3790    15.0160    12.7980    24.0050     2.2370 
   93.0000   -16.9750    67.8960    18.0170    15.3820    13.3210    24.0200     2.2230 
   93.1250   -17.1670    68.1200    19.0090    16.0440    14.2770    24.0690     2.2230 
   93.2500   -17.4270    67.5090    20.2710    16.9410    17.1500    24.0980     2.2400 
   93.3750   -17.6910    66.2530    21.7160    18.0190    20.7370    24.0270     2.2820 
   93.5000   -18.0370    64.2300    23.1640    19.1590    26.1950    23.8400     2.3560 
   93.6250   -18.4720    62.4100    24.2540    20.1160    29.9190    23.7140     2.4540 
   93.7500   -18.9070    61.8820    24.6460    20.6100    27.9780    23.5930     2.5440 
   93.8750   -19.3600    62.7100    23.9890    20.3090    22.3720    23.4140     2.5990 
   94.0000   -19.8250    64.2740    22.1060    18.9820    19.3490    23.3020     2.6070 
   94.1250   -20.2390    66.8670    19.1240    16.6460    15.2030    23.1960     2.5820 
   94.2500   -20.6460    69.9730    15.8790    14.0010    13.1410    22.9420     2.5450 
   94.3750   -21.1130    72.9430    12.9870    11.5720    10.4040    22.5850     2.5010 
   94.5000   -21.5650    75.6000    10.8250     9.6820     8.2360    22.2360     2.4480 
   94.6250   -21.9450    79.3200     9.5920     8.5280     7.6240    22.3300     2.3840 
   94.7500   -22.3220    82.7550     8.9840     7.9150     7.2640    22.9510     2.3180 
   94.8750   -22.6890    83.9900     8.7880     7.7000     7.4210    23.8290     2.2620 
   95.0000   -23.0420    83.6680     8.7860     7.7180     7.8010    24.4900     2.2300 
   95.1250   -23.4130    83.6510     8.7600     7.7850     7.9160    24.7360     2.2430 
   95.2500   -23.7350    84.1770     8.5970     7.7530     7.8430    24.7410     2.2830 
   95.3750   -23.9470    86.0750     8.2980     7.5890     7.5660    24.6570     2.3280 
   95.5000   -24.1220    89.5880     7.9270     7.3250     7.0080    24.6270     2.3590 
   95.6250   -24.2660    90.6520     7.5470     7.0080     6.5500    24.7160     2.3670 
   95.7500   -24.3180    89.0490     7.1870     6.6770     6.5820    24.8390     2.3640 
   95.8750   -24.3140    88.0170     6.8470     6.3420     6.5480    24.9100     2.3570 
   96.0000   -24.2690    89.4000     6.5260     6.0120     6.1570    24.9280     2.3500 
   96.1250   -24.1130    90.7430     6.2440     5.7110     5.6090    24.9140     2.3470 
   96.2500   -23.8780    91.0970     6.0250     5.4670     5.2030    24.8890     2.3470 
   96.3750   -23.6480    90.4760     5.9160     5.3200     5.1820    24.8670     2.3520 
   96.5000   -23.4020    89.3510     5.9540     5.3060     5.3610    24.8500     2.3600 
   96.6250   -23.1120    90.5050     6.1720     5.4650     5.5940    24.8140     2.3690 
   96.7500   -22.8160    91.3060     6.5110     5.7520     5.6770    24.7210     2.3740 
   96.8750   -22.5020    89.2610     6.9080     6.1210     6.1170    24.5490     2.3720 
   97.0000   -22.1750    85.6480     7.2750     6.5010     6.8620    24.2230     2.3600 
   97.1250   -21.9050    83.9260     7.4980     6.7800     7.0580    23.6570     2.3410 
   97.2500   -21.7390    85.3510     7.5650     6.9130     6.7810    23.0810     2.3210 
   97.3750   -21.6090    87.3750     7.5170     6.9030     6.5760    22.7140     2.3070 
   97.5000   -21.4980    88.3490     7.4180     6.7880     6.4300    22.5370     2.3010 
   97.6250   -21.4930    87.3180     7.3300     6.6270     6.3220    22.4780     2.3050 
   97.7500   -21.5950    85.5580     7.2670     6.4680     6.4100    22.5110     2.3140 
   97.8750   -21.7940    84.8520     7.1990     6.3090     6.5080    22.6510     2.3230 
   98.0000   -22.0650    85.2700     7.0940     6.1340     6.4190    22.9860     2.3280 
   98.1250   -22.3570    86.9330     6.9500     5.9400     6.3520    23.6600     2.3290 
   98.2500   -22.6270    88.5190     6.8360     5.7690     6.5820    24.1710     2.3320 
   98.3750   -22.9060    88.6230     6.8760     5.7070     7.0330    24.3590     2.3420 
   98.5000   -23.1330    87.5380     7.2470     5.8770     7.2220    24.3570     2.3570 
   98.6250   -23.2620    85.8290     8.3560     6.5450     7.1810    24.3260     2.3600 
   98.7500   -23.3230    83.0240    10.5540     7.9270     8.0780    24.3130     2.3350 
   98.8750   -23.2690    77.9590    14.3550    10.3890    11.1430    24.3480     2.2810 
   99.0000   -23.1090    70.4550    20.2070    14.3660    18.9800    24.4410     2.2140 
   99.1250   -22.9030    62.0720    28.4040    20.4330    37.5950    24.5460     2.1560 
   99.2500   -22.6300    56.7510    37.3860    27.7070    51.9510    24.5830     2.1190 
   99.3750   -22.2840    55.4740    45.0000    34.5300    52.7570    24.5760     2.1070 
   99.5000   -21.9680    55.8150    49.3410    39.0230    48.1090    24.5420     2.1120 
   99.6250   -21.6620    55.0670    50.0210    40.2960    44.9570    24.4830     2.1230 
   99.7500   -21.3270    54.2660    49.4700    40.1000    43.8010    24.4200     2.1300 
   99.8750   -21.0190    54.9890    49.1440    39.6740    44.6180    24.3810     2.1320 
  100.0000   -20.7840    56.7940    49.6970    39.7050    45.4600    24.3880     2.1300 
  100.1250   -20.5940    57.4620    51.4740    40.6080    44.2050    24.3810     2.1240 
  100.2500   -20.4360    57.8120    54.2060    42.3010    44.1060    24.4410     2.1160 
  100.3750   -20.3500    58.6770    57.5560    44.6180    48.3190    24.5920     2.1060 
  100.5000   -20.2950    59.1390    60.8770    47.1530    56.0700    24.7710     2.0980 
  100.6250   -20.2450    56.8550    62.8780    49.0230    60.6110    24.8530     2.0980 
  100.7500   -20.2130    54.9760    62.6810    49.4470    61.9300    24.8780     2.1060 
  100.8750   -20.1950    56.7830    59.9060    47.9450    61.0230    24.8760     2.1150 
  101.0000   -20.1670    60.7810    55.0300    44.6440    57.1150    24.8500     2.1180 
  101.1250   -20.0970    61.3910    49.4540    40.4290    49.6030    24.7780     2.1160 
  101.2500   -20.0210    59.1690    44.9220    36.7420    41.5490    24.6750     2.1200 
  101.3750   -19.9030    58.2490    42.3680    34.4150    34.8680    24.5340     2.1310 
  101.5000   -19.7090    60.9360    42.1790    33.8530    29.9650    24.3730     2.1420 
  101.6250   -19.5220    64.6800    44.6240    35.4260    31.3480    24.2690     2.1370 
  101.7500   -19.3370    64.0210    48.7050    38.5020    44.2260    24.3020     2.1170 
  101.8750   -19.1160    58.6460    53.3430    42.3280    58.6330    24.3040     2.0930 
  102.0000   -18.8370    52.1370    57.0980    45.7640    58.8970    24.1770     2.0780 
  102.1250   -18.5560    50.5510    58.2350    47.2990    49.7850    23.8960     2.0830 
  102.2500   -18.3090    54.8950    56.9360    46.8000    42.5300    23.6490     2.0980 
  102.3750   -18.0520    61.6070    54.1230    44.8540    38.7400    23.5080     2.1110 
  102.5000   -17.8110    66.5340    50.9620    42.3890    36.9620    23.4620     2.1170 
  102.6250   -17.5780    66.5460    48.3580    40.2140    35.6650    23.4560     2.1200 
  102.7500   -17.3720    64.7070    46.5200    38.5940    35.3790    23.4560     2.1240 
  102.8750   -17.2160    63.7610    45.5080    37.6070    35.2800    23.4570     2.1310 
