~V
VERS. 2.00: Ver 2.00
~W
STRT.M 58.0000:
STOP.M 214.0000:
STEP.M 0.1250:
NULL. -999.2500:
UWI. F10594:
~C
DEPT.M :
GR.API :
RML.OHMM :
RI. :
RXO.OHMM :
CALI.CM :
DEN.GM/CC :
SP.MV :
~A
# ...
   91.7500    82.7900     6.1130     4.6220     5.3420    23.5640     2.2980   -26.6110 
   91.8750    81.5730     6.3400     4.7390     5.5620    23.5580     2.2920   -26.7080 
   92.0000    82.3340     6.5680     4.8740     5.9120    23.5510     2.2840   -26.7690 
   92.1250    81.8900     6.6930     4.9730     6.0070    23.4830     2.2750   -26.7890 
   92.2500    83.1310     6.6880     5.0080     5.9570    23.3240     2.2680   -26.7690 
   92.3750    87.7490     6.6090     4.9950     5.7390    23.1160     2.2730   -26.7080 
   92.5000    92.5830     6.5960     5.0020     5.5970    23.0930     2.3000   -26.6120 
   92.6250    92.8190     6.8650     5.1590     5.7210    23.2800     2.3580   -26.4900 
   92.7500    89.5500     7.4840     5.5220     6.0170    23.5290     2.4160   -26.3570 
   92.8750    85.8520     8.4400     6.1040     6.8340    23.6670     2.4350   -26.2210 
   93.0000    81.9160     9.5740     6.8390     8.8050    23.6360     2.3980   -26.0950 
   93.1250    77.7650    10.4840     7.5110    10.7710    23.5520     2.3300   -25.9910 
   93.2500    74.6980    10.7980     7.8550     9.8770    23.4950     2.2760   -25.9110 
   93.3750    74.3930    10.3920     7.7360     8.2090    23.4930     2.2580   -25.8590 
   93.5000    78.5790     9.4560     7.2180     7.4510    23.4630     2.2710   -25.8340 
   93.6250    84.9190     8.3930     6.5310     6.8780    23.3320     2.2900   -25.8300 
   93.7500    88.8980     7.5570     5.9400     6.0920    23.1240     2.2900   -25.8400 
   93.8750    88.5640     7.0760     5.5530     5.6830    22.9520     2.2790   -25.8660 
   94.0000    84.0320     7.0070     5.4240     5.8540    22.7020     2.2810   -25.9070 
   94.1250    79.5380     7.4610     5.6360     6.5830    22.2620     2.3220   -25.9530 
   94.2500    77.9450     8.3260     6.1420     7.4790    21.8690     2.3880   -25.9950 
   94.3750    77.8440     9.4710     6.8840     8.1180    21.9470     2.4510   -26.0230 
   94.5000    76.2970    10.6700     7.7410     8.5460    22.3380     2.4880   -26.0300 
   94.6250    72.1830    11.5150     8.4700     8.7310    22.5580     2.4790   -26.0120 
   94.7500    71.1060    11.7510     8.8450     8.8730    22.6670     2.4390   -25.9710 
   94.8750    75.1730    11.3480     8.7730     8.9600    22.8120     2.3840   -25.8990 
   95.0000    79.6100    10.4860     8.3210     9.0060    23.0850     2.3280   -25.7920 
   95.1250    78.5470     9.4190     7.6320     9.0190    23.3920     2.2860   -25.6470 
   95.2500    74.8200     8.4430     6.9350     8.9890    23.6900     2.2720   -25.4750 
   95.3750    74.4950     7.7430     6.3850     8.8920    23.9050     2.2990   -25.2810 
   95.5000    79.0190     7.4170     6.0800     8.6820    24.0580     2.3550   -25.0700 
   95.6250    82.8810     7.5570     6.1030     8.3780    24.1320     2.3980   -24.8420 
   95.7500    81.3270     8.0720     6.4080     8.1150    24.0870     2.3950   -24.6060 
   95.8750    75.0610     8.8530     6.9440     7.9930    23.9540     2.3470   -24.3740 
   96.0000    68.6320     9.6790     7.5790     8.0590    23.8880     2.2800   -24.1510 
   96.1250    67.1910    10.2050     8.0750     8.3430    23.9550     2.2290   -23.9380 
   96.2500    68.5560    10.3060     8.2850     8.6830    24.0770     2.2170   -23.7240 
   96.3750    69.4490    10.0330     8.1970     8.8540    24.2410     2.2400   -23.5060 
   96.5000    69.5440     9.5910     7.9230     8.7520    24.4690     2.2750   -23.2810 
   96.6250    70.5200     9.2970     7.6740     8.4870    24.7290     2.2840   -23.0460 
   96.7500    71.7610     9.3560     7.6280     8.1960    24.8530     2.2590   -22.8000 
   96.8750    72.1200     9.8700     7.8780     8.0750    24.9050     2.2110   -22.5350 
   97.0000    70.6920    10.8790     8.4690     8.1830    24.9900     2.1620   -22.2430 
   97.1250    67.3640    12.4350     9.4590     9.1760    25.1070     2.1330   -21.9160 
   97.2500    63.7190    14.3170    10.7300    11.1470    25.0810     2.1320   -21.5600 
   97.3750    62.5340    16.2750    12.1410    12.8030    24.8910     2.1500   -21.1790 
   97.5000    63.4460    18.0010    13.4860    12.7980    24.6960     2.1720   -20.7780 
   97.6250    62.8770    19.1430    14.4920    13.2290    24.5010     2.1880   -20.3540 
   97.7500    59.1320    19.7340    15.1040    14.6310    24.3870     2.1950   -19.9110 
   97.8750    55.2070    19.9160    15.3780    16.5240    24.3490     2.1970   -19.4530 
   98.0000    55.0130    19.9130    15.4520    17.3880    24.3270     2.1970   -18.9940 
   98.1250    58.1350    19.9670    15.4940    16.3360    24.2740     2.1970   -18.5590 
   98.2500    60.1820    20.2270    15.6390    15.2950    24.1960     2.1950   -18.1680 
   98.3750    59.0560    20.7420    15.9440    15.9290    24.1500     2.1880   -17.8360 
   98.5000    56.0700    21.4710    16.4080    17.7490    24.1820     2.1760   -17.5700 
   98.6250    54.3860    22.2810    16.9780    19.7650    24.2380     2.1590   -17.3850 
   98.7500    55.2990    22.9670    17.5190    20.5250    24.2640     2.1390   -17.2720 
   98.8750    56.3890    23.4020    17.9320    19.3300    24.2630     2.1230   -17.2290 
   99.0000    54.4360    23.5570    18.1770    18.0680    24.2710     2.1120   -17.2520 
   99.1250    50.1730    23.4430    18.2460    18.7480    24.2730     2.1110   -17.3410 
   99.2500    47.8310    23.1440    18.1850    19.2520    24.1110     2.1170   -17.4770 
   99.3750    48.3160    22.6650    17.9870    18.4780    23.8070     2.1310   -17.6450 
   99.5000    50.4590    22.0200    17.6400    17.5120    23.6070     2.1490   -17.8310 
   99.6250    52.4330    21.2560    17.1430    17.3490    23.5540     2.1660   -18.0300 
   99.7500    53.7970    20.5060    16.5920    16.8380    23.5370     2.1790   -18.2310 
   99.8750    55.1700    19.8830    16.0770    15.8830    23.5180     2.1850   -18.4280 
  100.0000    57.1140    19.4580    15.6760    15.3620    23.5070     2.1860   -18.6110 
  100.1250    58.9380    19.2890    15.4620    14.7290    23.5000     2.1840   -18.7470 
  100.2500    58.8980    19.3300    15.4190    14.6460    23.4990     2.1800   -18.8230 
  100.3750    57.3120    19.5600    15.5320    14.2330    23.5020     2.1760   -18.8260 
  100.5000    55.4530    19.9470    15.7750    13.7280    23.5030     2.1690   -18.7480 
  100.6250    54.8230    20.4430    16.1170    14.2000    23.5040     2.1590   -18.5740 
  100.7500    55.0550    20.9530    16.4930    15.1110    23.5210     2.1500   -18.3190 
  100.8750    55.2400    21.4130    16.8580    15.7040    23.5840     2.1440   -17.9840 
  101.0000    56.1920    21.7970    17.1780    16.0250    23.7210     2.1400   -17.5830 
  101.1250    57.7370    22.1240    17.4390    16.1180    23.8120     2.1390   -17.1430 
  101.2500    59.1300    22.4430    17.6620    16.2420    23.8660     2.1400   -16.7000 
  101.3750    59.3860    22.7640    17.8640    16.3120    23.9150     2.1430   -16.2790 
  101.5000    58.0580    23.0670    18.0470    16.3150    23.9990     2.1460   -15.8990 
  101.6250    56.3380    23.2870    18.1870    17.1900    24.1050     2.1480   -15.5830 
  101.7500    56.0530    23.3890    18.2600    18.1130    24.1540     2.1480   -15.3370 
  101.8750    56.9860    23.3690    18.2550    17.7870    24.1220     2.1470   -15.1720 
  102.0000    57.0810    23.2750    18.1990    16.7760    24.0590     2.1460   -15.0890 
  102.1250    54.7710    23.1780    18.1400    16.1480    24.0370     2.1460   -15.0860 
  102.2500    50.9800    23.1230    18.1140    16.1220    24.1180     2.1490   -15.1380 
  102.3750    47.8200    23.1000    18.1210    16.5160    24.1920     2.1530   -15.2370 
  102.5000    46.9970    23.0670    18.1410    16.9450    24.1860     2.1590   -15.3780 
  102.6250    47.5210    22.9670    18.1430    17.1500    24.0220     2.1630   -15.5580 
  102.7500    48.2930    22.8140    18.1240    15.8890    23.7700     2.1670   -15.7490 
  102.8750    49.9090    22.6640    18.1030    14.6490    23.5800     2.1700   -15.9390 
