~V
VERS. 2.00: Ver 2.00
~W
STRT.M 50.0000:
STOP.M 191.0000:
STEP.M 0.1250:
NULL. -999.2500:
UWI. F10562:
~C
DEPT.M :
DEN.GM/CC :
SP.MV :
GR.API :
RML.OHMM :
RI. :
RXO.OHMM :
CALI.CM :
~A
# ...
  117.5000     2.5340   -22.5710    54.4840    34.7170    35.8800    29.0900    24.4210 
  117.6250     2.5000   -22.6360    58.0380    32.2630    33.2350    26.6400    24.4210 
  117.7500     2.4660   -22.7050    60.5290    30.6280    31.2840    26.2320    24.4210 
  117.8750     2.4390   -22.7920    60.3330    29.9270    30.2070    28.1830    24.4210 
  118.0000     2.4250   -22.8580    58.6690    29.8860    29.8160    30.4170    24.4210 
  118.1250     2.4280   -22.9740    58.0380    30.1350    29.8170    27.8290    24.4210 
  118.2500     2.4420   -23.0900    59.3580    30.5430    30.0260    25.2540    24.4200 
  118.3750     2.4600   -23.2010    61.1930    31.3860    30.6400    23.5650    24.4170 
  118.5000     2.4820   -23.2970    60.9030    33.0790    32.0520    23.3010    24.4170 
  118.6250     2.5190   -23.4050    57.9440    35.9950    34.7840    28.5240    24.4140 
  118.7500     2.5630   -23.5050    54.7150    39.4110    38.3020    39.4360    24.4140 
  118.8750     2.6040   -23.5760    54.0380    42.0310    41.3670    49.5920    24.4150 
  119.0000     2.6290   -23.6330    55.5530    42.3400    42.2760    47.9170    24.4140 
  119.1250     2.6330   -23.6540    56.2430    39.2530    39.6140    42.3430    24.4130 
  119.2500     2.6200   -23.6720    56.2690    34.4130    34.9580    36.1830    24.4120 
  119.3750     2.5880   -23.7000    57.7820    29.4730    30.0350    28.0920    24.4120 
  119.5000     2.5430   -23.7370    61.3140    25.6090    26.0800    21.5170    24.4120 
  119.6250     2.5000   -23.7410    63.2150    23.5550    23.8370    19.5180    24.4120 
  119.7500     2.4700   -23.7490    62.5050    23.0050    23.0370    20.7560    24.4120 
  119.8750     2.4590   -23.7790    61.5930    23.7760    23.5080    22.1420    24.4120 
  120.0000     2.4670   -23.7980    60.4360    25.5920    24.9970    23.3080    24.4120 
  120.1250     2.4900   -23.8110    58.9320    28.0270    27.1440    25.5270    24.4120 
  120.2500     2.5200   -23.8040    57.9150    30.3750    29.2810    27.8680    24.4120 
  120.3750     2.5500   -23.7730    58.3680    32.1600    30.9260    29.6000    24.4120 
  120.5000     2.5740   -23.7670    58.9300    33.0410    31.7040    30.1820    24.4120 
  120.6250     2.5890   -23.7560    56.3880    32.5700    31.1720    31.2630    24.4120 
  120.7500     2.5890   -23.7300    53.2080    30.8320    29.4700    32.6670    24.4120 
  120.8750     2.5710   -23.7040    51.6840    28.0230    26.8520    30.9900    24.4120 
  121.0000     2.5410   -23.6940    53.0890    24.6560    23.8030    24.5290    24.4120 
  121.1250     2.5080   -23.7150    56.1320    21.5600    20.9980    18.1190    24.4120 
  121.2500     2.4810   -23.7700    58.0040    19.3630    18.9170    15.5600    24.4120 
  121.3750     2.4610   -23.8390    58.5110    18.2760    17.7530    15.0110    24.4120 
  121.5000     2.4520   -23.9070    57.2810    18.1410    17.4500    15.0960    24.4120 
  121.6250     2.4540   -24.0140    57.1500    18.5620    17.7790    15.2090    24.4120 
  121.7500     2.4620   -24.1090    58.7830    18.9380    18.2000    15.5440    24.4120 
  121.8750     2.4700   -24.1710    59.6390    18.9700    18.3810    15.6870    24.4100 
  122.0000     2.4740   -24.2190    59.1940    18.5600    18.2020    15.3880    24.4040 
  122.1250     2.4740   -24.2190    59.9420    17.8140    17.7280    14.5930    24.3920 
  122.2500     2.4730   -24.1880    61.5660    17.0810    17.1880    14.0300    24.3760 
  122.3750     2.4740   -24.1480    60.8590    16.5680    16.7000    14.7410    24.3390 
  122.5000     2.4770   -24.0720    58.2650    16.3370    16.3170    15.4170    24.2750 
  122.6250     2.4810   -23.9620    59.3590    16.3850    16.1020    13.9290    24.1790 
  122.7500     2.4900   -23.8740    62.0530    16.6420    16.0910    13.3310    24.1230 
  122.8750     2.5020   -23.7990    63.1460    17.1080    16.3360    14.0960    24.0940 
  123.0000     2.5100   -23.7300    64.0350    17.7260    16.8230    14.8190    24.0980 
  123.1250     2.5020   -23.6590    67.2340    18.2590    17.3840    15.1750    24.1040 
  123.2500     2.4900   -23.6050    68.3270    18.4030    17.7100    14.8540    24.1050 
  123.3750     2.4850   -23.5470    64.3580    17.9810    17.5820    15.0490    24.1100 
  123.5000     2.4860   -23.4860    59.2890    17.0420    16.9480    16.1370    24.1470 
  123.6250     2.4840   -23.4190    58.4550    15.8070    15.9050    14.9550    24.2180 
  123.7500     2.4770   -23.3610    60.2150    14.6480    14.7600    12.3900    24.2350 
  123.8750     2.4730   -23.3170    62.8310    13.8270    13.7530    11.2900    24.0800 
  124.0000     2.4730   -23.3030    65.0060    13.5330    13.1120    11.6650    23.8780 
  124.1250     2.4710   -23.3340    64.4500    13.8940    13.0700    13.4950    23.7160 
  124.2500     2.4630   -23.3700    63.6610    14.6430    13.5010    14.1490    23.5570 
  124.3750     2.4530   -23.4340    65.6790    15.4710    14.2050    14.3160    23.4040 
  124.5000     2.4480   -23.5290    70.5110    16.1030    14.9180    14.9570    23.3260 
  124.6250     2.4420   -23.6540    72.2140    16.4100    15.3800    16.1570    23.3410 
  124.7500     2.4310   -23.7550    69.2360    16.5300    15.5720    16.2480    23.4620 
  124.8750     2.4200   -23.8280    65.8250    16.5230    15.5290    15.7080    23.6980 
  125.0000     2.4130   -23.8770    66.1930    16.4210    15.3190    14.6100    23.8850 
  125.1250     2.4170   -23.8950    69.9580    16.2950    15.0810    14.4850    24.0250 
  125.2500     2.4270   -23.8980    72.4490    16.2840    15.0110    15.8400    24.1840 
  125.3750     2.4390   -23.8920    72.1410    16.4850    15.2280    18.3680    24.3920 
  125.5000     2.4460   -23.8650    68.2710    16.9300    15.7180    19.0040    24.5190 
  125.6250     2.4450   -23.8200    62.6120    17.5970    16.3530    17.9350    24.5510 
  125.7500     2.4470   -23.7850    59.7540    18.3330    16.9520    17.1970    24.5340 
  125.8750     2.4560   -23.7500    60.0790    18.9790    17.4530    19.0690    24.4890 
  126.0000     2.4670   -23.7120    60.2760    19.3560    17.8230    22.1500    24.4330 
  126.1250     2.4710   -23.6600    58.0110    19.1960    17.8950    21.3380    24.4080 
  126.2500     2.4640   -23.6110    56.1940    18.5360    17.5560    18.5870    24.4020 
  126.3750     2.4520   -23.5630    55.7970    17.5220    16.7950    16.8070    24.4020 
  126.5000     2.4430   -23.5350    55.5310    16.4230    15.7930    15.0350    24.3840 
  126.6250     2.4420   -23.5080    55.8300    15.5530    14.8870    14.0930    24.3130 
  126.7500     2.4470   -23.4950    57.5160    15.0090    14.2990    14.1530    24.2040 
  126.8750     2.4540   -23.4970    60.6740    14.8170    14.0890    14.3260    24.1330 
  127.0000     2.4630   -23.5170    63.5470    14.9920    14.2350    13.9430    24.1120 
  127.1250     2.4720   -23.5750    64.2350    15.5980    14.7440    13.9920    24.1380 
  127.2500     2.4800   -23.6510    63.7320    16.5430    15.5170    14.6580    24.1910 
  127.3750     2.4820   -23.7320    62.9070    17.7410    16.4770    16.2750    24.2390 
  127.5000     2.4740   -23.8040    61.5760    19.0160    17.4810    18.1500    24.2560 
  127.6250     2.4570   -23.9010    60.9260    19.9740    18.2420    18.5860    24.2700 
  127.7500     2.4450   -23.9930    62.2600    20.3300    18.5340    18.7000    24.3180 
  127.8750     2.4440   -24.0940    64.6510    19.9860    18.2480    18.6420    24.4040 
  128.0000     2.4530   -24.1940    66.2330    19.0570    17.4490    17.9320    24.4620 
  128.1250     2.4640   -24.2980    66.2960    17.7950    16.3240    15.5840    24.4780 
  128.2500     2.4740   -24.3870    65.9480    16.6240    15.2460    13.5290    24.4780 
  128.3750     2.4800   -24.4430    65.0890    15.8510    14.4790    13.2660    24.4780 
  128.5000     2.4830   -24.4570    63.9450    15.6680    14.1760    13.6310    24.4780 
  128.6250     2.4810   -24.4540    64.1680    16.1690    14.4010    14.0210    24.4780 
