~V
VERS. 2.00: Ver 2.00
~W
STRT.M 55.0000:
STOP.M 318.0000:
STEP.M 0.1250:
NULL. -999.2500:
UWI. F10558:
~C
DEPT.M :
DEN.GM/CC :
GR.API :
RML.OHMM :
RI. :
RXO.OHMM :
CALI.CM :
SP.MV :
~A
# ...
   66.2500     2.1410    84.4810     9.1220     7.8500     9.8570    25.8480   -21.3770 
   66.3750     2.1280    79.7920     9.2880     7.7130     9.5830    25.8480   -21.5100 
   66.5000     2.1180    75.4450     9.4490     7.6660     9.3760    25.8480   -21.6510 
   66.6250     2.1060    76.0450     9.5420     7.6870     9.3900    25.8500   -21.7670 
   66.7500     2.0920    78.9430     9.6550     7.7580     9.5370    25.8670   -21.8520 
   66.8750     2.0810    80.3330     9.8410     7.8580     9.5990    25.9110   -21.9060 
   67.0000     2.0720    78.9620    10.0770     7.9630     9.5140    25.9640   -21.9440 
   67.1250     2.0670    76.5870    10.2930     8.0690     9.6000    25.9630   -21.9680 
   67.2500     2.0710    74.5540    10.4400     8.1780     9.7710    25.8840   -21.9650 
   67.3750     2.0890    73.2050    10.5000     8.2880     9.8100    25.7450   -21.9340 
   67.5000     2.1190    74.7550    10.4750     8.4050     9.6380    25.6530   -21.8510 
   67.6250     2.1430    76.2010    10.4320     8.5680     9.4570    25.6350   -21.7380 
   67.7500     2.1410    74.2710    10.4870     8.8070     9.3540    25.7220   -21.6340 
   67.8750     2.1080    69.9460    10.7170     9.1200     9.3010    26.0260   -21.5160 
   68.0000     2.0600    67.1410    11.0910     9.4320     9.3890    26.4570   -21.4110 
   68.1250     2.0310    68.4160    11.3630     9.5390     9.3930    26.4090   -21.3240 
   68.2500     2.0360    70.9470    11.2720     9.3340     9.4770    25.8140   -21.2270 
   68.3750     2.0630    74.1020    10.7620     8.8500     9.4290    25.3370   -21.1220 
   68.5000     2.0890    77.0830    10.0270     8.2480     9.2490    25.1570   -21.0320 
   68.6250     2.1020    78.7950     9.3830     7.7550     9.0850    25.0900   -20.9670 
   68.7500     2.1080    80.4820     9.0120     7.4700     9.0650    24.9950   -20.9000 
   68.8750     2.1120    82.2430     8.9490     7.3840     9.0160    24.9090   -20.8470 
   69.0000     2.1130    84.6800     9.1230     7.4380     9.0130    24.8490   -20.7990 
   69.1250     2.1140    87.9920     9.4340     7.5650     9.0310    24.7870   -20.7650 
   69.2500     2.1150    88.7780     9.7590     7.6960     9.0930    24.7330   -20.7650 
   69.3750     2.1170    85.4380    10.0080     7.7910     9.1440    24.6740   -20.7790 
   69.5000     2.1220    80.4300    10.1100     7.8340     9.1780    24.5940   -20.7800 
   69.6250     2.1290    77.8020    10.0250     7.8290     9.1770    24.5350   -20.7520 
   69.7500     2.1340    77.8060     9.8720     7.8140     9.2300    24.5150   -20.7090 
   69.8750     2.1350    79.3590     9.7550     7.8150     9.3330    24.5140   -20.6530 
   70.0000     2.1330    81.0310     9.7400     7.8420     9.3940    24.5160   -20.5590 
   70.1250     2.1300    80.8420     9.8480     7.8910     9.3820    24.5180   -20.4140 
   70.2500     2.1270    80.5710     9.9800     7.9470     9.3790    24.5180   -20.2420 
   70.3750     2.1250    81.3140    10.0590     8.0090     9.4250    24.5180   -20.0510 
   70.5000     2.1250    79.3520    10.0770     8.0720     9.5120    24.5180   -19.8200 
   70.6250     2.1280    74.2890    10.0550     8.0990     9.5860    24.5180   -19.5880 
   70.7500     2.1340    73.5410     9.9950     8.0490     9.5720    24.5180   -19.3410 
   70.8750     2.1430    79.5260     9.8600     7.8940     9.4480    24.5180   -19.0930 
   71.0000     2.1530    87.2240     9.6250     7.6350     9.0660    24.5240   -18.8850 
   71.1250     2.1620    88.3900     9.3160     7.3260     8.3820    24.5330   -18.7660 
   71.2500     2.1690    85.8680     9.0250     7.0860     7.8450    24.5360   -18.7510 
   71.3750     2.1750    84.9410     8.8350     7.0180     8.0180    24.5250   -18.8090 
   71.5000     2.1780    85.8130     8.8360     7.1850     8.8740    24.5150   -18.9580 
   71.6250     2.1790    83.2990     9.1380     7.6140     9.8640    24.5110   -19.1520 
   71.7500     2.1800    77.0830     9.6460     8.1640    10.3550    24.5150   -19.3630 
   71.8750     2.1840    71.6100    10.2120     8.7080    10.4800    24.5490   -19.5390 
   72.0000     2.1890    68.8570    10.6820     9.1360    10.4210    24.6390   -19.6290 
   72.1250     2.1920    68.7760    10.9490     9.3880    10.3870    24.7460   -19.5660 
   72.2500     2.1910    69.2910    11.0820     9.5270    10.9480    24.7900   -19.3290 
   72.3750     2.1910    68.8080    11.1310     9.5810    12.8600    24.8000   -18.9370 
   72.5000     2.1910    66.0100    11.0190     9.5080    15.5280    24.8010   -18.3830 
   72.6250     2.1890    64.1860    10.4460     9.1180    14.7600    24.8020   -17.6670 
   72.7500     2.1910    68.9050     9.3830     8.3680    11.4410    24.8020   -16.8620 
   72.8750     2.2110    79.5710     8.0390     7.3450     9.2680    24.8010   -16.0440 
   73.0000     2.2480    92.9490     6.7740     6.2530     7.7150    24.7990   -15.2630 
   73.1250     2.2820   104.9980     5.9640     5.3780     6.2350    24.8000   -14.6100 
   73.2500     2.2970   113.1180     5.6540     4.8480     5.7770    24.8070   -14.0720 
   73.3750     2.2930   116.4170     5.7840     4.6940     5.9980    24.8260   -13.6720 
   73.5000     2.2800   114.4310     6.2440     4.8690     6.3270    24.8550   -13.4370 
   73.6250     2.2600   108.5060     6.9570     5.2860     6.6730    24.8680   -13.3530 
   73.7500     2.2390   103.0000     7.7090     5.7500     7.7420    24.8660   -13.3540 
   73.8750     2.2210    99.7660     8.2430     6.1060     8.7010    24.8460   -13.4240 
   74.0000     2.2090    98.0730     8.3480     6.2530     7.9090    24.8150   -13.5520 
   74.1250     2.1990    96.4290     8.0160     6.1820     7.0920    24.8000   -13.7060 
   74.2500     2.1910    96.0970     7.6430     6.0430     6.7850    24.7960   -13.8690 
   74.3750     2.1880    99.1020     7.5120     5.9390     7.0270    24.7960   -14.0000 
   74.5000     2.1900   103.6780     7.6880     5.9230     7.4990    24.7970   -14.0830 
   74.6250     2.1910   105.9430     8.0130     6.0060     7.3140    24.7980   -14.1480 
   74.7500     2.1940   103.1150     8.2350     6.1320     7.2520    24.7990   -14.1950 
   74.8750     2.2080    97.9160     8.2730     6.2450     7.3290    24.8170   -14.1920 
   75.0000     2.2330    96.5560     8.1480     6.2740     7.2340    24.8930   -14.1310 
   75.1250     2.2440   101.9620     7.8990     6.1250     6.7520    25.0650   -13.9850 
   75.2500     2.2340   108.4230     7.5880     5.8380     6.6410    25.2030   -13.7700 
   75.3750     2.2210   110.2440     7.2420     5.5090     6.7720    25.2660   -13.5360 
   75.5000     2.2210   108.4300     6.9020     5.2370     6.5680    25.3020   -13.3180 
   75.6250     2.2330   106.5930     6.6230     5.0830     6.2160    25.3170   -13.1150 
   75.7500     2.2430   107.1980     6.4160     5.0010     6.1140    25.3220   -12.9480 
   75.8750     2.2450   111.4490     6.2820     4.9510     6.2050    25.3220   -12.8320 
   76.0000     2.2420   117.7920     6.2230     4.9210     6.2640    25.3220   -12.7620 
   76.1250     2.2410   121.7150     6.2570     4.9380     6.1280    25.3210   -12.7460 
   76.2500     2.2460   120.6580     6.3830     5.0000     6.0470    25.3150   -12.7860 
   76.3750     2.2550   117.1790     6.6190     5.1010     5.9320    25.2960   -12.8620 
   76.5000     2.2650   115.4660     6.9980     5.2660     5.9140    25.2460   -12.9500 
   76.6250     2.2810   113.7100     7.5700     5.5770     6.4360    25.1060   -13.0510 
   76.7500     2.3090   106.8110     8.2720     6.0460     8.2360    24.8420   -13.1670 
   76.8750     2.3460    96.2220     8.9410     6.5910    11.5800    24.5790   -13.2870 
   77.0000     2.3650    90.8660     9.2960     6.9940    13.4960    24.4510   -13.4070 
   77.1250     2.3340    98.3160     8.9910     6.9290    11.3570    24.4360   -13.5290 
   77.2500     2.2780   110.8580     8.2450     6.4550     7.7890    24.4510   -13.6600 
   77.3750     2.2300   118.8080     7.4450     5.8310     6.3810    24.4780   -13.7910 
