~V
VERS. 2.00: Ver 2.00
~W
STRT.M 58.0000:
STOP.M 193.0000:
STEP.M 0.1250:
NULL. -999.2500:
UWI. F10563:
~C
DEPT.M :
GR.API :
RML.OHMM :
RI. :
RXO.OHMM :
CALI.CM :
DEN.GM/CC :
SP.MV :
~A
# ...
  114.2500    60.4620    38.1140    38.0630    32.8690    24.4390     2.3650    -8.4200 
  114.3750    57.7990    38.4780    38.3750    33.8380    24.4130     2.3700    -8.4690 
  114.5000    53.5380    39.1720    39.0470    34.1840    24.4150     2.3740    -8.5390 
  114.6250    53.1280    39.8820    39.7890    35.7800    24.4360     2.3780    -8.4780 
  114.7500    55.3270    40.3270    40.3110    37.8080    24.4440     2.3850    -8.3400 
  114.8750    56.4770    40.4060    40.4910    41.6490    24.4380     2.3990    -8.2810 
  115.0000    55.5540    40.2010    40.3710    43.0120    24.4090     2.4170    -8.3560 
  115.1250    55.0990    40.0060    40.1720    41.0850    24.3600     2.4370    -8.5740 
  115.2500    55.5770    40.1620    40.2150    36.1000    24.3120     2.4570    -8.7830 
  115.3750    55.4530    40.8490    40.6980    36.9320    24.2780     2.4790    -8.8780 
  115.5000    54.4950    42.0310    41.6430    39.1340    24.2410     2.5050    -8.8870 
  115.6250    54.6280    43.3740    42.8240    43.2300    24.1980     2.5320    -8.9650 
  115.7500    57.3180    44.2980    43.7270    43.9170    24.1600     2.5520    -9.1220 
  115.8750    60.7280    44.3850    43.9300    44.9530    24.1450     2.5610    -9.2970 
  116.0000    61.3830    43.5300    43.2590    43.7400    24.1360     2.5590    -9.3750 
  116.1250    58.9010    41.9830    41.8460    40.6790    24.1180     2.5460    -9.2900 
  116.2500    57.0810    40.3850    40.2860    37.7970    24.0560     2.5300    -9.1770 
  116.3750    56.4950    39.0710    38.9290    34.5020    23.9320     2.5130    -9.1320 
  116.5000    56.4660    38.1350    37.9150    33.3750    23.7930     2.4970    -9.1550 
  116.6250    56.3950    37.5210    37.2310    37.7040    23.7130     2.4880    -9.1460 
  116.7500    56.4000    37.1020    36.7490    38.5700    23.6770     2.4850    -9.1130 
  116.8750    57.2380    36.9690    36.5340    38.3580    23.6620     2.4890    -9.1290 
  117.0000    58.6190    37.3480    36.7780    33.7870    23.6550     2.5020    -9.2220 
  117.1250    57.4210    38.5890    37.8060    32.3820    23.6550     2.5230    -9.3690 
  117.2500    53.5190    40.4510    39.4340    34.6380    23.6630     2.5470    -9.4730 
  117.3750    50.5970    42.3210    41.1460    41.7770    23.6900     2.5710    -9.5310 
  117.5000    51.9010    43.2160    42.0780    48.0830    23.7280     2.5900    -9.5760 
  117.6250    55.9710    41.8990    41.0770    48.5890    23.6700     2.5960    -9.6160 
  117.7500    59.6360    38.6950    38.3010    42.4800    23.5100     2.5880    -9.6530 
  117.8750    61.9880    34.4630    34.4220    33.1160    23.3880     2.5660    -9.6390 
  118.0000    63.0450    30.2990    30.4130    24.9980    23.3530     2.5310    -9.6070 
  118.1250    63.7060    27.2390    27.2830    22.9700    23.3280     2.4950    -9.6340 
  118.2500    64.8330    25.4610    25.3180    22.9270    23.2730     2.4670    -9.7500 
  118.3750    64.8330    24.9400    24.5560    22.6260    23.2590     2.4540    -9.9620 
  118.5000    63.1640    25.5250    24.8970    22.0760    23.3660     2.4580   -10.1930 
  118.6250    62.6670    27.0550    26.2430    23.6660    23.6530     2.4760   -10.3040 
  118.7500    62.9240    28.8960    28.0010    27.6840    23.9860     2.4990   -10.3150 
  118.8750    60.9940    30.3980    29.5520    31.3310    24.1770     2.5200   -10.2660 
  119.0000    58.0110    30.8670    30.2040    32.4740    24.2320     2.5380   -10.2290 
  119.1250    58.4300    29.6180    29.2320    32.3130    24.2320     2.5520   -10.2310 
  119.2500    61.4050    27.1320    27.0030    30.0350    24.2320     2.5630   -10.2690 
  119.3750    63.3590    24.1070    24.1360    24.6700    24.2320     2.5700   -10.2940 
  119.5000    63.2400    21.3030    21.3620    18.8110    24.2320     2.5650   -10.2910 
  119.6250    61.2260    19.3960    19.3520    15.5470    24.2390     2.5440   -10.2770 
  119.7500    58.6410    18.4040    18.1820    14.6430    24.2590     2.5120   -10.2720 
  119.8750    56.5870    18.2140    17.7820    15.4310    24.2810     2.4780   -10.2720 
  120.0000    55.2160    18.5960    17.9730    16.9130    24.2920     2.4510   -10.2480 
  120.1250    54.4600    19.2600    18.5310    19.0290    24.2930     2.4370   -10.1900 
  120.2500    54.3760    19.8580    19.1060    20.6140    24.2930     2.4310   -10.1200 
  120.3750    56.5070    20.2470    19.5150    19.5650    24.2950     2.4290   -10.0810 
  120.5000    60.1290    20.4440    19.7060    17.7950    24.2970     2.4270   -10.1070 
  120.6250    61.0350    20.5790    19.7490    18.4770    24.2910     2.4230   -10.2630 
  120.7500    58.4240    20.7250    19.7910    17.9870    24.2530     2.4170   -10.4550 
  120.8750    56.9680    20.8010    19.8850    17.6270    24.1760     2.4120   -10.6290 
  121.0000    60.0330    20.6740    20.0170    18.7400    24.1060     2.4080   -10.7420 
  121.1250    62.5670    20.7090    20.1600    20.1840    24.0800     2.4070   -10.7300 
  121.2500    60.1430    20.9260    20.3400    19.8530    24.0750     2.4130   -10.6570 
  121.3750    54.6130    21.3880    20.6480    18.7000    24.0750     2.4310   -10.5700 
  121.5000    51.4900    22.1360    21.1890    18.8150    24.0820     2.4610   -10.5160 
  121.6250    52.8170    23.2110    22.0580    22.7360    24.0970     2.4950   -10.5250 
  121.7500    54.7940    24.3690    23.0900    28.0020    24.1170     2.5200   -10.5190 
  121.8750    55.2430    25.2740    24.0040    28.1040    24.1260     2.5310   -10.4580 
  122.0000    54.9530    25.5270    24.4140    24.0820    24.1280     2.5280   -10.3940 
  122.1250    57.0380    24.6740    23.8230    22.9840    24.1310     2.5190   -10.3740 
  122.2500    61.2120    22.9350    22.3360    23.4460    24.1330     2.5090   -10.4160 
  122.3750    65.5730    20.6730    20.2410    21.2270    24.1300     2.4980   -10.4980 
  122.5000    68.4040    18.3510    17.9750    16.8950    24.1280     2.4840   -10.5770 
  122.6250    69.4240    16.4280    16.0270    13.6500    24.1260     2.4650   -10.5800 
  122.7500    69.6710    14.9290    14.6100    11.7650    24.1170     2.4460   -10.5680 
  122.8750    68.5960    13.7960    13.7820    11.0720    24.0930     2.4290   -10.5700 
  123.0000    66.1910    13.3010    13.4870    11.1320    24.0590     2.4170   -10.5900 
  123.1250    64.7180    13.4260    13.6220    11.6350    24.0010     2.4120   -10.5900 
  123.2500    64.3110    13.8030    13.9310    12.1900    23.9330     2.4110   -10.5500 
  123.3750    63.6880    14.1960    14.2840    12.7820    23.8600     2.4120   -10.5010 
  123.5000    63.6500    14.5460    14.6170    13.1380    23.7850     2.4150   -10.4610 
  123.6250    64.5600    14.8460    14.9210    12.7400    23.7560     2.4210   -10.4490 
  123.7500    64.5780    15.1060    15.1990    12.4820    23.7800     2.4270   -10.4640 
  123.8750    64.2940    15.2920    15.4120    12.8040    23.8640     2.4320   -10.5250 
  124.0000    65.3050    15.3550    15.5030    13.7040    23.9640     2.4360   -10.5900 
  124.1250    66.7700    15.2730    15.4280    13.9050    23.9910     2.4390   -10.6220 
  124.2500    66.2180    15.1930    15.3040    13.0080    23.9790     2.4430   -10.6050 
  124.3750    63.1720    15.3080    15.2930    12.1300    23.9690     2.4510   -10.5150 
  124.5000    60.3760    15.7790    15.5450    11.8380    23.9670     2.4640   -10.3820 
  124.6250    59.8930    16.6370    16.1310    12.8810    23.9670     2.4770   -10.2710 
  124.7500    60.1940    17.5070    16.7930    15.2490    23.9670     2.4840   -10.2330 
  124.8750    60.5400    17.9350    17.1820    19.1230    23.9670     2.4810   -10.2450 
  125.0000    61.2800    17.5520    16.9690    21.0180    23.9670     2.4680   -10.2360 
  125.1250    62.9930    16.2520    15.9680    17.0040    23.9670     2.4500   -10.2220 
  125.2500    63.7340    14.6450    14.5980    12.6920    23.9660     2.4330   -10.2140 
  125.3750    62.7200    13.2410    13.2660    10.3670    23.9600     2.4230   -10.2020 
