~V
VERS. 2.00: Ver 2.00
~W
STRT.M 50.0000:
STOP.M 214.0000:
STEP.M 0.1250:
NULL. -999.2500:
UWI. F10534:
~C
DEPT.M :
DEN.GM/CC :
SP.MV :
GR.API :
RML.OHMM :
RI. :
RXO.OHMM :
CALI.CM :
~A
# ...
  207.5000     2.2280     0.5680    57.5350     8.1710     6.7250     5.3910    32.8560 
  207.6250     2.1980     0.1680    57.5350     8.1910     6.7300     5.1820    31.7240 
  207.7500     2.1700    -0.2010    57.5350     8.1810     6.7040     5.3360    31.5650 
  207.8750     2.1320    -0.5290    57.5350     8.1600     6.6620     5.6090    32.1580 
  208.0000     2.1000    -0.8120    57.5350     8.1420     6.6230     6.5230    32.0310 
  208.1250     2.1320    -1.0130    57.5350     8.1280     6.5980     9.0620    29.9480 
  208.2500     2.2180    -1.1570    57.5350     8.1170     6.5880    11.2010    27.4470 
  208.3750     2.3070    -1.2540    57.5350     8.1080     6.5860    11.3360    25.8100 
  208.5000     2.3430    -1.3060    57.5350     8.1050     6.5850    10.3960    25.1870 
  208.6250     2.3260    -1.3350    57.5350     8.1130     6.5820     9.6100    25.1320 
  208.7500     2.2910    -1.3180    57.5350     8.1280     6.5780     9.0600    25.5820 
  208.8750     2.2250    -1.2920    57.5350     8.1430     6.5730     7.7970    26.9420 
  209.0000     2.1400    -1.2880    57.5350     8.1490     6.5690     7.4310    28.8030 
  209.1250     2.1050    -1.2880    57.5350     8.1410     6.5650     8.8180    29.1370 
  209.2500     2.1520    -1.2970    57.5350     8.1260     6.5630    11.4240    27.8900 
  209.3750     2.2550    -1.3290    57.5350     8.1090     6.5620    13.4060    26.2140 
  209.5000     2.3580    -1.3550    57.5350     8.0970     6.5630    14.6300    25.2910 
  209.6250     2.4090    -1.3600    57.5350     8.0930     6.5640    15.4440    25.0960 
  209.7500     2.4340    -1.3820    57.5350     8.0930     6.5640    15.8760    25.1120 
  209.8750     2.4440    -1.3920    57.5350     8.0930     6.5640    14.8050    25.1240 
  210.0000     2.4350    -1.3920    57.5350     8.0930     6.5640    12.0160    25.1800 
  210.1250     2.4000  -999.2500    57.5350     8.0930     6.5640     8.3300    25.5480 
  210.2500     2.3490  -999.2500    57.5350     8.0930     6.5640     5.7250    26.4600 
  210.3750     2.2840  -999.2500    57.5350     8.0930     6.5640     4.7380    27.6370 
  210.5000     2.2180  -999.2500    57.5350     8.0930     6.5640     4.5230    28.4620 
  210.6250     2.1680  -999.2500    57.5350     8.0930     6.5640     4.5430    28.1310 
  210.7500     2.1250  -999.2500    57.5350     8.0930     6.5640     4.5980    28.8140 
  210.8750     2.0620  -999.2500    57.5350     8.0930     6.5640     4.7500    30.8070 
  211.0000     1.9740  -999.2500    57.5350     8.0930     6.5640     5.1370    33.0340 
  211.1250     1.8870  -999.2500    57.5350     8.0930     6.5640     5.2700    34.5010 
  211.2500     1.8140  -999.2500    57.5350     8.0930     6.5640     5.3210    35.7100 
  211.3750     1.7570  -999.2500    57.5350     8.0930     6.5640     5.2920    37.0060 
  211.5000     1.7280  -999.2500    57.5350     8.0930     6.5640     5.2150    37.7900 
  211.6250     1.7510  -999.2500    57.5350     8.0930     6.5640     4.9450    37.0990 
  211.7500     1.8130  -999.2500    57.5350     8.0930     6.5640     4.6630    34.5560 
  211.8750     1.8970  -999.2500    57.5350     8.0930     6.5640     4.4400    31.4680 
  212.0000     1.9880  -999.2500    57.5350     8.0930     6.5640     4.0820    30.9550 
  212.1250     2.0560  -999.2500    57.5350     8.0930     6.5640     4.0580    32.9000 
  212.2500     2.0560  -999.2500    57.5350     8.0930     6.5640     4.2390    34.7920 
  212.3750     1.9660  -999.2500    57.5350     8.0930     6.5640     4.3680    36.1830 
  212.5000     1.8090  -999.2500    57.5350     8.0930     6.5640     4.1780    37.3570 
  212.6250     1.6490  -999.2500    57.5350     8.0930     6.5640     3.7240    37.9340 
  212.7500     1.5410  -999.2500    57.5350     8.0930     6.5640     3.4660    38.1070 
  212.8750     1.4920  -999.2500    57.5350     8.0930     6.5640     3.3880    38.1230 
  213.0000     1.4800  -999.2500    57.5350     8.0930     6.5640     3.3810    38.1230 
  213.1250     1.4800  -999.2500    57.5350     8.0930     6.5640     3.3810    38.1230 
  213.2500     1.4810  -999.2500    57.5350     8.0930     6.5640     3.3800    38.1230 
  213.3750     1.4820  -999.2500    57.5350     8.0930     6.5640     3.3790    38.1230 
  213.5000     1.4830  -999.2500    57.5350     8.0930     6.5640     3.3790    38.1230 
  213.6250     1.4840  -999.2500    57.5350     8.0930     6.5640     3.3790    38.1230 
  213.7500     1.4840  -999.2500    57.5350     8.0930     6.5640     3.3790    38.1230 
  213.8750     1.4840  -999.2500    57.5350     8.0930     6.5640     3.3800    38.1230 
  214.0000     1.4820  -999.2500    57.5350     8.0930     6.5640     3.3810    38.1230 
