~V
VERS. 2.00: Ver 2.00
~W
STRT.M 47.0000:
STOP.M 254.0000:
STEP.M 0.1250:
NULL. -999.2500:
UWI. F10599:
~C
DEPT.M :
DEN.GM/CC :
SP.MV :
GR.API :
RML.OHMM :
RI. :
RXO.OHMM :
CALI.CM :
~A
# ...
  125.7500     2.1290    -6.6040    78.0160    22.3710    19.8180    18.1080    24.0750 
  125.8750     2.1220    -6.7670    78.0950    22.6640    19.4260    17.7950    24.0730 
  126.0000     2.1270    -6.9090    77.0780    22.9310    19.2750    18.1810    24.0450 
  126.1250     2.1370    -7.0370    76.6040    22.6760    19.1200    18.7260    23.9640 
  126.2500     2.1450    -7.1290    76.8880    21.8390    18.7030    19.1900    23.8370 
  126.3750     2.1490    -7.1870    76.3840    20.8900    17.8400    19.9260    23.7580 
  126.5000     2.1580    -7.2200    74.4550    20.2290    16.7700    21.0610    23.7190 
  126.6250     2.1700    -7.2130    72.3460    19.9380    15.8330    20.9480    23.7100 
  126.7500     2.1690    -7.1720    72.2230    19.9850    15.3380    17.8020    23.7080 
  126.8750     2.1470    -7.0910    73.9070    20.3100    15.5550    17.2660    23.7080 
  127.0000     2.1280    -6.9790    76.1530    20.8170    16.3590    18.8180    23.7040 
  127.1250     2.1270    -6.8360    76.4190    21.4920    17.5760    22.5310    23.6830 
  127.2500     2.1400    -6.6710    73.3400    22.3240    18.9210    26.5960    23.6320 
  127.3750     2.1540    -6.5120    71.7900    23.1410    20.0390    28.1260    23.5880 
  127.5000     2.1610    -6.3630    73.5500    23.8290    20.8440    26.7930    23.5700 
  127.6250     2.1610    -6.2320    75.2800    24.5290    21.4480    25.2170    23.5670 
  127.7500     2.1590    -6.1340    74.7220    25.2940    22.0220    24.5870    23.5670 
  127.8750     2.1560    -6.0710    74.2210    25.9930    22.7020    25.7270    23.5670 
  128.0000     2.1540    -6.0390    75.7480    26.5030    23.3980    27.1730    23.5670 
  128.1250     2.1520    -6.0300    77.4510    26.7310    23.8600    26.8140    23.5670 
  128.2500     2.1500    -6.0420    77.1350    26.6470    23.7800    24.4560    23.5670 
  128.3750     2.1490    -6.0680    74.8240    26.1930    22.8830    21.4820    23.5670 
  128.5000     2.1470    -6.1100    73.5550    25.3560    21.5120    19.0720    23.5670 
  128.6250     2.1410    -6.1600    74.8370    24.1030    20.0930    17.4170    23.5670 
  128.7500     2.1270    -6.2070    76.4810    22.6120    19.0220    16.6030    23.5670 
  128.8750     2.1110    -6.2470    75.5220    21.4610    18.6680    16.3660    23.5670 
  129.0000     2.1060    -6.2990    72.7530    21.1710    18.9740    17.6720    23.5690 
  129.1250     2.1150    -6.3600    71.5270    21.9200    19.8220    20.5450    23.5790 
  129.2500     2.1310    -6.4150    71.8740    23.4350    20.9640    22.5170    23.6190 
  129.3750     2.1360    -6.4510    72.4480    25.0280    21.9760    21.7360    23.7170 
  129.5000     2.1240    -6.4850    73.7310    26.0490    22.4970    19.8760    23.8790 
  129.6250     2.0970    -6.5140    74.8620    26.2610    22.3800    18.3070    24.0510 
  129.7500     2.0630    -6.5250    74.0890    25.7150    21.7150    17.6160    24.1770 
  129.8750     2.0390    -6.4880    71.1770    24.6650    20.7650    17.2810    24.2170 
  130.0000     2.0330    -6.4180    70.1090    23.5380    19.8490    16.9510    24.2170 
  130.1250     2.0470    -6.3110    72.6510    22.4980    19.0990    16.5550    24.1660 
  130.2500     2.0740    -6.1830    77.9860    21.6940    18.5670    16.2480    24.0220 
  130.3750     2.1020    -6.0410    83.7380    21.3960    18.2800    16.2090    23.7830 
  130.5000     2.1200    -5.8690    85.7640    21.5380    18.1750    16.3580    23.5890 
  130.6250     2.1280    -5.6690    83.5000    21.9500    18.2230    16.5640    23.4960 
  130.7500     2.1260    -5.4630    78.7460    22.3540    18.3830    17.1350    23.4540 
  130.8750     2.1180    -5.2980    73.5820    22.2900    18.5320    16.9780    23.4230 
  131.0000     2.1090    -5.1480    70.3140    21.6640    18.5270    15.4220    23.3990 
  131.1250     2.0990    -5.0120    70.3570    20.7540    18.3530    13.8120    23.3870 
  131.2500     2.0910    -4.8890    72.5890    20.1100    18.1570    13.3180    23.4100 
  131.3750     2.0880    -4.7780    74.6090    20.3880    18.2520    13.7600    23.4840 
  131.5000     2.0900    -4.6810    76.1140    21.4820    18.7700    15.7720    23.6570 
  131.6250     2.0990    -4.6040    76.2460    23.0030    19.6340    19.3120    23.9030 
  131.7500     2.1150    -4.5410    73.6980    24.3510    20.5390    24.1700    24.0860 
  131.8750     2.1440    -4.4810    72.6180    24.6800    20.8870    27.2660    24.1450 
  132.0000     2.1880    -4.4280    77.5580    23.7400    20.3120    24.3660    24.1550 
  132.1250     2.2430    -4.3790    86.9340    21.5670    18.7540    19.5080    24.1560 
  132.2500     2.3050    -4.3400    94.7000    18.5380    16.4940    18.0240    24.1470 
  132.3750     2.3580    -4.3200    95.6510    14.6760    14.0000    15.6060    24.1190 
  132.5000     2.3770    -4.3180    94.5410    12.1740    11.7000    11.6640    24.0520 
  132.6250     2.3520    -4.3210    94.9640    10.1280     9.7830     8.6770    23.9330 
  132.7500     2.3020    -4.3150    96.9310     8.6690     8.3350     7.3530    23.7660 
  132.8750     2.2610    -4.2910    98.0930     7.8730     7.4410     6.8880    23.6080 
  133.0000     2.2380    -4.2600    98.6700     7.5280     6.9830     6.7900    23.5210 
  133.1250     2.2280    -4.2250    98.6840     7.4950     6.8860     6.8030    23.4940 
  133.2500     2.2250    -4.1690    98.2240     7.6020     7.0170     6.8830    23.4920 
  133.3750     2.2380    -4.0880    98.3330     7.6730     7.2050     6.9010    23.4920 
  133.5000     2.2640    -3.9860    99.2320     7.6340     7.3090     6.8970    23.4930 
  133.6250     2.2960    -3.8830    99.5510     7.4990     7.3130     7.0230    23.5150 
  133.7500     2.3170    -3.8150    99.3770     7.3210     7.2670     7.0210    23.5960 
  133.8750     2.3100    -3.7700    98.7350     7.1910     7.2270     6.9700    23.7680 
  134.0000     2.2930    -3.7350    97.6270     7.1900     7.2160     7.0100    23.9140 
  134.1250     2.2790    -3.7140    97.7970     7.3330     7.2210     7.2810    23.9770 
  134.2500     2.2720    -3.7050   100.2880     7.5430     7.2010     7.5200    23.9870 
  134.3750     2.2680    -3.6910   105.6380     7.6820     7.1010     7.4520    24.0480 
  134.5000     2.2630    -3.6830   110.3930     7.6740     6.9300     7.1790    24.2390 
  134.6250     2.2540    -3.6760   111.6610     7.5190     6.7280     7.0810    24.4870 
  134.7500     2.2410    -3.6620   109.2260     7.2700     6.5490     7.1950    24.6780 
  134.8750     2.2320    -3.6620   107.6910     7.0120     6.4410     7.4350    24.8420 
  135.0000     2.2280    -3.6620   108.9930     6.8040     6.4010     7.4750    25.0130 
  135.1250     2.2320    -3.6710   109.7290     6.6850     6.4020     7.4150    25.1560 
  135.2500     2.2420    -3.7110   108.9600     6.6740     6.4170     7.4140    25.2260 
  135.3750     2.2580    -3.7700   108.7000     6.7580     6.4310     7.8360    25.2430 
  135.5000     2.2770    -3.8240   108.2440     6.8590     6.4430     8.6140    25.2430 
  135.6250     2.2990    -3.8820   106.2520     6.9400     6.4560     9.3390    25.2510 
  135.7500     2.3160    -3.9310   103.8540     7.0030     6.4820     8.5060    25.2780 
  135.8750     2.3120    -3.9690   102.6790     7.0900     6.5660     7.9250    25.3310 
  136.0000     2.2960    -4.0040   100.4910     7.2780     6.7630     7.7180    25.3700 
  136.1250     2.2810    -4.0250    98.6600     7.6330     7.1080     8.0450    25.3860 
  136.2500     2.2710    -4.0410    99.2100     8.1490     7.5740     8.9290    25.3860 
  136.3750     2.2590    -4.0420    98.9950     8.6750     8.0140    10.1670    25.3860 
  136.5000     2.2470    -4.0470    96.8230     8.9730     8.2380    11.2140    25.3870 
  136.6250     2.2420    -4.0330    96.5780     8.9160     8.1610    11.3160    25.3860 
  136.7500     2.2490    -4.0040    99.8660     8.5950     7.8620    10.3390    25.3850 
  136.8750     2.2650    -3.9610   102.2790     8.3540     7.6080     9.8080    25.3840 
