~V
VERS. 2.00: Ver 2.00
~W
STRT.M 47.0000:
STOP.M 254.0000:
STEP.M 0.1250:
NULL. -999.2500:
UWI. F10599:
~C
DEPT.M :
DEN.GM/CC :
SP.MV :
GR.API :
RML.OHMM :
RI. :
RXO.OHMM :
CALI.CM :
~A
# ...
  238.2500     2.4070    -5.2310    57.7200     6.1950     5.5660     7.1730    25.3380 
  238.3750     2.4200    -5.2280    57.0960     6.2180     5.5480     7.4270    25.3930 
  238.5000     2.4300    -5.2030    58.1360     6.2840     5.5310     7.5310    25.4160 
  238.6250     2.4330    -5.1880    60.6140     6.3670     5.4980     7.4790    25.4220 
  238.7500     2.4290    -5.2610    63.5710     6.4230     5.4470     7.4310    25.4220 
  238.8750     2.4140    -5.5740    67.7790     6.3850     5.3810     7.5040    25.4220 
  239.0000     2.3930    -5.9110    74.0210     6.2500     5.2910     7.5000    25.4220 
  239.1250     2.3710    -6.0560    81.1370     6.0250     5.1620     7.1640    25.4220 
  239.2500     2.3470    -6.1520    86.5830     5.7420     4.9930     6.4810    25.4220 
  239.3750     2.3150    -6.3080    87.6580     5.4540     4.8060     5.8370    25.4220 
  239.5000     2.2900    -6.5250    86.3820     5.2260     4.6530     5.6130    25.4220 
  239.6250     2.2900    -6.7600    86.2160     5.1240     4.5940     5.9550    25.4170 
  239.7500     2.3210    -6.9030    86.4970     5.2190     4.6810     6.6420    25.3790 
  239.8750     2.3600    -6.7930    84.5210     5.5900     4.9720     7.5030    25.2820 
  240.0000     2.3800    -6.6860    82.9420     6.1400     5.4150     8.4800    25.1780 
  240.1250     2.3830    -6.7760    83.3160     6.7380     5.9310     9.7630    25.1350 
  240.2500     2.3840    -6.9090    83.1800     7.2290     6.3950    10.7580    25.1300 
  240.3750     2.3880    -7.0080    80.0160     7.4780     6.6460    10.9280    25.1300 
  240.5000     2.3900    -7.1110    78.7660     7.5430     6.6730     9.9460    25.1300 
  240.6250     2.3900    -7.2130    81.1060     7.4980     6.5380     9.3140    25.1300 
  240.7500     2.3920    -7.3300    83.1080     7.4010     6.3510     9.2390    25.1290 
  240.8750     2.3970    -7.4290    82.1590     7.2520     6.2030     9.1810    25.1270 
  241.0000     2.3960    -7.5070    81.9630     7.0540     6.1050     9.0180    25.1270 
  241.1250     2.3880    -7.6220    83.3610     6.8440     6.0380     9.1500    25.1280 
  241.2500     2.3750    -7.7700    83.4850     6.6950     6.0080     9.3250    25.1280 
  241.3750     2.3570    -7.9910    80.7820     6.7010     6.0750     9.0270    25.1260 
  241.5000     2.3350    -8.2430    78.4440     6.8580     6.2570     8.7710    25.1280 
  241.6250     2.3130    -8.4950    78.0350     7.1220     6.5310     9.2910    25.1250 
  241.7500     2.3010    -8.7040    78.0350     7.3990     6.8070    10.3620    25.1030 
  241.8750     2.3040    -8.7840    78.0350     7.5280     6.9260    10.2340    25.0550 
  242.0000     2.3120    -8.7040    78.0350     7.4350     6.8250     8.7520    25.0030 
  242.1250     2.3190    -8.4810    78.0350     7.1280     6.5300     7.4880    24.9820 
  242.2500     2.3250    -8.1970    78.0350     6.6960     6.1350     7.1510    24.9790 
  242.3750     2.3320    -7.8230    78.0350     6.2810     5.7600     7.1270    24.9790 
  242.5000     2.3330    -7.3730    78.0350     5.9800     5.4720     6.9760    24.9790 
  242.6250     2.3240    -6.8680    78.0350     5.8130     5.2830     6.7860    24.9780 
  242.7500     2.3030    -6.3290    78.0350     5.7520     5.1690     6.6720    24.9710 
  242.8750     2.2810    -5.8960    78.0350     5.7550     5.1070     6.5620    24.9500 
  243.0000     2.2710    -5.6030    78.0350     5.7860     5.0820     6.5510    24.9250 
  243.1250     2.2780    -5.4240    78.0350     5.8330     5.0960     6.5850    24.9130 
  243.2500     2.3010    -5.2980    78.0350     5.8830     5.1420     6.6450    24.9100 
  243.3750     2.3300    -5.2470    78.0350     5.9200     5.1970     6.8130    24.9110 
  243.5000     2.3540    -5.2520    78.0350     5.9370     5.2370     7.0360    24.9110 
  243.6250     2.3720    -5.3070    78.0350     5.9300     5.2560     7.0910    24.9090 
  243.7500     2.3820    -5.4260    78.0350     5.9010     5.2550     6.8980    24.9090 
  243.8750     2.3850    -5.5560    78.0350     5.8390     5.2230     6.7340    24.9060 
  244.0000     2.3850    -5.6400    78.0350     5.7360     5.1420     6.6620    24.9060 
  244.1250     2.3840    -5.6820    78.0350     5.5930     5.0020     6.4970    24.9070 
  244.2500     2.3850    -5.6880    78.0350     5.4270     4.8200     6.1550    24.9060 
  244.3750     2.3880    -5.6500    78.0350     5.2700     4.6410     5.9920    24.9050 
  244.5000     2.3920    -5.6120    78.0350     5.1620     4.5140     6.1240    24.9040 
  244.6250     2.3920    -5.5560    78.0350     5.1310     4.4660     6.4100    24.9050 
  244.7500     2.3830    -5.4630    78.0350     5.1900     4.5050     6.6770    24.9060 
  244.8750     2.3630    -5.3770    78.0350     5.3310     4.6360     7.0400    24.9070 
  245.0000     2.3420    -5.3190    78.0350     5.5030     4.8170     7.4110    24.9020 
  245.1250     2.3330    -5.2610    78.0350     5.6720     5.0050     7.5900    24.8860 
  245.2500     2.3400    -5.2120    78.0350     5.8150     5.1550     7.5810    24.8530 
  245.3750     2.3580    -5.1190    78.0350     5.9190     5.2250     7.5520    24.8390 
  245.5000     2.3730    -4.9930    78.0350     5.9980     5.2400     7.5660    24.8340 
  245.6250     2.3850    -4.8980    78.0350     6.0560     5.2280     7.5700    24.8350 
  245.7500     2.3950    -4.8400    78.0350     6.0980     5.2170     7.6890    24.8330 
  245.8750     2.4070    -4.7760    78.0350     6.1220     5.2180     8.1460    24.8240 
  246.0000     2.4190    -4.7360    78.0350     6.1330     5.2320     8.7800    24.8000 
  246.1250     2.4350    -4.6970    78.0350     6.1330     5.2680     9.4770    24.7750 
  246.2500     2.4560    -4.6630    78.0350     6.1240     5.3250    10.6740    24.7640 
  246.3750     2.4810    -4.6920    78.0350     6.1050     5.3790    12.5350    24.7630 
  246.5000     2.4970    -4.6970    78.0350     6.0790     5.4040    13.3690    24.7630 
  246.6250     2.4940    -4.6690    78.0350     6.0450     5.3920    12.3170    24.7630 
  246.7500     2.4690    -4.6570    78.0350     6.0090     5.3510    10.3110    24.7630 
  246.8750     2.4360    -4.6390    78.0350     5.9650     5.3030     9.4950    24.7630 
  247.0000     2.4110    -4.6110    78.0350     5.9170     5.2660     8.8290    24.7630 
  247.1250     2.3960    -4.5880    78.0350     5.8750     5.2420     7.9190    24.7620 
  247.2500     2.3880    -4.5530    78.0350     5.8540     5.2250     7.3700    24.7600 
  247.3750     2.3840    -4.4980    78.0350     5.8680     5.2150     7.4470    24.7570 
  247.5000     2.3830    -4.4860    78.0350     5.9030     5.2110     7.9900    24.7570 
  247.6250     2.3810    -4.4920    78.0350     5.9360     5.2110     8.5180    24.7560 
  247.7500     2.3760    -4.4620    78.0350     5.9510     5.2110     8.7640    24.7480 
  247.8750     2.3730    -4.4560    78.0350     5.9490     5.2110     8.7290    24.7270 
  248.0000     2.3720    -4.4430    78.0350     5.9450     5.2110     8.5200    24.7010 
  248.1250     2.3740    -4.4270    78.0350     5.9460     5.2110     8.2940    24.6890 
  248.2500     2.3770    -4.4310    78.0350     5.9470     5.2110     8.7300    24.6800 
  248.3750     2.3800    -4.4480    78.0350     5.9470     5.2110    10.1240    24.6560 
  248.5000     2.3840    -4.4620    78.0350     5.9470     5.2110    11.4420    24.6190 
  248.6250     2.3880    -4.4570    78.0350     5.9470     5.2110    11.9270    24.5890 
  248.7500     2.3880    -4.4620    78.0350     5.9470     5.2110    11.6980    24.5570 
  248.8750     2.3790    -4.4600    78.0350     5.9470     5.2110    11.5020    24.5290 
  249.0000     2.3640    -4.4680    78.0350     5.9470     5.2110    11.2750    24.4810 
  249.1250     2.3420    -4.5120    78.0350     5.9470     5.2110    11.1040    24.4100 
  249.2500     2.3080    -4.5780    78.0350     5.9470     5.2110    10.8980    24.3360 
  249.3750     2.2510    -4.6260    78.0350     5.9470     5.2110    10.5790    24.2630 
