~V
VERS. 2.00: Ver 2.00
~W
STRT.M 55.0000:
STOP.M 318.0000:
STEP.M 0.1250:
NULL. -999.2500:
UWI. F10558:
~C
DEPT.M :
DEN.GM/CC :
GR.API :
RML.OHMM :
RI. :
RXO.OHMM :
CALI.CM :
SP.MV :
~A
# ...
  302.5000     2.3230    36.1870     4.3170     3.3960     3.9850    25.0450   -10.2670 
  302.6250     2.3020    39.8130     4.5670     3.5380     4.0380    25.0630   -10.2950 
  302.7500     2.2770    41.5650     4.8370     3.7190     4.2080    25.0450   -10.3270 
  302.8750     2.2640    44.5810     5.0630     3.9100     4.4190    25.0660   -10.3850 
  303.0000     2.2670    50.4940     5.2070     4.0800     4.5210    25.1340   -10.4780 
  303.1250     2.2760    52.7780     5.2680     4.2020     4.5990    25.2670   -10.6010 
  303.2500     2.2940    49.8710     5.2960     4.2870     4.8720    25.4420   -10.7300 
  303.3750     2.3230    46.8540     5.3040     4.3340     5.2450    25.6490   -10.8810 
  303.5000     2.3540    46.7650     5.2750     4.3270     5.1330    25.9390   -11.0610 
  303.6250     2.3750    47.4300     5.1950     4.2650     4.9040    26.0020   -11.2740 
  303.7500     2.3760    47.3160     5.1540     4.2240     4.9910    25.7080   -11.5200 
  303.8750     2.3560    47.6830     5.2970     4.3090     5.8190    25.2050   -11.7940 
  304.0000     2.3200    49.2180     5.7690     4.6280     7.0220    24.8750   -12.1010 
  304.1250     2.2840    50.5560     6.6910     5.3100     7.6620    24.7420   -12.4300 
  304.2500     2.2630    51.2610     7.8760     6.2800     8.0130    24.6650   -12.7620 
  304.3750     2.2630    50.5920     9.0920     7.4010     8.5960    24.5570   -13.0760 
  304.5000     2.2790    49.0350    10.0810     8.4640     9.3600    24.4910   -13.3500 
  304.6250     2.2940    49.1910    10.6400     9.2170     9.7020    24.7360   -13.5520 
  304.7500     2.2910    50.1040    10.9450     9.6370    10.6080    24.8460   -13.7020 
  304.8750     2.2700    50.3950    11.1500     9.7920    11.4120    24.7160   -13.8020 
  305.0000     2.2420    50.3950    11.2460     9.7740    12.0570    24.6410   -13.8170 
  305.1250     2.2350    50.3950    11.0850     9.6210    11.3810    24.6520   -13.7790 
  305.2500     2.2520    50.3950    10.7290     9.4000    11.4660    24.6220   -13.7020 
  305.3750     2.2720    50.3950    10.3730     9.1790    12.2410    24.5130   -13.5930 
  305.5000     2.2690    50.3950    10.1870     9.0180    13.5060    24.4300   -13.4660 
  305.6250     2.2430    50.3950    10.1870     8.9340    15.5530    24.3270   -13.3460 
  305.7500     2.2310    50.3950    10.1620     8.8580    16.8580    24.1680   -13.2260 
  305.8750     2.2450    50.3950     9.9520     8.7290    16.4700    24.0530   -13.0790 
  306.0000     2.2710    50.3950     9.5630     8.5320    11.6800    24.0320   -12.9380 
  306.1250     2.2800    50.3950     9.1850     8.3070     9.8730    24.1070   -12.7630 
  306.2500     2.2740    50.3950     8.9500     8.1140     9.0130    24.2360   -12.5700 
  306.3750     2.2760    50.3950     8.8030     7.9290     9.4980    24.3440   -12.3640 
  306.5000     2.2980    50.3950     8.5630     7.6630    10.4760    24.3490   -12.1350 
  306.6250     2.3300    50.3950     7.9780     7.1650    10.5330    24.2670   -11.9060 
  306.7500     2.3460    50.3950     7.0830     6.4460     9.8770    24.2130   -11.6490 
  306.8750     2.3290    50.3950     6.0800     5.6200     7.8930    24.1950   -11.4010 
  307.0000     2.2890    50.3950     5.2220     4.8630     6.5440    24.1930   -11.1380 
  307.1250     2.2440    50.3950     4.7250     4.3520     5.8910    24.1930   -10.8680 
  307.2500     2.2070    50.3950     4.5310     4.0800     5.5060    24.1930   -10.5810 
  307.3750     2.1850    50.3950     4.5290     3.9900     5.2400    24.1930   -10.2840 
  307.5000     2.1850    50.3950     4.5940     4.0060     4.9440    24.1850   -10.0120 
  307.6250     2.2080    50.3950     4.6320     4.0660     4.7300    24.1620    -9.7500 
  307.7500     2.2390    50.3950     4.6220     4.1350     4.7460    24.1370    -9.5310 
  307.8750     2.2700    50.3950     4.5860     4.2080     4.8340    24.1620    -9.3530 
  308.0000     2.2960    50.3950     4.5660     4.2740     4.8950    24.2710    -9.2090 
  308.1250     2.3090    50.3950     4.6150     4.3180     4.8180    24.4460    -9.1400 
  308.2500     2.3070    50.3950     4.7330     4.3390     4.7350    24.5630    -9.1650 
  308.3750     2.2880    50.3950     4.8940     4.3360     4.7810    24.6200    -9.2820 
  308.5000     2.2640    50.3950     5.0510     4.3030     4.9180    24.6820    -9.4560 
  308.6250     2.2580    50.3950     5.1210     4.2410     4.9190    24.8130    -9.6550 
  308.7500     2.2820    50.3950     5.0700     4.1720     4.9780    24.9470    -9.8480 
  308.8750     2.3150    50.3950     4.9130     4.1160     5.0680    24.9330   -10.0140 
  309.0000     2.3320    50.3950     4.7150     4.0860     5.1750    24.9060   -10.1920 
  309.1250     2.3340    50.3950     4.5790     4.0820     5.3650    24.9790   -10.3500 
  309.2500     2.3430    50.3950     4.5520     4.0900     5.5590    25.0800   -10.4560 
  309.3750     2.3600    50.3950     4.5980     4.1000     5.7550    25.0620   -10.5210 
  309.5000     2.3720    50.3950     4.6480     4.1130     6.1090    24.9970   -10.5430 
  309.6250     2.3670    50.3950     4.6520     4.1290     6.8800    24.9720   -10.5410 
  309.7500     2.3560    50.3950     4.6360     4.1470     7.4710    25.0070   -10.5290 
  309.8750     2.3470    50.3950     4.6210     4.1600     7.1750    25.0830   -10.5220 
  310.0000     2.3370    50.3950     4.6160     4.1670     6.3070    25.1330   -10.5090 
  310.1250     2.3190    50.3950     4.6190     4.1650     5.7670    25.1020   -10.3870 
  310.2500     2.2970    50.3950     4.6230     4.1580     5.6540    24.9750   -10.2030 
  310.3750     2.2800    50.3950     4.6320     4.1490     5.4310    24.8000   -10.0100 
  310.5000     2.2770    50.3950     4.6470     4.1420     5.0270    24.6740    -9.8110 
  310.6250     2.2850    50.3950     4.6570     4.1390     5.0110    24.6390    -9.6190 
  310.7500     2.2910    50.3950     4.6620     4.1390     5.5620    24.6330    -9.4340 
  310.8750     2.2890    50.3950     4.6620     4.1390     6.7120    24.6330    -9.2530 
  311.0000     2.2810    50.3950     4.6620     4.1390     8.2520    24.6330    -9.0630 
  311.1250     2.2740    50.3950     4.6620     4.1390     9.6850    24.6330    -9.0850 
  311.2500     2.2760    50.3950     4.6620     4.1390    10.0800    24.6330    -9.1070 
  311.3750     2.2850    50.3950     4.6620     4.1390     9.1010    24.6330  -999.2500 
  311.5000     2.2980    50.3950     4.6620     4.1390     7.8880    24.6330  -999.2500 
  311.6250     2.3080    50.3950     4.6620     4.1390     7.9420    24.6330  -999.2500 
  311.7500     2.3140    50.3950     4.6620     4.1390     8.1640    24.6330  -999.2500 
  311.8750     2.3150    50.3950     4.6620     4.1390     9.8780    24.6330  -999.2500 
  312.0000     2.3140    50.3950     4.6620     4.1390    12.0950    24.6330  -999.2500 
  312.1250     2.3150    50.3950     4.6620     4.1390    13.2790    24.6350  -999.2500 
  312.2500     2.3100    50.3950     4.6620     4.1390    13.0000    24.6470  -999.2500 
  312.3750     2.2910    50.3950     4.6620     4.1390    13.3670    24.6730  -999.2500 
  312.5000     2.2610    50.3950     4.6620     4.1390    14.9880    24.7040  -999.2500 
  312.6250     2.2340    50.3950     4.6620     4.1390    14.9740    24.8080  -999.2500 
  312.7500     2.2150    50.3950     4.6620     4.1390    13.4570    25.0010  -999.2500 
  312.8750     2.2060    50.3950     4.6620     4.1390    11.1900    25.1050  -999.2500 
  313.0000     2.1960    50.3950     4.6620     4.1390    10.4580    24.8480  -999.2500 
  313.1250     2.1650    50.3950     4.6620     4.1390    12.5690    24.4450  -999.2500 
  313.2500     2.0920    50.3950     4.6620     4.1390    13.1260    24.1130  -999.2500 
  313.3750     1.9620    50.3950     4.6620     4.1390    13.2760    23.9090  -999.2500 
  313.5000     1.7800    50.3950     4.6620     4.1390    12.7410    23.6130  -999.2500 
  313.6250     1.6050    50.3950     4.6620     4.1390     9.1170    22.4560  -999.2500 
