~V
VERS. 2.00: Ver 2.00
~W
STRT.M 60.0000:
STOP.M 207.0000:
STEP.M 0.1250:
NULL. -999.2500:
UWI. F10577:
~C
DEPT.M :
DEN.GM/CC :
SP.MV :
GR.API :
RML.OHMM :
RI. :
RXO.OHMM :
CALI.CM :
~A
# ...
  127.5000     2.3720   -17.0470    66.9960    19.6940    18.8430    15.4310    23.7330 
  127.6250     2.3880   -17.0170    66.0610    19.7790    18.9490    15.4370    23.5100 
  127.7500     2.4000   -17.0140    65.7300    19.9930    19.1260    16.3670    23.2190 
  127.8750     2.4120   -17.0010    64.9100    20.0800    19.1210    16.9440    22.9110 
  128.0000     2.4250   -16.9860    62.3520    19.7540    18.6820    16.1800    22.7120 
  128.1250     2.4370   -16.9540    60.4100    18.8060    17.6690    14.4620    22.6550 
  128.2500     2.4460   -16.9220    61.2630    17.5680    16.4300    12.4490    22.6470 
  128.3750     2.4560   -16.9040    62.9930    16.4740    15.3390    11.2680    22.6470 
  128.5000     2.4680   -16.8880    63.8580    15.9400    14.7100    11.3940    22.6470 
  128.6250     2.4760   -16.8530    65.0870    16.3200    14.8330    12.1850    22.6760 
  128.7500     2.4740   -16.7970    66.9910    17.3930    15.5880    14.2480    22.8300 
  128.8750     2.4580   -16.7400    67.4710    18.8200    16.7610    16.4980    23.1730 
  129.0000     2.4360   -16.6810    66.1830    20.0630    17.9410    18.4460    23.5230 
  129.1250     2.4190   -16.6350    65.5350    20.3880    18.4620    18.8890    23.6740 
  129.2500     2.4080   -16.5830    65.4020    19.7170    18.1100    18.0400    23.7070 
  129.3750     2.4040   -16.5310    64.8110    18.3610    17.0640    16.0220    23.7110 
  129.5000     2.4080   -16.4790    64.8420    16.8460    15.7550    13.0860    23.7110 
  129.6250     2.4200   -16.4290    67.1000    15.6920    14.6480    11.5100    23.7150 
  129.7500     2.4310   -16.4060    67.2800    15.0150    13.9180    11.1120    23.7300 
  129.8750     2.4320   -16.3970    64.5280    14.7650    13.5690    11.5740    23.7640 
  130.0000     2.4200   -16.3760    62.8190    14.7970    13.5130    12.3200    23.7810 
  130.1250     2.3980   -16.3940    63.8890    14.9310    13.6230    12.9460    23.7800 
  130.2500     2.3780   -16.4310    65.0800    15.0270    13.7370    13.0560    23.7750 
  130.3750     2.3630   -16.4760    64.3610    15.0960    13.8170    12.9040    23.7760 
  130.5000     2.3540   -16.5340    61.6040    15.2580    13.9170    12.8340    23.7780 
  130.6250     2.3520   -16.5980    59.1160    15.7040    14.2060    12.8190    23.7660 
  130.7500     2.3550   -16.6780    60.0400    16.4610    14.7720    13.1710    23.7410 
  130.8750     2.3600   -16.7620    63.6070    17.4550    15.6050    14.1220    23.7170 
  131.0000     2.3650   -16.8640    66.2210    18.4840    16.5470    15.4910    23.7070 
  131.1250     2.3710   -16.9390    64.1370    19.1850    17.2460    18.0570    23.7000 
  131.2500     2.3830   -17.0040    60.1640    19.3800    17.4740    19.7460    23.6640 
  131.3750     2.3990   -17.0610    57.7070    19.0860    17.2230    19.2410    23.5780 
  131.5000     2.4130   -17.1260    57.3520    18.5450    16.7040    16.5540    23.4650 
  131.6250     2.4210   -17.1680    56.8650    18.1870    16.2810    15.3430    23.3920 
  131.7500     2.4240   -17.1910    57.0420    18.2930    16.2130    15.5650    23.4210 
  131.8750     2.4220   -17.2090    61.0330    18.9110    16.5750    16.8260    23.5820 
  132.0000     2.4120   -17.2180    66.1880    19.8890    17.2920    18.0090    23.8350 
  132.1250     2.3960   -17.2380    65.6970    20.9190    18.1710    19.4400    23.9510 
  132.2500     2.3820   -17.2450    61.4500    21.6670    18.9130    20.7150    23.9630 
  132.3750     2.3710   -17.2530    59.1460    21.9770    19.3350    19.4870    23.8960 
  132.5000     2.3620   -17.2420    60.1030    21.8800    19.3980    17.5030    23.7880 
  132.6250     2.3550   -17.2120    61.6400    21.4910    19.1530    16.4480    23.6970 
  132.7500     2.3540   -17.1750    60.9760    20.9970    18.7730    16.5790    23.6750 
  132.8750     2.3600   -17.1250    59.2580    20.4790    18.3440    17.0230    23.7180 
  133.0000     2.3700   -17.0650    59.0830    19.9830    17.9320    17.1190    23.7820 
  133.1250     2.3850   -16.9780    60.1540    19.5330    17.5730    16.9000    23.8270 
  133.2500     2.4040   -16.9130    60.4510    19.1200    17.2420    16.5740    23.8250 
  133.3750     2.4210   -16.8610    59.5280    18.7420    16.9130    16.1550    23.7890 
  133.5000     2.4260   -16.8270    59.2600    18.3920    16.5680    16.0740    23.7440 
  133.6250     2.4190   -16.8240    61.2410    18.0630    16.2110    15.5750    23.7170 
  133.7500     2.4130   -16.8400    61.5490    17.7700    15.8900    14.9820    23.6950 
  133.8750     2.4150   -16.8690    57.8490    17.5570    15.6720    14.6930    23.6350 
  134.0000     2.4210   -16.9130    53.8870    17.4600    15.5990    15.2470    23.4910 
  134.1250     2.4250   -16.9850    56.1280    17.5130    15.6890    15.9000    23.2920 
  134.2500     2.4230   -17.0620    60.7220    17.6700    15.8610    16.1520    23.1370 
  134.3750     2.4190   -17.1310    61.8770    17.8930    16.0580    16.3190    23.0800 
  134.5000     2.4120   -17.2060    60.6490    18.1780    16.2610    16.0620    23.0740 
  134.6250     2.4030   -17.2550    61.6480    18.6280    16.5420    15.5150    23.0750 
  134.7500     2.3960   -17.2850    62.7830    19.3060    16.9760    15.6460    23.0760 
  134.8750     2.3910   -17.2970    61.9800    20.1920    17.5780    16.1410    23.0750 
  135.0000     2.3870   -17.2850    60.9540    21.1420    18.2750    16.7730    23.0830 
  135.1250     2.3760   -17.2590    61.3950    21.8450    18.8690    18.3660    23.1230 
  135.2500     2.3580   -17.1870    59.5040    22.0760    19.1630    19.1320    23.2080 
  135.3750     2.3370   -17.0970    57.1830    21.7650    19.0570    17.8260    23.3150 
  135.5000     2.3200   -16.9800    56.9130    21.0520    18.6060    16.5560    23.3960 
  135.6250     2.3100   -16.8820    57.6180    20.2740    18.0140    15.9660    23.3940 
  135.7500     2.3030   -16.7910    57.7590    19.7880    17.5610    15.7250    23.3290 
  135.8750     2.3020   -16.7040    59.1710    19.7540    17.3970    15.3680    23.2520 
  136.0000     2.3060   -16.6380    61.8900    20.1290    17.5470    15.3580    23.2180 
  136.1250     2.3160   -16.5600    62.1110    20.6670    17.9080    16.1990    23.2050 
  136.2500     2.3260   -16.5130    60.2510    21.0030    18.2140    17.2430    23.1030 
  136.3750     2.3320   -16.4840    59.0490    20.9300    18.2760    17.5570    22.7990 
  136.5000     2.3220   -16.4730    58.0660    20.4330    18.0100    16.0540    22.2930 
  136.6250     2.2940   -16.4500    58.6170    19.7140    17.4790    14.0280    21.9140 
  136.7500     2.2710   -16.4280    62.1250    19.1040    16.9370    13.1350    21.8230 
  136.8750     2.2700   -16.4280    66.0130    18.7720    16.5560    13.0890    21.9340 
  137.0000     2.2940   -16.4430    67.5880    18.7570    16.4260    13.2370    22.1160 
  137.1250     2.3240   -16.4660    66.2080    19.0000    16.5660    13.8690    22.3270 
  137.2500     2.3400   -16.4860    63.0450    19.2930    16.8160    14.8880    22.5390 
  137.3750     2.3450   -16.5100    58.8360    19.5020    17.0450    15.5070    22.7880 
  137.5000     2.3530   -16.5400    55.7170    19.5630    17.1650    15.5650    23.0240 
  137.6250     2.3660   -16.5770    56.5620    19.4690    17.1480    15.7210    23.1030 
  137.7500     2.3780   -16.5980    58.6860    19.3230    17.0580    15.3220    23.0480 
  137.8750     2.3860   -16.5970    61.0090    19.2320    16.9560    15.1310    22.9350 
  138.0000     2.3910   -16.5650    64.6840    19.2910    16.8880    15.7160    22.8020 
  138.1250     2.3890   -16.4860    68.4220    19.5350    16.8610    16.4560    22.6950 
  138.2500     2.3870   -16.3850    68.7980    19.8340    16.8420    15.8620    22.6420 
  138.3750     2.3880   -16.2520    65.7410    20.0640    16.8180    14.6620    22.5720 
  138.5000     2.3940   -16.0950    61.9650    20.1410    16.7940    13.8280    22.3950 
  138.6250     2.3950   -15.9290    61.4540    20.0670    16.7990    13.3970    22.0220 
