~V
VERS. 2.00: Ver 2.00
~W
STRT.M 52.0000:
STOP.M 220.0000:
STEP.M 0.1250:
NULL. -999.2500:
UWI. F10539:
~C
DEPT.M :
SP.MV :
DEN.GM/CC :
GR.API :
RML.OHMM :
RI. :
RXO.OHMM :
CALI.CM :
~A
# ...
  164.5000   -13.1960     2.3620    75.4530     7.2090     6.5230     6.1760    23.6840 
  164.6250   -13.4180     2.3830    73.2950     7.2320     6.5110     6.6660    23.6470 
  164.7500   -13.6590     2.3960    75.0960     7.2720     6.5550     6.5140    23.5910 
  164.8750   -13.9000     2.3970    79.8370     7.2480     6.5780     6.1750    23.5950 
  165.0000   -14.1350     2.3870    83.4120     7.1310     6.5560     6.1920    23.6650 
  165.1250   -14.3450     2.3710    83.1900     6.9420     6.4970     6.5970    23.7880 
  165.2500   -14.4910     2.3580    82.6660     6.7550     6.4250     6.9600    23.8840 
  165.3750   -14.5830     2.3530    82.5730     6.6110     6.3450     6.9170    23.9330 
  165.5000   -14.6220     2.3550    83.5500     6.5050     6.2440     6.6810    23.9450 
  165.6250   -14.5940     2.3570    85.2540     6.4010     6.1110     6.6340    23.9450 
  165.7500   -14.5330     2.3560    85.5130     6.2830     5.9660     6.7020    23.9470 
  165.8750   -14.4210     2.3560    83.1480     6.1720     5.8350     6.4620    23.9470 
  166.0000   -14.2850     2.3580    79.9530     6.1160     5.7430     6.1340    23.9500 
  166.1250   -14.1600     2.3610    79.4790     6.1660     5.7140     6.2390    23.9620 
  166.2500   -14.0440     2.3620    79.6370     6.2960     5.7350     6.3880    23.9710 
  166.3750   -13.9820     2.3590    79.0150     6.4500     5.7880     6.4900    23.9920 
  166.5000   -13.9550     2.3550    77.7340     6.5670     5.8500     6.4440    24.0020 
  166.6250   -14.0140     2.3520    77.2830     6.5890     5.8860     6.3360    23.9860 
  166.7500   -14.0760     2.3540    78.7280     6.5270     5.8720     6.3310    23.9590 
  166.8750   -14.2030     2.3570    80.5480     6.4090     5.7960     6.3400    23.9500 
  167.0000   -14.3500     2.3600    80.2310     6.2650     5.6640     6.2320    23.9450 
  167.1250   -14.5210     2.3610    77.4010     6.1280     5.5030     6.2980    23.9450 
  167.2500   -14.7220     2.3630    78.4050     6.0270     5.3680     6.1670    23.9420 
  167.3750   -14.9090     2.3650    84.8650     6.0000     5.3020     5.9650    23.9420 
  167.5000   -15.0880     2.3700    90.5290     6.0820     5.3390     5.8640    23.9430 
  167.6250   -15.2200     2.3750    89.2880     6.3060     5.5030     6.1150    23.9440 
  167.7500   -15.3530     2.3810    83.5560     6.6260     5.7520     6.1620    23.9420 
  167.8750   -15.4390     2.3850    78.8520     6.9760     6.0350     6.3600    23.9340 
  168.0000   -15.4900     2.3880    77.5930     7.2560     6.2800     6.8290    23.9250 
  168.1250   -15.5060     2.3840    77.3200     7.3870     6.4170     7.0290    23.9070 
  168.2500   -15.4830     2.3710    74.7350     7.4510     6.4950     7.5140    23.9020 
  168.3750   -15.4140     2.3520    71.1170     7.5760     6.5990     7.7700    23.9060 
  168.5000   -15.2990     2.3390    69.8880     7.9060     6.8260     7.5400    23.9390 
  168.6250   -15.1340     2.3530    69.9180     8.6540     7.3270     7.4350    23.9660 
  168.7500   -14.9390     2.3940    68.0540     9.8130     8.1360     8.8230    23.9470 
  168.8750   -14.7060     2.4530    65.5750    11.2500     9.2080    11.7310    23.9080 
  169.0000   -14.4680     2.5140    65.2170    12.7260    10.4030    14.4940    23.8900 
  169.1250   -14.1930     2.5560    65.4260    14.0130    11.5490    16.7260    23.9040 
  169.2500   -13.9340     2.5680    63.8940    15.1360    12.5830    21.6220    23.9280 
  169.3750   -13.6970     2.5510    62.6020    16.2760    13.5730    20.5740    23.9870 
  169.5000   -13.5090     2.5190    62.3320    17.7120    14.6990    15.4760    24.0680 
  169.6250   -13.3770     2.4940    60.8660    19.7330    16.2310    18.3330    24.0410 
  169.7500   -13.3010     2.4900    58.2420    22.1470    18.1470    26.8280    23.8850 
  169.8750   -13.2840     2.5090    55.8200    24.6270    20.2810    31.1280    23.6720 
  170.0000   -13.3120     2.5430    54.8160    26.7960    22.3590    25.5400    23.4640 
  170.1250   -13.4240     2.5750    54.7880    28.1770    23.9270    23.4250    23.2940 
  170.2500   -13.5320     2.5970    55.6470    28.7570    24.8030    25.5930    23.2850 
  170.3750   -13.6760     2.6100    57.1710    28.7110    25.0540    28.8800    23.5150 
  170.5000   -13.8060     2.6070    58.2840    28.2620    24.8640    28.7610    23.7740 
  170.6250   -13.9370     2.5880    60.3130    27.3640    24.2010    25.3370    23.7990 
  170.7500   -14.0340     2.5630    62.2780    25.9260    23.0100    22.7650    23.6880 
  170.8750   -14.1270     2.5340    62.8230    23.8640    21.2330    22.3820    23.6400 
  171.0000   -14.2020     2.4980    63.1770    21.3120    19.0250    21.4400    23.7360 
  171.1250   -14.2290     2.4460    65.4880    18.6600    16.7560    17.3180    23.8950 
  171.2500   -14.2350     2.3920    69.3650    16.3430    14.7850    14.2460    23.9900 
  171.3750   -14.1990     2.3510    72.8550    14.6080    13.2800    12.3610    23.9300 
  171.5000   -14.1520     2.3320    74.7040    13.5990    12.3290    11.4490    23.8160 
  171.6250   -14.0860     2.3320    73.9830    13.5000    12.0870    13.1650    23.7650 
  171.7500   -14.0020     2.3310    71.3880    14.1410    12.4540    14.3250    23.7030 
  171.8750   -13.9080     2.3260    69.3000    15.4470    13.3990    12.9350    23.6300 
  172.0000   -13.7900     2.3320    69.6540    17.3040    14.8540    13.7230    23.6420 
  172.1250   -13.7030     2.3710    70.3730    19.4530    16.6720    19.9710    23.6720 
  172.2500   -13.6340     2.4320    68.1010    21.4030    18.4470    25.5260    23.7210 
  172.3750   -13.6070     2.4910    64.1840    22.8430    19.8720    25.0750    23.7490 
  172.5000   -13.6190     2.5270    61.5080    23.7200    20.8080    22.3240    23.6360 
  172.6250   -13.6530     2.5320    61.6060    24.2680    21.3310    21.1340    23.6830 
  172.7500   -13.7310     2.5280    61.6950    24.9620    21.8320    20.8890    23.8880 
  172.8750   -13.8130     2.5280    60.9620    26.0090    22.5540    22.0030    24.0920 
  173.0000   -13.9350     2.5360    60.2550    27.2410    23.4740    23.9750    24.1220 
  173.1250   -14.0320     2.5510    59.9500    28.0790    24.2210    25.9120    24.1030 
  173.2500   -14.1570     2.5630    60.2670    28.2310    24.4910    28.1080    24.0630 
  173.3750   -14.2640     2.5620    61.6900    27.8170    24.2730    28.4780    23.9920 
  173.5000   -14.3730     2.5460    64.3610    27.2420    23.8000    24.5650    23.9620 
  173.6250   -14.4660     2.5240    66.3450    27.0010    23.4310    21.3030    23.9650 
  173.7500   -14.5340     2.5120    65.9610    27.1550    23.3330    22.3710    23.9410 
  173.8750   -14.5940     2.5190    64.1340    27.4230    23.4230    25.8460    23.9060 
  174.0000   -14.6290     2.5450    62.6410    27.3690    23.4500    28.8510    23.8880 
  174.1250   -14.6470     2.5790    62.9150    26.6280    23.0960    26.5790    23.8700 
  174.2500   -14.6310     2.6060    63.2480    25.4520    22.3850    24.7100    23.8420 
  174.3750   -14.5790     2.6160    62.9180    24.2070    21.5010    21.3940    23.8360 
  174.5000   -14.4930     2.6060    62.9900    23.2220    20.6760    18.9620    23.8600 
  174.6250   -14.3680     2.5800    64.2520    22.6440    20.0700    18.8730    23.9230 
  174.7500   -14.2300     2.5550    64.9070    22.1800    19.5630    20.2140    23.9570 
  174.8750   -14.0740     2.5470    62.8670    21.5020    18.9430    20.5160    23.9630 
  175.0000   -13.9000     2.5600    59.0390    20.4080    18.0390    18.9110    23.9460 
  175.1250   -13.7060     2.5840    55.3800    18.9210    16.8280    16.9480    23.9390 
  175.2500   -13.5120     2.5980    52.0090    17.3860    15.5650    15.2060    23.9350 
  175.3750   -13.3410     2.5920    50.3270    16.0860    14.4760    13.1380    23.9340 
  175.5000   -13.1850     2.5720    51.6960    15.1960    13.7130    11.6310    23.9420 
  175.6250   -13.0600     2.5510    54.6270    14.7970    13.3650    11.9460    23.8740 
