~V
VERS. 2.00: Ver 2.00
~W
STRT.M 55.0000:
STOP.M 217.0000:
STEP.M 0.1250:
NULL. -999.2500:
UWI. F10537:
~C
DEPT.M :
SP.MV :
DEN.GM/CC :
GR.API :
RML.OHMM :
RI. :
RXO.OHMM :
CALI.CM :
~A
   55.0000    66.8890  -999.2500    61.7430     0.8290     0.6470     0.0790    25.2610 
   55.1250    66.4220  -999.2500    57.4370     0.8450     0.6600     0.0790    25.2610 
   55.2500    66.2880     2.1770    52.2220     0.8570     0.6700     0.0800    25.2610 
   55.3750    66.4100     2.1770    50.0050     0.8580     0.6740     0.0770    25.2610 
   55.5000    66.7360     2.1810    50.3880     0.8560     0.6710     0.0740    25.2610 
   55.6250    67.2960     2.1630    51.0500     0.8560     0.6620     0.0760    25.2610 
   55.7500    68.0450     2.1260    51.3120     0.8530     0.6510     0.0780    25.2610 
   55.8750    68.9590     2.0800    49.7350     0.8320     0.6430     0.0790    25.2610 
   56.0000    70.0440     2.0330    44.9670     0.7860     0.6410     0.0790    25.2610 
   56.1250    71.3030     1.9960    39.2700     0.7180     0.6470     0.0740    25.2610 
   56.2500    72.7020     1.9690    37.4360     0.6520     0.6550     0.0690    25.2610 
   56.3750    74.2340     1.9550    39.6900     0.6070     0.6590     0.0660    25.2610 
   56.5000    75.8670     1.9570    42.3930     0.5880     0.6560     0.0620    25.2620 
   56.6250    77.5880     1.9760    42.8670     0.5890     0.6460     0.0510    25.2640 
   56.7500    79.3850     2.0070    42.8600     0.5910     0.6340     0.0370    25.2670 
   56.8750    81.2560     2.0460    42.9430     0.5840     0.6220     0.0190    25.2640 
   57.0000    83.1660     2.0910    42.3480     0.5680     0.6120     0.0090    25.2620 
   57.1250    85.0620     2.1590    40.6230     0.5550     0.6040     0.0080    25.2380 
   57.2500    86.8470     2.2620    38.5530     0.5560     0.5980     0.0070    25.0490 
   57.3750    88.3940     2.3830    37.2660     0.5760     0.5940     0.0030    24.5510 
   57.5000    89.5810     2.4850    36.8920     0.6100     0.5910     0.0000    23.9200 
   57.6250    90.1640     2.5390    37.3210     0.6570     0.5880     0.0000    23.6210 
   57.7500    90.0300     2.5650    36.2490     0.7000     0.5770     0.0000    23.5440 
   57.8750    89.0070     2.5820    34.5070     0.6890     0.5550     0.0000    23.5500 
   58.0000    86.9320     2.6060    35.4540     0.5710     0.5170     0.0000    23.5630 
   58.1250    83.3980     2.6390    39.2280     0.3730     0.4630     0.0060    23.6100 
   58.2500    78.4540     2.6640    41.3690     0.2140     0.4080     0.0500    23.7120 
   58.3750    72.0450     2.6650    40.9170     0.1380     0.3680     0.2690    23.8450 
   58.5000    64.2330     2.6300    40.4990     0.1430     0.3560     0.6810    24.0070 
   58.6250    55.0200     2.5420    40.4680     0.2550     0.3940     0.7920    24.2090 
   58.7500    45.0710     2.4170    39.9800     0.5110     0.5030     1.3240    24.3660 
   58.8750    34.9480     2.2740    41.9770     1.0030     0.7280     2.5030    24.4810 
   59.0000    25.1280     2.1380    47.0390     1.3600     1.1350     3.5780    24.6480 
   59.1250    16.1570     2.0260    50.6850     2.7140     1.8340     3.9930    24.8020 
   59.2500     8.2850     1.9430    49.5430     4.1470     2.7440     3.8240    24.8120 
   59.3750     1.7490     1.8920    47.1670     5.0940     3.6800     3.6520    24.6840 
   59.5000    -3.3640     1.8700    47.0150     5.4420     4.4570     3.5170    24.5290 
   59.6250    -6.8700     1.8870    47.7000     5.5900     5.0300     3.4760    24.4540 
   59.7500    -9.2810     1.9300    48.6340     5.8870     5.5360     3.6730    24.4050 
   59.8750   -10.9780     1.9890    49.2660     6.3720     6.0440     4.1020    24.3590 
   60.0000   -12.2510     2.0540    48.2210     6.9770     6.5670     4.6420    24.3300 
   60.1250   -13.2470     2.1110    47.9790     7.5650     7.0590     5.5190    24.3400 
   60.2500   -14.1030     2.1560    51.5200     8.0020     7.4530     6.5500    24.3510 
   60.3750   -14.8630     2.1870    56.1920     8.2350     7.6920     7.0290    24.3470 
   60.5000   -15.5470     2.2020    56.3220     8.2950     7.7600     6.9410    24.3190 
   60.6250   -16.1850     2.2010    53.4060     8.2500     7.6750     6.6920    24.2000 
   60.7500   -16.8040     2.1920    54.3330     8.1760     7.5240     6.5000    23.9700 
   60.8750   -17.4050     2.1840    58.0970     8.0960     7.3590     6.4530    23.7490 
   61.0000   -17.9940     2.1810    60.5580     8.0330     7.2170     6.5510    23.6450 
   61.1250   -18.5650     2.1890    61.1340     8.0190     7.1250     6.7610    23.6310 
   61.2500   -19.0720     2.2010    62.4890     8.0640     7.0800     6.7950    23.6300 
   61.3750   -19.5100     2.2110    64.8490     8.1680     7.0770     6.6850    23.6310 
   61.5000   -19.8930     2.2130    64.6190     8.3090     7.1030     6.6550    23.6300 
   61.6250   -20.1840     2.2100    60.2600     8.4340     7.1350     6.6270    23.6290 
   61.7500   -20.3930     2.2070    58.3450     8.4940     7.1470     6.4870    23.6190 
   61.8750   -20.5110     2.2040    60.2000     8.4740     7.1280     6.3170    23.5950 
   62.0000   -20.5340     2.2030    62.2890     8.3880     7.0750     6.3760    23.5850 
   62.1250   -20.4740     2.2000    60.8510     8.2740     6.9990     6.3750    23.5390 
   62.2500   -20.3810     2.1960    59.1380     8.1950     6.9310     6.3080    23.3850 
   62.3750   -20.2660     2.1920    58.8400     8.1810     6.8980     6.2250    23.1330 
   62.5000   -20.1500     2.1900    59.5760     8.2320     6.9150     6.5350    22.9650 
   62.6250   -20.0060     2.1920    61.0460     8.3250     6.9850     6.8170    23.0040 
   62.7500   -19.8450     2.1960    61.4980     8.4200     7.0790     6.9550    23.0980 
   62.8750   -19.7060     2.1980    59.7330     8.5000     7.1780     6.9710    23.1560 
   63.0000   -19.5700     2.2000    56.8630     8.5750     7.2750     7.0030    23.2090 
   63.1250   -19.4310     2.2080    56.7260     8.6760     7.3770     7.0310    23.3080 
   63.2500   -19.2830     2.2220    59.3410     8.7910     7.4820     7.0760    23.3750 
   63.3750   -19.1350     2.2370    62.7930     8.8560     7.5490     7.0840    23.3020 
   63.5000   -18.9780     2.2470    65.7810     8.7660     7.5050     6.9080    23.2120 
   63.6250   -18.8150     2.2440    66.6540     8.3980     7.2440     6.7020    23.1810 
   63.7500   -18.6700     2.2320    65.9120     7.8180     6.8000     6.5510    23.2170 
   63.8750   -18.5160     2.2250    66.8270     7.1480     6.2540     6.1600    23.3270 
   64.0000   -18.3920     2.2330    72.3880     6.5340     5.7180     5.3850    23.4790 
   64.1250   -18.3180     2.2570    80.8130     6.1110     5.3030     4.6700    23.5820 
   64.2500   -18.2730     2.2910    84.6810     5.8710     5.0270     4.4950    23.5990 
   64.3750   -18.2750     2.3200    84.3390     5.7700     4.8710     4.4490    23.5600 
   64.5000   -18.2830     2.3380    85.5840     5.7520     4.8030     4.3570    23.5140 
   64.6250   -18.3610     2.3450    90.6400     5.7700     4.7900     4.4290    23.5150 
   64.7500   -18.4450     2.3480    93.4710     5.7950     4.8020     4.3800    23.5440 
   64.8750   -18.5740     2.3490    89.5380     5.8310     4.8330     4.5050    23.5650 
   65.0000   -18.7410     2.3490    84.1890     5.8800     4.8820     4.7440    23.5730 
   65.1250   -18.8900     2.3530    85.2510     5.9450     4.9440     4.9320    23.5920 
   65.2500   -19.0980     2.3580    88.7080     6.0340     5.0170     5.0410    23.6060 
   65.3750   -19.3150     2.3650    87.5250     6.1850     5.1180     5.1180    23.6250 
   65.5000   -19.5650     2.3670    81.3840     6.4440     5.2780     5.1700    23.6860 
   65.6250   -19.8210     2.3530    76.1460     6.8520     5.5290     5.2940    23.8840 
   65.7500   -20.0680     2.3210    72.6720     7.3390     5.8360     6.1260    24.1730 
   65.8750   -20.3070     2.2780    70.0780     7.7990     6.1370     9.0850    24.3870 
   66.0000   -20.4990     2.2360    68.5410     8.1050     6.3540    16.0700    24.5140 
   66.1250   -20.6350     2.2180    68.5430     8.1380     6.4000    18.3610    24.5170 
