~V
VERS. 2.00: Ver 2.00
~W
STRT.M 46.0000:
STOP.M 208.0000:
STEP.M 0.1250:
NULL. -999.2500:
UWI. F10533:
~C
DEPT.M :
GR.API :
RML.OHMM :
RI. :
RXO.OHMM :
CALI.CM :
DEN.GM/CC :
SP.MV :
~A
# ...
  181.0000    70.7160    17.9520    16.2760    14.7590    24.0860     2.4030    -9.5950 
  181.1250    72.0130    17.8210    16.1900    15.1990    24.0780     2.3860    -9.7340 
  181.2500    71.9280    17.5880    15.9710    15.2560    24.0680     2.3650    -9.8720 
  181.3750    71.0590    17.5800    15.8500    13.9930    24.0660     2.3420   -10.0200 
  181.5000    70.4620    18.2540    16.1510    12.8260    24.0720     2.3180   -10.1870 
  181.6250    70.6150    20.4670    17.4810    14.4280    24.0770     2.2930   -10.3350 
  181.7500    68.9240    24.7520    20.2650    18.7030    24.0840     2.2670   -10.4980 
  181.8750    64.6100    31.9200    25.1830    24.6100    24.0820     2.2420   -10.6480 
  182.0000    59.2110    42.9970    33.1900    31.3980    24.0340     2.2180   -10.8280 
  182.1250    55.3130    60.3230    46.5060    39.3740    23.9250     2.1940   -11.0260 
  182.2500    53.4380    84.5440    65.8860    50.6360    23.8030     2.1690   -11.2400 
  182.3750    52.6790   116.7180    92.1070    62.1110    23.7400     2.1420   -11.4580 
  182.5000    52.0460   156.9840   124.8600    72.6230    23.7240     2.1160   -11.6820 
  182.6250    51.6440   204.0550   162.6570    79.7070    23.7240     2.0990   -11.9200 
  182.7500    51.5340   252.1280   201.3110    77.9420    23.7240     2.0930   -12.1460 
  182.8750    51.3850   297.1080   238.4550    70.3120    23.7260     2.0990   -12.3900 
  183.0000    51.1640   336.9910   273.2510    67.5950    23.7370     2.1100   -12.6100 
  183.1250    52.7920   366.3600   302.8250    66.0920    23.7620     2.1200   -12.8010 
  183.2500    54.9720   376.8000   321.2270    67.4970    23.7840     2.1210   -12.9520 
  183.3750    55.6430   360.7290   321.2800    72.6690    23.7920     2.1170   -13.0710 
  183.5000    54.4990   321.0540   300.9170    81.5040    23.7930     2.1130   -13.1410 
  183.6250    53.6790   267.9400   263.3280    85.9190    23.7860     2.1150   -13.2050 
  183.7500    53.7360   227.7460   218.9850    74.9420    23.7360     2.1190   -13.2230 
  183.8750    53.4670   187.4370   173.9120    64.0870    23.6180     2.1250   -13.1910 
  184.0000    52.7920   139.1680   133.0800    65.4800    23.5180     2.1340   -13.1470 
  184.1250    53.8840   105.2420   101.7750    59.1030    23.4770     2.1500   -13.1290 
  184.2500    56.2340    83.3840    80.2870    44.6820    23.4430     2.1750   -13.1190 
  184.3750    58.4750    72.0410    68.2670    33.5280    23.3730     2.2010   -13.0920 
  184.5000    59.3170    69.6150    64.5950    30.1220    23.3200     2.2180   -13.0550 
  184.6250    59.7660    76.3550    69.5040    32.9800    23.3000     2.2160   -13.0510 
  184.7500    59.4120    90.6250    81.4750    37.9730    23.2900     2.2040   -13.1010 
  184.8750    55.6980   111.9750   100.1250    42.3640    23.2820     2.1900   -13.1700 
  185.0000    48.9040   138.6010   123.6610    47.9180    23.2730     2.1800   -13.2140 
  185.1250    44.1590   165.9720   147.6510    49.1540    23.2510     2.1740   -13.2320 
  185.2500    44.9630   188.8340   167.2510    46.3010    23.2210     2.1690   -13.2840 
  185.3750    48.6990   205.5820   181.0200    44.7330    23.1910     2.1610   -13.3960 
  185.5000    51.2570   217.3490   190.0870    48.6210    23.1760     2.1520   -13.5130 
  185.6250    51.6030   224.3650   195.2010    54.9240    23.1770     2.1450   -13.5590 
  185.7500    51.1970   225.6220   196.1670    55.6280    23.1840     2.1440   -13.5830 
  185.8750    50.5590   218.6090   191.0980    50.0890    23.1890     2.1500   -13.6440 
  186.0000    50.5200   202.6950   179.0780    46.1380    23.1980     2.1630   -13.7270 
  186.1250    51.5000   180.4090   161.3010    46.9990    23.2210     2.1770   -13.7450 
  186.2500    51.4160   157.9750   142.5950    49.4060    23.2590     2.1880   -13.7050 
  186.3750    50.7930   138.7000   125.9340    50.1210    23.2780     2.1930   -13.6380 
  186.5000    51.4180   123.9890   112.8600    45.6030    23.2910     2.1980   -13.5500 
  186.6250    52.6800   114.6940   104.3870    38.5350    23.3100     2.2060   -13.4660 
  186.7500    54.5950   109.3490    99.4140    35.1980    23.3390     2.2150   -13.3760 
  186.8750    57.1940   107.1040    97.2110    37.0130    23.3500     2.2220   -13.2630 
  187.0000    57.7530   107.1990    97.0710    39.4910    23.3510     2.2220   -13.1230 
  187.1250    54.1710   109.0970    98.5230    41.5060    23.3690     2.2140   -12.9880 
  187.2500    51.8000   111.5520   100.4800    43.1820    23.4120     2.2010   -12.8660 
  187.3750    53.5240   113.6510   102.0840    42.5210    23.4570     2.1870   -12.7620 
  187.5000    55.8520   114.9150   102.8180    36.6090    23.4700     2.1770   -12.7070 
  187.6250    56.8600   115.5950   102.7880    34.0900    23.4380     2.1730   -12.6660 
  187.7500    56.8950   116.7440   102.9350    34.3370    23.3750     2.1730   -12.5980 
  187.8750    54.9310   119.3730   104.1560    35.2120    23.3140     2.1760   -12.4970 
  188.0000    52.0380   124.1870   107.1140    38.1370    23.2800     2.1790   -12.4390 
  188.1250    51.6500   131.2890   112.0080    41.7140    23.2690     2.1840   -12.4740 
  188.2500    53.4620   138.7330   117.3620    43.5190    23.2610     2.1920   -12.5090 
  188.3750    55.3290   144.0700   121.3060    43.6020    23.2560     2.2010   -12.4850 
  188.5000    56.8880   144.9860   122.0010    41.2780    23.2530     2.2100   -12.4270 
  188.6250    58.3190   140.2140   118.2510    41.0160    23.2600     2.2200   -12.4040 
  188.7500    59.1910   132.8090   112.2310    42.2650    23.3130     2.2290   -12.4150 
  188.8750    59.4600   125.5270   106.1170    41.6870    23.4480     2.2350   -12.4160 
  189.0000    59.1140   120.2390   101.5260    39.0900    23.6260     2.2330   -12.3780 
  189.1250    57.7810   118.0090    99.4440    37.0230    23.7040     2.2240   -12.3150 
  189.2500    55.8620   117.9090    99.2160    37.2440    23.7240     2.2130   -12.2410 
  189.3750    54.8070   118.5800    99.8640    38.6350    23.7240     2.2040   -12.1470 
  189.5000    56.8720   117.8990    99.7320    40.5310    23.7240     2.2000   -12.0420 
  189.6250    61.2290   112.9900    96.3490    42.3350    23.7270     2.2050   -11.9140 
  189.7500    62.9940   104.0930    89.4950    42.6050    23.7300     2.2170   -11.7550 
  189.8750    61.5970    93.1860    80.5220    41.2410    23.7300     2.2360   -11.5920 
  190.0000    60.7350    83.1100    71.7570    37.7670    23.7300     2.2590   -11.4200 
  190.1250    61.9270    76.7890    65.7870    34.3420    23.7350     2.2800   -11.1880 
  190.2500    61.9940    74.5640    63.1400    32.6080    23.7410     2.2950   -10.9710 
  190.3750    60.4310    76.2040    63.7180    33.4300    23.7430     2.3020   -10.8370 
  190.5000    59.0000    80.9040    66.9260    37.8090    23.7440     2.2960   -10.7240 
  190.6250    59.1400    87.3270    71.7960    41.5060    23.7450     2.2770   -10.5790 
  190.7500    59.1370    93.2130    76.4730    44.5390    23.7500     2.2500   -10.4520 
  190.8750    57.8690    97.0570    79.6520    47.0900    23.7560     2.2250   -10.3940 
  191.0000    56.3610    98.2030    80.6560    47.8340    23.7580     2.2090   -10.4190 
  191.1250    55.8180    96.6700    79.3640    48.0950    23.7620     2.2070   -10.5090 
  191.2500    55.0500    93.7050    76.8000    49.3290    23.7630     2.2090   -10.5770 
  191.3750    53.5840    89.9610    73.5520    47.8280    23.7630     2.2060   -10.6190 
  191.5000    53.5430    85.9010    70.0490    38.4600    23.7630     2.1980   -10.6990 
  191.6250    54.5830    82.0250    66.7310    31.9860    23.7650     2.1980   -10.8490 
  191.7500    54.1790    78.6710    63.9070    33.8150    23.7720     2.2190   -11.0080 
  191.8750    53.2230    75.9130    61.6700    42.7890    23.7810     2.2560   -11.1160 
  192.0000    54.6100    73.6340    59.9380    49.5760    23.7850     2.2860   -11.1880 
  192.1250    56.8570    71.6640    58.5670    43.8150    23.8120     2.2770   -11.2530 
