~V
VERS. 2.00: Ver 2.00
~W
STRT.M 58.0000:
STOP.M 197.0000:
STEP.M 0.1250:
NULL. -999.2500:
UWI. F10573:
~C
DEPT.M :
SP.MV :
GR.API :
RML.OHMM :
RI. :
RXO.OHMM :
CALI.CM :
DEN.GM/CC :
~A
# ...
  136.7500   -19.9320    38.1160     6.7980     5.2810     5.4550    23.8330     2.4140 
  136.8750   -19.8680    41.4050     6.6910     5.1980     5.3410    23.7390     2.4070 
  137.0000   -19.8010    44.8750     6.5880     5.1270     5.2310    23.6860     2.3960 
  137.1250   -19.7170    44.3690     6.5170     5.0800     5.1590    23.6430     2.3870 
  137.2500   -19.6330    42.1670     6.4820     5.0600     5.1100    23.5850     2.3830 
  137.3750   -19.5580    42.4360     6.4800     5.0660     5.1020    23.5570     2.3850 
  137.5000   -19.5080    44.8360     6.5080     5.0990     5.1300    23.5900     2.3900 
  137.6250   -19.4740    47.8920     6.5740     5.1600     5.1800    23.7090     2.3950 
  137.7500   -19.4770    51.8750     6.6690     5.2430     5.2810    23.8440     2.3990 
  137.8750   -19.5400    57.0230     6.7840     5.3370     5.4280    23.9670     2.4040 
  138.0000   -19.6670    62.4150     6.9030     5.4280     5.5760    24.0970     2.4100 
  138.1250   -19.8570    65.1770     7.0060     5.4990     5.8870    24.2190     2.4140 
  138.2500   -20.0910    67.4820     7.0840     5.5490     6.2270    24.3460     2.4130 
  138.3750   -20.3520    71.7360     7.1270     5.5800     6.3720    24.4140     2.4100 
  138.5000   -20.6370    76.1020     7.1280     5.5920     6.3450    24.4210     2.4050 
  138.6250   -20.9510    74.7960     7.0650     5.5680     6.4500    24.4230     2.3980 
  138.7500   -21.2660    69.0460     6.9490     5.5000     6.6650    24.4320     2.3850 
  138.8750   -21.5570    67.4060     6.8140     5.4030     6.7370    24.4380     2.3640 
  139.0000   -21.8330    72.0400     6.7210     5.3180     6.4200    24.4380     2.3420 
  139.1250   -22.1160    74.8260     6.7680     5.3210     6.0540    24.4400     2.3310 
  139.2500   -22.3920    72.0150     6.9940     5.4530     6.0550    24.4430     2.3360 
  139.3750   -22.6500    68.4470     7.4070     5.7330     6.8110    24.4460     2.3560 
  139.5000   -22.8770    70.1690     7.9580     6.1360     8.2100    24.4480     2.3820 
  139.6250   -23.0620    74.9240     8.5110     6.5800     9.3190    24.4690     2.4050 
  139.7500   -23.2070    77.2590     8.9050     6.9410     9.2610    24.5060     2.4190 
  139.8750   -23.3010    76.9210     9.0560     7.1330     9.0150    24.5440     2.4210 
  140.0000   -23.3350    76.2290     8.9790     7.1400     8.8260    24.5560     2.4110 
  140.1250   -23.3120    75.2540     8.7960     7.0190     8.5220    24.5320     2.3920 
  140.2500   -23.2490    72.9730     8.6900     6.9140     8.1530    24.5180     2.3730 
  140.3750   -23.1640    70.3890     8.7820     6.9320     7.9760    24.5150     2.3650 
  140.5000   -23.0660    69.3150     9.1560     7.1550     8.3060    24.5230     2.3760 
  140.6250   -22.9750    70.1800     9.9190     7.6870     9.2390    24.5380     2.4130 
  140.7500   -22.8800    70.7000    11.0120     8.5020    10.7560    24.5540     2.4630 
  140.8750   -22.7900    70.5450    12.3560     9.5600    12.5740    24.5580     2.5050 
  141.0000   -22.7240    69.8100    13.7910    10.7630    14.8890    24.5430     2.5140 
  141.1250   -22.6740    68.8610    15.0430    11.9220    16.7360    24.5070     2.4750 
  141.2500   -22.6360    67.7410    15.9230    12.8560    16.8630    24.5190     2.4070 
  141.3750   -22.5980    66.2610    16.3520    13.4510    16.9760    24.5770     2.3330 
  141.5000   -22.5660    66.0030    16.3590    13.6770    17.0400    24.6290     2.2770 
  141.6250   -22.5380    67.9030    16.0120    13.5430    16.6470    24.5820     2.2620 
  141.7500   -22.5350    70.1380    15.4980    13.2150    16.7770    24.5090     2.2800 
  141.8750   -22.5640    71.4870    14.9390    12.8070    16.4880    24.4590     2.3120 
  142.0000   -22.6150    72.6820    14.4590    12.4340    15.3780    24.4860     2.3390 
  142.1250   -22.6650    73.2370    14.2240    12.2350    14.1340    24.5480     2.3510 
  142.2500   -22.7030    72.6240    14.2550    12.2470    13.6890    24.5320     2.3620 
  142.3750   -22.7410    71.1100    14.4910    12.4530    14.2020    24.4810     2.3840 
  142.5000   -22.7670    69.9650    14.7810    12.7520    15.1490    24.4480     2.4170 
  142.6250   -22.7690    69.8260    14.8740    12.9400    15.9680    24.4330     2.4320 
  142.7500   -22.7280    69.8350    14.6850    12.8850    15.7530    24.4210     2.4160 
  142.8750   -22.6310    69.5720    14.3140    12.6110    15.0880    24.4260     2.3750 
  143.0000   -22.4800    68.4760    14.0050    12.2950    13.7280    24.4450     2.3310 
  143.1250   -22.2940    67.0980    14.1130    12.2320    12.5950    24.4660     2.3180 
  143.2500   -22.0840    64.4970    14.7760    12.5830    13.0290    24.4640     2.3400 
  143.3750   -21.8460    61.1020    16.0590    13.4360    16.4650    24.4320     2.3770 
  143.5000   -21.6010    58.5220    17.9310    14.7970    20.5710    24.3950     2.4020 
  143.6250   -21.3600    57.1010    20.3500    16.6720    21.7620    24.3480     2.3980 
  143.7500   -21.1440    57.5250    23.1180    18.8960    22.1150    24.3590     2.3790 
  143.8750   -20.9590    59.6300    26.1800    21.4200    24.1780    24.4090     2.3540 
  144.0000   -20.8080    61.8840    29.4990    24.2150    28.3580    24.3240     2.3230 
  144.1250   -20.6920    60.0300    32.9180    27.1890    37.3140    24.1790     2.2810 
  144.2500   -20.6220    55.8180    36.0060    30.0010    45.1240    24.1830     2.2360 
  144.3750   -20.6020    52.6810    38.2610    32.2180    48.5730    24.4640     2.2020 
  144.5000   -20.6130    51.4610    39.3210    33.4680    46.2520    24.6570     2.1870 
  144.6250   -20.6630    52.5090    39.0730    33.5510    42.0190    24.6130     2.1920 
  144.7500   -20.7320    53.9460    38.1470    32.9570    40.1360    24.5230     2.2060 
  144.8750   -20.8000    54.8820    36.9240    32.0250    40.8170    24.5480     2.2290 
  145.0000   -20.8690    53.7430    35.6410    31.0030    40.8050    24.6380     2.2560 
  145.1250   -20.9380    50.4390    34.4720    30.0830    38.2030    24.6730     2.2670 
  145.2500   -20.9970    50.1160    33.5260    29.3690    34.6350    24.6360     2.2560 
  145.3750   -21.0250    53.9030    32.8820    28.9180    32.7320    24.5110     2.2370 
  145.5000   -21.0090    57.4540    32.5600    28.7480    34.2050    24.4010     2.2370 
  145.6250   -20.9320    55.0310    32.5080    28.8300    35.5130    24.3210     2.2810 
  145.7500   -20.8110    51.3880    32.5150    28.9890    33.8860    24.2620     2.3380 
  145.8750   -20.6770    51.0960    32.4570    29.1050    32.9140    24.2220     2.3660 
  146.0000   -20.5330    52.5830    32.3200    29.1340    33.5380    24.1820     2.3460 
  146.1250   -20.3850    53.4700    32.2500    29.1560    33.0880    24.1690     2.2970 
  146.2500   -20.2220    54.7000    32.4130    29.3170    31.9780    24.1840     2.2590 
  146.3750   -20.0540    55.9100    32.8800    29.7020    31.5490    24.2740     2.2420 
  146.5000   -19.8990    55.5030    33.5900    30.3000    33.4210    24.3810     2.2370 
  146.6250   -19.7640    54.4830    34.3860    31.0040    35.6980    24.4080     2.2330 
  146.7500   -19.6420    55.1020    35.1190    31.6710    37.0390    24.4040     2.2250 
  146.8750   -19.5250    55.7060    35.8040    32.2790    36.8760    24.4410     2.2120 
  147.0000   -19.4350    55.2870    36.5880    32.9250    35.5760    24.5180     2.1970 
  147.1250   -19.3610    53.9310    37.7370    33.8360    34.1000    24.5480     2.1910 
  147.2500   -19.3130    52.8140    39.2640    35.0950    34.7720    24.5130     2.2070 
  147.3750   -19.3000    51.0730    40.9180    36.5710    39.4560    24.4560     2.2540 
  147.5000   -19.3310    48.4140    42.1410    37.8410    46.1630    24.4320     2.3230 
  147.6250   -19.4230    46.7150    42.0160    38.0920    49.5900    24.4140     2.3840 
  147.7500   -19.5600    46.2290    40.4250    37.0670    47.0270    24.3800     2.4120 
  147.8750   -19.7290    47.8600    37.7510    34.9810    40.5170    24.3600     2.4040 
