~V
VERS. 2.00: Ver 2.00
~W
STRT.M 60.0000:
STOP.M 200.0000:
STEP.M 0.1250:
NULL. -999.2500:
UWI. F10576:
~C
DEPT.M :
GR.API :
RML.OHMM :
RI. :
RXO.OHMM :
CALI.CM :
DEN.GM/CC :
SP.MV :
~A
# ...
   93.7500    56.2260    55.5680    55.9390    80.1280    23.8880     2.7100   -23.9440 
   93.8750    65.1980    43.1600    45.5290    78.4640    23.8480     2.6750   -24.0280 
   94.0000    72.6160    30.1810    32.7820    54.0190    23.8130     2.6100   -24.0840 
   94.1250    76.1940    20.8420    22.3900    25.9630    23.7660     2.5230   -24.1590 
   94.2500    80.1100    14.9260    15.4010    11.5520    23.7400     2.4390   -24.2460 
   94.3750    85.3000    11.5080    11.2350     8.2070    23.7160     2.3760   -24.3100 
   94.5000    89.6490     9.7290     8.9850     7.8500    23.6650     2.3380   -24.3770 
   94.6250    91.2840     9.1760     8.1190     7.5710    23.5680     2.3230   -24.3960 
   94.7500    89.7100     9.3920     8.0690     7.1320    23.4670     2.3270   -24.4080 
   94.8750    85.9500    10.2510     8.6700     7.0510    23.3900     2.3540   -24.4200 
   95.0000    81.1600    11.5890     9.7610     7.7120    23.3500     2.4050   -24.4080 
   95.1250    78.1870    13.0380    11.0640    10.7270    23.3390     2.4670   -24.3850 
   95.2500    78.4300    14.0080    12.0770    15.9380    23.3540     2.5080   -24.3250 
   95.3750    80.8970    14.0620    12.3840    16.2970    23.3590     2.5140   -24.2610 
   95.5000    84.1760    13.1350    11.8230    10.6150    23.3210     2.4870   -24.2190 
   95.6250    88.4130    11.5380    10.5560     7.5970    23.2010     2.4500   -24.2000 
   95.7500    93.4350     9.9230     9.1630     6.7950    23.1670     2.4240   -24.1580 
   95.8750    96.4030     8.6430     7.9630     6.7230    23.2400     2.4140   -24.1060 
   96.0000    95.8710     7.8160     7.0900     6.8010    23.4300     2.4110   -24.0660 
   96.1250    95.1600     7.3990     6.5770     6.1350    23.6040     2.4050   -24.0100 
   96.2500    97.2630     7.1850     6.2870     5.9440    23.6870     2.3940   -23.9350 
   96.3750   100.3290     7.0930     6.1400     5.8000    23.7030     2.3840   -23.8420 
   96.5000   101.6420     7.0550     6.0770     5.6000    23.6890     2.3810   -23.7240 
   96.6250   100.8750     7.0150     6.0650     5.5930    23.6440     2.3870   -23.6170 
   96.7500    99.4270     6.9500     6.0840     5.6560    23.5810     2.3990   -23.5380 
   96.8750    96.8960     6.8750     6.1270     5.6400    23.5140     2.4120   -23.4630 
   97.0000    94.8940     6.8220     6.1850     5.6160    23.4330     2.4200   -23.4010 
   97.1250    96.4910     6.8120     6.2390     5.6750    23.4270     2.4140   -23.3430 
   97.2500    98.8990     6.8130     6.2650     5.9110    23.5480     2.4000   -23.3400 
   97.3750   100.2100     6.7950     6.2570     5.9530    23.6940     2.3840   -23.3410 
   97.5000   100.9910     6.7500     6.2290     5.8550    23.7670     2.3740   -23.3340 
   97.6250   101.6950     6.7190     6.2190     5.7220    23.7770     2.3710   -23.3260 
   97.7500   100.8420     6.7670     6.2670     5.6710    23.7770     2.3720   -23.3310 
   97.8750    99.4530     6.9310     6.3920     5.7940    23.7760     2.3710   -23.3310 
   98.0000    98.7190     7.1950     6.5860     6.1700    23.7670     2.3690   -23.2970 
   98.1250    96.4250     7.4770     6.7980     6.4400    23.7260     2.3720   -23.2670 
   98.2500    93.8440     7.6720     6.9530     6.6170    23.6530     2.3800   -23.1930 
   98.3750    93.5380     7.7410     7.0090     6.8670    23.5840     2.3900   -23.1200 
   98.5000    93.7930     7.7200     6.9730     6.8790    23.5830     2.3930   -23.0830 
   98.6250    92.8590     7.7370     6.9140     6.6420    23.6690     2.3810   -23.0190 
   98.7500    92.6220     7.9000     6.9300     6.6280    23.7390     2.3600   -22.9000 
   98.8750    92.1270     8.2380     7.0730     6.7220    23.6680     2.3370   -22.7630 
   99.0000    89.1900     8.6980     7.3420     6.9900    23.4950     2.3190   -22.6130 
   99.1250    86.4250     9.1450     7.6770     8.0090    23.3980     2.3120   -22.4470 
   99.2500    87.7410     9.4400     7.9600     9.6650    23.3690     2.3120   -22.2870 
   99.3750    90.6340     9.5220     8.1200    10.3060    23.3670     2.3180   -22.1080 
   99.5000    92.1720     9.4490     8.1630     8.6370    23.3670     2.3230   -21.8990 
   99.6250    92.3140     9.4650     8.2350     7.9420    23.3670     2.3220   -21.7120 
   99.7500    90.5150     9.9180     8.5930     7.8030    23.3670     2.3130   -21.5270 
   99.8750    85.6280    11.2000     9.5570     8.4400    23.3670     2.2990   -21.3240 
  100.0000    78.7320    13.7530    11.5380    10.6680    23.3670     2.2830   -21.1490 
  100.1250    72.4790    18.4270    15.3650    16.1900    23.3680     2.2670   -21.0040 
  100.2500    67.6940    25.3940    21.2530    26.6700    23.3760     2.2520   -20.8650 
  100.3750    64.1450    34.6150    29.1620    41.9610    23.4000     2.2390   -20.7530 
  100.5000    61.6230    45.0720    38.2580    53.4250    23.4340     2.2280   -20.6660 
  100.6250    60.9430    54.4330    46.5840    57.3490    23.4770     2.2210   -20.5580 
  100.7500    61.3550    60.7970    52.4970    61.0110    23.5380     2.2140   -20.4620 
  100.8750    60.9730    63.7230    55.4930    65.5170    23.6030     2.2050   -20.4350 
  101.0000    59.2390    64.0690    56.1010    63.9550    23.6540     2.1910   -20.4220 
  101.1250    60.6400    63.2990    55.3540    56.5500    23.7460     2.1750   -20.3860 
  101.2500    66.2000    62.9170    54.6050    52.0410    23.8600     2.1650   -20.4070 
  101.3750    70.2490    63.5790    54.5400    51.7840    23.8750     2.1640   -20.4560 
  101.5000    69.1980    65.4690    55.4930    52.8210    23.7030     2.1690   -20.4830 
  101.6250    66.7640    68.3920    57.5140    59.0790    23.5310     2.1750   -20.5550 
  101.7500    66.4110    71.4430    59.9190    64.6910    23.5950     2.1750   -20.6850 
  101.8750    67.0260    73.8470    62.0550    70.0960    23.8330     2.1710   -20.8370 
  102.0000    67.9340    75.0260    63.3680    72.6570    23.9630     2.1660   -20.9960 
  102.1250    70.0320    74.6190    63.4390    65.5270    23.7830     2.1640   -21.1900 
  102.2500    72.3170    73.2190    62.6270    48.1110    23.3540     2.1670   -21.3470 
  102.3750    72.9830    71.3220    61.2890    46.4630    22.4630     2.1710   -21.4950 
  102.5000    71.7880    69.3150    59.7410    47.9080    20.8850     2.1740   -21.7040 
  102.6250    69.5170    67.3250    58.1070    48.3510    19.0790     2.1700   -21.9020 
  102.7500    67.4850    65.2280    56.3200    47.5710    17.8020     2.1630   -22.0640 
  102.8750    65.9030    62.8870    54.2610    48.2520    17.3210     2.1600   -22.2080 
  103.0000    63.5710    60.2530    51.9070    48.5830    17.2480     2.1680   -22.3750 
  103.1250    60.9730    57.2530    49.2990    48.2060    17.2630     2.1850   -22.5720 
  103.2500    61.9250    53.8420    46.5080    46.8660    17.3020     2.2000   -22.7660 
  103.3750    65.7900    49.9340    43.4760    45.3800    17.4290     2.2040   -22.9460 
  103.5000    68.6060    45.5870    40.1560    43.8710    17.7180     2.1970   -23.0710 
  103.6250    70.3280    41.1020    36.6420    42.2250    18.0580     2.1830   -23.1960 
  103.7500    72.7490    36.9730    33.2990    42.3770    18.4000     2.1710   -23.3310 
  103.8750    73.2600    33.5880    30.5070    42.4690    18.7810     2.1660   -23.4600 
  104.0000    69.2780    31.1940    28.5620    37.3160    19.3390     2.1640   -23.5600 
  104.1250    64.6050    29.8830    27.6300    35.0320    20.2400     2.1640   -23.6300 
  104.2500    64.9190    28.9930    27.1560    30.9760    21.4590     2.1660   -23.7150 
  104.3750    68.8440    27.7750    26.4660    28.5860    22.6980     2.1720   -23.8330 
  104.5000    72.3920    25.5590    24.8900    27.7010    23.6170     2.1830   -23.9750 
  104.6250    72.7650    22.0880    22.0360    30.1580    23.8330     2.2030   -24.1390 
  104.7500    73.6630    18.2300    18.6010    23.7820    23.7190     2.2320   -24.3350 
  104.8750    78.2460    14.7690    15.3070    13.8730    23.4750     2.2670   -24.5620 
