~V
VERS. 2.00: Ver 2.00
~W
STRT.M 59.0000:
STOP.M 201.0000:
STEP.M 0.1250:
NULL. -999.2500:
UWI. F10560:
~C
DEPT.M :
DEN.GM/CC :
SP.MV :
GR.API :
RML.OHMM :
RI. :
RXO.OHMM :
CALI.CM :
~A
# ...
  104.0000     2.1550   -25.2750    84.6500    17.1610    13.1650    17.8700    25.1330 
  104.1250     2.1610   -25.2180    86.1150    19.2710    14.7860    20.7880    25.1210 
  104.2500     2.1700   -25.1570    86.9120    20.8670    16.2500    22.3020    25.0970 
  104.3750     2.1890   -25.1150    85.0450    20.8570    16.6730    23.0390    25.0640 
  104.5000     2.2210   -25.0880    83.7100    18.7600    15.4950    21.7440    24.9600 
  104.6250     2.2710   -25.0690    86.0380    15.2720    13.0660    16.2240    24.6250 
  104.7500     2.3290   -25.0500    90.4940    12.0520    10.6380    10.3220    24.1540 
  104.8750     2.3860   -25.0390    96.5980     9.8700     8.8070     7.1760    23.8350 
  105.0000     2.4280   -25.0290   102.6410     8.8670     7.7480     7.2140    23.7300 
  105.1250     2.4410   -25.0210   104.5480     8.8930     7.4740     9.4460    23.7300 
  105.2500     2.4280   -25.0150   102.6080     9.3320     7.6310    11.1520    23.7300 
  105.3750     2.4040   -24.9960    99.9660     9.7470     7.9210    10.6730    23.7300 
  105.5000     2.3850   -24.9640    98.2090     9.7960     8.0400     9.0180    23.7290 
  105.6250     2.3760   -24.9160    96.2530     9.3090     7.7600     7.9910    23.7280 
  105.7500     2.3720   -24.8610    97.8860     8.5800     7.2440     6.8590    23.7280 
  105.8750     2.3730   -24.7800   106.0490     7.9000     6.7080     6.3380    23.7290 
  106.0000     2.3740   -24.6920   114.9590     7.4770     6.3220     6.3750    23.7340 
  106.1250     2.3660   -24.6080   115.1330     7.4700     6.2120     6.5330    23.7880 
  106.2500     2.3440   -24.5400   108.5630     7.8320     6.3680     6.7470    23.9170 
  106.3750     2.3170   -24.4810   104.0860     8.5020     6.7780     7.4230    24.0630 
  106.5000     2.2940   -24.4310   105.0290     9.3320     7.3740     8.8900    24.1400 
  106.6250     2.2900   -24.3980   106.1000    10.0700     8.0130    10.1470    24.1490 
  106.7500     2.2960   -24.3990   102.8590    10.5340     8.5210    10.8280    24.1550 
  106.8750     2.3020   -24.4170    97.8180    10.7110     8.8340    10.7850    24.1750 
  107.0000     2.3040   -24.4450    96.8840    10.7530     9.0030    10.5900    24.2030 
  107.1250     2.3040   -24.4720   101.0600    11.0280     9.2440    10.9530    24.2160 
  107.2500     2.3010   -24.4920   103.4880    11.8890     9.8290    12.4880    24.2200 
  107.3750     2.3020   -24.5170   101.9390    13.5530    10.9800    14.9250    24.2140 
  107.5000     2.3170   -24.5210    97.6130    15.9590    12.7900    18.4790    24.1700 
  107.6250     2.3470   -24.5050    91.7830    18.5800    15.0970    22.0110    24.0530 
  107.7500     2.3650   -24.4550    87.1090    20.3940    17.1390    27.9440    23.9220 
  107.8750     2.3510   -24.3870    85.0670    20.6180    18.1170    33.9870    23.8410 
  108.0000     2.3120   -24.3030    86.7500    19.2100    17.6560    25.7330    23.7510 
  108.1250     2.2830   -24.1910    89.8460    17.0510    16.1410    15.1080    23.5930 
  108.2500     2.2770   -24.0660    93.5740    15.2890    14.5770    11.8310    23.4120 
  108.3750     2.2890   -23.9280    97.4090    14.2510    13.3780    11.3600    23.2440 
  108.5000     2.3070   -23.8050   100.0970    13.8210    12.6210    10.9950    23.1110 
  108.6250     2.3210   -23.7050   101.6460    13.6150    12.1570    11.0070    23.0470 
  108.7500     2.3300   -23.6170   101.8850    13.1420    11.6080    11.0680    23.0260 
  108.8750     2.3390   -23.5330   101.3170    12.2790    10.8140    10.9660    23.0240 
  109.0000     2.3520   -23.4530   102.5800    11.3160     9.9380    10.4460    23.0230 
  109.1250     2.3690   -23.4040   107.4870    10.9350     9.4490    10.0260    23.0220 
  109.2500     2.3870   -23.3870   111.3750    11.6610     9.7110    10.4580    23.0290 
  109.3750     2.4090   -23.3830   110.0620    13.9880    11.1110    12.6540    23.0640 
  109.5000     2.4410   -23.3820   103.4800    18.3480    14.1230    18.3170    23.1420 
  109.6250     2.4770   -23.3680    93.9620    25.3200    19.6270    29.1570    23.2510 
  109.7500     2.5020   -23.3700    84.6270    34.0590    27.2940    38.5350    23.3400 
  109.8750     2.5090   -23.3540    76.6410    43.3280    36.1630    43.9030    23.4050 
  110.0000     2.5050   -23.3410    71.2980    51.6400    44.5750    47.6090    23.4350 
  110.1250     2.5090   -23.3200    68.3520    58.1490    51.1660    47.6220    23.4430 
  110.2500     2.5290   -23.2870    67.8210    63.8490    56.6480    52.2100    23.4580 
  110.3750     2.5600   -23.2490    68.8020    69.2280    61.6100    66.1240    23.4860 
  110.5000     2.5850   -23.2210    69.0810    73.5760    65.7120    89.5530    23.5060 
  110.6250     2.5810   -23.2000    67.3020    74.7850    67.3740    85.3390    23.5130 
  110.7500     2.5620   -23.1730    63.3830    72.6450    66.2410    64.6250    23.5130 
  110.8750     2.5450   -23.1830    59.5560    68.2510    62.9250    52.6490    23.5210 
  111.0000     2.5340   -23.2110    59.6370    63.5150    58.8640    49.8890    23.5620 
  111.1250     2.5190   -23.2630    62.9620    60.5660    55.9390    49.6210    23.6810 
  111.2500     2.4970   -23.3250    63.5810    59.9990    55.0210    50.2770    23.8690 
  111.3750     2.4760   -23.3960    60.2680    61.6050    56.1650    50.9140    24.1280 
  111.5000     2.4700   -23.4810    57.4820    64.5070    58.7520    53.3980    24.3810 
  111.6250     2.4830   -23.5930    57.6230    67.1530    61.5420    62.0150    24.5240 
  111.7500     2.4990   -23.7110    57.9760    68.0790    63.1250    71.6940    24.5670 
  111.8750     2.5000   -23.8340    59.3100    66.7030    62.7860    69.9000    24.5730 
  112.0000     2.4790   -23.9720    61.9470    63.5640    60.7210    62.0350    24.5710 
  112.1250     2.4540   -24.1200    62.4720    60.1200    57.9870    51.4170    24.5440 
  112.2500     2.4450   -24.2750    61.9420    57.6460    55.8520    51.6310    24.4780 
  112.3750     2.4590   -24.4530    62.9140    56.4280    54.7530    57.4760    24.4020 
  112.5000     2.4890   -24.6270    64.4280    56.1370    54.5490    62.1200    24.3610 
  112.6250     2.5160   -24.8140    62.7850    56.0770    54.6890    67.9120    24.3430 
  112.7500     2.5210   -24.9880    61.2410    55.7250    54.6150    63.4410    24.3120 
  112.8750     2.5070   -25.1490    62.6330    55.2170    54.3420    52.3470    24.2700 
  113.0000     2.4960   -25.2880    65.2120    55.0460    54.2580    46.1870    24.2330 
  113.1250     2.5090   -25.4000    65.6360    55.7310    54.8580    48.0010    24.2810 
  113.2500     2.5340   -25.4970    65.6230    56.9480    55.9860    56.5820    24.3220 
  113.3750     2.5400   -25.5520    65.8210    57.9660    57.0840    68.4260    24.3220 
  113.5000     2.5070   -25.5710    65.3220    57.9040    57.3610    67.2390    24.2980 
  113.6250     2.4590   -25.5200    64.4430    56.1290    56.0810    51.4780    24.2990 
  113.7500     2.4310   -25.4410    64.2030    53.5080    53.8200    43.4620    24.3220 
  113.8750     2.4270   -25.3390    63.8870    51.0640    51.4410    40.6390    24.3480 
  114.0000     2.4300   -25.2130    63.0400    49.6260    49.7850    40.0390    24.3660 
  114.1250     2.4290   -25.0660    62.4680    49.7370    49.5460    42.6440    24.3750 
  114.2500     2.4330   -24.9150    62.1350    50.9130    50.4650    48.4110    24.3710 
  114.3750     2.4500   -24.7780    60.9740    52.6200    52.1160    53.4320    24.3340 
  114.5000     2.4780   -24.6540    59.5560    54.2790    53.9290    55.7180    24.2240 
  114.6250     2.5030   -24.5690    58.7900    55.3080    55.2640    52.2430    24.0220 
  114.7500     2.5170   -24.5360    59.0330    55.6200    55.8940    51.1350    23.7770 
  114.8750     2.5170   -24.5390    61.0760    55.4070    55.9260    50.5820    23.6790 
  115.0000     2.5130   -24.5760    63.7630    56.7960    55.7710    49.7750    23.7610 
  115.1250     2.5220   -24.6560    63.4420    57.2080    56.1150    50.4280    23.9010 
