~V
VERS. 2.00: Ver 2.00
~W
STRT.M 55.0000:
STOP.M 211.0000:
STEP.M 0.1250:
NULL. -999.2500:
UWI. F10586:
~C
DEPT.M :
GR.API :
RML.OHMM :
RI. :
RXO.OHMM :
CALI.CM :
DEN.GM/CC :
SP.MV :
~A
# ...
   66.2500    63.5140    12.9390    12.2210    11.1790    32.5910     2.0780   -33.3610 
   66.3750    67.5450    12.9720    12.0990    11.4720    32.6070     2.0940   -32.7150 
   66.5000    69.3780    12.9410    11.9320    11.5680    32.6720     2.0980   -31.9420 
   66.6250    68.3760    12.8490    11.7120    11.5470    32.7870     2.0920   -31.0830 
   66.7500    65.5350    12.7360    11.4730    11.5300    32.9280     2.0810   -30.0980 
   66.8750    62.6620    12.6300    11.2420    11.5100    33.0900     2.0650   -29.0330 
   67.0000    61.8340    12.5470    11.0440    11.4130    33.2790     2.0430   -27.9840 
   67.1250    63.4720    12.4960    10.8930    11.3410    33.4940     2.0140   -26.9720 
   67.2500    63.0920    12.4600    10.7750    11.2790    33.7180     1.9820   -26.0310 
   67.3750    60.5130    12.4310    10.6760    11.0990    33.9570     1.9510   -25.2390 
   67.5000    58.0540    12.4020    10.5860    10.8170    34.2400     1.9210   -24.5500 
   67.6250    58.0500    12.3680    10.5010    10.5030    34.5260     1.8950   -23.9710 
   67.7500    60.6140    12.3350    10.4210    10.2970    34.7740     1.8740   -23.5410 
   67.8750    62.8610    12.3080    10.3560    10.1890    34.9540     1.8570   -23.2450 
   68.0000    61.9540    12.2960    10.3140    10.1360    35.0810     1.8450   -23.0110 
   68.1250    58.8280    12.3130    10.3050    10.1080    35.1320     1.8410   -22.8480 
   68.2500    57.1390    12.3570    10.3240    10.0800    35.1340     1.8410   -22.6950 
   68.3750    57.6910    12.4270    10.3680    10.0510    35.0670     1.8450   -22.5060 
   68.5000    58.9540    12.5220    10.4390    10.1090    34.9390     1.8480   -22.3360 
   68.6250    58.5580    12.6480    10.5430    10.3100    34.8850     1.8500   -22.1610 
   68.7500    57.5540    12.8000    10.6770    10.4930    34.8960     1.8480   -22.0020 
   68.8750    57.2750    12.9640    10.8290    10.6450    34.9150     1.8410   -21.8360 
   69.0000    58.1550    13.1140    10.9750    10.7920    34.9390     1.8290   -21.6610 
   69.1250    59.2320    13.1940    11.0640    10.8290    35.0520     1.8100   -21.5110 
   69.2500    59.9360    13.1770    11.0680    10.7350    35.2300     1.7850   -21.3560 
   69.3750    60.3970    13.0580    10.9750    10.5660    35.4690     1.7560   -21.2140 
   69.5000    61.1200    12.8610    10.8030    10.4070    35.7570     1.7260   -21.0750 
   69.6250    62.6120    12.6440    10.5960    10.2900    36.1060     1.7000   -20.9290 
   69.7500    61.7120    12.4670    10.4140    10.1180    36.4990     1.6800   -20.7810 
   69.8750    57.2470    12.3580    10.2900     9.8650    36.8850     1.6700   -20.6720 
   70.0000    52.5940    12.3130    10.2290     9.5950    37.1300     1.6660   -20.5720 
   70.1250    52.0940    12.3120    10.2240     9.4190    37.1760     1.6680   -20.4320 
   70.2500    54.0360    12.3220    10.2450     9.4400    37.1240     1.6730   -20.2890 
   70.3750    55.2570    12.3460    10.2880     9.6060    37.0410     1.6790   -20.1430 
   70.5000    54.5460    12.4120    10.3700     9.8870    36.9730     1.6880   -19.9930 
   70.6250    54.2530    12.5790    10.5370    10.0200    36.8840     1.7030   -19.8400 
   70.7500    56.7670    12.8540    10.7970    10.0760    36.7090     1.7240   -19.6950 
   70.8750    60.8360    13.2070    11.1360    10.1990    36.3420     1.7450   -19.5130 
   71.0000    62.0270    13.5520    11.4910    10.5480    35.7140     1.7630   -19.3240 
   71.1250    58.3430    13.7020    11.7210    10.9710    35.0610     1.7690   -19.1270 
   71.2500    56.2960    13.5290    11.7040    11.1250    34.3840     1.7690   -18.9360 
   71.3750    59.3740    12.9620    11.3570    10.8580    33.4950     1.7770   -18.7520 
   71.5000    65.2200    12.0280    10.6770    10.4050    32.5630     1.8130   -18.5490 
   71.6250    69.2150    10.8580     9.7450     9.6570    31.7590     1.8960   -18.3600 
   71.7500    70.1390     9.7230     8.7890     8.6650    30.9170     2.0080   -18.1860 
   71.8750    70.8170     8.8110     7.9700     7.7630    29.8700     2.1210   -18.0190 
   72.0000    73.3710     8.2340     7.3920     7.2890    28.6890     2.2020   -17.8910 
   72.1250    76.8990     8.0420     7.1200     7.0120    27.8540     2.2290   -17.8160 
   72.2500    78.7590     8.0670     7.0470     6.6660    27.3700     2.2290   -17.7360 
   72.3750    76.7730     8.1540     7.0690     6.5400    27.0810     2.2280   -17.6490 
   72.5000    73.9420     8.1620     7.0740     6.5970    26.8660     2.2360   -17.5500 
   72.6250    74.6710     7.9980     6.9640     6.5120    26.7000     2.2530   -17.4680 
   72.7500    77.5440     7.7330     6.7570     6.2270    26.5190     2.2680   -17.3540 
   72.8750    79.9750     7.4650     6.5130     5.8970    26.3180     2.2760   -17.2150 
   73.0000    80.5870     7.2850     6.3010     5.7300    26.1430     2.2750   -17.0540 
   73.1250    80.2980     7.2420     6.1770     5.8390    26.0130     2.2710   -16.8600 
   73.2500    78.2090     7.2960     6.1320     6.1070    25.9010     2.2700   -16.6560 
   73.3750    75.5320     7.4390     6.1680     6.4460    25.8160     2.2720   -16.4400 
   73.5000    75.5370     7.7210     6.3140     6.7550    25.7630     2.2740   -16.1990 
   73.6250    78.1030     8.3260     6.6930     6.9490    25.7370     2.2690   -15.8830 
   73.7500    78.9070     9.3710     7.3910     7.5540    25.7430     2.2580   -15.5700 
   73.8750    76.3490    10.9360     8.4990     8.8330    25.8150     2.2440   -15.2560 
   74.0000    71.7390    12.9730    10.0420    10.6270    25.9650     2.2320   -14.9360 
   74.1250    67.3320    15.2660    11.9530    12.2750    26.1980     2.2250   -14.6280 
   74.2500    65.6180    17.3910    13.9170    13.2040    26.4300     2.2190   -14.3150 
   74.3750    67.4770    19.0350    15.6480    13.4180    26.5290     2.2080   -14.0010 
   74.5000    69.1330    20.0510    16.9360    13.6020    26.4370     2.1920   -13.7120 
   74.6250    67.0420    20.4530    17.6710    14.1700    26.4110     2.1740   -13.5350 
   74.7500    64.1580    20.5700    18.0670    14.9570    26.4830     2.1600   -13.3920 
   74.8750    63.5890    20.5400    18.2360    15.6310    26.5880     2.1520   -13.2910 
   75.0000    63.1340    20.3180    18.1700    16.0410    26.6080     2.1510   -13.2420 
   75.1250    60.8460    19.6210    17.6540    16.2160    26.5100     2.1580   -13.2060 
   75.2500    59.0720    18.3400    16.6060    15.7220    26.4200     2.1710   -13.2350 
   75.3750    60.6100    16.5140    15.0460    14.5300    26.3300     2.1910   -13.3370 
   75.5000    65.1860    14.3840    13.1650    13.1040    26.1800     2.2150   -13.4730 
   75.6250    68.0810    12.3410    11.2870    11.0550    25.9630     2.2340   -13.6030 
   75.7500    70.0600    10.6670     9.6800     8.9340    25.7980     2.2460   -13.7200 
   75.8750    73.6300     9.4590     8.4500     7.6350    25.7040     2.2510   -13.8200 
   76.0000    78.1680     8.7100     7.6120     7.2020    25.6650     2.2530   -13.8890 
   76.1250    77.9640     8.4530     7.2070     7.1370    25.6450     2.2580   -13.9000 
   76.2500    73.5550     8.6290     7.1730     7.0680    25.6220     2.2700   -13.8740 
   76.3750    71.2120     9.2910     7.5440     7.2700    25.6010     2.2880   -13.8040 
   76.5000    73.5350    10.4960     8.3690     8.0780    25.5910     2.3000   -13.6950 
   76.6250    76.4820    12.3150     9.7490     9.8690    25.5870     2.2940   -13.5450 
   76.7500    73.7570    14.4970    11.5310    12.2060    25.5830     2.2750   -13.3430 
   76.8750    66.7580    16.7670    13.5310    14.7570    25.5860     2.2610   -13.1210 
   77.0000    62.1240    18.8030    15.4890    16.9540    25.6150     2.2710   -12.8770 
   77.1250    62.6630    20.2510    17.0640    19.3230    25.7200     2.3100   -12.6550 
   77.2500    63.0540    21.1570    18.1790    22.9900    25.9010     2.3500   -12.4720 
   77.3750    60.7140    21.7030    18.9150    27.7320    26.0970     2.3640   -12.2870 
