~V
VERS. 2.00: Ver 2.00
~W
STRT.M 61.0000:
STOP.M 190.0000:
STEP.M 0.1250:
NULL. -999.2500:
UWI. F10559:
~C
DEPT.M :
SP.MV :
DEN.GM/CC :
GR.API :
RML.OHMM :
RI. :
RXO.OHMM :
CALI.CM :
~A
# ...
  151.0000   -14.3590     2.2210    61.7030    78.7780    73.7860    73.1670    26.5520 
  151.1250   -14.2330     2.2280    61.0530    76.4740    71.8760    73.8480    26.4980 
  151.2500   -14.0500     2.2340    59.3600    73.2310    68.7900    72.9140    26.4510 
  151.3750   -13.7870     2.2410    58.5280    69.7700    65.1970    63.6540    26.4470 
  151.5000   -13.4730     2.2470    60.4490    66.9110    61.9560    52.3920    26.5360 
  151.6250   -13.1640     2.2530    63.1390    65.5290    59.9910    47.7720    26.5930 
  151.7500   -12.8220     2.2550    63.2300    65.6370    59.4030    50.8320    26.6110 
  151.8750   -12.4640     2.2510    60.6900    67.1060    60.1000    54.6920    26.6020 
  152.0000   -12.0700     2.2380    58.5470    69.6520    61.8110    56.0410    26.6110 
  152.1250   -11.6530     2.2170    60.6760    73.0300    64.2850    56.4330    26.6840 
  152.2500   -11.2440     2.1980    63.8480    76.7990    67.1300    58.1390    26.7570 
  152.3750   -10.8240     2.1930    64.5400    80.7000    70.1720    60.9290    26.8310 
  152.5000   -10.3910     2.2050    61.1270    84.4560    73.1980    63.6320    26.8710 
  152.6250    -9.8930     2.2290    57.9000    87.6700    75.8140    67.2840    26.8880 
  152.7500    -9.4180     2.2480    59.4440    90.2430    77.8290    72.0270    26.8970 
  152.8750    -8.9130     2.2530    64.3990    92.2760    79.2280    74.8160    26.9360 
  153.0000    -8.4240     2.2510    66.7490    94.0480    80.1660    73.4420    27.0370 
  153.1250    -8.0060     2.2500    62.5870    95.7490    80.9490    75.1400    27.0870 
  153.2500    -7.5750     2.2550    57.0180    97.0600    81.8550    87.5360    27.0220 
  153.3750    -7.2090     2.2650    53.9720    97.0520    82.5260    96.7730    26.8360 
  153.5000    -6.8930     2.2750    55.8660    94.4700    81.8000    87.5870    26.6120 
  153.6250    -6.6080     2.2850    60.4430    87.8350    77.5860    78.0460    26.4490 
  153.7500    -6.3230     2.2950    62.7420    78.2690    70.0480    79.1220    26.2790 
  153.8750    -6.0730     2.3030    63.5780    67.4810    60.6390    76.4930    26.0560 
  154.0000    -5.8390     2.3060    64.5320    57.3730    51.4300    57.4160    25.8430 
  154.1250    -5.6010     2.3010    67.9450    49.5610    44.2580    38.6640    25.7160 
  154.2500    -5.4060     2.2970    71.1840    43.9620    39.1570    33.9870    25.7270 
  154.3750    -5.1510     2.3020    71.4700    40.2450    35.8060    35.9780    25.7690 
  154.5000    -4.8720     2.3240    67.8120    37.9600    33.7870    35.7650    25.8010 
  154.6250    -4.6210     2.3670    64.0290    36.8380    32.8050    30.9740    25.8130 
  154.7500    -4.4160     2.4250    65.4350    36.4110    32.3660    29.0710    25.8210 
  154.8750    -4.2160     2.4870    68.0980    36.4160    32.3640    28.8430    25.8230 
  155.0000    -4.0330     2.5410    65.6560    36.4200    32.7590    30.2270    25.8200 
  155.1250    -3.8800     2.5790    61.0730    35.4470    32.9580    32.5740    25.8430 
  155.2500    -3.7040     2.6020    61.1200    32.7700    31.5960    31.4480    25.8890 
  155.3750    -3.6240     2.6100    64.7440    28.1570    27.6630    31.3620    25.9240 
  155.5000    -3.5970     2.6030    67.1340    22.2240    21.7330    39.2520    25.9410 
  155.6250    -3.5780     2.5730    68.2690    16.4340    15.8630    34.3820    26.0020 
  155.7500    -3.6040     2.5290    72.5280    11.8280    11.4100    18.3580    26.0990 
  155.8750    -3.6640     2.4800    77.9020     8.6420     8.5030     8.7030    26.2010 
  156.0000    -3.7650     2.4360    79.4730     6.6880     6.8400     6.2580    26.2730 
  156.1250    -3.9960     2.4060    77.0530     5.7600     6.1750     6.0040    26.3290 
  156.2500    -4.2950     2.3870    76.6730     5.7040     6.0810     6.2400    26.3520 
  156.3750    -4.6440     2.3780    79.2690     5.9290     6.3580     6.3540    26.3610 
  156.5000    -5.0670     2.3760    82.1740     6.2700     6.8230     6.4620    26.3630 
  156.6250    -5.5090     2.3780    86.1760     6.5940     7.3090     6.5200    26.3630 
  156.7500    -5.9970     2.3820    93.9540     6.8430     7.7190     6.6010    26.3600 
  156.8750    -6.5310     2.3870   102.3920     7.0130     8.0340     6.7300    26.3590 
  157.0000    -7.0480     2.3920   106.1700     7.1190     8.2550     6.9620    26.3630 
  157.1250    -7.4940     2.3950   102.6850     7.1690     8.3720     7.0970    26.3680 
  157.2500    -7.9070     2.3960    97.9670     7.1760     8.4030     7.1380    26.3690 
  157.3750    -8.2600     2.3940    96.9880     7.1490     8.3390     7.2060    26.3700 
  157.5000    -8.5450     2.3910   101.2930     7.1150     8.1890     7.4810    26.3800 
  157.6250    -8.8070     2.3900   104.5110     7.1620     8.0080     7.7350    26.4060 
  157.7500    -8.9410     2.3920   103.3600     7.3980     7.9210     7.7710    26.3890 
  157.8750    -9.0550     2.3920   101.1340     7.9410     8.0650     7.5590    26.3250 
  158.0000    -9.1560     2.3890   100.8280     8.8780     8.5790     7.6550    26.2880 
  158.1250    -9.2230     2.3790    98.9340    10.2620     9.6310     8.5820    26.2640 
  158.2500    -9.3540     2.3670    92.7160    11.8420    11.0960    10.5380    26.2530 
  158.3750    -9.4650     2.3560    85.3870    13.3960    12.7860    13.5760    26.2560 
  158.5000    -9.5920     2.3460    80.0710    14.8200    14.4530    18.4010    26.2760 
  158.6250    -9.7900     2.3370    77.5430    16.2030    15.9050    21.8010    26.2670 
  158.7500   -10.0420     2.3290    77.8050    18.0650    17.3300    17.0950    26.2470 
  158.8750   -10.2790     2.3200    78.7220    20.8550    19.1480    15.1980    26.2250 
  159.0000   -10.5250     2.3110    76.2570    24.8220    21.8350    21.1570    26.1540 
  159.1250   -10.7420     2.3060    69.5500    29.9460    25.8850    33.3040    25.9660 
  159.2500   -10.8810     2.3050    65.1070    34.8680    30.8780    38.2100    25.6760 
  159.3750   -11.0260     2.3070    66.8030    39.4510    36.0190    35.4170    25.4010 
  159.5000   -11.1430     2.3090    71.9520    43.1400    40.2830    28.0260    25.2370 
  159.6250   -11.2350     2.3080    72.8940    45.8020    43.0020    31.9340    25.2040 
  159.7500   -11.3280     2.3020    71.2990    48.3390    45.1250    33.2070    25.1890 
  159.8750   -11.4250     2.2930    69.9310    51.7210    47.7380    33.2250    25.1360 
  160.0000   -11.5260     2.2830    68.3680    56.7960    51.7160    38.0670    25.1230 
  160.1250   -11.6400     2.2750    65.2730    64.5130    58.0580    47.1200    25.2600 
  160.2500   -11.7510     2.2680    62.5200    74.5250    66.7720    62.2750    25.5780 
  160.3750   -11.7960     2.2630    60.9320    86.2480    77.5980    79.2560    26.0360 
  160.5000   -11.8750     2.2600    59.1240    98.5500    89.4590    95.6950    26.3810 
  160.6250   -11.9190     2.2560    59.1420   109.7550   100.2890   112.3360    26.5150 
  160.7500   -11.9120     2.2490    61.5360   119.1040   108.9750   120.9730    26.5300 
  160.8750   -11.9150     2.2360    63.3670   126.8150   115.7370   117.5290    26.5160 
  161.0000   -11.8480     2.2210    63.0530   133.6930   121.4910   112.1660    26.5110 
  161.1250   -11.7640     2.2130    61.5080   140.1590   127.1000   117.6770    26.5550 
  161.2500   -11.7210     2.2170    60.5210   145.3940   132.5530   135.2600    26.4940 
  161.3750   -11.6870     2.2330    61.6280   147.3190   136.8260   141.6820    26.2090 
  161.5000   -11.6330     2.2520    65.3350   143.2930   138.1260   127.1880    25.8220 
  161.6250   -11.5610     2.2620    67.5110   129.7510   132.3080    94.0940    25.4660 
  161.7500   -11.5160     2.2600    66.5390   108.3330   117.0150    77.4780    25.3010 
  161.8750   -11.4910     2.2500    64.5430    82.3950    92.7300    78.6540    25.3690 
  162.0000   -11.4720     2.2420    64.8560    57.2680    65.2350    86.6730    25.6640 
  162.1250   -11.4820     2.2430    67.8070    38.2170    42.9430    72.5810    26.0620 
