~V
VERS. 2.00: Ver 2.00
~W
STRT.M 50.0000:
STOP.M 199.0000:
STEP.M 0.1250:
NULL. -999.2500:
UWI. F10575:
~C
DEPT.M :
DEN.GM/CC :
SP.MV :
GR.API :
RML.OHMM :
RI. :
RXO.OHMM :
CALI.CM :
~A
# ...
   61.2500     2.2400    -6.8510    45.0290     7.3860     7.0750     8.0680    29.7820 
   61.3750     2.2400    -9.2280    45.6740     7.6560     7.5840     8.6330    29.8800 
   61.5000     2.2210   -10.8830    43.0510     7.8310     7.9380     8.7310    29.8910 
   61.6250     2.1950   -12.1900    41.7170     7.8550     8.1130     8.6740    29.8980 
   61.7500     2.1780   -13.4700    43.6810     7.8110     8.1630     8.6080    29.9290 
   61.8750     2.1730   -14.8010    46.8390     7.7710     8.1270     8.8590    30.0040 
   62.0000     2.1780   -16.1070    48.7750     7.7850     8.0360     9.1890    30.1530 
   62.1250     2.1870   -17.2770    47.8040     7.8610     7.9130     8.8890    30.3740 
   62.2500     2.1900   -18.3530    45.8330     7.9600     7.7860     8.4210    30.5990 
   62.3750     2.1870   -19.3600    44.6860     8.0570     7.6740     8.2400    30.7370 
   62.5000     2.1860   -20.2640    44.0800     8.1370     7.5950     8.4290    30.8010 
   62.6250     2.1890   -21.0920    41.9810     8.2010     7.5670     8.4150    30.8520 
   62.7500     2.1880   -21.8960    39.4050     8.2640     7.5770     8.2330    30.9080 
   62.8750     2.1790   -22.6460    38.7080     8.3260     7.6120     8.2160    30.9320 
   63.0000     2.1680   -23.3460    39.7440     8.3800     7.6530     8.3770    30.9360 
   63.1250     2.1640   -24.0110    40.2830     8.4180     7.6910     8.6390    30.9360 
   63.2500     2.1710   -24.6370    39.9750     8.4260     7.7340     8.6700    30.9360 
   63.3750     2.1820   -25.2260    40.0710     8.3620     7.8000     8.4480    30.9360 
   63.5000     2.1930   -25.7810    40.6550     8.2030     7.8990     8.4130    30.9360 
   63.6250     2.2030   -26.3020    41.3900     7.9680     8.0090     8.4660    30.9360 
   63.7500     2.2120   -26.7760    41.9160     7.7540     8.0800     8.5940    30.9360 
   63.8750     2.2240   -27.2090    41.8780     7.6250     8.0740     8.6920    30.9380 
   64.0000     2.2350   -27.6060    41.8330     7.5870     7.9810     8.6890    30.9640 
   64.1250     2.2360   -27.9860    43.2070     7.5660     7.8270     8.3400    31.0030 
   64.2500     2.2220   -28.3930    46.0020     7.4640     7.6720     7.7780    30.9290 
   64.3750     2.2000   -28.7960    47.3680     7.2860     7.5570     7.6170    30.6550 
   64.5000     2.1870   -29.1870    46.7620     7.1300     7.5020     7.8600    30.4670 
   64.6250     2.1860   -29.6260    46.2220     7.1410     7.5240     7.7530    30.4120 
   64.7500     2.1820   -30.1330    45.8870     7.3410     7.6160     7.7800    30.1730 
   64.8750     2.1670   -30.6850    44.9630     7.6770     7.7820     8.2730    29.5210 
   65.0000     2.1500   -31.2740    43.5550     8.0440     8.0180     9.3070    28.7240 
   65.1250     2.1510   -31.8630    42.7720     8.3130     8.2980     9.8800    28.1860 
   65.2500     2.1670   -32.4190    42.6250     8.4530     8.5530     9.9090    27.9800 
   65.3750     2.1860   -32.9560    42.7600     8.4900     8.7210     9.8090    27.9010 
   65.5000     2.1960   -33.4780    42.2820     8.4780     8.7670     9.8350    27.7930 
   65.6250     2.1950   -33.9310    40.5450     8.4720     8.6930     9.8300    27.6210 
   65.7500     2.1920   -34.3170    39.1120     8.5020     8.5790     9.6060    27.5000 
   65.8750     2.1890   -34.6620    39.4890     8.5680     8.4820     9.3350    27.4150 
   66.0000     2.1800   -35.0100    41.4430     8.6460     8.4450     9.3990    27.3130 
   66.1250     2.1630   -35.3510    43.3900     8.7320     8.4980     9.7740    27.1450 
   66.2500     2.1490   -35.6410    43.8650     8.8570     8.6060    10.0880    26.9440 
   66.3750     2.1450   -35.9080    43.5030     9.0490     8.7160    10.1970    26.7980 
   66.5000     2.1440   -36.1750    42.9810     9.2820     8.7650    10.1940    26.7380 
   66.6250     2.1380   -36.3810    42.3230     9.4370     8.6930    10.1400    26.7310 
   66.7500     2.1390   -36.5020    41.4050     9.4090     8.5140    10.0190    26.7310 
   66.8750     2.1610   -36.5360    41.1990     9.1920     8.2840     9.9300    26.7290 
   67.0000     2.2100   -36.4500    41.5440     8.9470     8.1270    10.0210    26.7290 
   67.1250     2.2790   -36.2320    40.8000     9.1070     8.3200    10.2120    26.7330 
   67.2500     2.3600   -35.8890    39.5410    10.0630     9.1130    10.5030    26.7490 
   67.3750     2.4600   -35.4080    39.8430    12.2150    10.8620    12.2240    26.7780 
   67.5000     2.5750   -34.8080    40.5530    15.9550    14.0270    17.7010    26.7910 
   67.6250     2.6700   -34.1700    39.7770    21.7500    19.3720    35.7600    26.7720 
   67.7500     2.7170   -33.5390    39.8010    28.4760    26.2780    58.2500    26.7230 
   67.8750     2.7250   -32.9210    41.5250    34.0640    33.0250    67.1570    26.6570 
   68.0000     2.7240   -32.3790    42.3290    36.1960    37.0340    59.9220    26.5780 
   68.1250     2.7230   -31.9320    40.7540    33.8900    36.4690    48.9090    26.4910 
   68.2500     2.7180   -31.6070    40.8060    29.7860    33.4680    41.2350    26.3960 
   68.3750     2.7080   -31.4240    43.3290    25.5800    29.7160    31.0200    26.2750 
   68.5000     2.6960   -31.3480    45.2510    21.8630    25.9600    19.4440    26.1730 
   68.6250     2.6780   -31.2760    44.0220    18.5070    22.1510    13.6950    26.1460 
   68.7500     2.6500   -31.1460    41.6620    15.2360    18.2080    11.8870    26.1930 
   68.8750     2.6030   -30.9520    41.8720    12.1440    14.3740    10.9230    26.3240 
   69.0000     2.5290   -30.6460    46.8390     9.4910    11.0270     9.1430    26.5380 
   69.1250     2.4400   -30.2340    53.5300     7.5930     8.5720     6.9050    26.7570 
   69.2500     2.3690   -29.7790    57.4870     6.3710     6.9160     5.3300    26.8840 
   69.3750     2.3320   -29.2970    58.1630     5.7220     5.9530     4.9380    26.8850 
   69.5000     2.3190   -28.8210    58.8550     5.5060     5.5290     5.0010    26.8340 
   69.6250     2.3120   -28.3890    60.1340     5.6120     5.5180     5.2010    26.8070 
   69.7500     2.2970   -28.0460    60.9330     5.8410     5.6860     5.5510    26.7870 
   69.8750     2.2790   -27.8440    61.3900     6.0790     5.9030     5.7520    26.7560 
   70.0000     2.2660   -27.7650    60.4880     6.2760     6.0920     5.8170    26.7350 
   70.1250     2.2700   -27.8260    57.5660     6.4830     6.2770     6.4550    26.7280 
   70.2500     2.2900   -28.0120    54.8400     6.8520     6.5970     7.7230    26.7280 
   70.3750     2.3200   -28.2670    52.9860     7.6000     7.2490     8.6510    26.7280 
   70.5000     2.3480   -28.5220    50.1190     9.0150     8.4690     8.7480    26.7360 
   70.6250     2.3780   -28.7340    45.3810    11.4720    10.6330    11.2920    26.7920 
   70.7500     2.4290   -28.9400    42.8250    14.6330    13.6410    17.7270    26.9010 
   70.8750     2.4970   -29.1410    44.2240    17.7970    17.0570    30.5540    26.9920 
   71.0000     2.5410   -29.3400    47.8800    19.9880    19.8640    39.7720    27.0280 
   71.1250     2.5010   -29.5010    49.2980    20.2280    20.5980    30.5890    27.0230 
   71.2500     2.3950   -29.5840    47.8410    19.0660    19.6020    17.1700    27.0410 
   71.3750     2.2790   -29.6020    46.9890    17.3470    17.8590    13.1980    27.1380 
   71.5000     2.1940   -29.5780    49.0980    15.8450    16.2680    14.1750    27.3090 
   71.6250     2.1590   -29.5810    50.8710    15.0290    15.3290    15.4490    27.5490 
   71.7500     2.1580   -29.5710    49.3650    14.7200    14.8640    12.8070    27.7590 
   71.8750     2.1740   -29.4660    47.3990    14.6290    14.5940    11.1120    27.9240 
   72.0000     2.1920   -29.2780    47.2760    14.4610    14.2710    11.0850    28.0710 
   72.1250     2.2030   -29.0790    47.8260    14.0680    13.8110    11.6330    28.2080 
   72.2500     2.2070   -28.8630    48.1220    13.6110    13.3730    10.7290    28.3520 
   72.3750     2.2060   -28.6570    48.3110    13.3040    13.1270     9.0620    28.5300 
