~V
VERS. 2.00: Ver 2.00
~W
STRT.M 52.0000:
STOP.M 224.0000:
STEP.M 0.1250:
NULL. -999.2500:
UWI. F10595:
~C
DEPT.M :
GR.API :
RML.OHMM :
RI. :
RXO.OHMM :
CALI.CM :
DEN.GM/CC :
SP.MV :
~A
# ...
  119.5000    57.8950    74.5480    65.2180    57.7250    22.6140     2.1280   -10.8850 
  119.6250    53.6500    74.7190    65.1160    65.8230    22.9510     2.1160   -10.8030 
  119.7500    53.1670    76.2790    66.3110    79.2410    23.4880     2.1060   -10.6790 
  119.8750    54.9540    78.0870    67.9480    82.1690    23.7470     2.1030   -10.5250 
  120.0000    55.4080    79.3540    69.3490    73.1020    23.5820     2.1080   -10.3510 
  120.1250    54.6130    79.5400    69.9770    66.3790    23.2210     2.1160   -10.1640 
  120.2500    55.9600    77.9300    69.1360    69.4880    22.9080     2.1230    -9.9770 
  120.3750    58.9930    74.2810    66.5420    70.2630    22.7560     2.1280    -9.7960 
  120.5000    60.1760    68.4190    61.9780    67.5890    22.7000     2.1340    -9.6270 
  120.6250    58.6000    60.8550    55.7670    65.6940    22.6420     2.1440    -9.4730 
  120.7500    59.9790    52.9840    48.9330    57.9170    22.6650     2.1560    -9.3470 
  120.8750    64.9950    46.4040    42.9130    47.2430    22.6960     2.1640    -9.2430 
  121.0000    68.0750    41.9460    38.5330    38.8470    22.7310     2.1660    -9.1610 
  121.1250    64.5290    39.8590    36.1070    36.6970    22.7470     2.1630    -9.1010 
  121.2500    59.4910    40.3760    35.9180    37.7910    22.7510     2.1580    -9.0570 
  121.3750    58.8420    42.8340    37.4920    40.2900    22.7600     2.1500    -9.0250 
  121.5000    59.5430    46.7540    40.5570    44.1150    22.7760     2.1390    -8.9990 
  121.6250    58.3030    51.2700    44.5110    49.2300    22.8030     2.1350    -8.9730 
  121.7500    56.7150    54.8420    48.1400    52.5050    22.8090     2.1590    -8.9360 
  121.8750    58.1730    56.3340    50.2410    53.6670    22.7980     2.2280    -8.8830 
  122.0000    60.0640    55.3830    50.2570    52.0480    22.7910     2.3410    -8.8080 
  122.1250    58.2900    52.5550    48.4420    48.2150    22.7940     2.4680    -8.7110 
  122.2500    54.4230    49.0390    45.6430    41.0440    22.8010     2.5480    -8.5830 
  122.3750    51.5640    46.0030    42.9460    37.7040    22.8200     2.5610    -8.4300 
  122.5000    50.3280    43.7850    40.7610    36.0660    22.8390     2.5240    -8.2500 
  122.6250    50.8840    42.2870    39.1510    37.7670    22.8590     2.4670    -8.0490 
  122.7500    52.4490    41.1450    38.0060    38.9800    22.9200     2.4180    -7.8320 
  122.8750    52.6670    39.8610    36.9820    37.6420    23.0340     2.3900    -7.6110 
  123.0000    51.4160    38.2630    35.8990    35.2920    23.1260     2.3880    -7.3950 
  123.1250    49.8700    36.4730    34.7390    35.2950    23.0970     2.4060    -7.1890 
  123.2500    49.3630    34.7380    33.5890    34.2160    22.9540     2.4350    -7.0070 
  123.3750    49.5970    33.1600    32.4880    31.3650    22.7320     2.4590    -6.8490 
  123.5000    51.1770    31.6730    31.3560    28.3850    22.4030     2.4680    -6.7250 
  123.6250    54.4390    30.1050    30.0170    29.2060    22.1470     2.4600    -6.6370 
  123.7500    58.6530    28.2400    28.2450    32.8720    22.0840     2.4380    -6.5900 
  123.8750    62.4880    26.1530    26.1730    30.6410    22.1560     2.4070    -6.5760 
  124.0000    64.5290    24.0610    24.0540    26.1430    22.2560     2.3740    -6.5910 
  124.1250    65.4150    22.1980    22.1260    22.5960    22.3320     2.3440    -6.6360 
  124.2500    64.4060    20.8370    20.6280    19.8830    22.3870     2.3280    -6.7120 
  124.3750    62.1980    19.9920    19.5890    19.2410    22.3950     2.3290    -6.8090 
  124.5000    61.1560    19.5900    18.9980    19.7810    22.3770     2.3480    -6.9270 
  124.6250    62.2970    19.4840    18.7710    19.6030    22.3690     2.3810    -7.0570 
  124.7500    64.1560    19.6420    18.8820    18.6060    22.4410     2.4210    -7.2000 
  124.8750    65.2620    20.1620    19.3450    20.6590    22.5060     2.4570    -7.3490 
  125.0000    65.8290    21.2820    20.3260    24.3110    22.5400     2.4870    -7.5000 
  125.1250    65.1270    23.2380    22.0280    27.0010    22.5170     2.5110    -7.6420 
  125.2500    61.4210    26.2550    24.7360    26.0620    22.5380     2.5310    -7.7660 
  125.3750    56.5250    29.8380    28.1340    30.3070    22.6320     2.5490    -7.8730 
  125.5000    52.1380    33.1850    31.5600    40.5720    22.7220     2.5650    -7.9580 
  125.6250    51.2330    35.1070    33.8230    46.8710    22.7210     2.5820    -8.0230 
  125.7500    54.4500    34.0100    33.1600    35.6940    22.5980     2.5860    -8.0620 
  125.8750    55.7560    30.2980    29.8170    25.9750    22.4730     2.5590    -8.0810 
  126.0000    54.5010    25.1460    24.9570    22.8180    22.5150     2.4970    -8.0810 
  126.1250    55.6460    20.1220    20.1230    19.9410    22.6920     2.4120    -8.0700 
  126.2500    63.4230    16.7040    16.6300    16.3100    22.8490     2.3350    -8.0510 
  126.3750    70.7980    15.1100    14.6150    13.5280    22.9150     2.2970    -8.0340 
  126.5000    70.7840    15.3120    14.0250    12.4480    22.9350     2.3140    -8.0250 
  126.6250    64.2310    17.1760    14.8050    13.7820    22.9510     2.3790    -8.0290 
  126.7500    57.8770    20.6910    17.1780    21.3670    22.9990     2.4580    -8.0610 
  126.8750    54.6520    25.1050    20.7440    31.4070    23.0640     2.5100    -8.1220 
  127.0000    52.2450    29.6550    24.9610    35.2230    23.0910     2.5290    -8.2170 
  127.1250    50.0560    33.5390    29.0010    31.9920    22.9990     2.5330    -8.3490 
  127.2500    49.9550    36.1250    32.0060    29.3970    22.7300     2.5500    -8.5230 
  127.3750    51.5200    37.6660    33.9760    30.6300    22.5210     2.5850    -8.7230 
  127.5000    53.0610    38.2850    35.0080    37.0800    22.5440     2.6170    -8.9410 
  127.6250    52.8330    37.9360    35.0880    41.8690    22.7340     2.6240    -9.1640 
  127.7500    50.8530    36.3270    33.8900    41.9250    22.8200     2.5910    -9.3720 
  127.8750    50.2610    33.8520    31.7290    37.0430    22.8010     2.5410    -9.5550 
  128.0000    51.5490    31.1020    29.1260    31.1560    22.7830     2.4920    -9.7050 
  128.1250    52.5860    28.8020    26.7450    27.2660    22.8120     2.4580    -9.8110 
  128.2500    52.2920    27.7390    25.3040    27.2050    22.7890     2.4450    -9.8620 
  128.3750    52.0050    27.9390    24.9160    27.0030    22.6470     2.4480    -9.8670 
  128.5000    51.5280    29.2570    25.5310    25.6390    22.4510     2.4620    -9.8290 
  128.6250    49.6360    31.3610    26.9390    24.9620    22.3190     2.4800    -9.7630 
  128.7500    47.5840    33.7880    28.8280    28.7930    22.3260     2.4930    -9.6720 
  128.8750    47.5400    35.9530    30.6840    35.8820    22.4520     2.5030    -9.5740 
  129.0000    49.6500    37.5120    32.1800    39.0810    22.6610     2.5150    -9.4760 
  129.1250    51.8060    38.3450    33.1540    38.7160    22.8390     2.5270    -9.3880 
  129.2500    51.7570    38.4890    33.5580    42.9380    22.9590     2.5320    -9.3220 
  129.3750    50.0800    38.3360    33.6330    45.3140    23.0340     2.5240    -9.2810 
  129.5000    47.8090    38.1850    33.5720    40.6590    23.0620     2.5060    -9.2700 
  129.6250    46.4500    38.2870    33.5760    37.7720    23.0570     2.4910    -9.2930 
  129.7500    47.3740    38.8790    33.8530    37.6280    22.9920     2.4930    -9.3560 
  129.8750    49.1090    39.9590    34.4770    37.9590    22.9940     2.5080    -9.4520 
  130.0000    49.2790    41.4950    35.4900    37.9280    23.0660     2.5280    -9.5790 
  130.1250    48.5320    43.2650    36.7870    38.7910    23.1630     2.5400    -9.7290 
  130.2500    48.7630    44.7160    37.9990    41.8810    23.1890     2.5390    -9.9030 
  130.3750    49.1870    45.4200    38.7310    44.3950    23.1150     2.5330   -10.0820 
  130.5000    50.1320    45.3260    38.8720    45.3430    22.9970     2.5250   -10.2590 
  130.6250    52.3090    44.7830    38.6280    44.4820    22.8810     2.5200   -10.4190 
