~V
VERS. 2.00: Ver 2.00
~W
STRT.M 42.0000:
STOP.M 195.0000:
STEP.M 0.1250:
NULL. -999.2500:
UWI. F10590:
~C
DEPT.M :
GR.API :
RML.OHMM :
RI. :
RXO.OHMM :
CALI.CM :
DEN.GM/CC :
SP.MV :
~A
# ...
  188.2500    88.7080     6.7120     5.6930     5.8920    22.1810     2.3050   -18.8590 
  188.3750    88.7080     6.5650     5.5800     5.6400    22.1760     2.2880   -18.5410 
  188.5000    88.7080     6.4540     5.4900     5.4120    22.1800     2.2760   -18.2260 
  188.6250    88.7080     6.3900     5.4530     5.2600    22.1820     2.2700   -17.9150 
  188.7500    88.7080     6.3490     5.4580     5.1950    22.1830     2.2690   -17.6600 
  188.8750    88.7080     6.3180     5.4850     5.1520    22.1830     2.2690   -17.5050 
  189.0000    88.7080     6.2930     5.5110     5.1600    22.1830     2.2600   -17.4170 
  189.1250    88.7080     6.2820     5.5220     5.1640    22.1830     2.2420   -17.4520 
  189.2500    88.7080     6.2900     5.5200     5.1430    22.1830     2.2150   -17.5440 
  189.3750    88.7080     6.3120     5.5130     5.0710    22.1830     2.1840   -17.6550 
  189.5000    88.7080     6.3420     5.5040     4.9980    22.1890     2.1530   -17.8050 
  189.6250    88.7080     6.3680     5.4950     5.0200    22.2080     2.1250   -18.0190 
  189.7500    88.7080     6.3850     5.4860     4.9700    22.2320     2.1000   -18.2250 
  189.8750    88.7080     6.3880     5.4820     4.8730    22.2350     2.0770   -18.3700 
  190.0000    88.7080     6.3800     5.4870     4.8370    22.2110     2.0570   -18.4730 
  190.1250    88.7080     6.3630     5.5030     4.8380    22.1600     2.0400   -18.5410 
  190.2500    88.7080     6.3480     5.5200     4.9430    22.1350     2.0240   -18.5820 
  190.3750    88.7080     6.3410     5.5330     5.0990    22.1290     2.0080   -18.6130 
  190.5000    88.7080     6.3400     5.5370     5.2180    22.1310     1.9890   -18.6050 
  190.6250    88.7080     6.3440     5.5290     5.2560    22.1340     1.9670   -18.5750 
  190.7500    88.7080     6.3510     5.5170     5.1580    22.1350     1.9440   -18.5480 
  190.8750    88.7080     6.3550     5.5090     5.0530    22.1350     1.9200   -18.5030 
  191.0000    88.7080     6.3570     5.5060     4.9930    22.1350     1.8970   -18.4740 
  191.1250    88.7080     6.3570     5.5060     4.9300    22.1350     1.8750   -18.4290 
  191.2500    88.7080     6.3570     5.5060     4.8660    22.1350     1.8530   -18.4050 
  191.3750    88.7080     6.3570     5.5060     4.8740    22.0980     1.8300   -18.3900 
  191.5000    88.7080     6.3570     5.5060     4.9340    21.9810     1.8060   -18.4160 
  191.6250    88.7080     6.3570     5.5060     5.0140    21.7310     1.7810   -18.4610 
  191.7500    88.7080     6.3570     5.5060     5.0930    21.5590     1.7550   -18.4940 
  191.8750    88.7080     6.3570     5.5060     5.1400    21.4220     1.7320   -18.5490 
  192.0000    88.7080     6.3570     5.5060     5.1320    21.3470     1.7120   -18.5780 
  192.1250    88.7080     6.3570     5.5060     5.1100    21.3240     1.6960   -18.5940 
  192.2500    88.7080     6.3570     5.5060     5.1210    21.2960     1.6840   -18.6220 
  192.3750    88.7080     6.3570     5.5060     5.1690    21.1720     1.6740   -18.6410 
  192.5000    88.7080     6.3570     5.5060     5.2930    20.9210     1.6630   -18.6170 
  192.6250    88.7080     6.3570     5.5060     5.4890    20.6680     1.6520   -18.5570 
  192.7500    88.7080     6.3570     5.5060     5.6760    20.4970     1.6390   -18.5180 
  192.8750    88.7080     6.3570     5.5060     5.7230    20.3450     1.6280   -18.4980 
  193.0000    88.7080     6.3570     5.5060     5.6220    20.1380     1.6220   -18.4980 
  193.1250    88.7080     6.3570     5.5060     5.4290    19.8010     1.6210   -18.4950 
  193.2500    88.7080     6.3570     5.5060     5.1880    19.1260     1.6230   -18.4600 
  193.3750    88.7080     6.3570     5.5060     4.9690    18.2440     1.6260   -18.4440 
  193.5000    88.7080     6.3570     5.5060     4.8650    17.6220     1.6270   -18.4340 
  193.6250    88.7080     6.3570     5.5060     4.8400    17.3940     1.6250   -18.4260 
  193.7500    88.7080     6.3570     5.5060     4.8400    17.3850     1.6210  -999.2500 
  193.8750    88.7080     6.3570     5.5060     4.8400    17.3790     1.6180  -999.2500 
  194.0000    88.7080     6.3570     5.5060     4.8400    17.3740     1.6160  -999.2500 
  194.1250    88.7080     6.3570     5.5060     4.8400    17.3700     1.6160  -999.2500 
  194.2500    88.7080     6.3570     5.5060     4.8390    17.3700     1.6180  -999.2500 
  194.3750    88.7080     6.3570     5.5060     4.8380    17.3690     1.6210  -999.2500 
  194.5000    88.7080     6.3570     5.5060     4.8390    17.3680     1.6230  -999.2500 
  194.6250    88.7080     6.3570     5.5060     4.8400    17.3650     1.6250  -999.2500 
  194.7500    88.7080     6.3570     5.5060     4.8400    17.3640     1.6260  -999.2500 
  194.8750    88.7080     6.3570     5.5060     4.8390    17.3630     1.6250  -999.2500 
  195.0000    88.7080     6.3570     5.5060     4.8400    17.3630     1.6220  -999.2500 
