~V
VERS. 2.00: Ver 2.00
~W
STRT.M 50.0000:
STOP.M 222.0000:
STEP.M 0.1250:
NULL. -999.2500:
UWI. F10580:
~C
DEPT.M :
DEN.GM/CC :
SP.MV :
GR.API :
RML.OHMM :
RI. :
RXO.OHMM :
CALI.CM :
~A
# ...
   95.0000     2.1890   -21.2100    86.9100    10.4180     8.0890     7.1360    22.8590 
   95.1250     2.1980   -21.0460    94.0740     9.4850     7.2640     5.9700    22.8600 
   95.2500     2.2120   -20.9410    99.8560     8.7580     6.5440     5.5160    22.8590 
   95.3750     2.2230   -20.8590   101.8640     8.3280     6.0340     5.3680    22.8600 
   95.5000     2.2250   -20.8370    98.6510     8.1890     5.7670     5.3040    22.8620 
   95.6250     2.2140   -20.8470    92.4160     8.3240     5.7640     5.4170    22.8620 
   95.7500     2.1990   -20.8740    86.9360     8.6610     5.9630     5.7820    22.8610 
   95.8750     2.1900   -20.9110    82.0190     9.2310     6.3680     6.4380    22.8590 
   96.0000     2.1950   -20.9410    78.6850    10.0860     6.9990     7.1350    22.8670 
   96.1250     2.2240   -20.9410    79.3090    11.2790     7.9040     8.0220    22.8880 
   96.2500     2.2730   -20.8680    80.8470    12.6470     8.9930     9.8210    22.9190 
   96.3750     2.3210   -20.7630    79.3360    13.9630    10.1350    12.5510    22.9360 
   96.5000     2.3250   -20.5990    76.2830    14.9420    11.1240    13.5090    22.9400 
   96.6250     2.2640   -20.4240    76.7090    15.2710    11.6750    11.5240    22.9390 
   96.7500     2.1960   -20.2420    77.6060    15.0850    11.7870    10.1120    22.9350 
   96.8750     2.1560   -20.0650    74.3440    14.5960    11.5650     9.8350    22.9330 
   97.0000     2.1480   -19.8910    68.9990    14.0480    11.1880     9.6940    22.9330 
   97.1250     2.1680   -19.7430    68.3250    13.6110    10.8060     9.3300    22.9460 
   97.2500     2.2070   -19.6380    72.1480    13.2070    10.4210     8.9090    22.9950 
   97.3750     2.2630   -19.5140    76.3080    12.6580     9.9160     8.7100    23.1120 
   97.5000     2.3300   -19.4150    79.7640    11.8210     9.1900     8.4600    23.2410 
   97.6250     2.3760   -19.3180    86.4520    10.6600     8.2210     8.4010    23.3430 
   97.7500     2.3760   -19.2320    96.4080     9.3830     7.1760     7.8750    23.3770 
   97.8750     2.3450   -19.1510   105.1150     8.1940     6.2060     6.2790    23.3840 
   98.0000     2.3190   -19.1040   108.6440     7.2740     5.4400     5.2090    23.3840 
   98.1250     2.3150   -19.0690   107.6760     6.8050     5.0040     4.9180    23.3840 
   98.2500     2.3110   -19.0400   106.5370     6.7610     4.8770     4.9990    23.3840 
   98.3750     2.2940   -19.0800   106.6710     7.1140     5.0450     5.1410    23.3840 
   98.5000     2.2740   -19.1410   106.1100     7.7610     5.4520     5.5740    23.3840 
   98.6250     2.2610   -19.2050   101.7640     8.4770     5.9720     6.1360    23.4000 
   98.7500     2.2500   -19.2500    96.0560     8.9580     6.3880     6.4660    23.4580 
   98.8750     2.2380   -19.3050    93.8320     9.0230     6.5440     6.4750    23.5580 
   99.0000     2.2360   -19.3180    97.6660     8.6580     6.3850     5.9850    23.6740 
   99.1250     2.2530   -19.2980   106.1250     8.0250     5.9710     5.3140    23.7870 
   99.2500     2.2750   -19.2750   114.1290     7.4340     5.5180     4.8890    23.9100 
   99.3750     2.2890   -19.2240   119.1850     7.0510     5.1630     4.6840    23.9760 
   99.5000     2.2920   -19.1830   120.7470     6.9270     4.9740     4.7130    23.9930 
   99.6250     2.2850   -19.1410   120.0730     7.0380     4.9660     4.8820    23.9930 
   99.7500     2.2690   -19.1040   117.8480     7.2290     5.0480     4.9090    23.9930 
   99.8750     2.2480   -19.0350   113.5360     7.3890     5.1440     5.0420    23.9930 
  100.0000     2.2330   -18.9700   108.8450     7.4400     5.1880     5.1740    23.9930 
  100.1250     2.2370   -18.9130   105.1010     7.3580     5.1400     4.8330    23.9930 
  100.2500     2.2530   -18.8480   102.3550     7.2300     5.0410     4.5650    23.9930 
  100.3750     2.2690   -18.7680   101.6660     7.1270     4.9390     4.3920    23.9930 
  100.5000     2.2760   -18.6710   103.2650     7.0970     4.8750     4.3770    23.9930 
  100.6250     2.2700   -18.6000   104.8110     7.1580     4.8760     4.4620    23.9930 
  100.7500     2.2580   -18.5300   105.2200     7.2550     4.9150     4.5420    23.9930 
  100.8750     2.2500   -18.4920   105.6880     7.3350     4.9560     4.6390    23.9930 
  101.0000     2.2510   -18.4630   106.0710     7.3580     4.9680     4.7300    23.9930 
  101.1250     2.2630   -18.4710   104.8890     7.3100     4.9380     4.6680    23.9930 
  101.2500     2.2790   -18.5060   103.9760     7.2390     4.8950     4.6310    23.9930 
  101.3750     2.2990   -18.5410   104.3980     7.2110     4.8880     4.6550    23.9930 
  101.5000     2.3210   -18.5850   107.1050     7.3050     4.9690     4.7550    23.9930 
  101.6250     2.3310   -18.6390   109.3070     7.6160     5.2000     5.2200    23.9930 
  101.7500     2.3240   -18.7290   108.4370     8.1050     5.5500     5.4650    23.9930 
  101.8750     2.3120   -18.8230   104.4470     8.6770     5.9610     5.9820    23.9930 
  102.0000     2.3030   -18.9450   100.5410     9.1720     6.3410     6.7900    23.9920 
  102.1250     2.2880   -19.0410   100.4870     9.3660     6.5510     7.6880    23.9790 
  102.2500     2.2650   -19.1010   102.4630     9.2580     6.5650     7.0440    23.9510 
  102.3750     2.2450   -19.1700   104.8370     8.9710     6.4320     6.5880    23.9260 
  102.5000     2.2400   -19.2140   104.9650     8.6940     6.2560     6.1450    23.9140 
  102.6250     2.2420   -19.2280   102.4020     8.6240     6.1690     5.9350    23.8610 
  102.7500     2.2390   -19.1990   100.8250     8.7740     6.2200     5.7900    23.6940 
  102.8750     2.2300   -19.1600   101.7670     9.0690     6.3940     5.8160    23.4260 
  103.0000     2.2180   -19.0730   102.7630     9.3710     6.6140     5.9100    23.2290 
  103.1250     2.2100   -18.9440   100.6750     9.5070     6.7560     6.0080    23.1690 
  103.2500     2.2150   -18.8020    99.1620     9.4560     6.7610     5.7870    23.1620 
  103.3750     2.2330   -18.6460    99.6850     9.2750     6.6410     5.2820    23.1620 
  103.5000     2.2540   -18.4940   101.6310     9.0580     6.4530     4.9000    23.1650 
  103.6250     2.2550   -18.3430   103.6240     8.8900     6.2730     5.0600    23.1980 
  103.7500     2.2390   -18.2250   104.4960     8.7930     6.1540     5.8040    23.2970 
  103.8750     2.2220   -18.0890   103.8550     8.7590     6.1160     6.6700    23.4600 
  104.0000     2.2190   -17.9870   101.9880     8.7790     6.1570     6.3290    23.6140 
  104.1250     2.2320   -17.9380   100.8930     8.9050     6.2950     6.2590    23.6430 
  104.2500     2.2570   -17.9200    99.5910     9.2340     6.5640     6.6990    23.5430 
  104.3750     2.2890   -17.9150    97.6190     9.8430     7.0150     7.7590    23.3410 
  104.5000     2.3250   -17.9380    94.7630    10.6990     7.6460     7.9750    23.1970 
  104.6250     2.3680   -17.9930    90.0250    11.5820     8.3420     7.8990    23.1840 
  104.7500     2.4080   -18.0330    86.1830    12.1330     8.8520     9.3700    23.2930 
  104.8750     2.4220   -18.1140    87.5060    12.0840     8.9560    10.7460    23.5850 
  105.0000     2.3930   -18.1880    94.2600    11.4090     8.5740     9.3490    24.0640 
  105.1250     2.3390   -18.2600   101.7120    10.3620     7.8230     6.9980    24.4340 
  105.2500     2.2970   -18.3380   104.8560     9.3800     7.0350     6.2430    24.5700 
  105.3750     2.2780   -18.4110   104.2010     8.6640     6.3950     5.9920    24.5920 
  105.5000     2.2720   -18.4630   103.3920     8.2890     6.0000     5.7130    24.5920 
  105.6250     2.2700   -18.4740   103.8150     8.2850     5.9220     5.6480    24.5910 
  105.7500     2.2660   -18.4880   103.9430     8.5090     6.0660     5.8550    24.5760 
  105.8750     2.2590   -18.4550   102.4510     8.8660     6.3560     6.0190    24.5240 
  106.0000     2.2440   -18.4080    98.1470     9.2850     6.7230     6.0730    24.4120 
  106.1250     2.2220   -18.3240    93.0470     9.7090     7.1190     6.3030    24.2540 
