~V
VERS. 2.00: Ver 2.00
~W
STRT.M 50.0000:
STOP.M 199.0000:
STEP.M 0.1250:
NULL. -999.2500:
UWI. F10575:
~C
DEPT.M :
DEN.GM/CC :
SP.MV :
GR.API :
RML.OHMM :
RI. :
RXO.OHMM :
CALI.CM :
~A
# ...
  173.7500     2.2440   -19.7020    48.4340     5.6410     5.4380     5.2090    28.5450 
  173.8750     2.2520   -19.7390    45.3480     5.4530     5.2880     5.3910    29.6440 
  174.0000     2.2620   -19.7510    41.1550     5.3410     5.1230     5.1510    30.9870 
  174.1250     2.2890   -19.7480    37.1870     5.3370     4.9550     4.8610    31.0880 
  174.2500     2.3180   -19.7170    34.5910     5.3710     4.7920     4.7400    29.6760 
  174.3750     2.3290   -19.6500    33.5830     5.3680     4.6400     4.7110    28.5400 
  174.5000     2.3160   -19.5620    34.2170     5.2940     4.5160     4.6530    29.0360 
  174.6250     2.3040   -19.4780    35.4600     5.1820     4.4650     4.5340    30.5270 
  174.7500     2.3180   -19.4370    36.3920     5.0970     4.5110     4.4910    31.1320 
  174.8750     2.3590   -19.4180    38.8500     5.0840     4.6750     4.6760    29.8210 
  175.0000     2.4060   -19.4030    45.2860     5.1760     4.9570     5.2880    27.0200 
  175.1250     2.4320   -19.3970    51.7290     5.3890     5.3170     6.2730    24.9650 
  175.2500     2.4380   -19.4120    52.7900     5.6630     5.6490     6.8310    23.7830 
  175.3750     2.4360   -19.4640    49.6090     5.9220     5.8680     6.4770    23.0720 
  175.5000     2.4270   -19.5070    46.0410     6.0870     5.9270     6.0430    22.5260 
  175.6250     2.3960   -19.5390    44.9480     6.0660     5.8100     5.9810    22.2870 
  175.7500     2.3430   -19.5250    45.3450     5.8860     5.5940     5.9020    22.3570 
  175.8750     2.2790   -19.4700    46.3340     5.6050     5.3310     5.6740    23.0430 
  176.0000     2.2310   -19.3850    47.4630     5.2900     5.0570     5.2550    24.2650 
  176.1250     2.2250   -19.2460    46.7650     5.0080     4.8080     4.8690    24.7900 
  176.2500     2.2440   -19.1010    44.1340     4.7930     4.6050     4.5880    24.0410 
  176.3750     2.2560   -18.9610    41.3440     4.6660     4.4590     4.3720    23.5260 
  176.5000     2.2490   -18.8600    40.1850     4.6360     4.3640     4.2140    23.4920 
  176.6250     2.2380   -18.7670    39.6870     4.6750     4.2990     4.1660    23.2360 
  176.7500     2.2450   -18.6920    37.6780     4.7110     4.2350     4.1360    22.7240 
  176.8750     2.2700   -18.6860    35.8740     4.7070     4.1660     4.1090    22.4130 
  177.0000     2.2990   -18.7500    36.4420     4.6580     4.1130     4.1130    22.5050 
  177.1250     2.3160   -18.8950    37.5090     4.5760     4.1250     4.1180    22.6330 
  177.2500     2.3190   -19.0760    36.3330     4.5090     4.2290     4.1400    22.6720 
  177.3750     2.3180   -19.2630    34.7980     4.5040     4.4340     4.2130    22.5910 
  177.5000     2.3210   -19.4340    35.8660     4.5960     4.7250     4.4330    22.3830 
  177.6250     2.3250   -19.6090    38.7630     4.7920     5.0440     4.7870    22.1820 
  177.7500     2.3240   -19.8120    40.9850     5.0340     5.2960     5.0940    22.0900 
  177.8750     2.3210   -19.9780    42.4720     5.2630     5.4000     5.2320    22.1130 
  178.0000     2.3240   -20.0930    44.0310     5.4200     5.3190     5.0910    22.3590 
  178.1250     2.3390   -20.1490    43.5820     5.4500     5.0820     4.6820    23.0110 
  178.2500     2.3630   -20.1480    39.2910     5.3880     4.8120     4.2080    23.7980 
  178.3750     2.3900   -20.1420    33.6120     5.2590     4.5890     4.0120    24.6140 
  178.5000     2.4110   -20.1230    30.6170     5.0990     4.4480     4.0740    25.4580 
  178.6250     2.4120   -20.0900    31.0110     4.9590     4.3930     4.2020    26.1370 
  178.7500     2.3950   -20.0350    31.3560     4.8740     4.3820     4.2170    26.5600 
  178.8750     2.3690   -19.9840    32.3550     4.8600     4.3880     4.2130    27.1780 
  179.0000     2.3460   -19.9650    35.2540     4.9070     4.3960     4.2390    28.0760 
  179.1250     2.3440   -19.9610    37.0480     4.9800     4.4030     4.2540    28.6200 
  179.2500     2.3670   -19.9800    36.5430     5.0240     4.4100     4.2680    28.7510 
  179.3750     2.4040   -19.9890    36.1920     5.0290     4.4120     4.3410    28.3580 
  179.5000     2.4320   -20.0010    36.5150     5.0230     4.3960     4.4270    27.3600 
  179.6250     2.4380   -20.0590    36.5960     5.0270     4.3570     4.4380    26.3370 
  179.7500     2.4420   -20.1570    36.2080     5.0350     4.3110     4.4370    25.4890 
  179.8750     2.4610   -20.3140    36.8730     5.0480     4.2770     4.4710    24.6340 
  180.0000     2.4840   -20.5260    39.5930     5.0750     4.2790     4.5490    23.8080 
  180.1250     2.4790   -20.8480    45.1870     5.1750     4.3860     4.9270    23.2920 
  180.2500     2.4430   -21.2710    52.8300     5.4080     4.6510     5.5350    22.9550 
  180.3750     2.3980   -21.8080    61.7420     5.8220     5.1310     6.1030    22.8510 
  180.5000     2.3670   -22.4550    70.3350     6.4190     5.8530     6.8320    22.8530 
  180.6250     2.3570   -23.1200    75.0170     7.1920     6.8160     8.4480    22.8870 
  180.7500     2.3580   -23.7120    75.4700     8.0070     7.8360    10.4200    22.9420 
  180.8750     2.3610   -24.1300    74.5640     8.6660     8.6630    11.2700    22.9860 
  181.0000     2.3640   -24.3770    74.5330     8.9330     9.0220    10.8250    23.0460 
  181.1250     2.3700   -24.4220    72.8560     8.5540     8.6890    10.5760    23.1680 
  181.2500     2.3760   -24.2610    69.0800     7.7180     7.9200     9.7940    23.3170 
  181.3750     2.3750   -23.8810    66.5930     6.7110     6.9880     7.8940    23.5040 
  181.5000     2.3600   -23.3210    67.1630     5.8430     6.1280     5.9840    23.8860 
  181.6250     2.3330   -22.6360    66.6090     5.3560     5.5030     5.0830    24.4630 
  181.7500     2.3010   -21.9450    62.8670     5.1730     5.0960     4.6560    24.8570 
  181.8750     2.2570   -21.3320    59.0200     5.1800     4.8730     4.4170    25.2210 
  182.0000     2.1950   -20.7760    56.4110     5.2190     4.7880     4.1470    26.0950 
  182.1250     2.1340   -20.2510    52.9950     5.1250     4.7830     4.0130    28.3070 
  182.2500     2.1040   -19.7910    47.3700     4.9150     4.7820     3.9970    31.7270 
  182.3750     2.1120   -19.4030    39.9480     4.6890     4.7520     4.0530    35.1070 
  182.5000     2.1350   -19.0670    32.8640     4.5350     4.6850     4.0800    36.9060 
  182.6250     2.1510   -18.7650    29.2190     4.5070     4.5890     3.9850    37.0250 
  182.7500     2.1600   -18.4840    28.9690     4.5630     4.4870     3.8840    35.9370 
  182.8750     2.1750   -18.2220    28.8620     4.6510     4.3920     3.8120    33.8220 
  183.0000     2.2000   -17.9810    26.9920     4.7250     4.3140     3.7610    32.2210 
  183.1250     2.2420   -17.7760    26.1400     4.7680     4.2620     3.7340    32.0830 
  183.2500     2.2940   -17.5900    27.0030     4.7960     4.2240     3.7390    32.6720 
  183.3750     2.3460   -17.4450    27.3080     4.8050     4.1900     3.7390    33.3270 
  183.5000     2.3860   -17.3340    25.5350     4.7720     4.1520     3.7500    33.7500 
  183.6250     2.3910   -17.2330    24.5160     4.6680     4.1110     3.7270    33.3990 
  183.7500     2.3510   -17.1290    25.5840     4.5040     4.0770     3.7120    32.9870 
  183.8750     2.2760   -17.0390    25.8670     4.3040     4.0600     3.7090    33.3390 
  184.0000     2.2020   -16.9860    24.5560     4.1270     4.0660     3.7480    33.9130 
  184.1250     2.1680   -16.9750    23.6050     4.0520     4.0870     3.8180    34.7280 
  184.2500     2.1640   -16.9830    23.1530     4.0860     4.1070     3.7920    35.8720 
  184.3750     2.1670   -16.9720    22.9470     4.2140     4.1140     3.6660    37.1520 
  184.5000     2.1630   -16.9310    23.0950     4.3960     4.1000     3.5380    37.9680 
  184.6250     2.1560   -16.9110    23.8740     4.5600     4.0600     3.5410    38.1960 
  184.7500     2.1510   -16.8910    24.3040     4.6550     4.0030     3.6360    38.2000 
  184.8750     2.1510   -16.8580    24.3730     4.6730     3.9340     3.7440    38.0570 
