~V
VERS. 2.00: Ver 2.00
~W
STRT.M 58.0000:
STOP.M 203.0000:
STEP.M 0.1250:
NULL. -999.2500:
UWI. F10566:
~C
DEPT.M :
GR.API :
RML.OHMM :
RI. :
RXO.OHMM :
CALI.CM :
SP.MV :
DEN.GM/CC :
~A
# ...
  103.0000    76.8680    25.9900    21.5380    19.5170    24.4040    -6.5990     2.1700 
  103.1250    72.8010    29.5930    24.7920    19.9000    24.3800    -6.4890     2.1490 
  103.2500    69.0380    32.5440    27.5350    22.0720    24.3780    -6.3930     2.1380 
  103.3750    67.7160    34.9920    29.7770    27.4190    24.5070    -6.3180     2.1370 
  103.5000    69.5240    37.3550    31.7790    28.9290    24.8050    -6.2430     2.1400 
  103.6250    70.2240    40.3080    34.0480    28.4780    25.1040    -6.1580     2.1370 
  103.7500    67.6140    44.2690    37.0050    28.8590    25.3300    -6.0790     2.1250 
  103.8750    63.6870    49.4180    40.8700    32.5170    25.5340    -6.0060     2.1070 
  104.0000    59.2430    55.4430    45.4890    42.0070    25.8630    -5.9140     2.0920 
  104.1250    56.7640    60.9730    49.9780    48.9360    26.1500    -5.7960     2.0910 
  104.2500    57.9990    64.1410    52.9850    47.0170    26.2190    -5.7090     2.1010 
  104.3750    60.8610    63.7400    53.5230    41.4710    25.9860    -5.5950     2.1160 
  104.5000    62.9150    59.9740    51.4480    41.2370    25.5890    -5.4210     2.1350 
  104.6250    64.3400    54.4160    47.5470    36.5940    25.2180    -5.2820     2.1580 
  104.7500    67.5110    49.4310    43.6680    30.3930    24.9240    -5.0830     2.1830 
  104.8750    72.3610    46.2070    40.9470    26.6530    24.7640    -4.8980     2.2060 
  105.0000    76.6180    45.2010    39.9770    25.8600    24.6770    -4.6900     2.2180 
  105.1250    76.7580    46.6200    41.1010    27.3390    24.5660    -4.5440     2.2090 
  105.2500    72.6960    49.5170    43.5840    31.5940    24.4670    -4.3520     2.1860 
  105.3750    67.0650    53.0750    46.7510    39.7150    24.5000    -4.1530     2.1670 
  105.5000    62.9870    56.4200    49.8400    44.1600    24.7330    -3.9400     2.1690 
  105.6250    61.1050    58.7900    52.1290    37.9440    24.8860    -3.7960     2.2080 
  105.7500    59.2750    60.3150    53.6010    33.5130    24.7980    -3.6570     2.2670 
  105.8750    57.0900    61.3260    54.4740    39.3800    24.5890    -3.5860     2.3310 
  106.0000    55.5880    62.0840    55.0060    45.5490    24.4100    -3.5480     2.3840 
  106.1250    55.7990    62.5370    55.2470    46.9360    24.3190    -3.5390     2.4180 
  106.2500    56.3080    62.5100    55.1190    43.2690    24.2380    -3.5990     2.4370 
  106.3750    55.4210    61.8960    54.5110    39.6310    24.1510    -3.7060     2.4460 
  106.5000    53.9000    60.8390    53.4900    36.5070    24.0640    -3.8690     2.4420 
  106.6250    54.2780    59.7830    52.3880    35.4550    24.0110    -3.9820     2.4210 
  106.7500    57.9910    59.2120    51.6680    35.9720    23.9750    -4.1580     2.3890 
  106.8750    63.3160    59.3930    51.6360    37.3680    23.9660    -4.3280     2.3540 
  107.0000    66.1640    60.3760    52.3940    37.5220    23.9770    -4.5940     2.3290 
  107.1250    62.3130    62.0100    53.8800    37.0890    24.0870    -4.8410     2.3240 
  107.2500    56.8780    63.7410    55.6260    38.8650    24.2930    -5.0520     2.3320 
  107.3750    54.8910    65.1230    57.2570    44.0040    24.4690    -5.2490     2.3430 
  107.5000    56.7000    65.8620    58.4790    46.2550    24.5240    -5.4190     2.3500 
  107.6250    57.9590    65.8840    59.1300    45.8340    24.5250    -5.6140     2.3490 
  107.7500    56.3840    65.6420    59.4810    45.2230    24.5260    -5.7810     2.3460 
  107.8750    53.9670    65.4750    59.8010    45.3300    24.5330    -5.9350     2.3450 
  108.0000    54.4510    65.4430    60.2270    46.1220    24.5430    -6.0520     2.3450 
  108.1250    58.9380    64.8870    60.4280    47.5320    24.5590    -6.1270     2.3320 
  108.2500    62.4230    62.7960    59.6330    48.3950    24.5470    -6.2120     2.2990 
  108.3750    62.0590    58.4420    57.0720    49.7320    24.4770    -6.3030     2.2490 
  108.5000    60.4230    51.9740    52.4900    48.5810    24.4560    -6.4000     2.1910 
  108.6250    62.1500    44.6390    46.3960    44.9140    24.5820    -6.4820     2.1470 
  108.7500    67.4370    38.6640    40.3970    33.2660    24.6790    -6.5730     2.1280 
  108.8750    72.6970    35.3480    35.6590    23.4960    24.7080    -6.6580     2.1440 
  109.0000    75.7420    34.1390    32.9100    20.2730    24.7130    -6.7380     2.1960 
  109.1250    75.3400    34.1490    32.7170    21.0620    24.7210    -6.8000     2.2820 
  109.2500    69.7520    34.9270    34.2830    22.9460    24.6930    -6.8980     2.3780 
  109.3750    60.6410    35.4570    36.4800    27.8010    24.6080    -6.9690     2.4620 
  109.5000    55.1160    34.5520    37.5160    37.5860    24.5340    -7.0310     2.5160 
  109.6250    59.5850    30.9890    35.1980    37.7020    24.4640    -7.0880     2.5270 
  109.7500    67.5630    25.8890    30.1630    33.3710    24.3600    -7.1550     2.5130 
  109.8750    74.2710    21.1750    24.1510    26.2780    24.2650    -7.2010     2.4910 
  110.0000    78.9850    17.7830    18.9730    15.4430    24.2280    -7.2330     2.4730 
  110.1250    79.6170    16.3620    15.9070    11.3140    24.2390    -7.2900     2.4650 
  110.2500    75.2750    15.6390    14.6630    11.7110    24.2640    -7.3240     2.4640 
  110.3750    69.1760    15.4380    14.9420    17.4750    24.2880    -7.3860     2.4700 
  110.5000    65.5280    15.9700    16.4700    23.4310    24.3200    -7.4710     2.4820 
  110.6250    66.2660    17.8610    19.1420    21.3240    24.3360    -7.5620     2.5000 
  110.7500    66.5750    20.7390    22.4430    18.8970    24.3530    -7.6680     2.5130 
  110.8750    63.4660    23.9500    25.9320    22.5770    24.3940    -7.7660     2.5140 
  111.0000    59.2120    26.8750    29.0980    31.4800    24.4520    -7.8370     2.4970 
  111.1250    60.1400    28.7940    31.2140    41.0970    24.4780    -7.9010     2.4660 
  111.2500    64.0650    29.4560    32.0180    37.1850    24.3990    -7.9240     2.4350 
  111.3750    66.5520    28.9030    31.5040    30.2180    24.3000    -7.9670     2.4150 
  111.5000    67.4960    27.6070    30.0790    25.8180    24.2350    -8.0200     2.4100 
  111.6250    66.7570    26.3310    28.4540    25.8290    24.2260    -8.1050     2.4240 
  111.7500    64.6240    25.6260    27.2690    25.0380    24.2500    -8.1800     2.4490 
  111.8750    61.7980    25.6250    26.7560    24.4150    24.3170    -8.2490     2.4760 
  112.0000    59.3550    26.2080    26.8870    23.7870    24.3770    -8.3130     2.4940 
  112.1250    58.1490    27.1140    27.4980    27.1740    24.4200    -8.3560     2.4950 
  112.2500    58.7480    27.9810    28.2360    29.8320    24.4820    -8.4050     2.4850 
  112.3750    61.3470    28.6570    28.9200    29.9020    24.5680    -8.4390     2.4760 
  112.5000    62.6530    29.1510    29.4910    28.7720    24.6490    -8.4870     2.4780 
  112.6250    60.2590    29.6420    30.0370    27.8300    24.6860    -8.5240     2.4990 
  112.7500    58.5130    30.3520    30.7230    27.8810    24.6980    -8.5830     2.5240 
  112.8750    58.8650    31.3840    31.6380    30.8450    24.7000    -8.6290     2.5430 
  113.0000    60.1420    32.6840    32.7520    35.9600    24.6980    -8.6970     2.5480 
  113.1250    60.2900    34.0320    33.8870    39.2560    24.6870    -8.7870     2.5420 
  113.2500    59.1270    35.1530    34.8080    35.1130    24.6650    -8.8670     2.5380 
  113.3750    57.9500    35.9100    35.3820    30.7450    24.6460    -8.9200     2.5400 
  113.5000    57.8180    36.3060    35.6070    30.8210    24.6390    -8.9540     2.5450 
  113.6250    59.9470    36.4560    35.5780    33.8880    24.6380    -8.9610     2.5400 
  113.7500    60.9880    36.6050    35.5200    34.3480    24.6380    -8.9770     2.5170 
  113.8750    59.5380    36.9310    35.6090    31.2790    24.6400    -8.9790     2.4790 
  114.0000    56.6770    37.5720    35.9940    29.5890    24.6530    -8.9720     2.4410 
  114.1250    54.5050    38.6400    36.8330    30.6410    24.6710    -8.9400     2.4230 
