~V
VERS. 2.00: Ver 2.00
~W
STRT.M 40.0000:
STOP.M 191.0000:
STEP.M 0.1250:
NULL. -999.2500:
UWI. F10585:
~C
DEPT.M :
DEN.GM/CC :
SP.MV :
GR.API :
RML.OHMM :
RI. :
RXO.OHMM :
CALI.CM :
~A
# ...
  130.0000     2.4290    -9.1220    51.9660    18.5810    19.2880    18.7660    23.7910 
  130.1250     2.4520    -9.2630    48.9050    19.3620    20.2350    18.7840    23.7700 
  130.2500     2.4750    -9.4250    47.4320    20.9920    21.9160    20.7810    23.7500 
  130.3750     2.4990    -9.5690    49.8390    23.2810    24.1290    24.5110    23.7380 
  130.5000     2.5200    -9.6730    55.7560    25.8100    26.5190    30.1570    23.7340 
  130.6250     2.5290    -9.7880    61.5340    27.8920    28.5210    30.9410    23.7330 
  130.7500     2.5250    -9.9030    62.9330    29.0800    29.8080    32.2540    23.7470 
  130.8750     2.5070    -9.9900    61.9810    29.3080    30.2720    31.3190    23.7810 
  131.0000     2.4790   -10.0220    62.6610    28.8760    30.0260    28.0670    23.8210 
  131.1250     2.4550   -10.0030    64.7790    28.2710    29.3350    25.9140    23.8610 
  131.2500     2.4410    -9.9650    64.9030    27.7960    28.6030    26.1880    23.8870 
  131.3750     2.4360    -9.9180    63.3750    27.4770    28.0130    27.3260    23.9080 
  131.5000     2.4350    -9.8710    63.0950    27.3120    27.6470    27.3700    23.9050 
  131.6250     2.4380    -9.8030    62.9310    27.3250    27.5070    26.7550    23.8850 
  131.7500     2.4470    -9.7590    59.9570    27.3820    27.3910    26.5670    23.8730 
  131.8750     2.4680    -9.7700    57.0500    27.3140    27.1490    26.0890    23.8690 
  132.0000     2.4910    -9.8240    58.1700    27.0040    26.7230    25.8770    23.8690 
  132.1250     2.4930    -9.8970    62.1280    26.4270    26.1510    26.1160    23.8690 
  132.2500     2.4740    -9.9650    64.1490    25.7920    25.5860    24.8070    23.8690 
  132.3750     2.4520   -10.0640    64.4860    25.3520    25.1970    24.6700    23.8690 
  132.5000     2.4320   -10.2160    63.5610    25.2970    25.1690    26.8680    23.8690 
  132.6250     2.4070   -10.3750    63.2950    25.7390    25.7080    29.0160    23.8690 
  132.7500     2.3840   -10.5280    64.8350    26.5120    26.7010    31.7540    23.8690 
  132.8750     2.3740   -10.6760    66.7260    27.4750    27.9450    32.9650    23.8680 
  133.0000     2.3800   -10.8340    66.8670    28.4590    29.1350    35.6760    23.8660 
  133.1250     2.3930   -10.9700    64.4720    29.2770    29.9380    36.3380    23.8680 
  133.2500     2.4050   -11.1060    60.9240    29.8930    30.3590    33.7940    23.8690 
  133.3750     2.4150   -11.2240    58.4300    30.2960    30.5400    29.8830    23.8690 
  133.5000     2.4300   -11.3290    59.5670    30.4600    30.6350    28.1410    23.8690 
  133.6250     2.4560   -11.4700    61.9110    30.3250    30.6740    28.9000    23.8690 
  133.7500     2.4880   -11.5870    59.2510    29.9230    30.5440    30.6350    23.8690 
  133.8750     2.5140   -11.6710    53.8800    29.2580    30.0620    33.0110    23.8670 
  134.0000     2.5320   -11.7520    52.2100    28.3840    29.1300    32.5840    23.8570 
  134.1250     2.5510   -11.8880    54.9360    27.4610    27.8190    29.1440    23.8310 
  134.2500     2.5770   -12.0580    57.6350    26.6700    26.4510    24.5680    23.8080 
  134.3750     2.5960   -12.2190    59.0550    26.0730    25.2210    23.5090    23.7990 
  134.5000     2.5910   -12.3520    59.6830    25.6650    24.2870    23.7080    23.7960 
  134.6250     2.5600   -12.4630    59.8450    25.4340    23.8860    27.0430    23.7900 
  134.7500     2.5280   -12.6120    60.0800    25.4240    24.0450    26.0360    23.7840 
  134.8750     2.5120   -12.7650    61.2110    25.8310    24.7990    24.4760    23.7840 
  135.0000     2.5170   -12.8960    62.7790    26.8420    26.1200    25.7630    23.7920 
  135.1250     2.5320   -13.0170    63.5400    28.4370    27.8640    31.3610    23.7950 
  135.2500     2.5350   -13.1560    63.8600    30.0340    29.5300    33.1090    23.7950 
  135.3750     2.5200   -13.3510    63.7910    31.0550    30.6290    32.2170    23.7950 
  135.5000     2.4910   -13.5750    63.6730    31.1100    30.8050    31.2030    23.7950 
  135.6250     2.4580   -13.8290    62.9710    30.1840    29.9360    29.6450    23.8130 
  135.7500     2.4350   -14.1070    62.6860    29.0410    28.6830    28.1600    23.8600 
  135.8750     2.4290   -14.4350    63.9810    28.2400    27.6100    26.8240    23.9120 
  136.0000     2.4400   -14.7910    66.0190    28.0410    27.0360    26.7010    23.9380 
  136.1250     2.4660   -15.1390    67.3160    28.3970    27.0200    27.8110    23.9380 
  136.2500     2.4870   -15.4690    66.8110    28.8590    27.2130    30.2190    23.9260 
  136.3750     2.4890   -15.7810    66.5260    28.9900    27.2710    32.5030    23.8980 
  136.5000     2.4740   -16.0930    68.4810    28.4290    26.8910    30.0080    23.8760 
  136.6250     2.4630   -16.3680    69.4460    27.0190    25.9780    27.0920    23.8700 
  136.7500     2.4620   -16.6000    67.3320    25.3040    24.9300    27.0650    23.8750 
  136.8750     2.4630   -16.7770    63.5040    23.8830    24.1080    25.9810    23.8910 
  137.0000     2.4610   -16.9000    61.3500    23.2430    23.7860    22.9530    23.9090 
  137.1250     2.4690   -16.9200    60.5970    23.6810    24.1810    22.8750    23.9020 
  137.2500     2.4880   -16.8490    59.2840    24.7270    25.0570    25.5380    23.8940 
  137.3750     2.5120   -16.7040    59.1880    25.7700    26.0650    28.1450    23.8830 
  137.5000     2.5300   -16.5170    60.9850    26.1230    26.6910    30.5090    23.8740 
  137.6250     2.5300   -16.3030    62.2170    25.1650    26.2370    30.0480    23.8790 
  137.7500     2.5090   -16.0050    61.4140    23.3410    24.7470    27.2340    23.9000 
  137.8750     2.4690   -15.6140    60.5620    21.2510    22.6360    23.6730    23.9220 
  138.0000     2.4260   -15.1510    60.9180    19.4170    20.4990    18.5900    23.9250 
  138.1250     2.4040   -14.6460    60.7530    18.2190    18.9010    17.6110    23.9040 
  138.2500     2.4010   -14.0770    59.9820    17.6080    17.9550    18.1450    23.8770 
  138.3750     2.4060   -13.4030    59.6190    17.5000    17.6360    18.3930    23.8430 
  138.5000     2.4140   -12.6500    59.1630    17.7460    17.8070    17.9090    23.7710 
  138.6250     2.4220   -11.8600    57.8960    18.1050    18.2290    17.9550    23.6730 
  138.7500     2.4290   -11.1000    57.6750    18.2650    18.5000    19.1380    23.7010 
  138.8750     2.4320   -10.3590    58.2600    18.0120    18.3280    19.8130    23.8270 
  139.0000     2.4350    -9.6490    57.6960    17.3070    17.6180    19.0520    23.9920 
  139.1250     2.4390    -9.0570    56.5910    16.3190    16.5360    16.4660    24.0560 
  139.2500     2.4440    -8.5960    57.4740    15.4300    15.5090    14.2820    24.0770 
  139.3750     2.4490    -8.2920    60.2640    14.9170    14.8160    13.7360    24.0650 
  139.5000     2.4550    -8.0870    63.5690    14.9450    14.6160    14.0540    24.0220 
  139.6250     2.4520    -7.9520    65.6950    15.6310    15.0320    15.2630    23.9370 
  139.7500     2.4410    -7.8810    65.8210    16.7390    15.8870    16.0580    23.8810 
  139.8750     2.4310    -7.8870    63.8980    18.0300    17.0050    16.1450    23.8680 
  140.0000     2.4310    -7.9420    62.4600    19.2220    18.1520    16.1070    23.9120 
  140.1250     2.4430    -7.9640    64.2250    19.9580    18.9870    17.5600    24.0560 
  140.2500     2.4610    -7.9860    67.3500    20.1270    19.3260    19.4290    24.2460 
  140.3750     2.4750    -7.9980    68.7320    19.6750    19.1060    20.5550    24.3730 
  140.5000     2.4740    -7.9990    68.1170    18.6680    18.3790    18.7740    24.4260 
  140.6250     2.4530    -7.9820    68.1650    17.3160    17.2600    16.2690    24.4520 
  140.7500     2.4270    -7.9750    68.8120    16.0200    16.0380    14.2380    24.5080 
  140.8750     2.4010    -7.9910    68.2800    15.0520    14.9130    13.5200    24.6240 
  141.0000     2.3760    -8.0370    67.5590    14.5670    14.0400    13.0140    24.8230 
  141.1250     2.3530    -8.1500    68.3900    14.6670    13.6070    12.8970    24.9280 
