~V
VERS. 2.00: Ver 2.00
~W
STRT.M 50.0000:
STOP.M 215.0000:
STEP.M 0.1250:
NULL. -999.2500:
UWI. F10588:
~C
DEPT.M :
DEN.GM/CC :
GR.API :
RML.OHMM :
RI. :
RXO.OHMM :
CALI.CM :
SP.MV :
~A
   50.0000     1.9720  -999.2500  -999.2500  -999.2500  -999.2500  -999.2500   117.4630 
   50.1250     2.0210  -999.2500  -999.2500  -999.2500  -999.2500  -999.2500   114.2950 
   50.2500     2.0650  -999.2500  -999.2500  -999.2500  -999.2500  -999.2500   110.7710 
   50.3750     2.0900  -999.2500  -999.2500  -999.2500  -999.2500  -999.2500   107.0170 
   50.5000     2.0940    33.5300     2.4840     1.0700     2.2490    25.4060   103.1820 
   50.6250     2.0900    33.5300     2.4840     1.0700     2.2490    25.4060    99.5010 
   50.7500     2.0900    34.4890     2.5200     1.1050     1.3350    25.4220    96.1600 
   50.8750     2.0970    34.2110     2.5310     1.1370     0.9060    25.4120    93.3680 
   51.0000     2.1010    33.0070     2.4830     1.1640     0.8330    25.3900    91.2620 
   51.1250     2.1020    33.5640     2.3940     1.1820     0.8470    25.3740    89.8780 
   51.2500     2.1050    35.3460     2.3280     1.1930     0.8760    25.3670    88.9740 
   51.3750     2.1030    36.3510     2.3100     1.1990     0.9130    25.3640    88.4760 
   51.5000     2.0660    35.4260     2.3310     1.2030     0.9520    25.3640    88.3390 
   51.6250     1.9740    33.9730     2.3440     1.2050     0.9520    25.3640    88.5490 
   51.7500     1.8570    34.3580     2.3140     1.2040     0.9530    25.3640    89.0450 
   51.8750     1.7470    36.4200     2.2570     1.2010     0.9840    25.3640    89.8470 
   52.0000     1.6700    37.0970     2.2220     1.1920     1.0650    25.3640    90.9040 
   52.1250     1.6500    36.1950     2.2620     1.1730     1.1850    25.3640    92.1850 
   52.2500     1.6760    36.6940     2.3680     1.1410     1.2440    25.3640    93.6810 
   52.3750     1.7460    37.3060     2.4640     1.0890     1.3040    25.3580    95.3690 
   52.5000     1.8690    36.0520     2.3850     0.9990     1.1030    25.2880    97.1730 
   52.6250     2.0860    35.5150     1.9210     0.8500     1.2040    25.0020    98.8960 
   52.7500     2.3680    36.5340     1.2770     0.6790     1.2930    24.5160   100.2920 
   52.8750     2.6030    37.1070     0.7490     0.5330     1.3820    24.0530   100.9050 
   53.0000     2.6940    36.6090     0.4790     0.4420     1.3390    23.7030   100.2560 
   53.1250     2.6390    38.2880     0.5100     0.4340     1.2240    23.4490    97.5430 
   53.2500     2.5260    42.1550     0.8360     0.5380     1.2560    23.0630    92.6110 
   53.3750     2.4000    44.6630     1.6080     0.8530     1.7790    22.4840    85.3450 
   53.5000     2.2990    44.8800     3.1530     1.5960     3.2150    22.1270    76.0440 
   53.6250     2.2770    45.1670     6.2650     3.3960     4.5190    22.2700    65.2480 
   53.7500     2.3450    47.1040    10.9170     6.5920     5.2870    23.0670    53.8060 
   53.8750     2.4760    49.1740    15.9320    10.8670     5.8160    24.5750    42.2580 
   54.0000     2.5950    48.9660    19.2310    14.7950     6.6300    26.6470    31.1900 
   54.1250     2.6100    48.4010    19.7040    16.7120     8.2710    28.8590    21.3420 
   54.2500     2.5430    48.7600    18.8890    17.0120     9.5020    30.5070    13.0110 
   54.3750     2.4380    48.5580    17.7060    16.3780     9.0190    31.1600     6.4380 
   54.5000     2.3350    48.3340    16.6810    15.4660     7.8720    30.6800     1.3930 
   54.6250     2.2610    49.9030    16.3490    14.9440     7.4400    29.6940    -2.5420 
   54.7500     2.2080    51.5170    16.9620    15.1960     7.7790    29.7500    -5.9090 
   54.8750     2.1650    50.7720    18.7640    16.4730     8.4620    31.4880    -8.8970 
   55.0000     2.1230    49.9490    21.8710    18.8610     9.4520    34.3810   -11.6060 
   55.1250     2.0860    51.8940    25.9850    22.0530    13.5120    36.9530   -14.0140 
   55.2500     2.0520    52.7630    29.4630    24.7030    26.0750    38.4060   -16.2320 
   55.3750     2.0150    51.2220    30.4420    25.4490    49.7070    38.9760   -18.3640 
   55.5000     1.9690    49.9420    28.1970    23.8160    64.0350    38.9960   -20.3760 
   55.6250     1.9490    51.3140    23.9980    20.6380    37.8460    38.7460   -22.2210 
   55.7500     1.9980    52.2820    20.1400    17.5560    20.3160    38.9960   -23.9710 
   55.8750     2.1140    51.7170    17.4480    15.2470    13.8270    39.6550   -25.5650 
   56.0000     2.2140    50.7610    16.0080    13.8810    11.0140    39.5290   -26.9730 
   56.1250     2.2010    50.0080    15.6330    13.4170    10.0340    39.0730   -28.2260 
   56.2500     2.1090    49.2290    15.6090    13.3270     9.7120    38.8700   -29.3230 
   56.3750     2.0020    47.8180    15.3640    13.1330     9.7930    38.8600   -30.3010 
   56.5000     1.9270    47.8650    14.4780    12.4420    10.3640    38.8210   -31.2210 
   56.6250     1.9130    52.1830    12.8850    11.1210    12.8250    38.7180   -32.1150 
   56.7500     1.9480    57.6340    11.1460     9.5950    13.7520    38.6430   -32.9900 
   56.8750     2.0190    60.9000     9.6640     8.2090     9.8200    38.5900   -33.8430 
   57.0000     2.0970    61.6780     8.6210     7.1540     6.6230    38.4860   -34.6680 
   57.1250     2.1500    62.7980     8.0700     6.5200     5.9190    38.3210   -35.4430 
   57.2500     2.1730    64.1650     7.8350     6.1850     6.3780    38.0540   -36.2060 
   57.3750     2.1710    64.5520     7.8110     6.0730     6.1460    37.7480   -36.9190 
   57.5000     2.1630    66.1650     7.8990     6.1060     5.7080    37.3290   -37.5730 
   57.6250     2.1610    68.6480     8.0230     6.2210     5.4970    34.4020   -38.1390 
   57.7500     2.1440    68.2650     8.1440     6.3650     5.1940    27.1920   -38.5980 
   57.8750     2.0820    65.0270     8.2360     6.5110     4.9450    18.4830   -38.9840 
   58.0000     1.9660    62.1540     8.2620     6.6120     5.0330    13.7120   -39.3180 
   58.1250     1.8150    61.8840     8.1830     6.6030     5.3500    12.8320   -39.5710 
   58.2500     1.6690    61.7340     8.0330     6.4910     5.7030    12.6820   -39.7320 
   58.3750     1.5640    61.9540     7.8550     6.3110     5.8450    12.6220   -39.8480 
   58.5000     1.5350    62.1570     7.7020     6.1170     5.8860    12.6050   -39.9520 
   58.6250     1.6240    62.2140     7.6470     5.9780     5.8760    12.6300   -40.0480 
   58.7500     1.8040    63.8810     7.7290     5.9300     6.0510    12.7760   -40.1070 
   58.8750     2.0120    67.1950     7.9680     5.9940     6.3450    13.1960   -40.1620 
   59.0000     2.1710    70.9250     8.3460     6.1660     6.5060    13.8980   -40.2010 
   59.1250     2.2380    74.5570     8.7670     6.4010     6.7990    14.8980   -40.2290 
   59.2500     2.2580    77.8670     9.0460     6.5840     7.0750    16.2940   -40.2470 
   59.3750     2.2570    79.3600     9.0280     6.6110     7.4690    18.1330   -40.2420 
   59.5000     2.2470    79.0800     8.6630     6.4260     7.2000    20.3340   -40.1820 
   59.6250     2.2260    78.6480     8.0510     6.0460     6.4640    22.6880   -40.0420 
   59.7500     2.1960    79.4090     7.4800     5.6410     5.6320    24.8910   -39.8920 
   59.8750     2.1610    81.9240     7.1320     5.3370     5.2340    26.6280   -39.6550 
   60.0000     2.1420    83.7290     7.0800     5.2090     5.1360    27.5060   -39.3270 
   60.1250     2.1620    82.4350     7.3160     5.2900     5.4930    27.2580   -38.8930 
   60.2500     2.2120    79.4560     7.6690     5.4890     6.6430    26.1930   -38.3470 
   60.3750     2.2710    77.9820     8.0100     5.7280     8.4370    24.8340   -37.6450 
   60.5000     2.3200    77.0440     8.2710     5.9450     8.1530    24.1590   -36.7570 
   60.6250     2.3500    74.5230     8.4890     6.1340     7.1390    24.0680   -35.6240 
   60.7500     2.3680    71.9100     8.7700     6.3510     6.8290    24.1200   -34.2570 
   60.8750     2.3710    70.6190     9.1430     6.6290     7.2310    24.1260   -32.6650 
   61.0000     2.3550    69.7600     9.5320     6.9440     8.0230    24.1410   -30.9090 
   61.1250     2.3210    65.9900     9.7140     7.1640     8.7260    24.2760   -29.1400 
