~V
VERS. 2.00: Ver 2.00
~W
STRT.M 52.0000:
STOP.M 220.0000:
STEP.M 0.1250:
NULL. -999.2500:
UWI. F10539:
~C
DEPT.M :
SP.MV :
DEN.GM/CC :
GR.API :
RML.OHMM :
RI. :
RXO.OHMM :
CALI.CM :
~A
# ...
   97.0000   -17.8230     2.2050    57.3730     9.5330     6.9230     7.3750    23.1580 
   97.1250   -17.6660     2.2240    58.3430     9.5850     6.8850     7.2550    23.0720 
   97.2500   -17.4810     2.2360    59.9080     9.6650     6.9130     6.8180    23.0880 
   97.3750   -17.2640     2.2370    60.9130     9.7170     6.9830     6.3810    22.9640 
   97.5000   -17.0530     2.2290    60.9870     9.7000     7.0610     6.4020    22.6060 
   97.6250   -16.8680     2.2160    60.4100     9.5690     7.0870     6.7950    22.2680 
   97.7500   -16.6960     2.2020    60.1540     9.3350     7.0300     7.1520    22.1230 
   97.8750   -16.5500     2.1910    60.4330     9.0570     6.8960     7.4060    22.2180 
   98.0000   -16.4300     2.1870    60.8590     8.8850     6.7680     7.6760    22.5630 
   98.1250   -16.3330     2.1880    59.9560     9.0700     6.8160     7.6790    22.7950 
   98.2500   -16.2180     2.1920    58.8890     9.6480     7.1130     7.6270    22.8150 
   98.3750   -16.0950     2.2080    58.8400    10.4960     7.6210     7.4920    22.8380 
   98.5000   -15.9340     2.2470    59.7770    11.2580     8.1430     8.5340    23.0610 
   98.6250   -15.7570     2.3080    61.8100    11.2950     8.2770    13.5190    23.2900 
   98.7500   -15.5670     2.3630    65.5380    10.4690     7.8670    18.7600    23.4430 
   98.8750   -15.4010     2.3850    70.9130     9.0910     7.0420    13.7700    23.5110 
   99.0000   -15.2680     2.3730    78.1380     7.6980     6.1080     7.2500    23.5760 
   99.1250   -15.1810     2.3490    84.9910     6.7770     5.3780     5.1870    23.7360 
   99.2500   -15.1510     2.3460    86.7970     6.3460     4.9390     5.4180    23.8390 
   99.3750   -15.1770     2.3620    83.0620     6.2880     4.7730     6.4140    23.8530 
   99.5000   -15.2790     2.3780    78.9820     6.4230     4.8050     6.3380    23.8390 
   99.6250   -15.4340     2.3770    77.1460     6.5880     4.9430     6.0390    23.8100 
   99.7500   -15.6350     2.3640    74.3580     6.7260     5.1030     5.9590    23.8410 
   99.8750   -15.8370     2.3510    70.8870     6.8970     5.2900     5.9760    23.8500 
  100.0000   -16.0290     2.3450    68.6640     7.1840     5.5360     5.9830    23.7850 
  100.1250   -16.1750     2.3380    65.0020     7.6170     5.8740     6.2580    23.6160 
  100.2500   -16.2780     2.3160    59.2020     8.0420     6.2360     6.7030    23.3770 
  100.3750   -16.3180     2.2790    55.9850     8.2790     6.5130     7.1620    23.1660 
  100.5000   -16.2900     2.2380    56.9830     8.2070     6.5990     7.2110    23.0690 
  100.6250   -16.1940     2.2150    60.1400     7.8440     6.4380     6.8980    23.1000 
  100.7500   -16.0360     2.2190    64.9110     7.4480     6.1680     6.4100    23.2250 
  100.8750   -15.8470     2.2440    71.4590     7.1860     5.9070     5.8160    23.3710 
  101.0000   -15.6300     2.2730    77.3830     7.1030     5.7270     5.4520    23.3910 
  101.1250   -15.4080     2.2850    78.4940     7.1320     5.6410     5.7300    23.2250 
  101.2500   -15.1870     2.2850    75.5990     7.1320     5.5800     6.2150    22.9710 
  101.3750   -14.9840     2.2830    71.9060     7.0350     5.4950     6.2940    22.8050 
  101.5000   -14.8230     2.2890    70.9590     6.8330     5.3630     5.6430    22.8730 
  101.6250   -14.7080     2.3050    74.2450     6.5620     5.1870     5.1850    23.1950 
  101.7500   -14.6700     2.3220    77.5900     6.2950     5.0010     5.2730    23.5240 
  101.8750   -14.6870     2.3340    78.3210     6.0770     4.8330     5.6300    23.7430 
  102.0000   -14.7980     2.3420    77.3440     5.9540     4.7200     5.7320    23.8410 
  102.1250   -14.9760     2.3540    77.4450     5.9990     4.7100     5.4180    23.8010 
  102.2500   -15.2670     2.3650    79.3720     6.2150     4.8110     5.1440    23.6470 
  102.3750   -15.6130     2.3650    80.0380     6.5960     5.0190     5.3550    23.4090 
  102.5000   -15.9810     2.3490    76.3910     7.0970     5.3100     5.9160    23.0750 
  102.6250   -16.3680     2.3170    70.9570     7.6240     5.6260     6.2760    22.7220 
  102.7500   -16.7220     2.2820    67.8200     8.0600     5.9000     6.3070    22.4170 
  102.8750   -17.0430     2.2550    67.1840     8.3400     6.1060     6.3790    22.2690 
  103.0000   -17.2980     2.2410    66.3530     8.4650     6.2510     6.5240    22.3140 
  103.1250   -17.5080     2.2380    64.2510     8.4990     6.3770     6.6840    22.3400 
  103.2500   -17.6210     2.2370    62.1540     8.5610     6.5260     6.9560    22.2270 
  103.3750   -17.6830     2.2340    59.3100     8.7350     6.7190     7.4160    22.1170 
  103.5000   -17.7120     2.2290    56.2790     9.0830     6.9770     7.7420    22.0990 
  103.6250   -17.6890     2.2270    55.5580     9.6920     7.3620     7.7610    22.1700 
  103.7500   -17.6570     2.2340    56.4770    10.5360     7.9010     7.9320    22.3540 
  103.8750   -17.6010     2.2440    57.1370    11.5640     8.5970     9.6320    22.6080 
  104.0000   -17.5460     2.2500    56.5850    12.6350     9.3810    15.5870    22.9170 
  104.1250   -17.4570     2.2440    56.4800    13.4460    10.0560    26.7030    23.2000 
  104.2500   -17.3440     2.2310    57.1470    13.7640    10.4180    27.3980    23.2150 
  104.3750   -17.2040     2.2120    58.2630    13.4920    10.3580    17.7290    23.0510 
  104.5000   -17.0260     2.1900    58.9710    12.7420     9.9280    10.5390    22.8360 
  104.6250   -16.8720     2.1710    57.9400    11.7860     9.3030     8.3830    22.7540 
  104.7500   -16.7210     2.1660    57.7350    10.9480     8.7240     8.0360    22.7290 
  104.8750   -16.6200     2.1780    58.9960    10.3710     8.2960     8.0810    22.6500 
  105.0000   -16.5490     2.2060    60.6860    10.0800     8.0410     8.2420    22.5140 
  105.1250   -16.5760     2.2350    60.5840    10.0250     7.9390     8.3170    22.3660 
  105.2500   -16.6590     2.2520    58.8000    10.0530     7.9010     8.2940    22.2780 
  105.3750   -16.8050     2.2560    57.2480    10.0870     7.8810     8.0860    22.3140 
  105.5000   -17.0240     2.2520    56.6670    10.0950     7.8550     7.7120    22.5240 
  105.6250   -17.2670     2.2430    56.7670    10.0800     7.8250     7.4370    22.7790 
  105.7500   -17.5210     2.2300    55.2120    10.0610     7.8030     7.5200    22.9220 
  105.8750   -17.7480     2.2150    53.2500    10.0480     7.7950     7.7190    22.9850 
  106.0000   -17.9570     2.2030    53.3490    10.0500     7.8020     7.8330    23.0520 
  106.1250   -18.0970     2.2000    56.0520    10.0670     7.8190     7.8910    23.0710 
  106.2500   -18.2070     2.2050    57.7960    10.0690     7.8300     7.9750    22.9920 
  106.3750   -18.2710     2.2140    56.2310    10.0210     7.8200     7.9900    22.9770 
  106.5000   -18.2860     2.2230    54.0520     9.9140     7.7840     7.9270    22.9770 
  106.6250   -18.2470     2.2240    55.0650     9.8480     7.7690     8.0130    22.8500 
  106.7500   -18.1660     2.2150    56.6990     9.9940     7.8700     8.4890    22.6660 
  106.8750   -18.0570     2.1980    56.3300    10.4860     8.1760     8.9530    22.6160 
  107.0000   -17.9300     2.1890    54.9150    11.3670     8.7390     9.5690    22.8010 
  107.1250   -17.7810     2.2240    54.7720    12.5090     9.5290    12.7720    23.1260 
  107.2500   -17.6460     2.3070    55.5940    13.4900    10.2920    20.9600    23.4100 
  107.3750   -17.5160     2.4000    57.5280    13.9180    10.7460    30.3540    23.5460 
  107.5000   -17.4290     2.4460    59.3390    13.5890    10.6840    29.8170    23.4930 
  107.6250   -17.3770     2.4080    58.3420    12.5900    10.0730    20.0110    23.2140 
  107.7500   -17.3860     2.3320    56.1380    11.4530     9.2690    12.2770    22.8570 
  107.8750   -17.4270     2.2600    55.5420    10.5240     8.5320     9.2090    22.5430 
  108.0000   -17.5070     2.2160    56.8250     9.9790     8.0190     8.5230    22.4200 
  108.1250   -17.6340     2.2050    57.8640     9.8730     7.8000     8.7090    22.5220 
