~V
VERS. 2.00: Ver 2.00
~W
STRT.M 47.0000:
STOP.M 236.0000:
STEP.M 0.1250:
NULL. -999.2500:
UWI. F10597:
~C
DEPT.M :
SP.MV :
DEN.GM/CC :
GR.API :
RML.OHMM :
RI. :
RXO.OHMM :
CALI.CM :
~A
# ...
   69.5000   -21.9410     2.2100    95.4110     7.1420     5.0480     6.4050    24.4210 
   69.6250   -22.4030     2.2240   103.1650     7.0160     4.9530     6.0190    24.4360 
   69.7500   -22.9840     2.2490   105.5960     7.0320     4.9300     5.5570    24.4430 
   69.8750   -23.6750     2.2800   101.0460     7.3250     5.0600     5.6020    24.4430 
   70.0000   -24.4800     2.3140    97.7650     8.2020     5.5320     6.4390    24.4430 
   70.1250   -25.4060     2.3520    96.5730     9.7960     6.4520     8.6060    24.4400 
   70.2500   -26.4460     2.3890    92.1740    12.0030     7.8520    14.2200    24.4320 
   70.3750   -27.4780     2.4050    85.8070    14.2090     9.4910    24.8160    24.4170 
   70.5000   -28.4100     2.3630    84.9280    15.0740    10.5710    22.9230    24.4250 
   70.6250   -29.2420     2.2760    85.9540    14.2890    10.5630    15.6490    24.3870 
   70.7500   -29.9220     2.1920    83.4480    12.6790     9.7120    14.0590    24.2760 
   70.8750   -30.4560     2.1520    78.9670    11.3230     8.7010    18.9880    24.1550 
   71.0000   -30.7750     2.1640    78.1880    10.6670     8.0370    27.1000    24.0970 
   71.1250   -30.8530     2.1730    79.9480    10.1920     7.6430    22.0510    24.0980 
   71.2500   -30.7160     2.1390    79.8340     9.4660     7.3180    13.1340    24.1250 
   71.3750   -30.4320     2.0740    76.6990     8.5000     6.9500     9.3040    24.1450 
   71.5000   -30.0320     2.0370    75.3590     7.8230     6.6240     8.5090    24.1510 
   71.6250   -29.6230     2.0420    77.9580     7.7070     6.4500     8.5160    24.1500 
   71.7500   -29.1960     2.0680    80.7570     7.9840     6.4400     8.6060    24.1280 
   71.8750   -28.6860     2.0930    79.8230     8.2740     6.5310     8.6410    24.0610 
   72.0000   -28.0930     2.1030    77.6360     8.3280     6.6340     8.5510    23.9360 
   72.1250   -27.4660     2.1030    76.8780     8.3230     6.7100     8.4300    23.8690 
   72.2500   -26.8110     2.1000    75.7100     8.4650     6.7630     8.3900    23.8260 
   72.3750   -26.1410     2.0960    74.1710     8.8100     6.7910     8.4140    23.7640 
   72.5000   -25.4640     2.0940    75.6430     9.1760     6.7700     8.3280    23.6130 
   72.6250   -24.7010     2.0980    81.7840     9.2630     6.6860     8.0570    23.3960 
   72.7500   -23.8830     2.1110    89.4760     8.9670     6.5210     7.6660    23.1130 
   72.8750   -23.0830     2.1330    94.2940     8.3780     6.2620     7.2580    22.8470 
   73.0000   -22.3560     2.1610    94.6530     7.6810     5.9040     6.6280    22.6740 
   73.1250   -21.7070     2.1890    95.2550     7.0640     5.5200     6.1240    22.6050 
   73.2500   -21.1500     2.2120    98.3010     6.6470     5.1790     5.7320    22.5730 
   73.3750   -20.6660     2.2290   102.8470     6.4960     4.9210     5.3120    22.5430 
   73.5000   -20.2420     2.2350   107.6250     6.6510     4.7670     5.0040    22.5300 
   73.6250   -19.8940     2.2270   112.6330     6.9730     4.6840     5.0080    22.5260 
   73.7500   -19.6470     2.2060   116.7860     7.3050     4.6570     5.3200    22.5340 
   73.8750   -19.4880     2.1830   118.4100     7.5120     4.6710     5.8200    22.6040 
   74.0000   -19.3920     2.1710   115.5060     7.5610     4.7160     5.8360    22.8940 
   74.1250   -19.3050     2.1720   112.5210     7.6030     4.7730     5.6800    23.4020 
   74.2500   -19.1960     2.1840   113.0990     7.7930     4.8560     5.5380    23.9310 
   74.3750   -19.1040     2.2020   116.4700     8.2410     5.0230     5.7160    24.3410 
   74.5000   -19.1210     2.2200   116.0730     9.0590     5.4170     6.3020    24.4780 
   74.6250   -19.2290     2.2390   110.2560    10.2320     6.1150     7.5380    24.5110 
   74.7500   -19.4020     2.2730   102.6370    11.7730     7.1610     9.9830    24.5120 
   74.8750   -19.6290     2.3300    95.9720    13.5270     8.4600    14.9920    24.5160 
   75.0000   -19.9450     2.4010    94.0010    14.7800     9.5340    20.6250    24.5200 
   75.1250   -20.3640     2.4400    97.0800    14.7040     9.7440    20.5330    24.5390 
   75.2500   -20.8660     2.4140   103.2100    13.1060     8.9050    14.5970    24.5840 
   75.3750   -21.3620     2.3350   108.4740    10.7820     7.5240     8.8600    24.6350 
   75.5000   -21.7090     2.2520   109.2490     9.0360     6.4350     8.3690    24.6580 
   75.6250   -21.8900     2.1910   106.7750     8.3360     5.9560    10.0760    24.6670 
   75.7500   -21.9300     2.1550   102.9190     8.5460     6.0190    11.6550    24.6630 
   75.8750   -21.8930     2.1410   100.3080     9.2110     6.3390    10.8170    24.6380 
   76.0000   -21.7890     2.1510   102.0240     9.6060     6.4660     9.2960    24.5600 
   76.1250   -21.6250     2.1710   106.9910     9.3730     6.2320     7.4560    24.5260 
   76.2500   -21.4320     2.1850   111.4040     8.7340     5.7880     6.4050    24.5150 
   76.3750   -21.2710     2.1900   112.3000     8.1030     5.3620     6.1090    24.5150 
   76.5000   -21.2360     2.1950   111.0700     7.7410     5.0960     6.1830    24.5150 
   76.6250   -21.3650     2.2040   110.5740     7.5970     4.9520     6.0460    24.5160 
   76.7500   -21.6410     2.2130   112.2620     7.5990     4.8970     5.8470    24.5150 
   76.8750   -21.9730     2.2200   116.2180     7.6760     4.9180     5.9790    24.5150 
   77.0000   -22.3240     2.2210   119.2210     7.7720     5.0300     6.3640    24.5150 
   77.1250   -22.6650     2.2200   117.6640     7.8900     5.2100     6.5730    24.5160 
   77.2500   -22.9840     2.2180   113.2360     8.0690     5.4270     6.4440    24.5150 
   77.3750   -23.2670     2.2130   110.5750     8.3080     5.6420     6.3500    24.5150 
   77.5000   -23.5000     2.2000   108.8900     8.6370     5.8420     6.5300    24.5150 
   77.6250   -23.7090     2.1780   104.9890     9.0610     6.0390     7.2440    24.5160 
   77.7500   -23.8810     2.1520    99.1650     9.4500     6.2110     7.6760    24.5150 
   77.8750   -24.0290     2.1350    93.9060     9.5980     6.3050     7.3560    24.5120 
   78.0000   -24.1550     2.1280    91.3370     9.3760     6.2750     6.7730    24.4740 
   78.1250   -24.3100     2.1230    90.9640     9.0330     6.2010     6.8880    24.3960 
   78.2500   -24.5160     2.1120    92.1910     8.8490     6.1660     7.3460    24.3230 
   78.3750   -24.7620     2.1010    93.6520     9.0020     6.2110     7.6200    24.2920 
   78.5000   -25.0320     2.1030    92.8660     9.5070     6.3140     7.5940    24.2920 
   78.6250   -25.2560     2.1190    90.9840    10.1130     6.4050     7.7110    24.2920 
   78.7500   -25.4030     2.1390    88.4940    10.6510     6.4550     8.1370    24.2920 
   78.8750   -25.5000     2.1490    86.1490    11.0220     6.4740     8.4270    24.2920 
   79.0000   -25.5810     2.1450    84.7040    11.0990     6.4660     8.3030    24.2890 
   79.1250   -25.5800     2.1350    84.2700    10.8510     6.4070     7.8830    24.2740 
   79.2500   -25.4640     2.1230    84.2970    10.3530     6.2770     7.5060    24.2450 
   79.3750   -25.2500     2.1070    84.9380     9.7960     6.0960     7.4850    24.2160 
   79.5000   -24.9590     2.0930    91.4040     9.3450     5.9140     7.7790    24.1880 
   79.6250   -24.6830     2.0940   102.2370     8.9700     5.7650     7.5680    24.1590 
   79.7500   -24.4750     2.1130   110.4730     8.6170     5.6550     7.0360    24.1440 
   79.8750   -24.3100     2.1370   113.3600     8.3420     5.5800     6.5420    24.1380 
   80.0000   -24.1090     2.1420   111.5910     8.3510     5.5610     6.6140    24.1410 
   80.1250   -23.9070     2.1290   106.0990     8.6780     5.6210     6.9430    24.1460 
   80.2500   -23.7380     2.1070    97.9250     9.2460     5.7700     7.6760    24.1490 
   80.3750   -23.6270     2.0920    90.6950     9.8370     5.9810     8.1060    24.1510 
   80.5000   -23.5980     2.0920    92.7320    10.1140     6.1670     8.1130    24.1510 
   80.6250   -23.5690     2.0970   100.2790    10.0020     6.2450     7.9400    24.1500 
