~V
VERS. 2.00: Ver 2.00
~W
STRT.M 42.0000:
STOP.M 195.0000:
STEP.M 0.1250:
NULL. -999.2500:
UWI. F10590:
~C
DEPT.M :
GR.API :
RML.OHMM :
RI. :
RXO.OHMM :
CALI.CM :
DEN.GM/CC :
SP.MV :
~A
# ...
  177.0000    56.5970     7.2860     7.1230     6.5740    22.8900     2.4390   -20.0820 
  177.1250    57.1960     7.1960     6.9450     6.6050    22.9070     2.4460   -20.0940 
  177.2500    56.9040     7.1070     6.7460     6.7030    22.9260     2.4510   -20.1230 
  177.3750    57.1070     7.0350     6.5650     6.7210    22.9400     2.4500   -20.1400 
  177.5000    56.9550     6.9420     6.4250     6.6520    22.9610     2.4430   -20.1280 
  177.6250    55.6570     6.7860     6.3290     6.9300    22.9920     2.4330   -20.0660 
  177.7500    55.3360     6.5990     6.2520     6.9280    23.0050     2.4230   -20.0230 
  177.8750    56.7220     6.5190     6.1810     6.6380    23.0080     2.4170   -20.0250 
  178.0000    57.6650     6.5100     6.1140     6.3610    23.0050     2.4120   -20.0580 
  178.1250    55.5430     6.5180     6.0610     6.3290    22.9940     2.4080   -20.0420 
  178.2500    53.4850     6.5310     6.0260     6.3760    22.9790     2.4030   -20.0140 
  178.3750    53.9710     6.5290     5.9990     6.4140    22.9700     2.3980   -20.0130 
  178.5000    56.4240     6.4830     5.9560     6.4220    22.9490     2.3940   -20.0060 
  178.6250    58.7800     6.3620     5.8580     6.1920    22.8840     2.3880   -19.9860 
  178.7500    58.8110     6.1930     5.7080     5.8190    22.7900     2.3820   -19.9470 
  178.8750    55.0250     6.0260     5.5340     5.4760    22.7060     2.3740   -19.8940 
  179.0000    48.4860     5.9100     5.3800     5.3050    22.6630     2.3660   -19.8510 
  179.1250    43.0760     5.8810     5.2990     5.3010    22.6580     2.3640   -19.8590 
  179.2500    41.8280     5.9020     5.2850     5.4190    22.6930     2.3690   -19.8710 
  179.3750    44.4200     5.9370     5.3130     5.5610    22.7950     2.3780   -19.8770 
  179.5000    47.3830     5.9660     5.3500     5.6010    22.9380     2.3840   -19.9210 
  179.6250    48.7920     6.0250     5.3970     5.5660    23.0550     2.3790   -19.9970 
  179.7500    49.8610     6.1880     5.5060     5.5030    23.1010     2.3690   -20.0900 
  179.8750    51.6780     6.5160     5.7380     5.6680    23.1160     2.3690   -20.2120 
  180.0000    53.3000     7.0110     6.1200     6.2160    23.1320     2.3940   -20.3330 
  180.1250    53.1740     7.5740     6.6020     8.0090    23.1580     2.4450   -20.4650 
  180.2500    51.9490     8.0000     7.0100    10.9390    23.1690     2.4940   -20.6370 
  180.3750    51.0230     8.1270     7.1960    12.0490    23.1720     2.5150   -20.8630 
  180.5000    51.8940     7.9130     7.0930     8.5110    23.1720     2.4970   -21.1170 
  180.6250    56.1700     7.4810     6.7580     6.5460    23.1710     2.4480   -21.3930 
  180.7500    63.6980     7.1150     6.4140     6.1520    23.1610     2.3990   -21.7350 
  180.8750    71.8270     6.9890     6.2150     6.7750    23.1330     2.3640   -22.1190 
  181.0000    77.0230     7.1580     6.2430     7.8080    23.0830     2.3450   -22.5060 
  181.1250    76.9120     7.5670     6.4990     7.6820    23.0390     2.3360   -22.8760 
  181.2500    75.8540     7.9930     6.8230     7.9380    22.9800     2.3310   -23.2370 
  181.3750    77.2880     8.2780     7.0780     8.8540    22.9130     2.3310   -23.5800 
  181.5000    79.4940     8.3400     7.1720     9.2520    22.8520     2.3330   -23.9070 
  181.6250    81.8870     8.2000     7.0810     8.0040    22.8270     2.3370   -24.2310 
  181.7500    84.8550     8.0290     6.9300     6.8780    22.8080     2.3380   -24.5520 
  181.8750    87.4840     7.9670     6.8310     6.7070    22.7720     2.3350   -24.8870 
  182.0000    88.0950     8.1090     6.8740     7.3760    22.7200     2.3300   -25.2280 
  182.1250    88.2690     8.5110     7.1270     8.4230    22.6750     2.3230   -25.6110 
  182.2500    89.6810     9.0490     7.5240     9.2750    22.6440     2.3160   -25.9810 
  182.3750    90.8800     9.5880     7.9770     9.8580    22.6070     2.3090   -26.2730 
  182.5000    91.0630    10.0040     8.3870    10.8430    22.5660     2.3010   -26.4950 
  182.6250    91.8210    10.2170     8.6790    10.0480    22.5490     2.2950   -26.6730 
  182.7500    93.6970    10.3010     8.8740     9.0100    22.5440     2.2950   -26.7470 
  182.8750    95.1210    10.3140     8.9950     8.9800    22.5350     2.3050   -26.6510 
  183.0000    95.5290    10.2660     9.0350     9.7800    22.5020     2.3250   -26.4130 
  183.1250    95.1570    10.0750     8.9160    10.5910    22.4370     2.3490   -25.9480 
  183.2500    94.3170     9.6890     8.6040    10.3300    22.3960     2.3670   -25.3310 
  183.3750    92.4160     9.1080     8.1110     8.6600    22.3820     2.3690   -24.6180 
  183.5000    89.8600     8.4150     7.5090     7.3320    22.3810     2.3530   -23.8710 
  183.6250    89.2530     7.7660     6.9280     6.6010    22.3720     2.3300   -23.1020 
  183.7500    91.1670     7.2710     6.4640     6.3060    22.3500     2.3150   -22.3740 
  183.8750    94.2590     6.9610     6.1520     6.1380    22.3290     2.3150   -21.7050 
  184.0000    94.9480     6.8120     5.9740     6.1170    22.3200     2.3290   -21.1390 
  184.1250    92.8970     6.7680     5.8860     6.1530    22.3200     2.3470   -20.7370 
  184.2500    91.9200     6.7520     5.8180     6.1870    22.3200     2.3610   -20.4210 
  184.3750    92.9000     6.7330     5.7450     6.1100    22.3200     2.3720   -20.2140 
  184.5000    92.7930     6.6970     5.6660     5.9440    22.3200     2.3860   -20.0870 
  184.6250    90.1470     6.6320     5.5940     5.7050    22.3190     2.4040   -20.0050 
  184.7500    88.7660     6.5390     5.5330     5.6950    22.3130     2.4220   -19.9200 
  184.8750    88.7080     6.4260     5.4820     5.9360    22.3000     2.4330   -19.8860 
  185.0000    88.7080     6.3130     5.4400     6.0300    22.2850     2.4320   -19.8580 
  185.1250    88.7080     6.2420     5.4120     5.5740    22.2800     2.4220   -19.8390 
  185.2500    88.7080     6.2440     5.4070     5.4290    22.2800     2.4120   -19.8810 
  185.3750    88.7080     6.3330     5.4380     5.6650    22.2830     2.4090   -19.9270 
  185.5000    88.7080     6.5010     5.5120     5.9610    22.2870     2.4110   -19.9830 
  185.6250    88.7080     6.7230     5.6390     6.1020    22.2910     2.4140   -20.0190 
  185.7500    88.7080     6.9460     5.7980     6.1850    22.2920     2.4150   -20.0640 
  185.8750    88.7080     7.1250     5.9590     6.4070    22.2920     2.4130   -20.1000 
  186.0000    88.7080     7.2230     6.0760     6.8090    22.2920     2.4080   -20.1270 
  186.1250    88.7080     7.2050     6.0910     6.8600    22.2920     2.4020   -20.1690 
  186.2500    88.7080     7.1030     6.0120     6.4740    22.2920     2.3990   -20.1740 
  186.3750    88.7080     6.9630     5.8760     6.0530    22.2920     2.4010   -20.1790 
  186.5000    88.7080     6.8500     5.7420     5.9120    22.2920     2.4070   -20.1480 
  186.6250    88.7080     6.8380     5.6790     5.9110    22.2920     2.4130   -20.1210 
  186.7500    88.7080     6.9220     5.6960     6.0290    22.2920     2.4130   -20.1130 
  186.8750    88.7080     7.0650     5.7750     6.2610    22.2920     2.4060   -20.0960 
  187.0000    88.7080     7.2070     5.8820     6.8080    22.2920     2.3950   -20.0780 
  187.1250    88.7080     7.2810     5.9730     7.0630    22.2920     2.3850   -20.0500 
  187.2500    88.7080     7.2790     6.0190     6.6670    22.2930     2.3790   -20.0400 
  187.3750    88.7080     7.2240     6.0150     6.4730    22.2950     2.3790   -20.0210 
  187.5000    88.7080     7.1580     5.9760     6.7220    22.2960     2.3790   -20.0020 
  187.6250    88.7080     7.1170     5.9300     6.7840    22.2980     2.3760   -19.9580 
  187.7500    88.7080     7.0950     5.9010     6.4950    22.2960     2.3720   -19.8480 
  187.8750    88.7080     7.0650     5.8860     6.1350    22.2830     2.3540   -19.6780 
  188.0000    88.7080     6.9970     5.8610     6.0510    22.2540     2.3390   -19.4740 
  188.1250    88.7080     6.8690     5.7950     6.0110    22.2040     2.3230   -19.1860 
