~V
VERS. 2.00: Ver 2.00
~W
STRT.M 50.0000:
STOP.M 236.0000:
STEP.M 0.1250:
NULL. -999.2500:
UWI. F10596:
~C
DEPT.M :
DEN.GM/CC :
SP.MV :
GR.API :
RML.OHMM :
RI. :
RXO.OHMM :
CALI.CM :
~A
# ...
  162.5000     2.3700   -12.0790    68.7290    19.0840    18.7340    23.9870    24.7640 
  162.6250     2.3680   -12.0850    67.3400    18.7630    18.7050    22.9350    24.7640 
  162.7500     2.3660   -12.1120    63.8060    18.2320    18.3550    22.0240    24.7640 
  162.8750     2.3600   -12.1440    63.0550    17.7030    17.8720    21.7120    24.7640 
  163.0000     2.3500   -12.1890    66.6560    17.3550    17.4520    19.8340    24.7470 
  163.1250     2.3410   -12.2240    72.5340    17.3830    17.3440    19.5420    24.6800 
  163.2500     2.3400   -12.2500    77.9970    17.7800    17.6430    21.3720    24.5790 
  163.3750     2.3380   -12.2800    82.3990    18.4930    18.3370    23.4680    24.5230 
  163.5000     2.3290   -12.3050    83.9130    19.3770    19.2610    22.4420    24.5280 
  163.6250     2.3140   -12.3230    80.3980    20.2460    20.1440    21.3570    24.5550 
  163.7500     2.3020   -12.3200    76.3170    21.0110    20.8510    21.9350    24.6240 
  163.8750     2.2930   -12.2990    76.0110    21.6970    21.4370    23.4890    24.7440 
  164.0000     2.2870   -12.2680    79.0550    22.3770    22.0370    23.8990    24.8560 
  164.1250     2.2870   -12.2330    82.6390    22.9950    22.6790    23.0250    24.8860 
  164.2500     2.2980   -12.2040    86.4410    23.3560    23.1470    22.2570    24.8700 
  164.3750     2.3150   -12.1570    90.8840    23.3150    23.2320    22.4920    24.8500 
  164.5000     2.3360   -12.1030    91.1960    22.8820    22.9050    23.7140    24.8500 
  164.6250     2.3540   -12.0480    84.3330    22.1580    22.2530    24.4830    24.8660 
  164.7500     2.3650   -11.9930    79.1900    21.3040    21.4440    24.7180    24.8690 
  164.8750     2.3700   -11.9520    80.3570    20.4420    20.5830    22.1890    24.8200 
  165.0000     2.3680   -11.9020    82.7840    19.7820    19.8610    19.8920    24.7360 
  165.1250     2.3610   -11.8610    80.8750    19.6950    19.6210    19.9330    24.6790 
  165.2500     2.3520   -11.8130    77.6840    20.2910    19.9940    20.7270    24.6170 
  165.3750     2.3440   -11.7840    76.1020    21.5630    21.0180    21.4410    24.5500 
  165.5000     2.3400   -11.7740    77.3010    23.3420    22.5960    22.9860    24.5360 
  165.6250     2.3440   -11.7770    82.9420    25.3410    24.5320    24.9410    24.6060 
  165.7500     2.3540   -11.7890    90.3020    27.1840    26.4580    26.7180    24.6650 
  165.8750     2.3620   -11.7970    93.5080    28.5850    28.0880    28.9300    24.6910 
  166.0000     2.3640   -11.8100    91.9100    29.2860    29.1470    30.3710    24.7080 
  166.1250     2.3520   -11.8210    91.2630    28.9900    29.2700    31.3850    24.7380 
  166.2500     2.3340   -11.8440    91.2140    28.0050    28.6170    30.1820    24.7510 
  166.3750     2.3210   -11.8760    87.0770    26.7110    27.4860    28.7270    24.7550 
  166.5000     2.3190   -11.9140    78.7380    25.4670    26.2490    28.2510    24.7550 
  166.6250     2.3260   -11.9740    74.4840    24.5450    25.2190    27.9460    24.7510 
  166.7500     2.3330   -12.0270    75.6240    23.9500    24.4590    27.3070    24.7250 
  166.8750     2.3370   -12.0850    77.7210    23.6000    23.9350    27.0810    24.6620 
  167.0000     2.3400   -12.1460    78.4690    23.3710    23.5830    25.8080    24.5730 
  167.1250     2.3450   -12.2130    78.1150    23.1650    23.3780    25.4900    24.5170 
  167.2500     2.3510   -12.2740    77.3960    22.9460    23.2890    24.2930    24.4800 
  167.3750     2.3510   -12.3210    75.2920    22.7580    23.3060    23.4820    24.4680 
  167.5000     2.3460   -12.3530    72.4170    22.7140    23.4240    22.7950    24.4670 
  167.6250     2.3470   -12.3690    70.2700    22.9400    23.6410    23.8840    24.4640 
  167.7500     2.3540   -12.3840    70.2850    23.3050    23.8680    25.3660    24.4620 
  167.8750     2.3600   -12.3950    72.4910    23.5910    23.9850    25.9710    24.4530 
  168.0000     2.3590   -12.3960    76.5690    23.6030    23.8800    25.6330    24.4250 
  168.1250     2.3520   -12.3930    79.7280    23.2570    23.5210    23.3320    24.3690 
  168.2500     2.3420   -12.3720    79.3460    22.8090    23.1230    22.1470    24.3190 
  168.3750     2.3320   -12.3410    77.9190    22.5610    22.9240    21.6970    24.2760 
  168.5000     2.3240   -12.3110    77.7840    22.7210    23.1030    21.9310    24.2510 
  168.6250     2.3250   -12.2620    77.4900    23.2560    23.6650    24.5050    24.2090 
  168.7500     2.3380   -12.1980    76.4780    23.6780    24.1920    27.5560    24.1260 
  168.8750     2.3550   -12.1200    75.8180    23.4870    24.1930    28.3840    24.0240 
  169.0000     2.3640   -12.0420    74.9980    22.4260    23.3400    25.6450    23.9350 
  169.1250     2.3470   -11.9610    70.9200    20.7430    21.7560    21.5460    23.8760 
  169.2500     2.3140   -11.8960    65.9720    19.2840    20.2270    19.0730    23.7780 
  169.3750     2.2770   -11.8440    62.8320    18.6060    19.3080    17.8280    23.5870 
  169.5000     2.2430   -11.7860    63.7510    18.9560    19.2980    18.2440    23.2640 
  169.6250     2.2130   -11.7370    69.3740    20.3420    20.3190    19.7220    22.7500 
  169.7500     2.1960   -11.7070    74.8410    22.0680    21.8040    21.0770    22.0420 
  169.8750     2.2010   -11.6850    77.7130    23.3700    23.0810    21.9160    21.3480 
  170.0000     2.2270   -11.6700    79.2680    23.5290    23.4630    22.5820    20.7330 
  170.1250     2.2560   -11.6670    80.2930    22.1980    22.5200    21.4540    20.3400 
  170.2500     2.2650   -11.6450    78.6460    20.2300    20.8940    20.1560    20.5160 
  170.3750     2.2540   -11.5970    74.2680    18.3670    19.1790    18.8850    21.3320 
  170.5000     2.2310   -11.5360    69.5030    17.1260    17.8090    17.0430    22.5260 
  170.6250     2.2130   -11.4650    65.3010    16.8080    17.1040    16.9030    23.2470 
  170.7500     2.2080   -11.3890    63.4580    17.1580    17.0130    17.8720    23.4830 
  170.8750     2.2170   -11.3080    64.9380    17.9330    17.4570    19.8510    23.5120 
  171.0000     2.2370   -11.2060    67.9680    18.8190    18.2270    22.4810    23.5100 
  171.1250     2.2650   -11.0690    67.9640    19.4020    18.9410    21.8030    23.5090 
  171.2500     2.2970   -10.9310    65.0660    19.5060    19.2990    20.7430    23.5080 
  171.3750     2.3280   -10.8120    61.9470    19.2030    19.2710    20.1620    23.5080 
  171.5000     2.3550   -10.7060    60.8020    18.7620    19.0400    20.1530    23.5080 
  171.6250     2.3770   -10.5970    62.1070    18.5180    18.8840    19.6410    23.5080 
  171.7500     2.3990   -10.4860    63.8720    18.6350    18.9640    19.1010    23.5080 
  171.8750     2.4220   -10.3840    64.3480    19.1620    19.3460    19.5900    23.5080 
  172.0000     2.4430   -10.3030    65.4800    20.0050    20.0020    21.4440    23.5080 
  172.1250     2.4570   -10.2370    69.7630    20.7990    20.6960    23.4800    23.5080 
  172.2500     2.4600   -10.1930    73.0870    21.0240    20.9630    23.8340    23.5080 
  172.3750     2.4510   -10.1670    70.9990    20.3700    20.4510    23.0810    23.5080 
  172.5000     2.4360   -10.1810    65.4240    18.9040    19.1420    21.9480    23.5080 
  172.6250     2.4140   -10.2330    61.1460    17.0640    17.3930    19.8150    23.5080 
  172.7500     2.3900   -10.3060    59.0690    15.4660    15.7710    17.3930    23.5080 
  172.8750     2.3750   -10.3840    57.8700    14.4480    14.5740    15.7100    23.5080 
  173.0000     2.3800   -10.4740    57.4550    14.1800    13.9580    15.3650    23.5090 
  173.1250     2.4020   -10.5730    59.8130    14.8340    14.1110    16.0850    23.5470 
  173.2500     2.4240   -10.6690    63.6460    16.1600    14.9210    18.0630    23.6570 
  173.3750     2.4380   -10.7600    66.3650    17.8210    16.2370    21.5940    23.8460 
  173.5000     2.4430   -10.8220    65.5390    19.2670    17.6660    24.6000    24.0710 
  173.6250     2.4370   -10.8520    61.1270    19.7930    18.5350    23.3520    24.2660 
