~V
VERS. 2.00: Ver 2.00
~W
STRT.M 59.0000:
STOP.M 201.0000:
STEP.M 0.1250:
NULL. -999.2500:
UWI. F10560:
~C
DEPT.M :
DEN.GM/CC :
SP.MV :
GR.API :
RML.OHMM :
RI. :
RXO.OHMM :
CALI.CM :
~A
# ...
  149.0000     2.2340   -29.7650    67.7700    89.5770    79.1040   112.7280    24.3160 
  149.1250     2.2280   -29.7240    67.4760    89.0310    77.5690   102.6040    24.4520 
  149.2500     2.1960   -29.6990    68.1150    85.4830    73.5480    83.3140    24.6440 
  149.3750     2.1570   -29.6920    67.9730    80.4500    68.5980    73.8770    24.7480 
  149.5000     2.1170   -29.6630    66.7100    75.5550    64.1570    70.4100    24.7720 
  149.6250     2.1240   -29.6150    67.0220    72.2350    61.3760    68.6210    24.7720 
  149.7500     2.1430   -29.6250    68.9850    70.6890    60.2210    67.2680    24.7720 
  149.8750     2.1650   -29.6750    72.4080    70.7080    60.4120    66.2650    24.7730 
  150.0000     2.1790   -29.7020    75.6180    71.7430    61.4180    66.4790    24.7800 
  150.1250     2.1810   -29.7450    76.5910    72.9500    62.4550    71.0100    24.8010 
  150.2500     2.1740   -29.8220    75.4880    73.3810    62.7070    77.3830    24.8240 
  150.3750     2.1630   -29.8990    73.9330    72.5140    61.7540    79.0920    24.8340 
  150.5000     2.1560   -29.9540    73.0300    70.3970    59.7390    74.4560    24.8360 
  150.6250     2.1560   -30.0190    72.9270    67.7910    57.4870    67.9120    24.8350 
  150.7500     2.1610   -30.1080    72.2840    65.9140    56.1010    64.9330    24.8210 
  150.8750     2.1670   -30.1970    69.7010    65.5450    56.2210    63.3900    24.7620 
  151.0000     2.1780   -30.2980    65.8090    67.0430    58.0500    64.5250    24.6370 
  151.1250     2.2080   -30.4340    64.0900    70.5300    61.5150    73.2820    24.5310 
  151.2500     2.2420   -30.5650    63.7970    75.0820    65.7020    86.2260    24.4890 
  151.3750     2.2540   -30.6810    63.5640    79.9700    69.9780    91.0370    24.4820 
  151.5000     2.2500   -30.8370    63.8810    84.6390    73.9530    82.2000    24.4820 
  151.6250     2.2310   -31.0070    65.7270    88.7820    77.5190    80.9970    24.4790 
  151.7500     2.2110   -31.1220    66.8720    92.4620    80.8460    83.6760    24.4620 
  151.8750     2.1980   -31.2140    66.9470    95.5770    83.8640    90.6620    24.4230 
  152.0000     2.1890   -31.3090    66.6780    97.7490    86.1950    97.9300    24.3780 
  152.1250     2.1870   -31.4030    65.4130    98.0520    86.9280    98.7070    24.3610 
  152.2500     2.1890   -31.4940    64.6950    96.4490    85.8800    92.7200    24.3590 
  152.3750     2.1940   -31.5890    67.5020    93.2980    83.3170    86.2620    24.3560 
  152.5000     2.1960   -31.6530    71.7810    89.3220    79.9820    82.2200    24.3450 
  152.6250     2.1950   -31.6950    73.5600    85.3790    76.8580    80.5400    24.3390 
  152.7500     2.1930   -31.7790    73.4080    82.1780    74.6620    79.9020    24.3370 
  152.8750     2.1940   -31.9100    72.0170    80.1990    73.7690    79.8630    24.3370 
  153.0000     2.1970   -32.0640    69.7170    79.7780    74.3700    79.6830    24.3370 
  153.1250     2.2000   -32.2190    69.1430    81.4230    76.8740    79.0100    24.3370 
  153.2500     2.2040   -32.3550    71.7410    84.8920    81.1060    81.8150    24.3370 
  153.3750     2.2180   -32.5100    73.1150    89.9780    86.9630    87.8180    24.3370 
  153.5000     2.2450   -32.6950    69.8890    96.1060    93.9220    97.3200    24.3370 
  153.6250     2.2790   -32.9150    65.8930   102.1220   100.7100   110.2970    24.3370 
  153.7500     2.2970   -33.1200    64.1160   106.7440   105.8430   118.5080    24.3370 
  153.8750     2.2890   -33.2930    62.8290   109.1380   108.3340   124.3830    24.3370 
  154.0000     2.2590   -33.4780    61.8760   109.0920   107.9980   118.1240    24.3370 
  154.1250     2.2200   -33.6220    62.5760   106.8790   105.2330   109.0980    24.3270 
  154.2500     2.1910   -33.7450    64.2710   103.6800   101.3760   105.7310    24.3020 
  154.3750     2.1830   -33.8580    65.5950   100.0380    97.0500   105.5500    24.2790 
  154.5000     2.1940   -33.9440    67.5450    96.3610    92.7650   104.3770    24.2670 
  154.6250     2.2100   -33.9840    69.9390    93.2800    89.3040   101.9950    24.2660 
  154.7500     2.2210   -34.0220    70.3290    91.1630    87.0390    96.5080    24.2650 
  154.8750     2.2280   -34.0500    70.1010    89.9120    85.7780    88.3880    24.2650 
  155.0000     2.2340   -34.0130    71.1710    88.5830    84.3920    81.0610    24.2650 
  155.1250     2.2390   -33.9730    71.6170    84.6420    80.1640    88.7260    24.2650 
  155.2500     2.2400   -33.9690    70.8600    76.5610    71.7500    88.7030    24.2650 
  155.3750     2.2410   -33.9600    71.1640    64.8710    59.9790    76.8670    24.2650 
  155.5000     2.2450   -33.9480    73.8910    52.1800    47.5420    55.3720    24.2650 
  155.6250     2.2500   -34.0130    76.1460    41.8420    37.6630    38.5840    24.2650 
  155.7500     2.2450   -34.1020    77.8690    34.8180    31.1410    30.1300    24.2650 
  155.8750     2.2300   -34.1910    80.2580    30.9620    27.7580    27.5990    24.2650 
  156.0000     2.2160   -34.2740    81.4580    29.7060    26.8330    28.4070    24.2590 
  156.1250     2.2280   -34.3720    79.9230    30.6330    27.7000    32.4120    24.2390 
  156.2500     2.2660   -34.4640    76.6930    32.6340    29.2150    38.2200    24.2140 
  156.3750     2.3210   -34.5240    73.6900    34.9960    30.8010    42.7280    24.2030 
  156.5000     2.3810   -34.5750    72.9200    37.1930    32.1760    44.2000    24.2010 
  156.6250     2.4350   -34.5880    74.8770    38.7770    33.1020    39.7770    24.2010 
  156.7500     2.4820   -34.5640    76.9420    39.0290    32.9730    37.1040    24.2010 
  156.8750     2.5160   -34.5170    75.4830    36.6780    30.7550    36.6510    24.2010 
  157.0000     2.5380   -34.4730    71.3740    31.1170    25.9580    38.4430    24.2010 
  157.1250     2.5550   -34.4620    72.2910    23.6230    19.4950    35.1740    24.2010 
  157.2500     2.5660   -34.4350    80.3190    16.8680    13.6070    20.9660    24.2050 
  157.3750     2.5530   -34.3940    90.9480    11.9310     9.3660     9.5930    24.2300 
  157.5000     2.5010   -34.3720    97.1710     8.8620     6.8730     6.2970    24.3020 
  157.6250     2.4370   -34.3430    95.7310     7.4410     5.8450     6.5820    24.4070 
  157.7500     2.3990   -34.3060    91.1600     6.9800     5.5610     7.2080    24.4650 
  157.8750     2.3870   -34.3000    88.1660     7.1800     5.7220     7.3160    24.4810 
  158.0000     2.3880   -34.3370    90.0950     7.7510     6.0970     7.3280    24.4820 
  158.1250     2.3890   -34.3390    96.9750     8.3720     6.4710     7.3650    24.4820 
  158.2500     2.3880   -34.2920   103.8980     8.8310     6.7380     7.5230    24.4820 
  158.3750     2.3870   -34.2550   107.6350     9.0930     6.8940     7.8250    24.4820 
  158.5000     2.3850   -34.2230   108.2000     9.1840     6.9510     8.2320    24.4820 
  158.6250     2.3830   -34.1870   108.9200     9.0850     6.8940     8.4690    24.4820 
  158.7500     2.3810   -34.1820   112.8280     8.8270     6.7430     8.5290    24.4820 
  158.8750     2.3830   -34.2310   119.0540     8.4560     6.5550     8.5290    24.4820 
  159.0000     2.3890   -34.3410   124.3110     8.1050     6.4640     8.6950    24.4820 
  159.1250     2.3900   -34.5010   125.6940     8.0480     6.7530     9.0200    24.4820 
  159.2500     2.3800   -34.7600   125.7920     8.4970     7.6200    10.0530    24.4820 
  159.3750     2.3650   -35.0750   125.2720     9.6630     9.2540    13.2050    24.4820 
  159.5000     2.3550   -35.3750   120.4600    11.7360    11.7870    20.8850    24.4820 
  159.6250     2.3560   -35.6760   106.9230    14.9610    15.2950    35.1460    24.4820 
  159.7500     2.3560   -36.0050    91.6150    18.9030    19.2340    44.1450    24.4820 
  159.8750     2.3520   -36.3060    82.0980    22.9620    23.0750    42.3990    24.4820 
  160.0000     2.3440   -36.5430    78.9960    26.5830    26.4780    39.5920    24.4730 
  160.1250     2.3360   -36.7680    77.1350    29.6630    29.5310    48.6410    24.4380 
