~V
VERS. 2.00: Ver 2.00
~W
STRT.M 58.0000:
STOP.M 208.0000:
STEP.M 0.1250:
NULL. -999.2500:
UWI. F10592:
~C
DEPT.M :
GR.API :
RML.OHMM :
RI. :
RXO.OHMM :
CALI.CM :
DEN.GM/CC :
SP.MV :
~A
# ...
   91.7500    73.0460    12.4120     9.8380     9.6670    24.9350     2.2550    -1.0190 
   91.8750    73.9950    14.0630    11.1730    10.8920    24.9380     2.2480    -0.6940 
   92.0000    75.8060    15.4380    12.3850    11.5290    24.9420     2.2390    -0.3580 
   92.1250    75.0420    16.3460    13.3240    11.6340    24.9550     2.2260    -0.0160 
   92.2500    71.8550    16.7570    13.9100    11.9560    24.9890     2.2090     0.2850 
   92.3750    68.8610    16.7450    14.0970    12.3170    25.0430     2.1920     0.4870 
   92.5000    67.1260    16.5240    14.0110    12.2020    25.0660     2.1780     0.6320 
   92.6250    64.8840    16.1450    13.7070    11.3500    25.0750     2.1700     0.7710 
   92.7500    63.1570    15.6020    13.2240    10.4690    25.0980     2.1650     0.8680 
   92.8750    64.4360    14.8920    12.5930     9.9810    25.1660     2.1630     0.8750 
   93.0000    66.5610    14.1390    11.9160     9.8490    25.2560     2.1640     0.8180 
   93.1250    68.3040    13.4530    11.2810     9.8290    25.3330     2.1670     0.7060 
   93.2500    68.6900    12.9130    10.7610     9.8390    25.3830     2.1720     0.5730 
   93.3750    68.1580    12.5700    10.4220     9.8800    25.3970     2.1750     0.4900 
   93.5000    68.2730    12.3710    10.2310     9.8220    25.4000     2.1760     0.4650 
   93.6250    69.2460    12.2760    10.1480     9.8210    25.4030     2.1750     0.4220 
   93.7500    70.3180    12.2390    10.1210     9.9760    25.4030     2.1720     0.3510 
   93.8750    69.9120    12.2030    10.0990    10.1020    25.3980     2.1710     0.2980 
   94.0000    68.6920    12.1330    10.0630    10.0000    25.3930     2.1700     0.2850 
   94.1250    67.5690    12.0350    10.0170     9.8640    25.3900     2.1700     0.3180 
   94.2500    67.1660    11.9440     9.9730     9.9990    25.3920     2.1690     0.3790 
   94.3750    68.4790    11.9010     9.9400    10.1170    25.4110     2.1680     0.4130 
   94.5000    69.3970    11.8930     9.9140    10.3380    25.4490     2.1700     0.4380 
   94.6250    68.8210    11.8870     9.8910    10.5150    25.4840     2.1740     0.5280 
   94.7500    67.7960    11.8580     9.8740    10.3960    25.4960     2.1800     0.6690 
   94.8750    67.3180    11.8360     9.8890     9.9130    25.4940     2.1860     0.8410 
   95.0000    66.8940    11.8830     9.9590     9.6590    25.4870     2.1920     1.0070 
   95.1250    66.9150    12.0310    10.1000     9.8400    25.4830     2.1970     1.1310 
   95.2500    68.1300    12.2550    10.3050    10.0390    25.4830     2.2050     1.2400 
   95.3750    68.4440    12.4640    10.5300    10.0860    25.4820     2.2140     1.3570 
   95.5000    67.4660    12.5550    10.7010    10.0310    25.4830     2.2200     1.4160 
   95.6250    66.6480    12.4770    10.7570    10.1960    25.4930     2.2180     1.4250 
   95.7500    66.9120    12.2350    10.6700    10.2460    25.5260     2.2080     1.4390 
   95.8750    67.0990    11.8660    10.4440    10.2460    25.5520     2.1960     1.4260 
   96.0000    66.5370    11.4710    10.1740     9.9720    25.5220     2.1930     1.3860 
   96.1250    66.0350    11.1330     9.9390     9.6580    25.3920     2.1990     1.3730 
   96.2500    66.1990    10.9320     9.8030     9.4240    25.1880     2.2090     1.3820 
   96.3750    65.8470    10.9570     9.8260     9.0440    25.0910     2.2120     1.3860 
   96.5000    64.1410    11.1690     9.9750     9.0840    25.0510     2.2050     1.4540 
   96.6250    60.7880    11.4920    10.2070     9.5930    25.0110     2.1910     1.5580 
   96.7500    57.4280    11.8120    10.4540    10.0710    24.9380     2.1770     1.6230 
   96.8750    55.0460    11.9970    10.6230    10.1050    24.8260     2.1660     1.6790 
   97.0000    53.9170    12.0160    10.6610     9.7520    24.7340     2.1570     1.7750 
   97.1250    55.8670    11.8900    10.5620     9.2880    24.6830     2.1490     1.8700 
   97.2500    59.6410    11.6930    10.3830     9.1260    24.6650     2.1410     1.9140 
   97.3750    62.8430    11.6200    10.2890     9.1090    24.6600     2.1410     1.9300 
   97.5000    64.2870    11.9710    10.5180     9.2160    24.6570     2.1600     1.9250 
   97.6250    63.0060    13.1610    11.3700     9.4940    24.6380     2.2070     1.8920 
   97.7500    59.9110    15.6780    13.2270    10.3900    24.5890     2.2830     1.8870 
   97.8750    57.1970    20.1530    16.6930    15.2600    24.4970     2.3820     1.9080 
   98.0000    56.8290    25.8040    21.3540    31.4450    24.3980     2.4810     1.8920 
   98.1250    58.1940    30.8940    25.9800    58.1410    24.2810     2.5600     1.8300 
   98.2500    59.8870    32.9180    28.4970    73.0600    24.1580     2.6050     1.7870 
   98.3750    63.8630    29.7000    26.7000    60.0760    24.0590     2.6010     1.8000 
   98.5000    71.4250    23.6300    22.0840    37.8130    23.9800     2.5590     1.8190 
   98.6250    82.4800    17.3910    16.8070    17.9270    23.9250     2.4950     1.8110 
   98.7500    92.2170    12.6970    12.5230     9.5400    23.9040     2.4260     1.7660 
   98.8750    94.6600    10.1230     9.9810     7.3170    23.9050     2.3690     1.6950 
   99.0000    94.0180     8.8700     8.6280     7.0180    23.9030     2.3280     1.6550 
   99.1250    93.5460     8.4600     8.0790     7.2540    23.8870     2.3050     1.6690 
   99.2500    91.8750     8.5100     8.0130     7.5290    23.8530     2.2990     1.6960 
   99.3750    88.9010     8.6930     8.1730     7.4390    23.7680     2.3110     1.6700 
   99.5000    87.8040     8.7570     8.3080     7.2120    23.6050     2.3300     1.6250 
   99.6250    89.8180     8.6370     8.3130     6.7610    23.3620     2.3430     1.6160 
   99.7500    92.5030     8.3710     8.1700     6.4140    23.1600     2.3430     1.6690 
   99.8750    93.9730     8.0370     7.9170     6.3330    23.1060     2.3300     1.7770 
  100.0000    95.2880     7.7020     7.6380     6.3560    23.1030     2.3170     1.8540 
  100.1250    96.6490     7.3760     7.3650     6.3010    23.1070     2.3110     1.8630 
  100.2500    97.6710     7.0600     7.1010     6.3150    23.1210     2.3150     1.8560 
  100.3750    97.8200     6.7740     6.8300     6.3320    23.2150     2.3250     1.8930 
  100.5000    97.3540     6.5370     6.5460     6.1500    23.4100     2.3360     1.9490 
  100.6250    98.0160     6.3630     6.2660     5.7960    23.6280     2.3450     1.9870 
  100.7500    99.6300     6.2540     6.0250     5.4140    23.7550     2.3500     1.9690 
  100.8750   100.7370     6.2360     5.8890     5.1920    23.8100     2.3520     1.9060 
  101.0000   100.8050     6.3210     5.8830     5.3340    23.8980     2.3500     1.8770 
  101.1250   100.5310     6.5230     6.0180     5.6690    24.0280     2.3450     1.9060 
  101.2500   100.2130     6.8230     6.2720     6.0860    24.1570     2.3390     1.9610 
  101.3750    99.6650     7.1550     6.5910     6.5100    24.2260     2.3330     1.9980 
  101.5000    99.4330     7.4270     6.8810     7.1100    24.2230     2.3310     2.0110 
  101.6250    98.6800     7.5840     7.0780     7.5530    24.1380     2.3350     1.9970 
  101.7500    96.2490     7.6210     7.1580     7.3680    24.0030     2.3430     2.0070 
  101.8750    93.9660     7.5920     7.1470     6.8240    23.9430     2.3480     2.0520 
  102.0000    93.9060     7.6270     7.1580     6.6720    23.9460     2.3410     2.0700 
  102.1250    93.9040     7.8560     7.3020     6.9310    24.0510     2.3180     2.0460 
  102.2500    91.6560     8.3950     7.6700     7.5960    24.2740     2.2820     2.0110 
  102.3750    88.9200     9.3240     8.3390     7.9220    24.3740     2.2380     1.9930 
  102.5000    86.2870    10.4350     9.1750     8.7040    24.3720     2.2000     1.9970 
  102.6250    83.5740    11.4390     9.9760     9.8820    24.3200     2.1780     2.0150 
  102.7500    83.7350    12.0200    10.4990    10.7750    24.2500     2.1800     2.0020 
  102.8750    88.5960    11.8940    10.4950    10.5980    24.2250     2.2040     1.9720 
