~V
VERS. 2.00: Ver 2.00
~W
STRT.M 50.0000:
STOP.M 236.0000:
STEP.M 0.1250:
NULL. -999.2500:
UWI. F10596:
~C
DEPT.M :
DEN.GM/CC :
SP.MV :
GR.API :
RML.OHMM :
RI. :
RXO.OHMM :
CALI.CM :
~A
   50.0000     2.3240  -999.2500    54.2530    11.0880     0.0740     1.2120    25.8670 
   50.1250     2.3360  -999.2500    53.2040    11.1630     0.0710     1.1240    25.8670 
   50.2500     2.3510     0.0000    54.4640    11.1170     0.0790     0.9350    25.8670 
   50.3750     2.3620     0.0000    55.8480    11.0450     0.0910     0.8010    25.8670 
   50.5000     2.3620     0.0000    56.6010    10.9440     0.1010     0.7500    25.8670 
   50.6250     2.3410     0.0000    55.8310    10.6970     0.1070     0.7800    25.8670 
   50.7500     2.3070     0.0000    51.7050    10.2950     0.1100     0.8790    25.8670 
   50.8750     2.2670     0.0000    46.4000     9.8570     0.1090     0.9860    25.8670 
   51.0000     2.2290   102.8900    42.5440     9.5530     0.1040     1.0370    25.8670 
   51.1250     2.2050   102.1800    42.2080     9.5430     0.0950     1.0640    25.8670 
   51.2500     2.1950   101.5410    44.4490     9.7300     0.0850     1.1250    25.8670 
   51.3750     2.1950   100.9850    48.0790     9.9280     0.0800     1.1310    25.8670 
   51.5000     2.1970   100.5290    50.1780     9.9960     0.0810     1.0960    25.8670 
   51.6250     2.2040   100.1870    49.1760     9.9790     0.0880     1.1540    25.8670 
   51.7500     2.2160    99.9800    48.8850     9.9520     0.0950     1.3310    25.8670 
   51.8750     2.2290    99.9060    49.7450     9.8760     0.1000     1.4960    25.8670 
   52.0000     2.2440    99.9440    49.0330     9.6990     0.1020     1.4860    25.8670 
   52.1250     2.2670   100.0970    47.8110     9.4520     0.1000     1.3600    25.8670 
   52.2500     2.2940   100.3750    49.0820     9.2340     0.0940     1.3250    25.8670 
   52.3750     2.3210   100.7760    51.6180     9.1390     0.0830     1.3180    25.8670 
   52.5000     2.3430   101.3060    51.7820     9.2800     0.0710     1.2830    25.8670 
   52.6250     2.3600   102.0210    50.6900     9.6840     0.0680     1.2230    25.8670 
   52.7500     2.3790   102.8720    51.2790    10.0950     0.0770     1.1190    25.8670 
   52.8750     2.4030   103.8200    52.4120    10.2880     0.0940     1.0280    25.8670 
   53.0000     2.4300   104.7920    51.9310    10.1430     0.1110     0.9940    25.8670 
   53.1250     2.4550   105.6840    50.7580     9.6930     0.1210     1.0240    25.8670 
   53.2500     2.4750   106.3890    50.9000     9.1760     0.1230     1.0870    25.8670 
   53.3750     2.4920   106.8650    51.0390     8.7620     0.1240     1.1560    25.8670 
   53.5000     2.5050   107.1070    49.6610     8.5120     0.1270     1.2260    25.8670 
   53.6250     2.5090   107.0730    48.2530     8.3300     0.1300     1.2870    25.8670 
   53.7500     2.5030   106.7780    50.4160     8.1030     0.1320     1.3190    25.8670 
   53.8750     2.4930   106.2440    56.1070     7.8210     0.1320     1.3420    25.8670 
   54.0000     2.4860   105.5150    62.3560     7.5020     0.1280     1.3720    25.8670 
   54.1250     2.4830   104.6540    66.5150     7.2020     0.1210     1.4120    25.8670 
   54.2500     2.4810   103.7700    68.5660     6.9830     0.1120     1.4950    25.8670 
   54.3750     2.4780   102.9490    69.0640     6.8530     0.1020     1.5820    25.8670 
   54.5000     2.4730   102.2320    68.7870     6.7650     0.0960     1.6570    25.8670 
   54.6250     2.4620   101.7370    68.2950     6.6750     0.0980     1.7270    25.8670 
   54.7500     2.4480   101.4910    68.2160     6.5860     0.1050     1.7810    25.8670 
   54.8750     2.4330   101.4880    68.7860     6.4820     0.1140     1.8210    25.8670 
   55.0000     2.4160   101.7020    69.9420     6.3000     0.1220     1.8250    25.8670 
   55.1250     2.3870   102.1330    69.0100     5.9920     0.1250     1.7510    25.8670 
   55.2500     2.3460   102.7160    66.2170     5.6390     0.1260     1.5840    25.8670 
   55.3750     2.2970   103.3360    64.8450     5.3550     0.1250     1.4030    25.8670 
   55.5000     2.2460   103.8640    67.9810     5.2150     0.1250     1.2760    25.8670 
   55.6250     2.1960   104.0660    73.1870     5.1790     0.1240     1.2320    25.8670 
   55.7500     2.1500   103.8250    74.2810     5.1240     0.1240     1.1620    25.8670 
   55.8750     2.1130   103.0160    70.8370     5.0300     0.1230     1.0560    25.8670 
   56.0000     2.0800   101.5880    67.6440     4.9540     0.1220     0.9720    25.8670 
   56.1250     2.0450    99.4400    68.4810     4.9050     0.1160     0.9570    25.8670 
   56.2500     2.0120    96.7210    69.7560     4.7850     0.1100     1.0120    25.8670 
   56.3750     1.9900    93.5590    69.2750     4.5540     0.1070     1.2520    25.8540 
   56.5000     1.9820    90.2130    66.7970     4.2840     0.1110     2.5760    25.8500 
   56.6250     1.9890    87.0530    62.1920     4.1860     0.1270  1554.1930    25.8500 
   56.7500     2.0020    84.3970    55.4680     4.3450     0.1510  1554.1930    25.8500 
   56.8750     2.0140    82.4910    49.2920     4.6740     0.1730   420.2810    25.8440 
   57.0000     2.0240    81.4550    46.2160     4.9770     0.1870    44.1140    25.8180 
   57.1250     2.0400    81.2970    44.9430     5.0660     0.1900     4.6410    25.7290 
   57.2500     2.0670    81.6570    42.5540     5.0380     0.1830     1.8340    25.5750 
   57.3750     2.1010    82.2880    41.4550     5.0690     0.1700     1.0780    25.3560 
   57.5000     2.1440    82.8110    43.9230     5.2750     0.1500     0.8900    25.1000 
   57.6250     2.2070    82.5630    47.5260     5.5840     0.1220     0.8750    24.9930 
   57.7500     2.2910    81.2010    48.5260     5.7530     0.0890     0.8390    24.9620 
   57.8750     2.3880    78.3730    48.2950     5.6930     0.0620     0.7850    24.9570 
   58.0000     2.4860    73.8340    49.7490     5.6170     0.0580     0.7860    24.9310 
   58.1250     2.5500    67.1650    53.4870     6.2280     0.1810     1.0060    24.8660 
   58.2500     2.5330    58.7650    58.1420     8.3420     0.6400     1.6910    24.7670 
   58.3750     2.4330    49.0750    64.0620    13.6300     1.9310     3.2120    24.6230 
   58.5000     2.2950    38.7770    71.9520    26.7510     5.4170     5.9170    24.5030 
   58.6250     2.1850    28.5830    78.6710    63.0400    16.3150     8.0040    24.4580 
   58.7500     2.1230    18.9650    80.5980    77.4780    33.2870     8.6970    24.4350 
   58.8750     2.0960    10.2360    77.5440    41.0140    33.7110     8.6390    24.3730 
   59.0000     2.0860     2.6570    72.3600    18.7820    20.3310     8.7640    24.2440 
   59.1250     2.0840    -3.2490    70.1920    11.7660    12.4710     9.0470    24.1760 
   59.2500     2.0860    -7.5990    72.4150     8.7930     8.7840     9.2400    24.1390 
   59.3750     2.0900   -10.6310    76.7730     7.6070     7.2150     9.1620    24.1100 
   59.5000     2.0980   -12.8380    79.1270     7.3270     6.7370     9.0150    24.0900 
   59.6250     2.1070   -14.5060    79.0730     7.5350     6.7480     8.8960    24.0240 
   59.7500     2.1140   -15.8770    80.8260     7.8430     6.8490     8.9030    23.7800 
   59.8750     2.1180   -17.0200    83.0930     8.1190     6.9660     8.8930    23.2890 
   60.0000     2.1200   -17.9700    82.9850     8.3110     7.0570     8.8190    22.7070 
   60.1250     2.1190   -18.7360    81.8950     8.3980     7.0720     8.6090    22.3950 
   60.2500     2.1150   -19.3400    82.9900     8.4340     7.0220     8.2970    22.2190 
   60.3750     2.1040   -19.7650    83.8830     8.4750     6.9440     8.0900    22.1420 
   60.5000     2.0890   -20.0140    80.1350     8.5620     6.8850     8.1580    22.1690 
   60.6250     2.0770   -20.0470    75.2880     8.6800     6.8690     8.2910    22.3350 
   60.7500     2.0710   -19.9400    74.5670     8.7470     6.8590     8.3140    22.4850 
   60.8750     2.0670   -19.7230    78.9170     8.7070     6.8050     8.2630    22.4510 
   61.0000     2.0650   -19.4450    84.2920     8.5520     6.6870     8.1960    22.2450 
   61.1250     2.0670   -19.1230    86.7640     8.3290     6.5300     8.3630    22.1480 
