~V
VERS. 2.00: Ver 2.00
~W
STRT.M 55.0000:
STOP.M 318.0000:
STEP.M 0.1250:
NULL. -999.2500:
UWI. F10558:
~C
DEPT.M :
DEN.GM/CC :
GR.API :
RML.OHMM :
RI. :
RXO.OHMM :
CALI.CM :
SP.MV :
~A
# ...
  100.0000     2.0880    87.4720     7.2580     5.9370     7.7260    24.0420   -21.1470 
  100.1250     2.0880    86.6280     7.5640     6.0350     7.6760    24.0060   -21.2460 
  100.2500     2.1000    89.4150     7.8190     6.1320     7.5000    23.9260   -21.3110 
  100.3750     2.1150    91.4870     7.9950     6.2100     7.6550    23.8640   -21.3350 
  100.5000     2.1250    90.0360     8.0860     6.2680     8.3200    23.8820   -21.3110 
  100.6250     2.1270    86.7640     8.0770     6.2930     8.8190    24.0030   -21.2570 
  100.7500     2.1330    85.1530     7.9850     6.2660     8.7120    24.1300   -21.2190 
  100.8750     2.1500    85.6670     7.8180     6.1800     8.0080    24.1840   -21.2120 
  101.0000     2.1690    87.6510     7.6560     6.0920     7.3590    24.1760   -21.2180 
  101.1250     2.1670    88.0790     7.7200     6.1380     7.9150    24.1440   -21.2070 
  101.2500     2.1450    86.9190     8.0840     6.3670     8.8330    24.1290   -21.1810 
  101.3750     2.1240    85.7080     8.6280     6.7280     9.2740    24.1200   -21.1410 
  101.5000     2.1190    84.8490     9.0920     7.0790     9.0740    24.0940   -21.0950 
  101.6250     2.1320    84.3890     9.1860     7.2200     8.7670    24.0120   -21.0330 
  101.7500     2.1460    84.6770     8.9960     7.1450     8.6780    23.9060   -20.9210 
  101.8750     2.1520    85.4260     8.7400     6.9470     8.7650    23.7900   -20.7500 
  102.0000     2.1490    83.8860     8.6010     6.7310     8.8180    23.6350   -20.5330 
  102.1250     2.1460    81.0460     8.5640     6.5390     8.7900    23.4840   -20.2980 
  102.2500     2.1490    82.0310     8.3900     6.3340     8.4310    23.4030   -20.0960 
  102.3750     2.1610    86.0930     7.9540     6.0860     7.7820    23.3820   -19.9730 
  102.5000     2.1790    91.0870     7.3450     5.8050     7.0590    23.3800   -19.9400 
  102.6250     2.1920    93.7600     6.8540     5.5700     6.3790    23.3810   -20.0130 
  102.7500     2.1870    92.9010     6.7310     5.4810     6.2730    23.3890   -20.1660 
  102.8750     2.1620    88.5490     7.0670     5.6090     6.9060    23.4120   -20.3910 
  103.0000     2.1300    84.2980     7.7820     5.9550     7.6330    23.4420   -20.6840 
  103.1250     2.1070    83.3510     8.5900     6.4330     7.9620    23.4680   -21.0680 
  103.2500     2.0960    83.3810     9.1060     6.8590     7.7850    23.5030   -21.4710 
  103.3750     2.0940    82.8250     9.1620     7.1240     7.4000    23.5550   -21.8550 
  103.5000     2.0980    80.0630     8.8300     7.2140     7.1280    23.6910   -22.1850 
  103.6250     2.1100    74.7230     8.3610     7.1800     7.4480    24.0120   -22.4300 
  103.7500     2.1220    70.8380     8.0430     7.0900     7.9990    24.5250   -22.6030 
  103.8750     2.1180    69.6150     7.9560     6.9490     8.2500    25.0940   -22.7150 
  104.0000     2.0930    68.3040     8.0230     6.7640     8.1070    25.5680   -22.7760 
  104.1250     2.0620    66.6720     8.0940     6.5760     8.1680    25.7870   -22.7480 
  104.2500     2.0410    69.0640     8.1060     6.4350     8.3970    25.8900   -22.6540 
  104.3750     2.0300    72.5630     8.0760     6.3630     8.5100    26.0060   -22.4860 
  104.5000     2.0230    73.5920     8.0380     6.3530     8.6470    26.0990   -22.2630 
  104.6250     2.0240    72.4630     8.0210     6.3950     8.7560    26.1510   -21.9850 
  104.7500     2.0360    70.9210     8.0250     6.4610     8.8680    26.2250   -21.6580 
  104.8750     2.0510    68.3240     8.0410     6.5320     8.8770    26.3580   -21.2760 
  105.0000     2.0540    65.9580     8.0760     6.5870     8.8440    26.5070   -20.8150 
  105.1250     2.0530    66.1550     8.1390     6.6020     8.9130    26.4860   -20.2520 
  105.2500     2.0670    67.8190     8.1820     6.5750     8.7070    26.1960   -19.6060 
  105.3750     2.0970    70.3650     8.1450     6.5070     8.3310    25.6330   -18.8550 
  105.5000     2.1320    74.1120     7.9800     6.4060     8.0950    25.1120   -17.9890 
  105.6250     2.1610    77.9060     7.6560     6.2590     8.3260    24.8730   -17.0070 
  105.7500     2.1880    81.9280     7.2140     6.0400     8.4990    24.8030   -15.9650 
  105.8750     2.2170    87.7510     6.6620     5.7080     8.0770    24.7930   -14.9000 
  106.0000     2.2470    96.2150     6.0240     5.2460     6.9480    24.7940   -13.8980 
  106.1250     2.2760   106.0040     5.3810     4.6950     5.6240    24.7930   -13.0120 
  106.2500     2.3000   115.9770     4.8400     4.1900     4.8790    24.7910   -12.2350 
  106.3750     2.3110   124.5090     4.4730     3.8360     4.6290    24.7890   -11.6090 
  106.5000     2.3050   128.8420     4.3140     3.6800     4.6220    24.7800   -11.1510 
  106.6250     2.2870   126.6530     4.3820     3.7250     4.7170    24.7590   -10.8910 
  106.7500     2.2710   121.4310     4.5790     3.8630     4.8890    24.7230   -10.7720 
  106.8750     2.2620   116.7520     4.8320     4.0110     5.1170    24.6710   -10.7860 
  107.0000     2.2550   112.2670     5.0680     4.1020     5.2090    24.5500   -10.8700 
  107.1250     2.2560   106.5770     5.1930     4.1080     5.1360    24.2970   -10.9970 
  107.2500     2.2700   104.1120     5.2120     4.0880     5.0120    23.9210   -11.1620 
  107.3750     2.2930   106.6430     5.2100     4.1200     4.9310    23.5550   -11.3400 
  107.5000     2.3110   109.3670     5.3200     4.2730     5.0610    23.3620   -11.5220 
  107.6250     2.3140   105.3740     5.6920     4.5780     5.4470    23.3610   -11.7140 
  107.7500     2.3060    99.6200     6.2660     4.9380     5.7110    23.4900   -11.9300 
  107.8750     2.2930    99.0690     6.8830     5.2470     5.8670    23.7150   -12.1610 
  108.0000     2.2770   100.5370     7.3380     5.4370     6.1570    23.9360   -12.4000 
  108.1250     2.2600    98.0340     7.4740     5.5020     6.8030    24.0280   -12.6510 
  108.2500     2.2420    94.5270     7.3710     5.5200     7.4430    24.0490   -12.9030 
  108.3750     2.2260    94.2400     7.1120     5.5180     7.2130    24.0500   -13.1360 
  108.5000     2.2170    95.5600     6.7810     5.4870     6.6560    24.0500   -13.3330 
  108.6250     2.2230    93.4720     6.4850     5.4000     6.3330    24.0500   -13.4760 
  108.7500     2.2360    90.3020     6.2940     5.2730     6.1260    24.0500   -13.5640 
  108.8750     2.2470    88.9420     6.2280     5.1370     5.8840    24.0500   -13.5700 
  109.0000     2.2500    88.6290     6.2120     5.0160     5.9480    24.0500   -13.4910 
  109.1250     2.2460    89.2000     6.0870     4.9080     6.3710    24.0500   -13.3580 
  109.2500     2.2450    90.7550     5.7990     4.7940     6.4170    24.0500   -13.1850 
  109.3750     2.2510    93.2790     5.4260     4.6770     6.1500    24.0500   -13.0130 
  109.5000     2.2610    96.3200     5.1180     4.5860     5.9170    24.0500   -12.8610 
  109.6250     2.2760    97.8960     5.0470     4.5840     5.9190    24.0500   -12.7440 
  109.7500     2.2960    97.5920     5.2360     4.6970     5.9940    24.0500   -12.6660 
  109.8750     2.3260    95.6260     5.6640     4.9340     6.1910    24.0500   -12.6560 
  110.0000     2.3650    92.2030     6.2450     5.2850     7.1000    24.0500   -12.7260 
  110.1250     2.4010    88.4310     6.7700     5.6880     9.5070    24.0450   -12.8560 
  110.2500     2.4070    86.4420     6.9740     5.9670    11.3580    24.0290   -13.0400 
  110.3750     2.3710    89.3590     6.7030     5.9410     9.2580    23.9940   -13.2800 
  110.5000     2.3170    96.1170     6.0640     5.5630     6.8300    23.9510   -13.5800 
  110.6250     2.2880    99.8580     5.4010     5.0000     5.8450    23.8920   -13.9660 
  110.7500     2.2860   100.1570     4.9900     4.5530     5.5090    23.8480   -14.3910 
  110.8750     2.2920    99.4550     4.9040     4.3720     5.4170    23.8310   -14.8310 
  111.0000     2.2930    98.6330     5.1030     4.4800     5.7920    23.8300   -15.2580 
  111.1250     2.2820    96.5400     5.4920     4.8100     6.5340    23.8300   -15.6340 
