~V
VERS. 2.00: Ver 2.00
~W
STRT.M 54.0000:
STOP.M 217.0000:
STEP.M 0.1250:
NULL. -999.2500:
UWI. F10593:
~C
DEPT.M :
SP.MV :
GR.API :
RML.OHMM :
RI. :
RXO.OHMM :
CALI.CM :
DEN.GM/CC :
~A
# ...
  177.7500   -19.2420    61.5780   124.2590   110.2380    90.4140    23.3920     2.1750 
  177.8750   -19.2570    58.9610   124.5520   111.4500    90.2930    23.3990     2.1670 
  178.0000   -19.2940    57.4450   122.5130   110.5890    85.7860    23.4370     2.1720 
  178.1250   -19.2840    60.0140   118.9970   108.2870    77.8740    23.5420     2.1900 
  178.2500   -19.2420    63.6960   114.6740   105.0370    80.8670    23.7270     2.2100 
  178.3750   -19.1780    63.2710   110.1930   101.2690    83.4620    23.8770     2.2230 
  178.5000   -19.1430    58.9090   106.1520    97.5850    85.2600    23.9780     2.2260 
  178.6250   -19.0560    56.5890   102.7930    94.3390    85.2170    24.0030     2.2220 
  178.7500   -18.9120    59.1360   100.0340    91.6640    85.2840    24.0230     2.2180 
  178.8750   -18.7260    62.8200    97.5840    89.5620    93.1930    24.0260     2.2200 
  179.0000   -18.4840    64.2220    95.1940    87.8540    94.1240    24.0320     2.2260 
  179.1250   -18.1940    63.1200    93.0130    86.6150    90.6250    24.0320     2.2380 
  179.2500   -17.8660    62.0460    91.4170    86.0710    87.4080    24.0530     2.2540 
  179.3750   -17.5450    62.6270    90.9210    86.6160    86.2230    24.0790     2.2700 
  179.5000   -17.1990    64.2030    91.2280    88.0020    92.0210    24.0730     2.2800 
  179.6250   -16.8850    64.8220    91.5340    89.6070   104.8510    24.0220     2.2830 
  179.7500   -16.6020    62.6800    90.5480    90.3280   101.2140    23.9910     2.2770 
  179.8750   -16.3220    60.3450    86.6350    88.4370    95.0980    23.9910     2.2660 
  180.0000   -16.0480    60.5340    80.7530    83.6570    90.9550    23.9960     2.2560 
  180.1250   -15.8370    63.5180    74.8130    76.4680    88.5920    24.0030     2.2480 
  180.2500   -15.6900    67.4710    69.0450    68.0930    76.6940    23.9900     2.2410 
  180.3750   -15.4990    69.3170    62.1430    60.1020    56.0900    23.9820     2.2380 
  180.5000   -15.3320    68.9700    54.6190    53.3780    44.7410    23.9730     2.2410 
  180.6250   -15.1710    68.5800    48.7560    48.1050    37.8330    23.9570     2.2490 
  180.7500   -14.9880    70.9090    45.0920    44.1250    34.7270    23.9530     2.2600 
  180.8750   -14.8710    75.0210    42.5220    41.2790    32.9620    23.9730     2.2680 
  181.0000   -14.8300    77.5980    40.7630    39.1110    30.7660    24.0010     2.2710 
  181.1250   -14.8270    78.5620    39.4700    37.4730    29.1210    24.0110     2.2700 
  181.2500   -14.8620    79.0830    38.8160    36.3770    28.3540    23.9780     2.2680 
  181.3750   -14.9350    78.9660    38.9100    36.2640    29.4820    23.9590     2.2660 
  181.5000   -15.0440    77.1680    39.7960    37.5960    31.3760    23.9500     2.2600 
  181.6250   -15.2060    73.4830    41.9830    41.1300    32.2510    23.9530     2.2520 
  181.7500   -15.4370    70.0260    45.7680    47.6820    34.4120    23.9600     2.2490 
  181.8750   -15.7060    67.4330    55.2010    58.3070    45.3250    23.9720     2.2630 
  182.0000   -15.9670    65.6560    68.0850    71.5620    84.2290    23.9820     2.2940 
  182.1250   -16.2290    65.7450    81.6550    84.9760   156.6360    24.0200     2.3250 
  182.2500   -16.4690    68.6400    91.8000    95.1670   185.6820    24.0870     2.3360 
  182.3750   -16.7670    73.2490    94.7260    98.6140   118.0640    24.1460     2.3090 
  182.5000   -17.0380    76.5830    92.5010    96.8700    79.9130    23.9740     2.2620 
  182.6250   -17.2660    78.6110    88.1290    92.4900    65.3060    23.6110     2.2160 
  182.7500   -17.4870    79.9810    83.9550    87.8810    68.6890    23.3150     2.1920 
  182.8750   -17.6760    80.7180    80.8970    84.3290    90.7230    23.2080     2.1970 
  183.0000   -17.8480    80.7890    78.5660    81.6230    92.9320    23.1970     2.2170 
  183.1250   -18.0410    79.1140    76.9310    79.6550    77.8920    23.1990     2.2390 
  183.2500   -18.2380    75.1360    76.3740    78.7120    65.1680    23.2310     2.2520 
  183.3750   -18.3400    70.8750    77.4800    79.3810    56.6900    23.4370     2.2450 
  183.5000   -18.4450    68.0630    79.3110    80.9060    60.4970    23.7750     2.2250 
  183.6250   -18.5710    65.7740    79.9560    81.6810    73.8880    23.9730     2.2040 
  183.7500   -18.6310    62.5240    77.1900    79.6960    92.8510    24.0240     2.2000 
  183.8750   -18.6850    59.6310    69.7080    73.3430    99.8930    24.0290     2.2170 
  184.0000   -18.7680    59.7790    60.3980    64.6620    92.7920    24.0420     2.2380 
  184.1250   -18.7770    62.7670    52.1590    56.1880    66.1760    24.0240     2.2470 
  184.2500   -18.7640    66.4090    46.9610    50.1010    48.6180    23.9560     2.2420 
  184.3750   -18.8060    68.7290    45.8220    47.8950    43.6140    24.0180     2.2470 
  184.5000   -18.7850    71.1510    47.0220    48.2610    43.7170    23.9340     2.2840 
  184.6250   -18.7590    74.5260    48.3000    49.2160    57.4900    23.7850     2.3530 
  184.7500   -18.7850    77.8560    46.8880    48.1880    82.6960    23.6740     2.4330 
  184.8750   -18.7780    79.9990    40.6080    42.7670    99.6320    23.6280     2.4830 
  185.0000   -18.7430    81.5830    31.8420    34.5020    93.0010    23.6190     2.4900 
  185.1250   -18.7190    82.2150    23.3360    25.8050    61.0740    23.6100     2.4590 
  185.2500   -18.6800    81.7590    16.8460    18.6530    28.9090    23.6260     2.4110 
  185.3750   -18.5410    83.2060    13.0010    14.0770    13.6930    23.6530     2.3660 
  185.5000   -18.3640    87.6480    10.8290    11.2950     9.9390    23.6350     2.3360 
  185.6250   -18.1130    91.1230     9.7430     9.7230     9.5970    23.5700     2.3190 
  185.7500   -17.7400    91.3050     9.2000     8.8840    10.1200    23.4400     2.3140 
  185.8750   -17.3040    88.8820     8.7850     8.4690     9.0780    23.2460     2.3210 
  186.0000   -16.8200    84.9760     8.3060     8.1830     7.5110    23.0740     2.3360 
  186.1250   -16.2570    78.8230     7.9520     7.9200     6.7540    22.9930     2.3540 
  186.2500   -15.6410    71.5760     7.6710     7.6490     6.7080    22.9840     2.3690 
  186.3750   -15.0640    67.6860     7.4490     7.3920     6.6360    23.0080     2.3720 
  186.5000   -14.5210    66.4520     7.2970     7.1800     6.3320    23.0200     2.3690 
  186.6250   -13.9530    66.5240     7.2080     7.0330     6.0730    23.0310     2.3660 
  186.7500   -13.4300    66.7880     7.1490     6.9510     6.0390    23.0650     2.3700 
  186.8750   -12.9510    67.0320     7.1010     6.9150     6.3600    23.1350     2.3800 
  187.0000   -12.4820    68.1110     7.0730     6.8730     6.9820    23.1720     2.3870 
  187.1250   -12.1140    68.6860     7.0580     6.7850     7.2300    23.1630     2.3890 
  187.2500   -11.7870    66.0810     6.9710     6.6370     6.5840    23.1460     2.3880 
  187.3750   -11.4800    60.1560     6.7900     6.4400     6.3190    23.1390     2.3880 
  187.5000   -11.2290    55.8580     6.6290     6.2470     6.3010    23.1410     2.3910 
  187.6250   -11.0570    54.8440     6.5850     6.1150     6.2780    23.1430     2.3930 
  187.7500   -10.9590    54.7200     6.7180     6.1070     6.3470    23.1430     2.3970 
  187.8750   -10.9030    52.9620     7.0590     6.3140     6.5740    23.1430     2.4160 
  188.0000   -10.8640    50.6320     7.5050     6.7200     6.7790    23.1430     2.4540 
  188.1250   -10.8520    47.7550     7.9870     7.2690     7.4570    23.1440     2.5030 
  188.2500   -10.9240    45.0360     8.5450     7.8330     9.7800    23.1500     2.5440 
  188.3750   -11.0100    46.0650     9.0080     8.1940    15.6500    23.1670     2.5500 
  188.5000   -11.1030    50.3580     9.1800     8.2610    17.8450    23.1870     2.5250 
  188.6250   -11.2120    54.2510     8.9900     8.0560    13.6170    23.1990     2.4850 
  188.7500   -11.2890    55.6850     8.5540     7.6990     8.9520    23.2180     2.4520 
  188.8750   -11.3960    56.1460     8.0690     7.3340     7.9100    23.2650     2.4390 
