~V
VERS. 2.00: Ver 2.00
~W
STRT.M 42.0000:
STOP.M 223.0000:
STEP.M 0.1250:
NULL. -999.2500:
UWI. F10538:
~C
DEPT.M :
DEN.GM/CC :
SP.MV :
GR.API :
RML.OHMM :
RI. :
RXO.OHMM :
CALI.CM :
~A
# ...
  199.5000     2.2210   -32.8330    75.2990    61.9060    58.8080    57.0430    24.7390 
  199.6250     2.2290   -32.9580    73.6680    60.4520    57.7140    62.0560    24.7360 
  199.7500     2.2310   -33.0000    74.0880    58.8260    56.3120    64.4160    24.7380 
  199.8750     2.2210   -33.1670    77.4210    56.0920    53.7670    60.7930    24.7390 
  200.0000     2.2090   -33.2500    80.7310    52.5040    50.4210    54.2810    24.7380 
  200.1250     2.2070   -33.3330    82.2360    48.7880    47.0010    49.0500    24.7380 
  200.2500     2.2180   -33.5000    82.6510    45.7030    44.2320    44.4020    24.7450 
  200.3750     2.2400   -33.5420    82.5750    44.0140    42.9160    37.1940    24.7670 
  200.5000     2.2630   -33.6670    81.6640    44.0360    43.4430    32.9030    24.8100 
  200.6250     2.2760   -33.7920    79.0280    46.3190    46.2820    36.8400    24.8510 
  200.7500     2.2720   -34.0000    75.3690    51.0220    51.2930    50.3330    24.8720 
  200.8750     2.2580   -34.0420    72.6270    57.0590    56.8940    59.4680    24.8770 
  201.0000     2.2460   -34.2500    71.1730    61.1370    59.8830    62.2010    24.8770 
  201.1250     2.2420   -34.3330    70.1440    60.2940    57.8440    63.7840    24.8680 
  201.2500     2.2400   -34.5000    68.5070    53.9120    50.8480    62.1530    24.7970 
  201.3750     2.2380   -34.5420    66.8400    44.4910    41.6750    52.9280    24.5530 
  201.5000     2.2350   -34.6670    68.1800    35.8050    33.5490    40.2850    24.2130 
  201.6250     2.2340   -34.6670    74.0710    29.0160    27.2880    29.3230    23.9770 
  201.7500     2.2360   -34.8330    82.8700    24.1220    22.8040    20.0470    23.8730 
  201.8750     2.2500   -34.8400    89.9900    21.1460    20.2310    15.7350    23.8850 
  202.0000     2.2740   -34.8750    93.7790    19.7550    19.3720    14.5930    24.0000 
  202.1250     2.2990   -34.9100    94.5840    19.9880    20.2890    17.8250    24.2430 
  202.2500     2.3160   -34.9440    91.2800    21.8030    22.8040    24.0550    24.5210 
  202.3750     2.3200   -35.0000    84.4820    25.0120    26.3700    27.9680    24.6360 
  202.5000     2.3200   -35.0830    80.6950    28.4630    29.6600    29.0020    24.6660 
  202.6250     2.3180   -35.1670    81.2010    31.0070    31.6280    30.3190    24.6630 
  202.7500     2.3160   -35.1670    83.1310    31.8920    31.8130    33.0440    24.6470 
  202.8750     2.3100   -35.2080    82.8620    31.0150    30.3940    35.7170    24.6040 
  203.0000     2.3010   -35.3330    82.3690    29.2680    28.2990    35.2490    24.5470 
  203.1250     2.2930   -35.3330    82.7630    27.0330    25.8750    31.1170    24.5250 
  203.2500     2.2950   -35.3330    82.0940    24.5310    23.3090    25.8800    24.5450 
  203.3750     2.3100   -35.3750    79.5110    22.1110    20.9420    21.4420    24.6040 
  203.5000     2.3290   -35.5000    77.9270    20.1180    19.0770    19.2320    24.6420 
  203.6250     2.3450   -35.5000    79.0690    18.7170    17.8510    18.3080    24.6560 
  203.7500     2.3540   -35.5000    81.4150    17.9160    17.2300    18.0640    24.6550 
  203.8750     2.3570   -35.5000    83.1520    17.6660    17.1080    17.8380    24.6550 
  204.0000     2.3590   -35.5830    86.4870    17.6900    17.1810    17.6930    24.6580 
  204.1250     2.3570   -35.6670    90.7070    17.8160    17.2820    17.4260    24.6580 
  204.2500     2.3480   -35.6670    92.3350    17.9390    17.3390    17.1300    24.6570 
  204.3750     2.3350   -35.6670    89.2510    18.0310    17.3630    16.9020    24.6580 
  204.5000     2.3260   -35.6670    85.8620    18.1350    17.4250    16.6210    24.6580 
  204.6250     2.3250   -35.5950    84.7460    18.3020    17.5890    16.6190    24.6570 
  204.7500     2.3310   -35.5470    85.3060    18.5730    17.9010    16.9940    24.6580 
  204.8750     2.3390   -35.5100    85.4120    18.9870    18.3950    17.8700    24.6560 
  205.0000     2.3430   -35.5160    84.9470    19.4890    18.9940    19.1350    24.6530 
  205.1250     2.3410   -35.5180    85.0950    20.0050    19.6100    20.2190    24.6540 
  205.2500     2.3330   -35.5280    84.8770    20.4460    20.1510    20.6410    24.6710 
  205.3750     2.3210   -35.5480    81.9860    20.7540    20.6200    20.9570    24.7250 
  205.5000     2.3140   -35.5620    79.2600    21.1720    21.1200    22.2940    24.8110 
  205.6250     2.3120   -35.5760    79.5240    22.1230    21.7500    24.9280    24.8820 
  205.7500     2.3140   -35.5650    83.6800    23.7060    22.9060    28.4210    24.9450 
  205.8750     2.3150   -35.5470    87.5210    26.2170    24.8970    28.9170    25.0020 
  206.0000     2.3140   -35.5070    87.5690    29.7050    27.7660    29.9410    25.0460 
  206.1250     2.3090   -35.4670    84.1770    34.4420    31.7640    36.1910    25.1240 
  206.2500     2.2980   -35.4430    80.0020    40.5330    37.0930    47.5220    25.2510 
  206.3750     2.2850   -35.3840    77.5970    47.4290    43.5070    59.2330    25.3510 
  206.5000     2.2720   -35.3360    75.5670    53.2890    49.4080    68.7230    25.3890 
  206.6250     2.2620   -35.2890    73.9800    56.2680    52.9630    73.5880    25.3950 
  206.7500     2.2580   -35.2480    73.8220    55.6900    53.1840    73.1040    25.3950 
  206.8750     2.2590   -35.2170    73.5790    52.8150    50.8580    65.1600    25.3950 
  207.0000     2.2600   -35.1530    72.5460    50.2040    48.4270    57.2220    25.4000 
  207.1250     2.2580   -35.0890    72.4880    48.7810    46.9100    50.5430    25.4200 
  207.2500     2.2540   -35.0040    73.8230    48.5440    46.4590    49.0250    25.4630 
  207.3750     2.2460   -34.9350    73.7630    49.2660    46.9870    56.1230    25.5050 
  207.5000     2.2340   -34.8510    73.1490    50.4120    48.0510    60.3090    25.5240 
  207.6250     2.2240   -34.7530    73.5750    51.6840    49.3710    57.5210    25.5060 
  207.7500     2.2220   -34.6800    73.5420    52.9200    50.7530    53.5480    25.4270 
  207.8750     2.2270   -34.6020    71.0210    54.0420    52.0910    60.1570    25.2830 
  208.0000     2.2310   -34.5700    68.1720    55.0240    53.3160    66.0680    25.1320 
  208.1250     2.2290   -34.5660    67.2640    55.8260    54.3820    65.3780    25.0430 
  208.2500     2.2220   -34.5640    67.4820    56.3350    55.1910    61.1360    25.0000 
  208.3750     2.2130   -34.5700    67.7060    56.3530    55.5200    58.4610    24.9440 
  208.5000     2.2070   -34.5730    68.4490    56.0840    55.5030    62.0560    24.8610 
  208.6250     2.2080   -34.5950    69.2200    55.8240    55.4040    64.1690    24.7990 
  208.7500     2.2110   -34.6130    69.3010    55.7640    55.4200    63.2160    24.7480 
  208.8750     2.2150   -34.6100    67.7290    55.9600    55.6070    63.0000    24.7100 
  209.0000     2.2180   -34.5820    66.5550    56.3810    55.9500    62.0830    24.6740 
  209.1250     2.2220   -34.5280    66.0090    57.1100    56.5500    60.3980    24.6400 
  209.2500     2.2230   -34.4660    66.4410    58.2290    57.5200    57.5330    24.5550 
  209.3750     2.2180   -34.4100    68.5740    59.7430    58.9040    56.1500    24.3970 
  209.5000     2.2100   -34.3350    70.6340    61.3780    60.4510    61.6170    24.3720 
  209.6250     2.2040   -34.2420    71.0580    62.8380    61.8850    70.1870    24.6630 
  209.7500     2.2000   -34.1370    70.6710    63.7780    62.8850    77.3530    25.1340 
  209.8750     2.1960   -34.0010    69.9430    63.7450    63.0200    78.7390    25.4610 
  210.0000     2.1940   -33.8230    68.5880    62.9120    62.3820    71.0720    25.5820 
  210.1250     2.1990   -33.5940    66.9540    61.8150    61.3980    60.2260    25.6190 
  210.2500     2.2100   -33.3190    66.6020    61.3300    60.8780    53.1000    25.7050 
  210.3750     2.2190   -32.9830    67.4630    62.4400    61.8540    55.7440    25.9450 
  210.5000     2.2170   -32.6450    68.1400    64.7990    64.1450    57.1610    26.2100 
  210.6250     2.2100   -32.2650    69.0150    67.0260    67.2360    63.3210    26.3200 
