~V
VERS. 2.00: Ver 2.00
~W
STRT.M 50.0000:
STOP.M 214.0000:
STEP.M 0.1250:
NULL. -999.2500:
UWI. F10534:
~C
DEPT.M :
DEN.GM/CC :
SP.MV :
GR.API :
RML.OHMM :
RI. :
RXO.OHMM :
CALI.CM :
~A
   50.0000     0.0000    -4.0670  -999.2500  -999.2500  -999.2500  -999.2500  -999.2500 
   50.1250     0.5990    -4.9390  -999.2500  -999.2500  -999.2500  -999.2500  -999.2500 
   50.2500     2.4030    -5.6230  -999.2500  -999.2500  -999.2500  -999.2500  -999.2500 
   50.3750     2.4170    -6.0960  -999.2500  -999.2500  -999.2500  -999.2500  -999.2500 
   50.5000     2.4250    -6.4160  -999.2500  -999.2500  -999.2500  -999.2500  -999.2500 
   50.6250     2.4300    -6.5770  -999.2500  -999.2500  -999.2500  -999.2500  -999.2500 
   50.7500     2.4270    -6.5630     0.0000     0.0000     0.0000     0.0000     0.0000 
   50.8750     2.4140    -6.3840     0.0000     0.0000     0.0000     0.0000     0.0000 
   51.0000     2.3990    -6.0500     0.0000     0.0000     0.0000     0.0000     0.0000 
   51.1250     2.3940    -5.5510     0.0000     0.0000     0.0000     0.0000     0.0000 
   51.2500     2.3970    -4.9490     0.0000     0.0000     0.0000     0.0000     0.0000 
   51.3750     2.4000    -4.2410    49.0360     3.1070     0.0360   949.3860    18.9500 
   51.5000     2.3920    -3.3770    66.7890     4.0970     0.0490  1265.8480    25.2670 
   51.6250     2.3730    -2.2980    65.6260     4.0170     0.0510  1265.8480    25.2670 
   51.7500     2.3560    -1.0580    64.3260     3.9530     0.0520  1265.8480    25.2670 
   51.8750     2.3460     0.3290    64.7410     3.9310     0.0520  1265.8480    25.2670 
   52.0000     2.3430     1.8480    66.7110     3.9580     0.0540  1265.8480    25.2670 
   52.1250     2.3450     3.4620    68.1510     4.0050     0.0570  1265.8480    25.2670 
   52.2500     2.3540     5.0760    68.4010     4.0160     0.0580  1265.8480    25.2670 
   52.3750     2.3720     6.5900    68.1110     3.9720     0.0550  1265.8480    25.2670 
   52.5000     2.3970     7.9210    67.5840     3.8860     0.0480  1265.8480    25.2670 
   52.6250     2.4210     9.0480    64.3960     3.7890     0.0420  1265.8480    25.2670 
   52.7500     2.4400    10.0110    58.6790     3.7060     0.0390  1265.8480    25.2670 
   52.8750     2.4520    10.7860    54.0390     3.6500     0.0400  1265.8480    25.2670 
   53.0000     2.4570    11.3330    52.3260     3.6330     0.0450  1265.8480    25.2670 
   53.1250     2.4600    11.5830    51.8970     3.6660     0.0520  1265.8480    25.2670 
   53.2500     2.4690    11.5860    51.3870     3.7110     0.0570  1265.8480    25.2670 
   53.3750     2.4800    11.2730    51.0750     3.7280     0.0600  1265.8480    25.2670 
   53.5000     2.4820    10.4840    50.7980     3.6950     0.0580  1265.8480    25.2670 
   53.6250     2.4650     8.8070    50.2300     3.6200     0.0560   950.5230    25.2670 
   53.7500     2.4340     6.1840    49.6850     3.5500     0.0550     3.1920    25.2670 
   53.8750     2.3910     2.6780    48.8160     3.5140     0.0570     1.2420    25.2670 
   54.0000     2.3320    -1.4970    47.5440     3.5110     0.0610     0.8020    25.2670 
   54.1250     2.2600    -6.0840    45.8660     3.4980     0.0630     0.8400    25.2670 
   54.2500     2.1910   -10.7530    44.7510     3.4190     0.0600     0.9810    25.2670 
   54.3750     2.1400   -15.2480    44.4050     3.2570     0.0520     0.8780    25.2670 
   54.5000     2.1150   -19.3070    44.6800     3.0340     0.0420     0.6370    25.2670 
   54.6250     2.1120   -22.5420    44.8320     2.8090     0.0330     0.4840    25.2670 
   54.7500     2.1170   -24.9070    45.0040     2.6340     0.0250     0.6610    25.2670 
   54.8750     2.1300   -26.4440    45.8470     2.5290     0.0190     1.4420    25.2670 
   55.0000     2.1500   -27.3090    46.3590     2.5040     0.0160     4.6880    25.2670 
   55.1250     2.1680   -27.6350    45.5890     2.5800     0.0190  1265.8480    25.2670 
   55.2500     2.1790   -27.6540    45.6450     2.7320     0.0260  1265.8480    25.2670 
   55.3750     2.1810   -27.4800    47.5580     2.9200     0.0360  1265.8480    25.2670 
   55.5000     2.1770   -27.2360    49.8520     3.0670     0.0490  1265.8480    25.2670 
   55.6250     2.1660   -27.0190    49.9610     3.0790     0.0590  1265.8480    25.2670 
   55.7500     2.1470   -26.8850    48.9090     2.9770     0.0650  1265.8480    25.2670 
   55.8750     2.1240   -26.8780    47.5510     2.8260     0.0650  1265.8480    25.2670 
   56.0000     2.0990   -27.0340    45.8000     2.6940     0.0630  1265.8480    25.2670 
   56.1250     2.0790   -27.4280    44.7900     2.6150     0.0610  1265.8480    25.2670 
   56.2500     2.0680   -28.0380    45.5610     2.5750     0.0620  1265.8480    25.2670 
   56.3750     2.0630   -28.8360    47.4570     2.5620     0.0660  1265.8480    25.2670 
   56.5000     2.0590   -29.7440    49.8000     2.5670     0.0730  1265.8480    25.2670 
   56.6250     2.0510   -30.6670    52.1030     2.5710     0.0820  1265.8480    25.2670 
   56.7500     2.0440   -31.5350    54.1510     2.5480     0.0920  1265.8480    25.2670 
   56.8750     2.0360   -32.2890    55.3280     2.4840     0.1010  1265.8480    25.2670 
   57.0000     2.0230   -32.8750    56.1240     2.3910     0.1100  1265.8480    25.2670 
   57.1250     2.0020   -33.2080    55.9420     2.3010     0.1160  1265.8480    25.2670 
   57.2500     1.9830   -33.2810    55.0490     2.2260     0.1190  1265.8480    25.2670 
   57.3750     1.9750   -33.0750    54.7890     2.1530     0.1190  1265.8480    25.2670 
   57.5000     1.9770   -32.5820    56.4250     2.0660     0.1180  1265.8480    25.2670 
   57.6250     1.9810   -31.7600    58.9040     1.9740     0.1190  1265.8480    25.2890 
   57.7500     1.9840   -30.6080    60.4820     1.8990     0.1210  1265.8480    25.2880 
   57.8750     1.9880   -29.0850    60.5760     1.8520     0.1230  1265.8480    25.2880 
   58.0000     1.9990   -27.1680    59.0220     1.8210     0.1240  1265.8480    25.2790 
   58.1250     2.0150   -24.7850    57.7620     1.7770     0.1240  1265.8480    25.2550 
   58.2500     2.0310   -22.0440    57.1460     1.7080     0.1250  1265.8480    25.2210 
   58.3750     2.0450   -19.0430    56.6820     1.6330     0.1280  1265.8480    25.1920 
   58.5000     2.0540   -15.9380    57.1670     1.5750     0.1350  1265.8480    25.1490 
   58.6250     2.0580   -12.9290    60.3590     1.5460     0.1450    16.7670    25.0930 
   58.7500     2.0560   -10.2250    61.7470     1.5330     0.1540     2.5330    25.0060 
   58.8750     2.0500    -7.9610    58.7390     1.5210     0.1590     1.2260    24.9030 
   59.0000     2.0410    -6.2210    55.3160     1.4970     0.1590     1.1070    24.8190 
   59.1250     2.0280    -5.1210    56.2730     1.4620     0.1510     1.1640    24.7530 
   59.2500     2.0170    -4.5430    58.5180     1.4440     0.1380     0.8660    24.7110 
   59.3750     2.0140    -4.4130    59.1550     1.4540     0.1190     0.7460    24.6970 
   59.5000     2.0220    -4.6100    58.2620     1.4820     0.0940     0.7650    24.6940 
   59.6250     2.0490    -5.0800    56.6230     1.5040     0.0670     0.7710    24.6950 
   59.7500     2.0930    -5.7180    55.0370     1.5060     0.0420     0.7620    24.7090 
   59.8750     2.1560    -6.5710    54.1580     1.5370     0.0370     0.7680    24.7620 
   60.0000     2.2370    -7.7350    53.1510     1.7650     0.1190     0.9350    24.9180 
   60.1250     2.3310    -9.3130    51.6870     2.6250     0.5530     1.6360    25.4400 
   60.2500     2.4250   -11.1770    51.4330     4.6880     1.7510     3.0810    26.4140 
   60.3750     2.4800   -13.2250    53.3660     9.5730     4.9130     4.5410    27.7250 
   60.5000     2.4330   -15.3640    55.8030    22.6600    14.2390     5.1890    29.1040 
   60.6250     2.2810   -17.5000    57.7340    72.2470    51.1360     5.2180    30.3860 
   60.7500     2.1250   -19.5050    60.8210   103.8950    97.2630     5.2630    31.9660 
   60.8750     2.0130   -21.2540    66.0080    50.0660    72.7590     5.1560    33.7540 
   61.0000     1.9460   -22.6150    73.0370    18.9960    33.9370     4.7530    35.0560 
   61.1250     1.9000   -23.5050    79.4120     9.9730    17.3130     4.2220    34.5430 
