~V
VERS. 2.00: Ver 2.00
~W
STRT.M 58.0000:
STOP.M 197.0000:
STEP.M 0.1250:
NULL. -999.2500:
UWI. F10573:
~C
DEPT.M :
SP.MV :
GR.API :
RML.OHMM :
RI. :
RXO.OHMM :
CALI.CM :
DEN.GM/CC :
~A
# ...
  103.0000   -17.1340    63.7920    45.3410    37.2960    35.9840    23.4580     2.1440 
  103.1250   -17.0990    62.3810    46.1070    37.7650    36.3790    23.4610     2.1600 
  103.2500   -17.0420    59.6320    47.4820    38.7780    37.6090    23.4620     2.1730 
  103.3750   -17.0270    58.5450    49.1680    40.1120    39.2430    23.4860     2.1760 
  103.5000   -17.1150    59.2160    50.7750    41.4700    41.6980    23.6080     2.1620 
  103.6250   -17.2600    60.0570    51.7070    42.4020    47.0900    23.9620     2.1370 
  103.7500   -17.4080    61.8680    51.6020    42.5830    50.4250    24.4090     2.1150 
  103.8750   -17.5700    63.6730    50.2510    41.8060    50.6470    24.7660     2.1070 
  104.0000   -17.7140    61.9280    47.7360    40.0850    49.8970    24.9580     2.1150 
  104.1250   -17.8290    57.7700    44.3330    37.6110    47.2280    25.0800     2.1300 
  104.2500   -18.0000    56.4490    40.7060    34.9230    42.6080    25.1930     2.1390 
  104.3750   -18.1620    58.3860    37.2740    32.3690    38.1200    25.3310     2.1390 
  104.5000   -18.2200    61.2210    34.3140    30.1840    35.4240    25.3870     2.1340 
  104.6250   -18.2090    64.0350    32.0780    28.5920    33.8590    25.3240     2.1290 
  104.7500   -18.1770    65.3760    30.5020    27.5620    32.4710    25.2260     2.1290 
  104.8750   -18.1180    63.7050    29.5490    27.0810    30.8650    25.1280     2.1360 
  105.0000   -18.0610    61.2980    29.0600    27.0370    29.7840    25.0320     2.1470 
  105.1250   -18.0200    61.9220    28.6240    27.0900    29.3180    24.9340     2.1600 
  105.2500   -17.9120    63.0680    27.6250    26.6420    30.1910    24.9620     2.1650 
  105.3750   -17.7720    62.4620    25.6160    25.2030    30.7120    25.0710     2.1610 
  105.5000   -17.6590    61.5600    22.5520    22.6490    29.2180    25.1370     2.1520 
  105.6250   -17.5700    63.8800    18.9230    19.3630    23.8730    25.0180     2.1530 
  105.7500   -17.5060    68.7840    15.5820    16.1780    17.4780    24.7570     2.1720 
  105.8750   -17.4740    72.5180    12.9480    13.5290    12.1830    24.4500     2.2060 
  106.0000   -17.4630    72.3720    11.1120    11.5630     9.7810    24.2100     2.2410 
  106.1250   -17.4750    71.1880    10.0720    10.3410     9.2860    24.0670     2.2610 
  106.2500   -17.5120    73.4510     9.5920     9.6810     9.0760    23.9440     2.2680 
  106.3750   -17.5620    76.3750     9.6250     9.5460     8.8120    23.8350     2.2680 
  106.5000   -17.6160    75.1840    10.1580     9.9210     8.7400    23.7250     2.2640 
  106.6250   -17.6490    70.9450    11.2410    10.8600     9.4060    23.6470     2.2520 
  106.7500   -17.6560    68.9020    12.6770    12.1910    12.0090    23.6180     2.2320 
  106.8750   -17.6390    67.9170    14.2350    13.7170    17.6190    23.6040     2.2070 
  107.0000   -17.6160    65.7290    15.6010    15.1300    22.6910    23.5730     2.1870 
  107.1250   -17.5700    65.2020    16.4390    16.0340    21.2380    23.5050     2.1780 
  107.2500   -17.4940    67.4270    16.8770    16.4550    19.1070    23.4620     2.1790 
  107.3750   -17.4360    68.5110    17.2360    16.6430    16.9680    23.4470     2.1840 
  107.5000   -17.3960    66.5530    17.9040    16.9560    17.5700    23.4460     2.1900 
  107.6250   -17.3580    64.4250    19.3160    17.8050    19.4400    23.4480     2.1940 
  107.7500   -17.3170    64.7130    21.5250    19.2990    21.6640    23.4440     2.1930 
  107.8750   -17.2850    65.7130    24.5490    21.4830    25.5690    23.4290     2.1850 
  108.0000   -17.2620    65.1150    28.3320    24.3290    29.1830    23.4190     2.1730 
  108.1250   -17.2270    62.7670    32.8280    27.8270    32.4360    23.6420     2.1580 
  108.2500   -17.2040    59.2510    37.6460    31.6820    36.1940    24.0840     2.1440 
  108.3750   -17.1720    56.3460    42.3160    35.5590    43.3050    24.5590     2.1330 
  108.5000   -17.1460    56.0920    46.1620    38.9280    50.7500    24.8400     2.1250 
  108.6250   -17.1610    58.2310    48.1390    40.8800    54.8110    24.9060     2.1220 
  108.7500   -17.2160    59.1020    48.2420    41.2230    54.9510    24.9150     2.1280 
  108.8750   -17.2620    57.1550    46.9910    40.2430    53.4110    24.8980     2.1370 
  109.0000   -17.2620    55.7560    45.3860    38.7270    47.2040    24.8120     2.1480 
  109.1250   -17.2910    58.7740    44.5820    37.6810    41.5950    24.6060     2.1670 
  109.2500   -17.3900    62.7730    44.9460    37.5660    38.8100    24.3320     2.2060 
  109.3750   -17.5080    64.0030    46.3870    38.4260    40.8240    24.0540     2.2690 
  109.5000   -17.6040    62.0780    48.4850    40.0180    47.1020    23.7630     2.3440 
  109.6250   -17.6590    60.1490    50.5590    41.8960    52.2530    23.4280     2.3940 
  109.7500   -17.6950    58.9350    52.1570    43.6300    45.2490    23.2280     2.4050 
  109.8750   -17.7590    57.3720    53.3760    45.2310    44.5170    23.2090     2.3880 
  110.0000   -17.8230    54.7510    54.6950    47.0280    49.3430    23.3380     2.3660 
  110.1250   -17.8600    52.0290    56.5120    49.4600    52.1830    23.4960     2.3470 
  110.2500   -17.9090    51.5120    57.9300    51.8960    49.4790    23.5430     2.3140 
  110.3750   -18.0450    53.4460    57.1550    52.7390    49.8180    23.4010     2.2600 
  110.5000   -18.3480    56.2590    52.7640    50.3580    52.0690    23.0720     2.1940 
  110.6250   -19.0090    57.9290    45.1270    44.5050    52.9490    22.8110     2.1500 
  110.7500   -19.9260    58.6840    37.1660    37.7440    43.7420    22.8800     2.1500 
  110.8750   -20.6050    60.4200    30.3230    31.5260    27.0520    23.0530     2.1910 
  111.0000   -20.8260    63.4540    24.7880    26.2220    15.7990    23.0180     2.2410 
  111.1250   -21.0280    66.1600    22.1720    21.6040    15.0940    22.8080     2.2610 
  111.2500   -21.2380    67.8110    17.6090    17.3770    16.0070    22.7540     2.2550 
  111.3750   -21.4120    69.4560    13.8530    13.7930    13.2480    22.9280     2.2430 
  111.5000   -21.4730    71.8660    11.2630    11.1820     8.3060    23.2590     2.2410 
  111.6250   -21.2470    77.1910    10.1300     9.8540     6.2260    23.6180     2.2560 
  111.7500   -20.7900    82.0500    10.1090     9.5590     5.9340    23.8750     2.2870 
  111.8750   -20.5470    81.1200    11.0700    10.2150     7.5890    23.9370     2.3370 
  112.0000   -20.7650    75.4040    12.8420    11.7190    12.4620    23.8820     2.4000 
  112.1250   -20.9990    72.8560    15.0470    13.8200    20.7720    23.8490     2.4540 
  112.2500   -21.1620    73.8360    16.9820    15.8190    21.5910    23.8310     2.4770 
  112.3750   -21.2520    73.8580    18.3130    17.2520    16.8580    23.7780     2.4710 
  112.5000   -21.2840    71.9020    19.2250    18.1190    15.6080    23.6030     2.4580 
  112.6250   -21.2580    68.7230    20.3890    18.9180    17.2960    23.3220     2.4660 
  112.7500   -21.2230    63.9070    22.3580    20.2260    16.1380    23.0750     2.4940 
  112.8750   -21.1830    58.0600    25.3470    22.3060    15.9580    22.9400     2.5270 
  113.0000   -21.1130    53.8610    29.2230    25.1010    18.6530    22.8430     2.5530 
  113.1250   -21.0250    52.3760    30.5510    28.2810    20.5960    22.8270     2.5640 
  113.2500   -20.9580    51.7630    34.5160    31.3900    20.3750    22.8670     2.5690 
  113.3750   -20.9000    51.2920    38.2140    34.2300    19.7120    22.9030     2.5820 
  113.5000   -20.8140    50.5250    41.4560    36.6880    20.6650    22.9260     2.6100 
  113.6250   -20.6770    49.8490    43.9640    38.6060    23.0970    22.9620     2.6450 
  113.7500   -20.5060    48.8470    45.7630    40.0460    26.9490    23.0600     2.6620 
  113.8750   -20.3490    47.8180    46.8400    40.9840    31.1380    23.2840     2.6500 
  114.0000   -20.2220    46.2440    47.3140    41.4400    33.9110    23.6480     2.6150 
  114.1250   -20.0770    45.3260    47.5020    41.5920    36.2450    23.9340     2.5680 
