~V
VERS. 2.00: Ver 2.00
~W
STRT.M 58.0000:
STOP.M 214.0000:
STEP.M 0.1250:
NULL. -999.2500:
UWI. F10594:
~C
DEPT.M :
GR.API :
RML.OHMM :
RI. :
RXO.OHMM :
CALI.CM :
DEN.GM/CC :
SP.MV :
~A
# ...
   69.2500    73.5710     7.2850     5.9220     6.2170    22.4930     2.2740   -31.1230 
   69.3750    70.2690     7.2980     5.8830     6.4280    22.4650     2.2930   -31.0500 
   69.5000    68.9220     7.3070     5.8370     6.5350    22.4990     2.3100   -30.9720 
   69.6250    71.9940     7.3260     5.7990     6.5390    22.5740     2.3170   -30.9030 
   69.7500    72.8170     7.3660     5.7810     6.7780    22.6780     2.3100   -30.8590 
   69.8750    70.3240     7.4350     5.7890     7.0950    22.8280     2.2910   -30.8550 
   70.0000    68.8400     7.5540     5.8340     7.2180    23.0430     2.2670   -30.9080 
   70.1250    71.4780     7.7810     5.9500     7.1760    23.1410     2.2510   -31.0400 
   70.2500    73.0580     8.1520     6.1620     7.2530    23.1060     2.2480   -31.2350 
   70.3750    71.0390     8.6970     6.5000     7.4990    22.9600     2.2530   -31.4910 
   70.5000    67.1440     9.4180     6.9770     7.9060    22.7710     2.2570   -31.8000 
   70.6250    64.1560    10.2700     7.5830     8.7920    22.7420     2.2470   -32.1590 
   70.7500    61.3020    11.0880     8.2070     9.9790    22.9010     2.2260   -32.5430 
   70.8750    58.0690    11.7160     8.7330    10.8320    23.2300     2.2040   -32.9280 
   71.0000    56.3700    12.0390     9.0650    11.3610    23.6440     2.1920   -33.2860 
   71.1250    58.1960    12.0050     9.1340    11.4780    23.8860     2.1950   -33.5850 
   71.2500    60.5910    11.7800     9.0350    11.1190    23.8850     2.2030   -33.8200 
   71.3750    61.5980    11.5010     8.8560    10.8120    23.8070     2.2070   -33.9840 
   71.5000    60.3590    11.2480     8.6630    10.6480    23.7730     2.1970   -34.0770 
   71.6250    59.2780    11.0360     8.4800    10.4230    23.8140     2.1750   -34.0900 
   71.7500    59.4410    10.8440     8.3090    10.2410    23.8790     2.1580   -34.0440 
   71.8750    59.7300    10.6770     8.1570    10.0690    23.9160     2.1640   -33.9550 
   72.0000    59.4900    10.5620     8.0430     9.7880    23.9320     2.2000   -33.8370 
   72.1250    58.5080    10.5320     7.9970     9.3130    23.8950     2.2500   -33.7110 
   72.2500    57.9840    10.5690     8.0100     8.8560    23.7450     2.2810   -33.6000 
   72.3750    58.4020    10.6340     8.0600     8.7580    23.5740     2.2740   -33.5220 
   72.5000    58.7990    10.6770     8.1120     9.3680    23.5550     2.2370   -33.4800 
   72.6250    59.6560    10.6610     8.1350     9.6890    23.7250     2.1960   -33.4820 
   72.7500    62.1940    10.6140     8.1310     9.5150    23.9600     2.1710   -33.5170 
   72.8750    63.9200    10.5750     8.1220     9.2330    24.2350     2.1650   -33.5770 
   73.0000    62.2000    10.5840     8.1320     9.3570    24.4920     2.1720   -33.6580 
   73.1250    58.7910    10.6530     8.1810     9.5530    24.5790     2.1800   -33.7540 
   73.2500    58.0380    10.7330     8.2480     9.6650    24.5440     2.1810   -33.8500 
   73.3750    58.1040    10.7620     8.2940     9.7540    24.5470     2.1790   -33.9390 
   73.5000    57.7140    10.7050     8.2850     9.8270    24.6940     2.1790   -34.0160 
   73.6250    58.4750    10.5700     8.2100     9.8330    24.9130     2.1820   -34.0770 
   73.7500    59.4630    10.4350     8.1130     9.7350    25.0110     2.1840   -34.1230 
   73.8750    59.4590    10.3590     8.0360     9.4570    24.9550     2.1800   -34.1540 
   74.0000    57.7010    10.3720     8.0130     9.0900    24.7970     2.1680   -34.1660 
   74.1250    56.9700    10.4260     8.0300     9.2450    24.6590     2.1540   -34.1520 
   74.2500    57.9400    10.3940     8.0100     9.6020    24.6720     2.1500   -34.1130 
   74.3750    57.9720    10.1860     7.8830     9.8010    24.8470     2.1620   -34.0450 
   74.5000    56.4480     9.7930     7.6300     9.5350    25.0130     2.1830   -33.9470 
   74.6250    57.3490     9.3210     7.2970     8.7840    24.9520     2.1950   -33.8140 
   74.7500    62.2800     8.9630     7.0060     7.7280    24.7330     2.1930   -33.6540 
   74.8750    66.7960     8.8470     6.8530     7.4140    24.5310     2.1830   -33.4810 
   75.0000    66.7210     9.0140     6.8860     8.1920    24.4600     2.1740   -33.3140 
   75.1250    63.3400     9.4430     7.1260     9.5500    24.3930     2.1740   -33.1740 
   75.2500    61.1800     9.9700     7.4820    10.8570    24.2750     2.1800   -33.0660 
   75.3750    60.7260    10.4670     7.8700    11.4220    24.3420     2.1830   -32.9910 
   75.5000    59.8150    10.8330     8.2020    10.8760    24.5630     2.1850   -32.9560 
   75.6250    56.7790    11.0150     8.4070    10.4110    24.7440     2.1950   -32.9700 
   75.7500    54.5060    11.0850     8.5080    10.4580    24.8010     2.2150   -33.0250 
   75.8750    54.4160    11.0910     8.5360    10.4790    24.8120     2.2370   -33.1120 
   76.0000    55.0370    11.0650     8.5170    10.2520    24.8100     2.2470   -33.2170 
   76.1250    54.6570    11.0220     8.4700    10.1300    24.8340     2.2260   -33.3240 
   76.2500    55.2900    10.9740     8.4150    10.1990    25.0410     2.1830   -33.4280 
   76.3750    56.2410    10.9310     8.3630    10.2220    25.5630     2.1360   -33.5320 
   76.5000    56.0940    10.9070     8.3290     9.7200    26.1910     2.1050   -33.6400 
   76.6250    54.9350    10.9140     8.3290     9.1510    26.3830     2.1020   -33.7430 
   76.7500    54.0580    10.9390     8.3540     9.2420    26.4920     2.1130   -33.8360 
   76.8750    54.4560    10.9640     8.3880     9.7880    26.7100     2.1280   -33.9140 
   77.0000    54.9650    10.9720     8.4140    10.0830    26.8540     2.1390   -33.9710 
   77.1250    54.9320    10.9430     8.4070     9.9370    26.6150     2.1480   -33.9970 
   77.2500    55.7810    10.8770     8.3630    10.3310    25.8060     2.1550   -33.9890 
   77.3750    56.8140    10.7700     8.2810    11.5180    24.7350     2.1580   -33.9490 
   77.5000    57.0590    10.6100     8.1520    10.9970    24.1200     2.1550   -33.8700 
   77.6250    55.4110    10.3780     7.9650     9.9290    24.3420     2.1550   -33.7490 
   77.7500    55.3420    10.1070     7.7440     9.1920    24.8820     2.1640   -33.6080 
   77.8750    58.0840     9.8500     7.5330     8.9230    25.1570     2.1770   -33.4600 
   78.0000    60.7790     9.6730     7.3780     8.4850    24.9290     2.1840   -33.3130 
   78.1250    60.8550     9.6630     7.3420     7.7980    24.0970     2.1780   -33.1850 
   78.2500    59.5170     9.8220     7.4300     7.6370    23.1800     2.1670   -33.0840 
   78.3750    59.4470    10.1160     7.6260     8.0020    22.6000     2.1610   -33.0080 
   78.5000    60.1330    10.4700     7.8900     8.3100    22.4010     2.1640   -32.9610 
   78.6250    58.6180    10.7800     8.1590     8.5580    22.4100     2.1770   -32.9470 
   78.7500    56.3250    10.9910     8.3760     8.8620    22.4880     2.1920   -32.9360 
   78.8750    56.6040    11.1070     8.5220     9.1750    22.5620     2.2050   -32.9100 
   79.0000    59.8030    11.1650     8.6060     9.5030    22.6550     2.2050   -32.8600 
   79.1250    61.1730    11.1470     8.6180     9.7480    22.9880     2.1840   -32.7670 
   79.2500    60.4230    10.9750     8.5180     9.6860    23.6730     2.1530   -32.6270 
   79.3750    60.3020    10.5450     8.2390     9.5660    24.4130     2.1330   -32.4350 
   79.5000    61.7120     9.8250     7.7530     9.3010    24.7410     2.1440   -32.1890 
   79.6250    66.0660     8.9000     7.1070     8.4100    24.4240     2.1980   -31.9000 
   79.7500    71.8260     8.0180     6.4610     7.0380    23.7190     2.2600   -31.6030 
   79.8750    75.4260     7.3640     5.9390     6.2300    23.0780     2.2990   -31.3250 
   80.0000    74.6460     7.0420     5.6200     6.1030    22.7960     2.2980   -31.0910 
   80.1250    71.5940     7.1260     5.5710     6.3790    22.7850     2.2670   -30.9350 
   80.2500    69.1440     7.4970     5.7360     6.7600    22.8060     2.2310   -30.8600 
   80.3750    67.1610     8.0560     6.0660     7.4560    22.8800     2.2020   -30.8660 
