~V
VERS. 2.00: Ver 2.00
~W
STRT.M 46.0000:
STOP.M 208.0000:
STEP.M 0.1250:
NULL. -999.2500:
UWI. F10533:
~C
DEPT.M :
GR.API :
RML.OHMM :
RI. :
RXO.OHMM :
CALI.CM :
DEN.GM/CC :
SP.MV :
~A
# ...
   91.0000    57.9860     9.5820     6.9420     7.1930    22.7630     2.1830   -20.1110 
   91.1250    55.6270     9.6420     7.0100     8.1260    22.7510     2.1910   -20.2210 
   91.2500    55.3400     9.6030     7.0190    10.7660    22.7370     2.1880   -20.3060 
   91.3750    57.4720     9.4250     6.9320    13.0740    22.7830     2.1740   -20.3600 
   91.5000    60.5670     9.1230     6.7540    10.0050    22.9070     2.1570   -20.3800 
   91.6250    63.2010     8.7720     6.5300     7.5940    22.9140     2.1460   -20.3480 
   91.7500    63.5390     8.4820     6.3320     6.5210    22.7810     2.1430   -20.3000 
   91.8750    60.7010     8.3210     6.2050     6.2600    22.6570     2.1460   -20.2300 
   92.0000    56.2580     8.3080     6.1660     6.3530    22.7300     2.1510   -20.1230 
   92.1250    53.2340     8.4190     6.2130     6.6800    23.1120     2.1530   -19.9890 
   92.2500    51.9760     8.5630     6.3010     6.8950    23.3970     2.1550   -19.8210 
   92.3750    53.2290     8.7010     6.4100     7.0130    23.4030     2.1620   -19.6210 
   92.5000    57.8690     8.8400     6.5360     7.0320    23.1270     2.1760   -19.3970 
   92.6250    62.4660     9.0100     6.6890     7.0450    22.7550     2.1980   -19.1740 
   92.7500    62.9320     9.2060     6.8600     7.0310    22.5390     2.2180   -18.9450 
   92.8750    60.5080     9.3950     7.0270     6.9540    22.5700     2.2300   -18.7070 
   93.0000    57.2140     9.5220     7.1560     6.9180    22.7530     2.2310   -18.4880 
   93.1250    54.5600     9.5040     7.1930     6.8340    22.9970     2.2240   -18.2770 
   93.2500    53.9040     9.3210     7.1190     6.6060    23.1140     2.2220   -18.0910 
   93.3750    56.8430     8.9720     6.9290     6.4400    23.0960     2.2320   -17.9230 
   93.5000    62.5720     8.4830     6.6360     6.4420    22.9840     2.2480   -17.7860 
   93.6250    68.9120     7.8940     6.2610     6.3140    22.9340     2.2590   -17.6640 
   93.7500    77.5450     7.2830     5.8560     5.9900    22.9980     2.2600   -17.5840 
   93.8750    86.9500     6.6940     5.4500     5.7610    23.2100     2.2560   -17.5410 
   94.0000    92.3190     6.1550     5.0660     5.6510    23.4150     2.2560   -17.5170 
   94.1250    92.7920     5.6950     4.7290     5.4990    23.5330     2.2670   -17.4910 
   94.2500    94.0010     5.3100     4.4430     5.2440    23.5930     2.2830   -17.4830 
   94.3750    97.2720     5.0000     4.2120     5.0330    23.5840     2.3000   -17.4900 
   94.5000    99.7800     4.7600     4.0330     4.9490    23.5500     2.3150   -17.4990 
   94.6250    99.4880     4.6160     3.9220     4.8500    23.5300     2.3330   -17.5050 
   94.7500    97.9870     4.5810     3.8850     4.7250    23.5200     2.3550   -17.4930 
   94.8750    96.4690     4.6740     3.9380     4.6940    23.4770     2.3810   -17.4530 
   95.0000    97.6550     4.8940     4.0850     4.7540    23.4630     2.4040   -17.4070 
   95.1250   100.5740     5.2180     4.3210     5.0060    23.5140     2.4140   -17.3680 
   95.2500    98.8120     5.5570     4.5860     5.6050    23.5640     2.4080   -17.3190 
   95.3750    91.1740     5.8370     4.8240     6.1060    23.5370     2.3900   -17.2740 
   95.5000    82.1050     6.0150     4.9890     6.1150    23.4800     2.3660   -17.2550 
   95.6250    78.0110     6.1030     5.0680     5.9490    23.3990     2.3460   -17.2700 
   95.7500    77.0990     6.1820     5.1140     5.7930    23.2840     2.3270   -17.3250 
   95.8750    76.0580     6.2960     5.1660     5.6700    23.1390     2.3040   -17.4160 
   96.0000    73.7120     6.4340     5.2320     5.7170    22.9030     2.2730   -17.5290 
   96.1250    71.0200     6.5170     5.2740     6.0290    22.6800     2.2370   -17.6710 
   96.2500    70.2550     6.5330     5.2790     6.3810    22.6050     2.2000   -17.8410 
   96.3750    71.0620     6.5980     5.3090     6.4860    22.7200     2.1720   -18.0330 
   96.5000    72.4860     6.9480     5.5020     6.2760    23.0060     2.1680   -18.2250 
   96.6250    73.0480     7.9440     6.0910     6.1260    23.3750     2.2220   -18.4220 
   96.7500    72.7550     9.6020     7.1200     7.2560    23.6160     2.3400   -18.5820 
   96.8750    71.2110    11.7000     8.5100    11.1750    23.6440     2.4820   -18.7330 
   97.0000    68.2290    13.6240     9.9370    18.6950    23.5240     2.5670   -18.8780 
   97.1250    64.9810    14.2580    10.6960    24.2040    23.2900     2.5260   -19.0110 
   97.2500    62.9770    13.4510    10.5150    19.3010    22.9440     2.4280   -19.1220 
   97.3750    61.3150    11.8070     9.6390    11.4380    22.6190     2.3240   -19.2060 
   97.5000    59.6870    10.1670     8.5760     8.0480    22.3910     2.2410   -19.2630 
   97.6250    60.5320     9.1130     7.7560     7.3950    22.2810     2.1920   -19.2760 
   97.7500    63.2250     8.5470     7.2330     7.3480    22.2530     2.1650   -19.2750 
   97.8750    64.5360     8.2540     6.9150     7.3660    22.3400     2.1520   -19.2600 
   98.0000    64.3770     8.0270     6.6810     7.4320    22.5200     2.1530   -19.2320 
   98.1250    67.1460     7.7550     6.4430     7.3440    22.7330     2.1710   -19.2020 
   98.2500    73.0680     7.4850     6.2130     6.8220    22.9620     2.1980   -19.1710 
   98.3750    76.7900     7.3200     6.0530     6.2320    23.1940     2.2230   -19.1450 
   98.5000    75.3320     7.3460     6.0230     6.0580    23.2450     2.2360   -19.1220 
   98.6250    71.8300     7.6330     6.1770     6.4290    23.0740     2.2290   -19.1120 
   98.7500    70.3790     8.0980     6.4710     6.8870    22.9030     2.2130   -19.0980 
   98.8750    69.6210     8.6480     6.8470     7.1990    22.8380     2.1980   -19.0890 
   99.0000    67.1550     9.1670     7.2270     7.3570    22.8300     2.1920   -19.0860 
   99.1250    65.7130     9.5320     7.5190     7.4490    22.8300     2.1960   -19.0870 
   99.2500    67.3480     9.7220     7.6930     7.5060    22.8300     2.2020   -19.0950 
   99.3750    69.6900     9.7550     7.7500     7.5130    22.8300     2.2030   -19.0980 
   99.5000    69.8690     9.6790     7.7190     7.4360    22.8220     2.1970   -19.1220 
   99.6250    65.7850     9.5440     7.6370     7.5140    22.7850     2.1870   -19.1540 
   99.7500    60.9770     9.4050     7.5490     7.6470    22.7030     2.1800   -19.2260 
   99.8750    58.3800     9.2830     7.4730     7.7360    22.5980     2.1770   -19.3020 
  100.0000    58.9990     9.1840     7.4110     7.7070    22.4940     2.1760   -19.3790 
  100.1250    61.9720     9.1070     7.3570     7.5950    22.4430     2.1720   -19.4380 
  100.2500    65.8520     9.0420     7.3010     7.4770    22.4160     2.1650   -19.4880 
  100.3750    67.6830     8.9810     7.2390     7.4480    22.3930     2.1570   -19.5250 
  100.5000    64.8620     8.9050     7.1660     7.4460    22.3460     2.1540   -19.5310 
  100.6250    60.6190     8.7880     7.0660     7.4620    22.3100     2.1600   -19.5140 
  100.7500    59.4530     8.6330     6.9410     7.4460    22.3060     2.1720   -19.4460 
  100.8750    60.7060     8.4630     6.8040     7.4390    22.3260     2.1850   -19.3500 
  101.0000    61.8050     8.3210     6.6850     7.2890    22.3470     2.1920   -19.2380 
  101.1250    63.5770     8.2760     6.6280     6.9270    22.4170     2.1860   -19.1310 
  101.2500    66.3910     8.3450     6.6460     6.6190    22.5120     2.1730   -19.0150 
  101.3750    68.5510     8.5180     6.7340     6.7120    22.5750     2.1630   -18.8990 
  101.5000    68.8080     8.7390     6.8650     7.0050    22.5940     2.1610   -18.7870 
  101.6250    66.3470     8.9240     6.9980     7.2300    22.6140     2.1690   -18.6770 
  101.7500    64.5230     9.0300     7.0960     7.4360    22.6790     2.1780   -18.5910 
  101.8750    64.2010     9.0670     7.1480     7.5890    22.8030     2.1840   -18.5420 
  102.0000    62.8870     9.0800     7.1620     7.7000    22.9950     2.1840   -18.5240 
  102.1250    60.0690     9.1040     7.1590     7.7020    23.1270     2.1770   -18.5350 
