~V
VERS. 2.00: Ver 2.00
~W
STRT.M 42.0000:
STOP.M 195.0000:
STEP.M 0.1250:
NULL. -999.2500:
UWI. F10590:
~C
DEPT.M :
GR.API :
RML.OHMM :
RI. :
RXO.OHMM :
CALI.CM :
DEN.GM/CC :
SP.MV :
~A
# ...
   64.5000    66.6000     8.9580     7.9630     8.2690    24.5350     2.1960   -22.7610 
   64.6250    67.8780     8.9780     7.9450     8.1820    24.5200     2.1940   -22.8650 
   64.7500    68.6160     8.8820     7.8380     8.1480    24.4780     2.1990   -22.9720 
   64.8750    68.9710     8.6650     7.6320     8.1350    24.4200     2.2030   -23.0460 
   65.0000    71.4830     8.3750     7.3730     8.2150    24.3700     2.1990   -23.0910 
   65.1250    74.3990     8.1730     7.2060     8.2520    24.3540     2.1810   -23.0810 
   65.2500    73.7910     8.3040     7.3180     8.2530    24.3490     2.1640   -23.0170 
   65.3750    70.6770     9.0730     7.9360     8.3640    24.3490     2.1720   -22.9030 
   65.5000    67.2860    10.8090     9.3280     9.1010    24.3470     2.2270   -22.7490 
   65.6250    63.1280    13.9330    11.9490    12.6410    24.3450     2.3420   -22.6050 
   65.7500    58.6880    17.9630    15.5740    22.5080    24.3440     2.4800   -22.4770 
   65.8750    56.7330    21.8770    19.4610    38.6210    24.3440     2.6030   -22.4040 
   66.0000    57.7940    24.1340    22.2140    52.6070    24.3420     2.6800   -22.3820 
   66.1250    60.1680    23.1260    22.0650    52.1030    24.3360     2.6860   -22.3990 
   66.2500    62.3790    19.9140    19.5990    40.0070    24.3420     2.6350   -22.4580 
   66.3750    64.8710    16.0430    16.1250    22.8660    24.4060     2.5440   -22.5680 
   66.5000    68.0160    12.7930    12.9010    12.7210    24.5480     2.4330   -22.7300 
   66.6250    70.2610    10.8460    10.6970    10.1320    24.6620     2.3310   -22.8930 
   66.7500    69.2370     9.8660     9.3610     9.4760    24.6750     2.2590   -23.0560 
   66.8750    64.5350     9.5480     8.6900     9.3090    24.6550     2.2200   -23.2010 
   67.0000    59.6660     9.5900     8.4660     9.2500    24.6500     2.2070   -23.3280 
   67.1250    60.3060     9.7390     8.5080     9.3420    24.6520     2.2070   -23.4040 
   67.2500    64.8520     9.8310     8.6180     9.4250    24.6290     2.2060   -23.4340 
   67.3750    68.2070     9.8590     8.7340     9.2640    24.5770     2.2000   -23.4470 
   67.5000    67.6640     9.8900     8.8540     9.0160    24.5500     2.1880   -23.4560 
   67.6250    65.5680    10.0340     9.0300     9.2090    24.5630     2.1770   -23.4980 
   67.7500    63.8320    10.3460     9.3120     9.5460    24.5840     2.1710   -23.5470 
   67.8750    61.5100    10.8620     9.7460     9.9750    24.5950     2.1720   -23.5640 
   68.0000    59.3550    11.5990    10.3690    11.0540    24.5750     2.1790   -23.5470 
   68.1250    60.9260    12.5890    11.2310    13.3310    24.4940     2.1830   -23.5440 
   68.2500    64.1990    13.7380    12.2680    15.6900    24.4440     2.1790   -23.5590 
   68.3750    65.1680    14.9230    13.3920    16.9550    24.4480     2.1690   -23.5930 
   68.5000    63.5480    15.9520    14.4400    18.0370    24.4750     2.1540   -23.6380 
   68.6250    62.9270    16.5180    15.1320    17.8150    24.5070     2.1420   -23.6690 
   68.7500    64.3330    16.5320    15.3400    17.6570    24.5530     2.1370   -23.6930 
   68.8750    64.8850    16.0050    15.0340    17.1370    24.6090     2.1420   -23.7040 
   69.0000    63.2370    15.0750    14.3040    16.1620    24.6870     2.1540   -23.6810 
   69.1250    60.3280    13.9380    13.2930    14.2510    24.7340     2.1730   -23.6370 
   69.2500    58.0360    12.8210    12.2250    12.8910    24.7440     2.1880   -23.5950 
   69.3750    58.3270    11.8370    11.2260    12.1560    24.7250     2.1950   -23.5540 
   69.5000    60.4900    11.0690    10.4030    11.5290    24.6970     2.1880   -23.4970 
   69.6250    62.1900    10.6640     9.9100    10.1160    24.6440     2.1700   -23.4180 
   69.7500    61.2360    10.6770     9.7930     9.2470    24.5640     2.1500   -23.3140 
   69.8750    59.2920    11.1830    10.1070     9.0380    24.4680     2.1360   -23.2060 
   70.0000    59.6920    12.1900    10.8630     9.5470    24.3380     2.1320   -23.1190 
   70.1250    62.2100    13.5700    12.0050    11.5080    24.1330     2.1350   -23.0410 
   70.2500    63.3350    14.8480    13.1750    14.3670    24.0320     2.1410   -22.9390 
   70.3750    62.0920    15.5470    13.9710    16.7150    24.0390     2.1450   -22.8040 
   70.5000    61.3200    15.3470    14.0510    17.2760    24.0750     2.1490   -22.6610 
   70.6250    64.1050    14.2270    13.2780    16.0160    24.0930     2.1500   -22.5450 
   70.7500    67.1470    12.8440    12.1550    13.5420    24.1060     2.1480   -22.4530 
   70.8750    67.7100    11.7160    11.1280    10.8440    24.1560     2.1490   -22.3750 
   71.0000    66.2490    11.1660    10.5230     9.8400    24.2270     2.1690   -22.2940 
   71.1250    65.0580    11.3660    10.5690    11.0110    24.2780     2.2310   -22.2070 
   71.2500    65.3830    12.0470    11.1200    12.6140    24.2710     2.3170   -22.1390 
   71.3750    67.9380    12.9570    12.0070    15.0750    24.2230     2.3920   -22.0790 
   71.5000    71.4150    13.8290    13.0070    15.1940    24.1480     2.4160   -22.0200 
   71.6250    71.6870    14.3980    13.8440    14.1960    24.0880     2.3650   -21.9290 
   71.7500    68.7660    14.5840    14.3320    13.5490    24.0830     2.2780   -21.8000 
   71.8750    67.4920    14.3160    14.3250    14.0080    24.1010     2.1980   -21.6420 
   72.0000    69.8830    13.5350    13.7250    14.3000    24.1190     2.1550   -21.4520 
   72.1250    72.7790    12.2000    12.4760    14.3430    24.1330     2.1600   -21.2290 
   72.2500    76.6700    10.5970    10.8940    13.5510    24.1400     2.1900   -20.9910 
   72.3750    83.1650     9.0110     9.2700    10.6550    24.1380     2.2270   -20.7390 
   72.5000    88.3990     7.6870     7.8480     6.9720    24.1540     2.2570   -20.4570 
   72.6250    87.5850     6.7970     6.8060     5.9540    24.1640     2.2740   -20.1650 
   72.7500    86.2670     6.2280     6.0680     6.0250    24.1710     2.2820   -19.9040 
   72.8750    90.1790     5.8800     5.5700     6.0220    24.1940     2.2880   -19.6890 
   73.0000    97.6750     5.6870     5.2630     5.8550    24.2530     2.2980   -19.5290 
   73.1250   100.0080     5.6980     5.1880     5.4210    24.3070     2.3110   -19.4190 
   73.2500    94.3490     5.9950     5.3820     5.1960    24.3280     2.3210   -19.3210 
   73.3750    84.9560     6.7010     5.9380     5.6580    24.3440     2.3170   -19.2460 
   73.5000    77.7860     7.8900     6.9350     6.9040    24.4760     2.2940   -19.2110 
   73.6250    75.4560     9.5510     8.4330     8.7060    24.7570     2.2500   -19.1730 
   73.7500    73.6030    11.3310    10.1690    11.0890    25.0410     2.2000   -19.1290 
   73.8750    70.2910    12.8660    11.8120    13.4340    25.0940     2.1530   -19.0800 
   74.0000    66.6030    13.8720    13.0280    15.2840    24.9890     2.1220   -19.0400 
   74.1250    64.0430    14.2630    13.5980    14.4990    24.9000     2.1110   -19.0430 
   74.2500    62.9910    14.4380    13.8170    12.7780    24.8470     2.1130   -19.0980 
   74.3750    62.6610    14.6960    13.9640    11.7920    24.8070     2.1190   -19.1660 
   74.5000    62.2140    15.1300    14.1850    12.3930    24.8030     2.1220   -19.2290 
   74.6250    62.5640    15.4700    14.3280    14.1280    24.8570     2.1170   -19.3130 
   74.7500    65.3620    15.2650    14.0570    15.3100    24.9140     2.1120   -19.4330 
   74.8750    70.5870    14.2530    13.1460    14.9530    24.9550     2.1170   -19.5770 
   75.0000    76.4980    12.5540    11.6660    12.9880    24.9070     2.1390   -19.7290 
   75.1250    79.7490    10.7070    10.0150    10.2400    24.6810     2.1830   -19.8680 
   75.2500    79.2200     9.3390     8.6840     7.5670    24.3760     2.2290   -19.9700 
   75.3750    76.0240     8.7440     7.9190     6.2460    24.1880     2.2570   -20.0860 
   75.5000    72.2420     8.9630     7.7900     6.2300    24.2650     2.2510   -20.2230 
   75.6250    68.9540     9.9050     8.3010     8.0430    24.5140     2.2080   -20.3790 
