~V
VERS. 2.00: Ver 2.00
~W
STRT.M 50.0000:
STOP.M 236.0000:
STEP.M 0.1250:
NULL. -999.2500:
UWI. F10596:
~C
DEPT.M :
DEN.GM/CC :
SP.MV :
GR.API :
RML.OHMM :
RI. :
RXO.OHMM :
CALI.CM :
~A
# ...
   72.5000     2.2590   -15.4590   110.0910     6.5220     5.3040     6.2320    25.1040 
   72.6250     2.2600   -15.1790   110.6960     6.6600     5.2820     6.0900    25.1040 
   72.7500     2.2600   -15.0650   112.1730     6.8270     5.3130     5.9560    25.1040 
   72.8750     2.2540   -15.1240   112.4550     7.0000     5.3560     6.0840    25.1040 
   73.0000     2.2360   -15.3480   108.7230     7.1970     5.4110     6.5160    25.0920 
   73.1250     2.2180   -15.6980   105.6410     7.4440     5.5130     6.9890    25.0410 
   73.2500     2.2200   -16.1380   106.7650     7.7410     5.6750     6.8840    24.9580 
   73.3750     2.2410   -16.6360   108.7000     8.1800     5.9380     6.6390    24.8960 
   73.5000     2.2650   -17.2330   107.0100     9.0000     6.4150     6.9040    24.8450 
   73.6250     2.2880   -17.9010   101.7150    10.7100     7.4280     8.4040    24.7710 
   73.7500     2.3220   -18.6540    95.8240    13.4060     9.1610    12.1890    24.7030 
   73.8750     2.3670   -19.4580    88.5630    16.7760    11.6050    21.4180    24.6740 
   74.0000     2.3810   -20.3140    79.6950    19.6550    14.1650    42.1750    24.6970 
   74.1250     2.3060   -21.1760    74.1930    19.6460    15.1070    43.5670    24.8340 
   74.2500     2.1950   -22.0100    74.7690    16.9070    13.9260    24.3940    25.0840 
   74.3750     2.1150   -22.7760    77.6120    13.3750    11.6670    14.0820    25.2960 
   74.5000     2.0870   -23.4260    79.1820    10.7510     9.6160    10.8690    25.3860 
   74.6250     2.0940   -23.9470    80.3940     9.6660     8.4620    10.0780    25.3970 
   74.7500     2.1010   -24.3340    81.4050     9.5040     8.0010     9.7130    25.3970 
   74.8750     2.0980   -24.5940    78.7010     9.8140     7.9870     9.6470    25.3970 
   75.0000     2.0920   -24.7000    73.4130    10.2600     8.1760     9.7850    25.3960 
   75.1250     2.0920   -24.7100    72.1650    10.6260     8.3710     9.8630    25.3800 
   75.2500     2.0980   -24.6350    72.4660    10.8340     8.4730     9.7930    25.3400 
   75.3750     2.1090   -24.5380    70.7490    10.8400     8.4540     9.6860    25.2890 
   75.5000     2.1180   -24.4240    69.3720    10.6360     8.3240     9.7210    25.2610 
   75.6250     2.1170   -24.3140    73.3280    10.2990     8.1360     9.7730    25.2550 
   75.7500     2.1030   -24.1980    77.9040    10.0360     7.9880     9.8490    25.2550 
   75.8750     2.0850   -24.0950    77.4480    10.0030     7.9540     9.9240    25.2550 
   76.0000     2.0750   -24.0020    73.9990    10.2770     8.0880     9.9880    25.2550 
   76.1250     2.0900   -23.8780    71.1300    10.9060     8.4870    10.1190    25.2540 
   76.2500     2.1300   -23.7540    71.4000    11.8610     9.1900    10.6110    25.2220 
   76.3750     2.1930   -23.6210    72.4090    13.2440    10.2750    12.7160    25.0960 
   76.5000     2.2740   -23.4880    69.9580    15.0350    11.7310    19.4760    24.8110 
   76.6250     2.3440   -23.3280    65.6760    16.6300    13.1710    32.9650    24.5420 
   76.7500     2.3460   -23.1860    64.5890    16.9020    13.7280    31.7650    24.2700 
   76.8750     2.2710   -23.0620    66.9970    15.2780    12.8450    17.5690    24.0220 
   77.0000     2.1790   -22.9810    69.4660    12.4970    10.9100    10.9420    23.8880 
   77.1250     2.1340   -22.9480    71.0750    10.1070     8.9930     9.7790    23.8580 
   77.2500     2.1210   -22.9560    73.2540     8.8020     7.7280     9.7170    23.8740 
   77.3750     2.1200   -22.9490    73.2130     8.4930     7.1600     9.7660    23.9640 
   77.5000     2.1180   -22.9250    71.6080     8.7780     7.1030     9.7400    24.2040 
   77.6250     2.1090   -22.8370    72.6430     9.2120     7.2980     9.5490    24.5280 
   77.7500     2.0930   -22.6590    76.5580     9.5150     7.4780     9.4370    24.7330 
   77.8750     2.0760   -22.3650    79.2720     9.6320     7.5590     9.4790    24.8030 
   78.0000     2.0690   -21.9650    78.3680     9.5590     7.5250     9.5640    24.8110 
   78.1250     2.0800   -21.4370    77.0140     9.2560     7.3540     9.5390    24.8110 
   78.2500     2.1010   -20.8170    81.5790     8.7660     7.0660     9.3610    24.8120 
   78.3750     2.1250   -20.1930    93.0170     8.1460     6.6800     8.8490    24.8200 
   78.5000     2.1460   -19.6080   108.9490     7.5170     6.2370     7.9480    24.8400 
   78.6250     2.1560   -19.1320   119.1900     7.1120     5.8370     7.2400    24.8640 
   78.7500     2.1540   -18.7560   118.9280     7.0430     5.5770     7.3050    24.8560 
   78.8750     2.1380   -18.4810   111.8510     7.3280     5.5150     7.6730    24.7970 
   79.0000     2.1180   -18.2520   105.0820     7.8780     5.6420     8.6020    24.7110 
   79.1250     2.1100   -18.1240   102.2550     8.4480     5.8630     8.7190    24.6280 
   79.2500     2.1190   -18.0560   102.3950     8.7560     6.0120     8.7070    24.5990 
   79.3750     2.1410   -18.0390   106.5850     8.6900     6.0010     8.7560    24.5930 
   79.5000     2.1680   -18.0430   115.2060     8.3260     5.8390     8.6800    24.5900 
   79.6250     2.1910   -18.0950   124.6340     7.8650     5.6180     7.9330    24.5530 
   79.7500     2.1970   -18.1770   129.1530     7.5330     5.4650     7.0850    24.4790 
   79.8750     2.1850   -18.2820   124.9230     7.4200     5.4430     7.4830    24.4170 
   80.0000     2.1670   -18.4450   114.5370     7.4930     5.5460     8.1530    24.4510 
   80.1250     2.1490   -18.6460   107.9290     7.5790     5.6760     8.2670    24.6140 
   80.2500     2.1360   -18.9210   107.3360     7.4740     5.6890     7.5860    24.7910 
   80.3750     2.1290   -19.2640   111.2290     7.1560     5.5340     6.4300    24.8640 
   80.5000     2.1270   -19.7080   116.6270     6.8390     5.3110     5.8240    24.8590 
   80.6250     2.1250   -20.2140   117.2700     6.9240     5.2760     6.5200    24.8290 
   80.7500     2.1210   -20.7510   109.8710     7.5350     5.5820     8.0210    24.8150 
   80.8750     2.1180   -21.2970    98.3610     8.5930     6.2420     9.5130    24.8110 
   81.0000     2.1140   -21.8670    88.3610     9.8270     7.1140    10.8340    24.8110 
   81.1250     2.1050   -22.3900    80.5230    10.7140     7.8540    11.5130    24.8110 
   81.2500     2.0980   -22.8310    74.5800    10.9580     8.1890    10.5010    24.8110 
   81.3750     2.0980   -23.1620    72.4490    10.6330     8.1090     9.7780    24.8110 
   81.5000     2.0990   -23.3370    74.9280    10.0450     7.8000     9.6890    24.8110 
   81.6250     2.0960   -23.3430    81.4930     9.4910     7.4730     9.8240    24.8110 
   81.7500     2.0900   -23.2570    89.1040     9.0990     7.2190     9.6380    24.8110 
   81.8750     2.0890   -23.1390    95.9840     8.9010     7.0440     9.4210    24.8070 
   82.0000     2.0940   -22.9880    99.7200     8.9180     6.9330     9.0160    24.7790 
   82.1250     2.1000   -22.9130    97.6120     9.1840     6.8900     8.7040    24.7100 
   82.2500     2.1030   -22.9050    93.0270     9.6080     6.9190     8.9000    24.6290 
   82.3750     2.0990   -22.9430    89.5600    10.0880     7.0280     9.3570    24.5960 
   82.5000     2.0960   -23.0050    88.3090    10.4970     7.1960     9.5220    24.5890 
   82.6250     2.0980   -23.1090    86.4440    10.7150     7.3720     9.5790    24.5840 
   82.7500     2.1000   -23.2120    84.3840    10.7810     7.5070     9.7070    24.5500 
   82.8750     2.0990   -23.3290    83.6930    10.7660     7.5880     9.9310    24.4710 
   83.0000     2.0960   -23.4440    84.1080    10.7240     7.6320    10.0240    24.3990 
   83.1250     2.0950   -23.5450    83.2680    10.6780     7.6630     9.8010    24.3710 
   83.2500     2.0970   -23.6320    81.9460    10.6570     7.6900     9.5900    24.3670 
   83.3750     2.1000   -23.7140    81.4870    10.6960     7.7070     9.5130    24.3670 
   83.5000     2.1020   -23.7780    80.8870    10.7890     7.7210     9.5340    24.3690 
   83.6250     2.0990   -23.8070    78.6380    10.8620     7.7440     9.6010    24.4170 
