~V
VERS. 2.00: Ver 2.00
~W
STRT.M 54.0000:
STOP.M 217.0000:
STEP.M 0.1250:
NULL. -999.2500:
UWI. F10593:
~C
DEPT.M :
SP.MV :
GR.API :
RML.OHMM :
RI. :
RXO.OHMM :
CALI.CM :
DEN.GM/CC :
~A
# ...
  155.2500   -12.2020    62.4510    29.8790    28.3370    19.2740    22.6020     2.2530 
  155.3750   -12.2470    65.3800    29.2540    27.6790    19.3440    22.5850     2.2500 
  155.5000   -12.2680    68.0430    28.6230    27.0560    18.9780    22.5440     2.2470 
  155.6250   -12.3160    68.1570    27.9660    26.4640    18.2490    22.4870     2.2480 
  155.7500   -12.3910    66.8600    27.3370    25.9330    17.5050    22.4750     2.2520 
  155.8750   -12.4720    66.3790    26.8520    25.5220    17.1900    22.5080     2.2510 
  156.0000   -12.5670    66.5180    26.5320    25.2270    17.0870    22.5220     2.2480 
  156.1250   -12.6930    67.4950    26.3340    25.0190    17.1390    22.4970     2.2500 
  156.2500   -12.8610    68.8380    26.1800    24.8530    17.4200    22.4070     2.2640 
  156.3750   -13.0650    68.1050    26.0230    24.7130    17.6190    22.2460     2.2930 
  156.5000   -13.3180    66.1820    25.8940    24.6190    17.5420    22.1160     2.3210 
  156.6250   -13.5440    63.8620    25.8660    24.6110    17.0850    22.0670     2.3370 
  156.7500   -13.7180    61.8010    26.0050    24.7260    16.9010    22.0610     2.3350 
  156.8750   -13.9090    61.7480    26.3770    25.0090    17.0440    22.0600     2.3210 
  157.0000   -14.0860    64.7840    26.9320    25.4330    17.5340    22.0590     2.3100 
  157.1250   -14.2210    68.8640    27.6270    25.9820    17.8750    22.0590     2.3060 
  157.2500   -14.2860    70.3220    28.4190    26.6280    17.9660    22.0570     2.3050 
  157.3750   -14.3350    69.2550    29.2660    27.3460    18.2230    22.0550     2.2960 
  157.5000   -14.3630    68.4650    30.1300    28.0930    19.0530    22.0590     2.2780 
  157.6250   -14.3600    67.6410    31.0050    28.8680    19.6660    22.0740     2.2580 
  157.7500   -14.2930    66.3490    31.8980    29.6900    20.0440    22.1030     2.2510 
  157.8750   -14.1720    64.8980    32.8010    30.5830    19.9390    22.1170     2.2750 
  158.0000   -14.0510    63.0750    33.6670    31.5040    19.8400    22.1220     2.3190 
  158.1250   -13.9140    61.1270    34.4330    32.3840    20.2380    22.1220     2.3630 
  158.2500   -13.8090    61.0010    35.0310    33.1370    21.3300    22.1230     2.3840 
  158.3750   -13.7110    63.7740    35.3870    33.6600    21.5050    22.1240     2.3740 
  158.5000   -13.6050    66.6910    35.5430    33.9720    20.9630    22.1240     2.3520 
  158.6250   -13.5320    67.9590    35.5150    34.0860    20.2640    22.1230     2.3400 
  158.7500   -13.5350    68.3280    35.2580    33.9830    20.4120    22.1220     2.3450 
  158.8750   -13.5600    69.1180    34.5680    33.5090    21.0810    22.1220     2.3540 
  159.0000   -13.6020    70.0560    33.3710    32.5890    21.1380    22.1250     2.3470 
  159.1250   -13.6910    69.8860    31.6750    31.1930    20.0250    22.1400     2.3190 
  159.2500   -13.7460    67.8620    29.6480    29.4220    18.1260    22.1650     2.2790 
  159.3750   -13.8160    66.5300    27.5760    27.5060    16.7740    22.1650     2.2490 
  159.5000   -13.8720    68.6070    25.7210    25.7270    15.9010    22.1390     2.2360 
  159.6250   -13.9180    72.4360    24.2020    24.2410    15.7200    22.1240     2.2370 
  159.7500   -13.9560    73.1530    23.0610    23.1160    15.8660    22.1220     2.2440 
  159.8750   -13.9900    68.0060    22.3690    22.4310    15.6570    22.1220     2.2480 
  160.0000   -14.0550    63.4060    22.0700    22.1240    15.0010    22.1220     2.2520 
  160.1250   -14.1560    63.7790    22.1500    22.1840    14.6020    22.1220     2.2600 
  160.2500   -14.3140    66.7830    22.5440    22.5590    15.1640    22.1220     2.2710 
  160.3750   -14.4950    66.2310    23.1120    23.1420    15.6960    22.1220     2.2820 
  160.5000   -14.7110    63.9470    23.6240    23.7240    15.8730    22.1200     2.2890 
  160.6250   -14.9480    64.5200    23.9390    24.1640    15.8370    22.1000     2.2930 
  160.7500   -15.1780    67.5300    24.0030    24.3880    15.3710    22.0490     2.2980 
  160.8750   -15.4360    68.0700    23.8360    24.3690    14.7240    21.9780     2.3060 
  161.0000   -15.6970    67.0930    23.5700    24.1990    14.9010    21.9470     2.3140 
  161.1250   -15.8950    66.8080    23.2710    23.9340    15.5360    21.9340     2.3200 
  161.2500   -16.0410    66.8290    22.9730    23.6150    15.5930    21.9090     2.3210 
  161.3750   -16.1550    66.0200    22.6820    23.2610    14.9400    21.8460     2.3200 
  161.5000   -16.2200    65.3100    22.3760    22.8730    14.1020    21.7630     2.3180 
  161.6250   -16.2370    65.3620    22.0250    22.4320    13.8100    21.6950     2.3160 
  161.7500   -16.2370    66.6830    21.6050    21.9180    13.9480    21.6620     2.3090 
  161.8750   -16.2290    69.7700    21.1290    21.3400    13.9620    21.6550     2.2970 
  162.0000   -16.1600    73.1870    20.7180    20.7940    13.3320    21.6700     2.2820 
  162.1250   -16.0390    75.4500    20.5520    20.4360    13.0840    21.7400     2.2680 
  162.2500   -15.9150    75.2360    20.8470    20.4770    13.4620    21.8650     2.2590 
  162.3750   -15.7600    72.5260    21.9210    21.2570    13.8440    21.9520     2.2570 
  162.5000   -15.6020    69.2470    23.7440    22.8120    14.4610    21.9940     2.2550 
  162.6250   -15.4920    65.8550    26.2100    25.0950    16.5340    22.1210     2.2500 
  162.7500   -15.3600    63.0860    29.0200    27.8570    21.4460    22.5040     2.2460 
  162.8750   -15.2020    63.4780    31.6230    30.5900    27.0280    23.1410     2.2470 
  163.0000   -15.0550    65.9820    33.5410    32.7500    30.7700    23.6100     2.2540 
  163.1250   -14.9550    66.7560    34.5470    34.0360    33.8460    23.7940     2.2620 
  163.2500   -14.8480    64.3270    34.7090    34.4290    34.1720    23.8310     2.2650 
  163.3750   -14.7460    62.7190    34.3020    34.1170    32.6510    23.8490     2.2580 
  163.5000   -14.6860    62.3750    33.8200    33.6100    31.2280    23.8660     2.2450 
  163.6250   -14.6060    61.0070    33.5210    33.2050    30.9290    23.8760     2.2310 
  163.7500   -14.5320    60.8030    33.5350    33.0790    31.5100    23.8810     2.2220 
  163.8750   -14.4490    62.8740    33.9390    33.3620    32.9470    23.8810     2.2240 
  164.0000   -14.4090    64.2510    34.6110    33.9700    33.9270    23.8670     2.2320 
  164.1250   -14.4000    62.4850    35.4460    34.8160    34.7810    23.8290     2.2450 
  164.2500   -14.4270    59.0010    36.3250    35.7740    35.6200    23.7800     2.2570 
  164.3750   -14.5140    58.2920    37.1480    36.7100    37.1200    23.7520     2.2690 
  164.5000   -14.6060    58.9750    37.8950    37.5620    37.2970    23.7330     2.2870 
  164.6250   -14.7130    58.8550    38.5870    38.3370    37.1270    23.7220     2.3170 
  164.7500   -14.8690    56.6550    39.2260    39.0490    37.0110    23.7220     2.3610 
  164.8750   -15.1140    54.7550    39.7110    39.6390    37.5040    23.7320     2.4070 
  165.0000   -15.3920    55.5920    39.9290    40.0160    38.7410    23.7440     2.4350 
  165.1250   -15.6580    57.7350    39.7870    40.0750    40.1590    23.7560     2.4310 
  165.2500   -15.9290    59.6780    39.2920    39.7750    40.7870    23.7740     2.3940 
  165.3750   -16.2110    60.8580    38.5660    39.1540    38.6020    23.8100     2.3350 
  165.5000   -16.4900    61.7990    37.8560    38.4410    36.9910    23.8540     2.2790 
  165.6250   -16.7380    62.5060    37.2740    37.7710    35.2700    23.8730     2.2370 
  165.7500   -16.9250    63.8350    36.7900    37.1620    34.8150    23.8740     2.2140 
  165.8750   -16.9830    66.6920    36.2190    36.4580    35.1950    23.8710     2.2090 
  166.0000   -16.9880    69.2500    35.4010    35.4990    34.9060    23.8690     2.2130 
  166.1250   -16.9620    69.4850    34.3160    34.2430    33.6080    23.8690     2.2210 
  166.2500   -16.8760    67.1170    33.0960    32.8190    30.9300    23.8690     2.2300 
  166.3750   -16.7320    65.8660    32.0390    31.5330    28.1460    23.8670     2.2360 
