~V
VERS. 2.00: Ver 2.00
~W
STRT.M 46.0000:
STOP.M 208.0000:
STEP.M 0.1250:
NULL. -999.2500:
UWI. F10533:
~C
DEPT.M :
GR.API :
RML.OHMM :
RI. :
RXO.OHMM :
CALI.CM :
DEN.GM/CC :
SP.MV :
~A
# ...
  192.2500    56.0580    69.7350    57.2830    41.7910    23.8860     2.2410   -11.3010 
  192.3750    53.8990    67.6210    55.8670    42.7440    23.9520     2.1960   -11.3340 
  192.5000    55.1190    65.0930    54.0980    44.0510    23.9690     2.1690   -11.3590 
  192.6250    60.1890    61.8610    51.6990    42.1820    23.9230     2.1770   -11.3690 
  192.7500    61.9320    57.9470    48.6770    40.7360    23.8970     2.2050   -11.3530 
  192.8750    59.1030    53.3880    45.0440    37.6720    23.8890     2.2370   -11.3270 
  193.0000    57.5190    48.3710    40.9480    31.8380    23.8950     2.2620   -11.2910 
  193.1250    61.4140    43.3900    36.8140    30.2590    23.9010     2.2840   -11.2550 
  193.2500    66.2880    39.1130    33.2340    27.1390    23.9030     2.3080   -11.2760 
  193.3750    67.8410    36.0910    30.6560    23.9910    23.8940     2.3300   -11.3530 
  193.5000    66.7740    34.6320    29.3270    20.8790    23.8850     2.3420   -11.4620 
  193.6250    64.9370    34.8840    29.4020    21.1050    23.8810     2.3390   -11.5870 
  193.7500    63.3950    36.1180    30.3480    23.6910    23.8820     2.3260   -11.7400 
  193.8750    63.3970    37.7470    31.7190    27.2970    23.8880     2.3080   -11.9520 
  194.0000    65.1970    39.2070    33.0560    30.8830    23.9040     2.2920   -12.2010 
  194.1250    67.0010    39.9270    33.8510    28.6450    23.9150     2.2830   -12.4800 
  194.2500    67.4410    39.8200    33.9460    25.5230    23.9140     2.2760   -12.7590 
  194.3750    66.9710    38.9380    33.3380    26.4140    23.9180     2.2710   -13.0070 
  194.5000    66.7350    37.4130    32.1280    29.0260    23.9250     2.2680   -13.2320 
  194.6250    66.3550    35.3150    30.3840    27.8200    23.9240     2.2680   -13.4290 
  194.7500    65.1360    32.9620    28.4000    24.2970    23.9160     2.2720   -13.6660 
  194.8750    63.4560    29.1820    26.4620    21.7450    23.9180     2.2780   -13.8980 
  195.0000    63.3670    26.4130    24.8670    20.7850    23.9250     2.2820   -14.0870 
  195.1250    65.8680    25.3410    23.9820    20.1670    23.9360     2.2820   -14.2440 
  195.2500    66.8830    24.8910    23.8610    20.1950    23.9550     2.2800   -14.3490 
  195.3750    65.4010    25.4990    24.5520    20.9670    23.9850     2.2800   -14.4090 
  195.5000    64.2870    27.4410    26.0480    22.3070    24.0200     2.2840   -14.4470 
  195.6250    65.3390    30.2420    28.3760    25.1140    24.1120     2.2890   -14.5080 
  195.7500    66.5720    33.4010    31.1460    30.4250    24.2990     2.2890   -14.5260 
  195.8750    67.3380    36.3690    33.8950    38.9350    24.5190     2.2790   -14.5400 
  196.0000    68.3410    38.5390    36.0410    48.3820    24.6840     2.2620   -14.5750 
  196.1250    68.6070    39.3130    36.9310    49.9000    24.7610     2.2450   -14.6000 
  196.2500    67.6320    39.0720    36.8010    46.9580    24.7910     2.2350   -14.6390 
  196.3750    66.9150    38.3910    36.1390    43.2300    24.8230     2.2310   -14.6880 
  196.5000    66.8760    37.8880    35.5190    40.6630    24.8750     2.2320   -14.7030 
  196.6250    66.8520    38.0590    35.4370    40.9160    24.9440     2.2350   -14.6850 
  196.7500    66.3900    38.8310    35.9100    43.0060    24.9980     2.2410   -14.6970 
  196.8750    65.6980    39.9990    36.8010    44.6680    25.0180     2.2520   -14.7320 
  197.0000    64.7860    41.3190    37.9050    44.3330    25.0350     2.2630   -14.7640 
  197.1250    63.3240    42.6920    39.1120    42.1340    25.1510     2.2640   -14.7960 
  197.2500    62.9480    44.2540    40.5090    39.8550    25.3930     2.2480   -14.8770 
  197.3750    62.9480    46.2370    42.3070    38.4690    25.6110     2.2190   -14.9810 
  197.5000    62.9480    48.7620    44.6460    35.7080    25.6210     2.1950   -15.1240 
  197.6250    62.9480    51.6830    47.4510    34.1250    25.3280     2.1930   -15.3010 
  197.7500    62.9480    54.2910    50.0800    39.7600    24.9490     2.2120   -15.4390 
  197.8750    62.9480    55.7820    51.7600    50.2780    24.6990     2.2360   -15.5400 
  198.0000    62.9480    55.6140    51.9080    57.9650    24.7230     2.2470   -15.6250 
  198.1250    62.9480    53.8000    50.4190    49.4750    24.9650     2.2400   -15.7290 
  198.2500    62.9480    51.5680    48.3910    42.9260    25.1360     2.2290   -15.8110 
  198.3750    62.9480    49.8910    46.7290    38.9270    25.2110     2.2260   -15.8940 
  198.5000    62.9480    49.4180    46.0830    38.6380    25.2320     2.2310   -15.9610 
  198.6250    62.9480    50.5330    46.9090    42.4860    25.2350     2.2390   -15.9840 
  198.7500    62.9480    52.6760    48.7720    45.7780    25.2310     2.2460   -15.9970 
  198.8750    62.9480    55.3230    51.2060    47.5140    25.2320     2.2500   -15.9930 
  199.0000    62.9480    57.9300    53.6800    50.7140    25.2360     2.2560   -15.9730 
  199.1250    62.9480    59.9330    55.6210    52.8190    25.2390     2.2640   -15.9090 
  199.2500    62.9480    61.2150    56.8730    53.5720    25.2400     2.2710   -15.8360 
  199.3750    62.9480    61.8420    57.4870    52.6200    25.2410     2.2730   -15.7670 
  199.5000    62.9480    62.0000    57.6370    52.2540    25.2440     2.2680   -15.7100 
  199.6250    62.9480    61.9370    57.5310    53.8560    25.2480     2.2570   -15.6550 
  199.7500    62.9480    62.0170    57.4980    55.1400    25.2630     2.2440   -15.6160 
  199.8750    62.9480    62.5360    57.8280    54.0460    25.2940     2.2310   -15.6260 
  200.0000    62.9480    63.7470    58.7960    51.7980    25.3180     2.2180   -15.6680 
  200.1250    62.9480    66.0560    60.8170    51.6700    25.3540     2.2080   -15.7670 
  200.2500    62.9480    69.4940    63.9380    55.3790    25.4360     2.2010   -15.9030 
  200.3750    62.9480    74.1370    68.2460    62.2450    25.5500     2.1960   -16.0160 
  200.5000    62.9480    79.9400    73.7180    72.0340    25.6160     2.1920   -16.0640 
  200.6250    62.9480    86.6560    80.2100    80.6880    25.6290     2.1860   -16.0610 
  200.7500    62.9480    93.0260    86.6430    86.3350    25.6220     2.1780   -15.9850 
  200.8750    62.9480    97.0580    91.2920    92.7400    25.5950     2.1710   -15.8360 
  201.0000    62.9480    96.3520    91.9550    92.2340    25.5440     2.1630   -15.6250 
  201.1250    62.9480    88.9040    86.3850    84.2210    25.5070     2.1620   -15.3440 
  201.2500    62.9480    77.8110    76.7860    65.9080    25.4680     2.1700   -15.0120 
  201.3750    62.9480    66.4020    66.0410    48.2970    25.3450     2.1830   -14.6240 
  201.5000    62.9480    57.1380    56.7550    39.3190    25.1200     2.1930   -14.1970 
  201.6250    62.9480    51.2590    50.6410    41.2650    24.9570     2.1970   -13.6870 
  201.7500    62.9480    47.8010    47.0380    46.0220    24.8850     2.2110   -13.1500 
  201.8750    62.9480    46.0430    45.2300    51.4240    24.7790     2.2580   -12.5850 
  202.0000    62.9480    45.3210    44.5050    66.8560    24.5380     2.3540   -12.0120 
  202.1250    62.9480    45.1450    44.3480   121.1270    24.1980     2.4810   -11.4610 
  202.2500    62.9480    45.1080    44.3260   177.6860    24.0440     2.5830   -10.8890 
  202.3750    62.9480    45.1060    44.3230   163.3600    24.0030     2.6310   -10.3940 
  202.5000    62.9480    45.1270    44.3170   103.5870    24.0020     2.6290    -9.9910 
  202.6250    62.9480    45.1690    44.3090    72.4030    24.0160     2.6000    -9.7270 
  202.7500    62.9480    45.2080    44.3030    46.9650    24.0360     2.5680    -9.5550 
  202.8750    62.9480    45.2260    44.3000    28.4390    24.0590     2.5480    -9.4600 
  203.0000    62.9480    45.2140    44.3010    22.0310    24.0730     2.5530    -9.4240 
  203.1250    62.9480    45.1830    44.3050    31.2340    24.0780     2.5820    -9.4190 
  203.2500    62.9480    45.1830    44.3050    41.6040    24.0790     2.6150    -9.4600 
  203.3750    62.9480    45.1830    44.3050    28.8890    24.0890     2.6360    -9.5110 
