~V
VERS. 2.00: Ver 2.00
~W
STRT.M 52.0000:
STOP.M 220.0000:
STEP.M 0.1250:
NULL. -999.2500:
UWI. F10539:
~C
DEPT.M :
SP.MV :
DEN.GM/CC :
GR.API :
RML.OHMM :
RI. :
RXO.OHMM :
CALI.CM :
~A
# ...
  119.5000   -12.6190     2.3740    79.2380     5.8500     4.8030     5.3790    23.8430 
  119.6250   -12.4920     2.3560    80.2570     5.8130     4.7800     5.4320    23.7920 
  119.7500   -12.3890     2.3490    83.4640     5.8440     4.7950     5.1590    23.8320 
  119.8750   -12.3460     2.3470    86.8230     5.9500     4.8600     5.0630    23.8230 
  120.0000   -12.3250     2.3390    86.6840     6.0910     4.9620     5.1880    23.6420 
  120.1250   -12.3500     2.3230    80.9600     6.1750     5.0440     5.3910    23.3140 
  120.2500   -12.4100     2.3100    76.9900     6.1400     5.0450     5.4300    23.0870 
  120.3750   -12.4830     2.3110    79.4020     5.9710     4.9340     5.3280    22.9500 
  120.5000   -12.6040     2.3310    85.5760     5.7160     4.7340     5.0730    22.8200 
  120.6250   -12.7440     2.3590    89.4580     5.5000     4.5380     4.5950    22.7180 
  120.7500   -12.9270     2.3870    88.9000     5.4380     4.4420     4.1500    22.6510 
  120.8750   -13.1150     2.4120    86.0260     5.5820     4.4910     4.1060    22.6080 
  121.0000   -13.3240     2.4340    83.8880     5.9180     4.6850     4.7600    22.5800 
  121.1250   -13.5260     2.4390    83.3280     6.3540     4.9750     6.0950    22.5560 
  121.2500   -13.7170     2.4200    81.1170     6.7110     5.2450     6.8200    22.5290 
  121.3750   -13.8930     2.3820    77.0620     6.8770     5.4110     6.2400    22.5070 
  121.5000   -14.0180     2.3370    74.9890     6.8390     5.4380     5.5810    22.5120 
  121.6250   -14.1070     2.3030    76.4560     6.6770     5.3470     5.4560    22.5690 
  121.7500   -14.1340     2.2840    77.1270     6.5250     5.2360     5.2410    22.6610 
  121.8750   -14.1290     2.2780    74.9840     6.4320     5.1590     5.1960    22.6860 
  122.0000   -14.1090     2.2750    71.9810     6.3900     5.1280     5.3780    22.6800 
  122.1250   -14.0570     2.2740    70.9090     6.3770     5.1270     5.5480    22.6310 
  122.2500   -14.0080     2.2760    71.9600     6.3750     5.1370     5.7130    22.6020 
  122.3750   -13.9540     2.2800    75.1840     6.4030     5.1630     5.5750    22.5670 
  122.5000   -13.9370     2.2840    78.8060     6.4890     5.2230     5.5050    22.6110 
  122.6250   -13.9110     2.2820    78.9320     6.6750     5.3460     5.7180    22.7410 
  122.7500   -13.9180     2.2730    75.4230     6.9410     5.5280     6.0230    22.8510 
  122.8750   -13.9210     2.2590    70.6560     7.2260     5.7360     6.3330    22.7760 
  123.0000   -13.9240     2.2420    66.5550     7.4400     5.9150     6.2510    22.5550 
  123.1250   -13.9420     2.2260    63.9180     7.4920     5.9910     5.8470    22.2610 
  123.2500   -13.9600     2.2200    63.7860     7.4250     5.9630     5.7080    22.1040 
  123.3750   -13.9960     2.2260    67.3420     7.3170     5.8630     5.4570    22.0600 
  123.5000   -14.0260     2.2420    72.7060     7.2440     5.7490     5.2910    22.0960 
  123.6250   -14.1010     2.2650    76.2960     7.2220     5.6630     5.3710    22.1240 
  123.7500   -14.1750     2.2900    77.5560     7.1590     5.5790     5.8990    22.0940 
  123.8750   -14.2770     2.3160    78.7150     6.9600     5.4390     6.7710    22.0640 
  124.0000   -14.4040     2.3440    81.0440     6.5830     5.2020     7.1570    22.1240 
  124.1250   -14.5530     2.3740    83.5940     6.0810     4.8770     6.4460    22.3420 
  124.2500   -14.7240     2.4030    85.1100     5.6450     4.5750     5.1320    22.7440 
  124.3750   -14.9080     2.4210    83.9310     5.4330     4.4000     4.3540    23.2500 
  124.5000   -15.1050     2.4230    80.2650     5.5370     4.4250     4.3830    23.6930 
  124.6250   -15.2800     2.3990    76.1700     5.9840     4.6890     5.2020    23.7990 
  124.7500   -15.4150     2.3590    74.4740     6.5700     5.0740     6.2410    23.6460 
  124.8750   -15.5330     2.3150    74.1060     7.0760     5.4490     6.8890    23.3870 
  125.0000   -15.6040     2.2840    73.3170     7.2980     5.6790     6.9580    23.2270 
  125.1250   -15.6690     2.2750    73.1760     7.1490     5.6640     6.5200    23.3070 
  125.2500   -15.7070     2.2810    74.1800     6.8690     5.5180     6.1670    23.6350 
  125.3750   -15.7270     2.2910    74.9020     6.6770     5.3730     5.9780    23.9790 
  125.5000   -15.7130     2.2970    73.8700     6.7110     5.3410     6.1120    24.1280 
  125.6250   -15.6960     2.2920    71.0690     7.0060     5.4930     6.2260    24.0460 
  125.7500   -15.6880     2.2750    66.0470     7.3890     5.7490     6.3420    23.8820 
  125.8750   -15.6620     2.2460    60.0110     7.6860     6.0010     6.6720    23.7920 
  126.0000   -15.6450     2.2130    56.9610     7.7380     6.1270     6.9600    23.7600 
  126.1250   -15.5790     2.1920    60.6480     7.4590     6.0240     7.1480    23.6390 
  126.2500   -15.5220     2.1970    68.1730     7.0040     5.7630     6.8710    23.4980 
  126.3750   -15.4520     2.2290    75.0120     6.5290     5.4460     6.1120    23.5190 
  126.5000   -15.4120     2.2700    78.3220     6.1760     5.1780     5.5370    23.6690 
  126.6250   -15.3590     2.2950    77.3730     6.0650     5.0550     5.5500    23.8120 
  126.7500   -15.3230     2.2980    75.4080     6.1410     5.0650     5.7120    23.7980 
  126.8750   -15.2860     2.2860    73.1850     6.3130     5.1670     5.9810    23.6410 
  127.0000   -15.2340     2.2740    71.8730     6.4710     5.2860     6.1170    23.5070 
  127.1250   -15.1750     2.2730    73.8930     6.4920     5.3270     6.1830    23.4580 
  127.2500   -15.0930     2.2820    77.0020     6.3500     5.2480     5.8880    23.5000 
  127.3750   -15.0100     2.2920    78.4460     6.0650     5.0510     5.5640    23.5990 
  127.5000   -14.9210     2.2990    78.5160     5.7060     4.7810     5.3030    23.7360 
  127.6250   -14.8710     2.3060    80.5920     5.3780     4.5190     5.1480    23.7600 
  127.7500   -14.8780     2.3200    83.6980     5.1760     4.3410     4.8910    23.7290 
  127.8750   -14.9450     2.3470    85.6910     5.1560     4.2870     4.6690    23.6960 
  128.0000   -15.1030     2.3780    85.4560     5.3140     4.3680     4.8380    23.6630 
  128.1250   -15.3530     2.3940    82.1520     5.6280     4.5880     5.5970    23.4980 
  128.2500   -15.6860     2.3840    77.1590     6.0400     4.9060     6.1650    23.2320 
  128.3750   -16.0730     2.3540    71.4600     6.5370     5.3010     5.9150    22.9910 
  128.5000   -16.5240     2.3240    65.5280     7.0900     5.7440     5.5520    22.8750 
  128.6250   -17.0090     2.3150    61.1890     7.6260     6.1840     6.0000    22.9220 
  128.7500   -17.4940     2.3270    60.6470     8.0350     6.5480     7.1460    23.0560 
  128.8750   -17.9790     2.3420    62.5040     8.2290     6.7700     8.0310    23.1060 
  129.0000   -18.4340     2.3410    62.9910     8.2010     6.8270     7.8380    23.0010 
  129.1250   -18.8620     2.3100    61.5220     8.0800     6.7760     7.5690    23.0160 
  129.2500   -19.2240     2.2670    62.4080     8.1030     6.7740     7.5410    23.0970 
  129.3750   -19.5350     2.2310    64.3690     8.4080     6.9280     7.6200    23.1640 
  129.5000   -19.7630     2.2220    63.0510     9.0130     7.2730     7.8420    23.1660 
  129.6250   -19.9090     2.2510    58.0380     9.7630     7.7500     9.4790    23.1740 
  129.7500   -19.9760     2.2980    54.3580    10.3160     8.1640    13.3990    23.2540 
  129.8750   -19.9840     2.3390    53.5540    10.4270     8.3490    16.7440    23.2520 
  130.0000   -19.9390     2.3540    55.1670    10.0560     8.2320    12.6030    23.0690 
  130.1250   -19.8400     2.3310    57.8810     9.3770     7.8520     9.5720    22.8390 
  130.2500   -19.7280     2.2900    59.8030     8.7220     7.4060     8.3870    22.8100 
  130.3750   -19.5890     2.2490    60.3560     8.2540     7.0260     8.3320    22.8840 
  130.5000   -19.4560     2.2190    60.4290     8.0230     6.7930     8.3370    22.8740 
  130.6250   -19.3370     2.2100    60.6330     8.0220     6.7390     8.1510    22.7070 
