~V
VERS. 2.00: Ver 2.00
~W
STRT.M 50.0000:
STOP.M 198.0000:
STEP.M 0.1250:
NULL. -999.2500:
UWI. F10574:
~C
DEPT.M :
DEN.GM/CC :
SP.MV :
GR.API :
RML.OHMM :
RI. :
RXO.OHMM :
CALI.CM :
~A
   50.0000     2.1440    22.8030    37.0490    12.3690     0.1470     0.7160    25.0660 
   50.1250     2.1480    20.6180    37.9190    12.1590     0.1390     0.7170    25.0660 
   50.2500     2.1570    19.0340    38.3960    11.7890     0.1360     0.7140    25.0660 
   50.3750     2.1670    17.9210    37.9520    11.3150     0.1370     0.7030    25.0660 
   50.5000     2.1770    17.1330    36.5310    10.7890     0.1390     0.6890    25.0660 
   50.6250     2.1870    16.6000    35.8400    10.3380     0.1400     0.6910    25.0660 
   50.7500     2.1950    16.2260    37.2930    10.0920     0.1390     0.7010    25.0660 
   50.8750     2.1980    16.0720    39.2010    10.1210     0.1380     0.7070    25.0660 
   51.0000     2.1980    16.1620    40.0980    10.3710     0.1360     0.7070    25.0660 
   51.1250     2.1980    16.5160    39.6580    10.7020     0.1340     0.7010    25.0660 
   51.2500     2.1970    17.1290    38.1090    10.8870     0.1320     0.6960    25.0660 
   51.3750     2.1920    18.0630    35.9140    10.7460     0.1320     0.6910    25.0660 
   51.5000     2.1850    19.3730    35.2580    10.2870     0.1330     0.6880    25.0660 
   51.6250     2.1800    21.0950    37.4640     9.6670     0.1330     0.6760    25.0650 
   51.7500     2.1790    23.0830    38.3170     9.1040     0.1310     0.6380    25.0620 
   51.8750     2.1780    25.1770    37.0810     8.6950     0.1250     0.5750    25.0600 
   52.0000     2.1740    27.2950    35.6940     8.4120     0.1190     0.5250    25.0630 
   52.1250     2.1600    29.4230    35.4010     8.1790     0.1180     0.5250    25.0650 
   52.2500     2.1330    31.5490    35.2080     7.9660     0.1200     0.5420    25.0660 
   52.3750     2.0920    33.6240    34.5440     7.8550     0.1200     0.5490    25.0650 
   52.5000     2.0400    35.5040    34.8990     7.9640     0.1190     0.5400    25.0670 
   52.6250     1.9770    36.8530    36.0770     8.3550     0.1180     0.5440    25.0930 
   52.7500     1.9040    37.6310    36.2380     8.8340     0.1190     0.6350    25.1680 
   52.8750     1.8560    37.9560    35.1910     9.1640     0.1200     0.9390    25.2690 
   53.0000     1.8850    37.8660    33.6290     9.1780     0.1210     1.9240    25.3410 
   53.1250     2.0100    37.3410    32.5530     8.9030     0.1220     9.5610    25.3630 
   53.2500     2.1590    36.5330    32.0110     8.5550     0.1210   615.7830    25.3650 
   53.3750     2.2510    35.5270    32.8610     8.2280     0.1210  1207.2250    25.3650 
   53.5000     2.2260    34.4420    35.6810     7.9530     0.1210  1207.2250    25.3650 
   53.6250     2.0770    33.5980    37.6830     7.7750     0.1210  1207.2250    25.3640 
   53.7500     1.8960    33.0500    38.0770     7.7410     0.1210  1207.2250    25.3630 
   53.8750     1.7310    32.7180    36.7160     7.9030     0.1210  1207.2250    25.3590 
   54.0000     1.5940    32.6600    34.2470     8.2070     0.1180  1207.2250    25.3470 
   54.1250     1.4870    32.8610    32.6180     8.4790     0.1140  1207.2250    25.3170 
   54.2500     1.4030    33.1110    32.5340     8.5410     0.1100   609.8170    25.2940 
   54.3750     1.3450    33.2150    34.0830     8.3360     0.1060     7.2730    25.2840 
   54.5000     1.3200    32.9770    36.1510     7.9130     0.1030     2.4810    25.2820 
   54.6250     1.3400    32.1440    39.0680     7.3690     0.1000     3.6740    25.2870 
   54.7500     1.4070    30.8870    42.1230     6.8280     0.0960     6.3490    25.2920 
   54.8750     1.5260    29.3230    45.0400     6.3730     0.0940    12.4610    25.2940 
   55.0000     1.6910    27.5210    48.1590     6.0580     0.0920    47.5240    25.2910 
   55.1250     1.8690    25.5710    50.3160     5.9010     0.0910    73.3960    25.2890 
   55.2500     2.0060    23.6510    52.4290     5.8560     0.0890     4.2730    25.2880 
   55.3750     2.0750    21.9880    55.0510     5.9450     0.0860     1.2950    25.2880 
   55.5000     2.0920    20.8310    56.3930     6.1820     0.0840     1.1500    25.2870 
   55.6250     2.0870    20.4120    55.1870     6.4770     0.0840     2.2880    25.2860 
   55.7500     2.0790    20.5570    54.8880     6.5970     0.0860     2.5870    25.2840 
   55.8750     2.0700    21.1320    57.1320     6.3960     0.0890     1.7940    25.2840 
   56.0000     2.0670    21.9730    56.6770     5.8930     0.0910     1.3980    25.2860 
   56.1250     2.0670    22.9480    50.9640     5.2860     0.0920     4.4500    25.2870 
   56.2500     2.0640    23.9290    44.2000     4.8010     0.0930    17.2830    25.2870 
   56.3750     2.0530    24.7860    40.0850     4.4820     0.0950    16.9480    25.2850 
   56.5000     2.0400    25.4270    39.3330     4.2830     0.0970     7.2190    25.2800 
   56.6250     2.0290    25.8570    39.5520     4.1770     0.1020    13.3690    25.2820 
   56.7500     2.0190    26.1230    39.9710     4.1580     0.1070    14.2390    25.2690 
   56.8750     2.0100    26.2470    40.4440     4.2260     0.1130    12.9180    25.2390 
   57.0000     2.0070    26.2760    40.7840     4.3270     0.1180    29.6270    25.2190 
   57.1250     2.0130    26.2500    41.6960     4.3900     0.1230   349.7040    25.2130 
   57.2500     2.0170    26.2300    43.2420     4.4030     0.1280  1207.2250    25.2130 
   57.3750     2.0160    26.3340    43.6360     4.3850     0.1340  1207.2250    25.2100 
   57.5000     2.0140    26.6540    42.0190     4.3330     0.1390  1207.2250    25.2070 
   57.6250     2.0130    27.1650    41.5410     4.2340     0.1440  1207.2250    25.2090 
   57.7500     2.0090    27.8380    42.7300     4.1080     0.1470  1207.2250    25.2100 
   57.8750     2.0020    28.7170    42.6330     3.9390     0.1490  1207.2250    25.2110 
   58.0000     1.9930    29.7180    40.5330     3.6780     0.1490   612.4700    25.2110 
   58.1250     1.9860    30.6750    38.5470     3.2920     0.1500   370.7990    25.2110 
   58.2500     1.9840    31.4090    37.4060     2.8670     0.1500   258.2100    25.2110 
   58.3750     1.9870    31.7350    37.0910     2.5200     0.1490   262.7000    25.2050 
   58.5000     1.9930    31.6160    37.5030     2.3580     0.1490   170.0620    25.1880 
   58.6250     1.9990    31.1260    37.6020     2.4320     0.1490    95.4450    25.1530 
   58.7500     2.0030    30.3280    37.9980     2.5810     0.1470    43.6500    25.1370 
   58.8750     2.0060    29.1460    39.4830     2.6460     0.1430    11.0250    25.1290 
   59.0000     2.0120    27.5570    40.4530     2.5240     0.1380     2.8700    25.1120 
   59.1250     2.0270    25.5950    40.0070     2.2210     0.1330     2.3170    25.0790 
   59.2500     2.0550    23.4980    40.2520     1.8950     0.1290     5.6190    25.0640 
   59.3750     2.1030    21.4340    42.3360     1.6670     0.1200    31.9100    25.0620 
   59.5000     2.1710    19.3540    43.8310     1.5890     0.1020   126.0840    25.0620 
   59.6250     2.2610    17.0550    41.2670     1.5540     0.0770    46.2640    25.0590 
   59.7500     2.3620    14.6360    36.0600     1.3080     0.0590    23.9110    25.0570 
   59.8750     2.4660    12.1990    32.9600     0.8340     0.0550    19.0430    25.0560 
   60.0000     2.5690     9.8270    33.4630     0.3960     0.0620    13.7120    25.0500 
   60.1250     2.6470     7.5810    34.7040     0.1840     0.0790     9.4060    25.0230 
   60.2500     2.6610     5.2460    33.5010     0.1120     0.1070     5.4480    24.8910 
   60.3750     2.5940     2.6320    33.1040     0.1260     0.1530     3.2910    24.3970 
   60.5000     2.4800    -0.2380    37.4820     0.2110     0.2390     2.6800    23.3130 
   60.6250     2.3650    -3.1680    46.2850     0.4270     0.4430     3.5590    22.0920 
   60.7500     2.2830    -6.0940    54.3550     0.8570     0.8800     4.8520    21.5290 
   60.8750     2.2400    -8.9940    59.6330     1.6470     1.7360     5.8590    21.4330 
   61.0000     2.2250   -11.8290    63.0440     2.8690     3.1230     6.3050    21.5310 
   61.1250     2.2180   -14.5490    66.0220     4.2350     4.7730     6.5340    21.6180 
