~V
VERS. 2.00: Ver 2.00
~W
STRT.M 42.0000:
STOP.M 223.0000:
STEP.M 0.1250:
NULL. -999.2500:
UWI. F10538:
~C
DEPT.M :
DEN.GM/CC :
SP.MV :
GR.API :
RML.OHMM :
RI. :
RXO.OHMM :
CALI.CM :
~A
# ...
  210.7500     2.2070   -31.8240    69.9080    68.6190    68.8070    74.2340    26.2440 
  210.8750     2.2090   -31.3840    69.4270    67.9610    67.6130    79.4390    26.1120 
  211.0000     2.2130   -30.9660    66.6030    65.3960    64.5020    80.3580    26.0750 
  211.1250     2.2150   -30.5940    63.5070    61.8150    60.4640    80.2360    26.1180 
  211.2500     2.2140   -30.2790    63.3440    57.9660    56.2500    74.3070    26.1800 
  211.3750     2.2140   -29.9830    65.9500    54.2070    52.2020    62.2500    26.1630 
  211.5000     2.2210   -29.7060    67.8750    50.8100    48.5920    50.3500    26.1040 
  211.6250     2.2300   -29.4690    68.3710    48.2000    45.8380    44.4230    26.0970 
  211.7500     2.2330   -29.2970    68.3710    46.6440    44.1490    47.9590    26.0820 
  211.8750     2.2270   -29.1580    68.3710    45.9710    43.2800    51.6670    25.9320 
  212.0000     2.2130   -29.0220    68.3710    45.2420    42.2940    56.2460    25.6590 
  212.1250     2.1950   -28.8950    68.3710    43.7290    40.5390    62.9190    25.4560 
  212.2500     2.1790   -28.7410    68.3710    41.1360    37.8090    67.1460    25.3680 
  212.3750     2.1700   -28.5550    68.3710    37.6600    34.3700    57.9200    25.3140 
  212.5000     2.1740   -28.3630    68.3710    34.1000    30.9670    41.7010    25.2660 
  212.6250     2.1890   -28.1840    68.3710    31.0600    28.1440    31.3590    25.3310 
  212.7500     2.2030   -27.9600    68.3710    28.9950    26.3180    30.0200    25.5380 
  212.8750     2.2100   -27.7220    68.3710    28.3920    25.9450    30.5740    25.6960 
  213.0000     2.2110   -27.4960    68.3710    29.0360    26.7590    31.2300    25.8030 
  213.1250     2.2130   -27.2380    68.3710    30.6650    28.4500    30.7620    25.8740 
  213.2500     2.2180   -26.9650    68.3710    32.8820    30.6250    30.8610    25.9750 
  213.3750     2.2240   -26.6950    68.3710    35.4450    33.1100    31.1360    26.0360 
  213.5000     2.2260   -26.3950    68.3710    37.1080    34.7330    31.9850    26.0790 
  213.6250     2.2270   -26.0480    68.3710    42.7550    40.1850    43.0320    26.3800 
  213.7500     2.2320   -25.7020    68.3710    46.8950    43.9350    57.5270    26.6290 
  213.8750     2.2440   -25.3070    68.3710    50.1310    46.5470    62.7610    26.7440 
  214.0000     2.2630   -24.8560    68.3710    51.0070    46.7500    47.3280    26.5610 
  214.1250     2.2900   -24.3930    68.3710    49.2190    44.4950    34.1600    25.9920 
  214.2500     2.3230   -23.9070    68.3710    46.1390    41.2540    38.0710    25.2950 
  214.3750     2.3500   -23.4190    68.3710    43.5040    38.5660    43.1930    25.3190 
  214.5000     2.3550   -22.9280    68.3710    41.4840    36.4980    35.5440    25.7510 
  214.6250     2.3370   -22.6820    68.3710    39.5390    34.5430    26.0810    25.9990 
  214.7500     2.3270   -22.6670    68.3710    37.3160    32.4440    25.7990    25.8220 
  214.8750     2.3380   -22.4580    68.3710    35.4350    30.7650    28.1650    25.5380 
  215.0000     2.3700   -22.2500    68.3710    34.6520    30.1350    27.9860    25.4490 
  215.1250     2.3940   -22.1670    68.3710    35.2540    30.7000    24.3200    25.4600 
  215.2500     2.3920   -21.6670    68.3710    36.8360    32.0110    24.3280    25.3300 
  215.3750     2.3870   -21.6250    68.3710    38.3090    33.1990    38.8140    25.1270 
  215.5000     2.4210   -21.4170    68.3710    39.1700    33.9190    67.5870    25.0480 
  215.6250     2.4930   -21.2080    68.3710    39.4500    34.1970    88.1210    25.0660 
  215.7500     2.5430   -21.1670    68.3710    39.4510    34.2410    65.9470    25.0990 
  215.8750     2.5290   -21.1250    68.3710    39.4420    34.2500    25.7700    25.2300 
  216.0000     2.4420   -20.9170    68.3710    39.4390    34.2440     8.7460    25.7490 
  216.1250     2.2610   -20.7080    68.3710    39.4290    34.2160     4.1660    27.0530 
  216.2500     2.0290   -20.5000    68.3710    39.4050    34.1370     3.4020    28.9960 
  216.3750     1.8380   -20.4580    68.3710    39.3690    33.9900     3.6010    30.7260 
  216.5000     1.7490   -20.3330    68.3710    39.3250    33.7740     3.8880    31.8290 
  216.6250     1.7640   -20.2080    68.3710    39.2830    33.5130     4.2930    32.5340 
  216.7500     1.8220   -20.1670    68.3710    39.2550    33.2690     4.4040    33.7080 
  216.8750     1.8740   -20.1670    68.3710    39.2420    33.0940     4.1080    35.2670 
  217.0000     1.8870   -20.1670    68.3710    39.2420    33.0070     3.7790    36.0520 
  217.1250     1.8810   -20.0420    68.3710    39.2470    32.9830     3.5920    35.8340 
  217.2500     1.9020   -20.0000    68.3710    39.2490    32.9860     3.5800    35.4590 
  217.3750     1.9570   -19.8330    68.3710    39.2500    32.9930     3.6930    34.9060 
  217.5000     2.0110   -19.7500    68.3710    39.2510    32.9960     3.8370    34.3100 
  217.6250     2.0260   -19.6670    68.3710    39.2510    32.9960     3.9520    34.6130 
  217.7500     2.0160   -19.6670    68.3710    39.2510    32.9960     3.9360    35.8140 
  217.8750     2.0010   -19.6670    68.3710    39.2510    32.9960     3.9590    35.8130 
  218.0000     1.9780   -19.5830    68.3710    39.2510    32.9960     4.0740    33.6210 
  218.1250     1.9470   -19.5000    68.3710    39.2510    32.9960     4.2980    30.3770 
  218.2500     1.9240   -19.3330    68.3710    39.2510    32.9960     4.5970    28.2750 
  218.3750     1.9150   -19.2920    68.3710    39.2510    32.9960     5.0150    26.7870 
  218.5000     1.9100   -19.0830    68.3710    39.2510    32.9960     5.3500    25.4580 
  218.6250     1.8930   -19.0000    68.3710    39.2510    32.9960     5.5220    24.2520 
  218.7500     1.8610   -19.0000    68.3710    39.2510    32.9960     5.3690    23.3610 
  218.8750     1.8160   -18.9860    68.3710    39.2510    32.9960     5.1530    22.6430 
  219.0000     1.7700   -18.9170    68.3710    39.2510    32.9960     5.2310    21.5880 
  219.1250     1.7460   -18.8470    68.3710    39.2510    32.9960     5.6960    20.3110 
  219.2500     1.7390   -18.7780    68.3710    39.2510    32.9960     5.8520    19.3290 
  219.3750     1.7330   -18.6670    68.3710    39.2510    32.9960     5.1390    18.7700 
  219.5000     1.7150   -18.6670    68.3710    39.2510    32.9960     4.5870    18.4690 
  219.6250     1.6980   -18.5420    68.3710    39.2510    32.9960     4.7800    18.3690 
  219.7500     1.6980   -18.5000    68.3710    39.2510    32.9960     5.0830    18.3880 
  219.8750     1.7160   -18.5000    68.3710    39.2510    32.9960     5.3260    18.3950 
  220.0000     1.7410   -18.5000    68.3710    39.2510    32.9960     4.6890    18.3910 
  220.1250     1.7580   -18.4840    68.3710    39.2510    32.9960     3.7940    18.3640 
  220.2500     1.7670   -18.4580    68.3710    39.2510    32.9960     3.4840    18.3070 
  220.3750     1.7720   -18.4320    68.3710    39.2510    32.9960     3.3930    18.2750 
  220.5000     1.7710   -18.4060    68.3710    39.2510    32.9960     3.3880    18.2660 
  220.6250     1.7650   -18.3800    68.3710    39.2510    32.9960     3.3880    18.2650 
  220.7500     1.7610   -18.3330    68.3710    39.2510    32.9960     3.3880    18.2650 
  220.8750     1.7610   -18.2920    68.3710    39.2510    32.9960     3.3870    18.2650 
  221.0000     1.7630   -18.1670    68.3710    39.2510    32.9960     3.3870    18.2620 
  221.1250     1.7660   -18.1670    68.3710    39.2510    32.9960     3.3860    18.2600 
  221.2500     1.7670   -18.1670    68.3710    39.2510    32.9960     3.3870    18.2590 
  221.3750     1.7670   -18.1670    68.3710    39.2510    32.9960     3.3860    18.2590 
  221.5000     1.7670   -18.1670    68.3710    39.2510    32.9960     3.3870    18.2540 
  221.6250     1.7660   -18.1670    68.3710    39.2510    32.9960     3.3870    18.2420 
  221.7500     1.7630   -18.1670    68.3710    39.2510    32.9960     3.3860    18.2030 
  221.8750     1.7570   -18.1670    68.3710    39.2510    32.9960     3.3840    18.1610 
