~V
VERS. 2.00: Ver 2.00
~W
STRT.M 60.0000:
STOP.M 200.0000:
STEP.M 0.1250:
NULL. -999.2500:
UWI. F10576:
~C
DEPT.M :
GR.API :
RML.OHMM :
RI. :
RXO.OHMM :
CALI.CM :
DEN.GM/CC :
SP.MV :
~A
# ...
  172.5000    60.4030    32.8580    35.7230    61.1650    24.0350     2.4770   -36.4620 
  172.6250    54.1490    23.3700    25.9700    47.1980    24.0220     2.5030   -36.2090 
  172.7500    48.1540    15.8220    17.6200    23.0770    23.9100     2.4960   -35.9650 
  172.8750    44.0280    10.8040    11.7570     9.1130    23.8330     2.4660   -35.6800 
  173.0000    39.8900     7.8730     8.1920     5.0560    23.8110     2.4360   -35.3700 
  173.1250    35.7070     6.5060     6.4290     4.6500    23.8210     2.4210   -35.0830 
  173.2500    35.5880     5.9240     5.5710     4.9360    23.8480     2.4160   -34.8600 
  173.3750    39.6920     5.8140     5.2650     5.0110    23.8830     2.4150   -34.7060 
  173.5000    44.9610     5.9440     5.2820     4.8700    23.9030     2.4120   -34.6310 
  173.6250    47.4190     6.1340     5.4590     4.7590    23.9070     2.4060   -34.5810 
  173.7500    47.0210     6.2750     5.6520     4.8610    23.9010     2.3960   -34.5610 
  173.8750    45.7310     6.3560     5.8090     5.1150    23.8880     2.3810   -34.5960 
  174.0000    45.3590     6.3980     5.9090     5.1610    23.8710     2.3620   -34.7050 
  174.1250    46.7880     6.4030     5.9390     5.3200    23.8630     2.3530   -34.8690 
  174.2500    47.7800     6.3720     5.9120     5.3760    23.8620     2.3620   -35.0590 
  174.3750    47.2330     6.3310     5.8360     5.2220    23.8640     2.3930   -35.2520 
  174.5000    45.9390     6.2440     5.7170     5.0500    23.8650     2.4340   -35.4370 
  174.6250    46.3100     6.0960     5.5550     5.0080    23.8670     2.4640   -35.6090 
  174.7500    47.5620     5.8550     5.3690     4.9470    23.8710     2.4710   -35.7790 
  174.8750    48.4320     5.7420     5.1820     4.8930    23.8780     2.4580   -35.9800 
  175.0000    48.2140     5.7250     5.0210     4.8220    23.8790     2.4380   -36.2000 
  175.1250    48.4250     5.7490     4.9210     4.8650    23.8900     2.4260   -36.4350 
  175.2500    49.8250     5.7990     4.8840     4.9950    23.9020     2.4240   -36.7130 
  175.3750    51.8540     5.8720     4.9070     5.1260    23.9230     2.4270   -37.0500 
  175.5000    54.4840     5.9770     4.9890     5.2490    23.9410     2.4300   -37.4570 
  175.6250    57.0260     6.0890     5.1700     5.4900    23.9430     2.4300   -37.9700 
  175.7500    60.5600     6.2470     5.4910     5.8320    23.9290     2.4280   -38.5680 
  175.8750    66.5920     6.6470     6.0100     6.3960    23.9230     2.4260   -39.1800 
  176.0000    76.2680     7.4610     6.7800     7.3870    23.9280     2.4240   -39.7400 
  176.1250    86.9910     8.6900     7.8440     9.1340    23.9390     2.4250   -40.2680 
  176.2500    93.2520    10.0540     9.0440    11.6970    23.9620     2.4300   -40.6980 
  176.3750    93.5070    11.2880    10.1550    13.8250    23.9940     2.4370   -41.0140 
  176.5000    89.5520    12.0780    10.9070    15.3760    23.9630     2.4400   -41.2350 
  176.6250    85.3320    12.1300    11.0340    15.4370    23.9710     2.4320   -41.3220 
  176.7500    83.3890    11.6960    10.7100    14.1080    24.0000     2.4150   -41.2930 
  176.8750    83.9800    11.0940    10.1740    11.4130    24.0320     2.3990   -41.1730 
  177.0000    86.2130    10.5850     9.6500     9.7720    24.0310     2.3910   -41.0090 
  177.1250    86.5050    10.2480     9.2550     9.7840    23.9870     2.3940   -40.7550 
  177.2500    84.0670     9.9120     8.9140    10.6210    23.9230     2.3940   -40.4540 
  177.3750    78.9730     9.4320     8.5320    10.7430    23.9000     2.3810   -40.1350 
  177.5000    72.6710     8.7790     8.0640     8.5830    23.9250     2.3530   -39.7830 
  177.6250    70.5590     8.0780     7.5430     6.7620    23.9330     2.3200   -39.4700 
  177.7500    73.0860     7.5190     7.0720     5.8050    23.9760     2.2970   -39.1910 
  177.8750    77.7080     7.1930     6.7170     6.1870    24.0270     2.2940   -38.9200 
  178.0000    81.9360     7.0870     6.4950     7.0840    24.0850     2.3110   -38.6530 
  178.1250    83.8190     7.1060     6.3710     7.2500    24.0630     2.3440   -38.4030 
  178.2500    80.9000     7.0850     6.2560     6.6470    23.9660     2.3800   -38.2050 
  178.3750    72.6180     6.9390     6.0960     6.1770    23.9030     2.4120   -38.0290 
  178.5000    63.8150     6.6690     5.8810     6.0010    23.8750     2.4310   -37.8540 
  178.6250    60.8180     6.3630     5.6460     5.7980    23.8790     2.4360   -37.6880 
  178.7500    60.3450     6.1300     5.4500     5.5360    23.8970     2.4330   -37.5330 
  178.8750    58.2740     6.0130     5.3320     5.2940    23.8980     2.4310   -37.4020 
  179.0000    54.4310     6.0010     5.2980     5.2090    23.8010     2.4340   -37.2980 
  179.1250    52.2070     6.0640     5.3340     5.5460    23.7650     2.4430   -37.2530 
  179.2500    52.1120     6.1500     5.3830     5.8800    23.7960     2.4530   -37.2070 
  179.3750    52.6870     6.2180     5.4050     6.0480    23.8410     2.4610   -37.1890 
  179.5000    53.4150     6.2290     5.3810     5.9500    23.8580     2.4640   -37.1890 
  179.6250    53.9920     6.1580     5.3160     5.6170    23.8580     2.4620   -37.1540 
  179.7500    53.0290     6.0690     5.2550     5.2960    23.8600     2.4610   -37.0880 
  179.8750    50.9610     6.0370     5.2330     5.2530    23.8630     2.4610   -37.0040 
  180.0000    50.4440     6.1190     5.2710     5.3490    23.8680     2.4650   -36.9380 
  180.1250    51.4700     6.3270     5.3720     5.6750    23.8820     2.4680   -36.8590 
  180.2500    52.0800     6.5800     5.4990     5.8320    23.9090     2.4670   -36.7980 
  180.3750    52.3000     6.8100     5.6190     6.0370    23.9500     2.4610   -36.7050 
  180.5000    52.2420     6.9650     5.6990     6.1220    23.9830     2.4540   -36.5970 
  180.6250    52.0990     6.9950     5.7070     6.0900    23.9930     2.4510   -36.5140 
  180.7500    53.0160     6.9130     5.6480     6.3630    23.9940     2.4550   -36.4410 
  180.8750    55.4390     6.7370     5.5310     6.8990    23.9960     2.4600   -36.3680 
  181.0000    58.0350     6.5030     5.3740     6.9410    23.9960     2.4540   -36.2670 
  181.1250    61.3070     6.2520     5.2000     6.3870    23.9970     2.4310   -36.1860 
  181.2500    66.7590     6.0130     5.0360     5.8820    23.9950     2.3970   -36.1140 
  181.3750    69.6760     5.7960     4.8990     5.5140    23.9930     2.3630   -36.0700 
  181.5000    65.6520     5.6190     4.7990     5.1300    23.9970     2.3380   -36.0720 
  181.6250    57.0820     5.5080     4.7400     4.8620    24.0170     2.3290   -36.0720 
  181.7500    50.4020     5.4440     4.6970     4.8530    24.0450     2.3290   -36.0780 
  181.8750    46.7930     5.3890     4.6500     4.8830    24.0700     2.3340   -36.1210 
  182.0000    45.2710     5.3060     4.5860     4.8210    24.0680     2.3440   -36.2120 
  182.1250    45.1130     5.1960     4.5080     4.8520    24.1520     2.3580   -36.3250 
  182.2500    44.7850     5.1170     4.4370     4.8280    24.3330     2.3770   -36.4750 
  182.3750    44.9610     5.1300     4.4010     4.6560    24.5040     2.3980   -36.6150 
  182.5000    46.5610     5.2610     4.4230     4.5630    24.3980     2.4230   -36.6820 
  182.6250    49.2880     5.5130     4.5360     4.8460    24.2210     2.4460   -36.6580 
  182.7500    52.9180     5.8210     4.7240     5.4650    24.1230     2.4630   -36.5200 
  182.8750    56.6870     6.1340     4.9620     6.2290    24.1400     2.4660   -36.2270 
  183.0000    57.8020     6.3930     5.2060     6.7940    24.1050     2.4560   -35.7540 
  183.1250    54.8560     6.5170     5.3900     6.5200    24.0710     2.4420   -35.0950 
  183.2500    52.0920     6.5020     5.4860     6.0200    24.0420     2.4350   -34.3470 
  183.3750    50.9470     6.3730     5.4850     5.8150    24.0310     2.4370   -33.5720 
  183.5000    49.9350     6.1790     5.4000     5.6590    24.0000     2.4400   -32.8120 
  183.6250    48.4490     5.9770     5.2510     5.6880    23.9430     2.4310   -32.1060 
