~V
VERS. 2.00: Ver 2.00
~W
STRT.M 52.0000:
STOP.M 208.0000:
STEP.M 0.1250:
NULL. -999.2500:
UWI. F10572:
~C
DEPT.M :
GR.API :
RML.OHMM :
RI. :
RXO.OHMM :
CALI.CM :
DEN.GM/CC :
SP.MV :
~A
# ...
  175.7500    77.7260     6.1750     5.8410     5.8120    24.0110     2.3600   -17.7000 
  175.8750    69.2190     5.8120     5.4160     5.4620    23.9720     2.3600   -17.2850 
  176.0000    64.4540     5.7240     5.1670     5.2970    23.9290     2.3590   -16.9190 
  176.1250    65.4820     5.8710     5.1010     5.4700    23.9310     2.3630   -16.6170 
  176.2500    69.1600     6.0920     5.1260     5.6330    23.9210     2.3690   -16.3850 
  176.3750    71.3450     6.2620     5.1750     5.6520    23.8620     2.3740   -16.2260 
  176.5000    69.7420     6.2910     5.1840     5.7190    23.8710     2.3710   -16.1130 
  176.6250    64.9680     6.1240     5.1000     5.6680    23.8440     2.3570   -16.0320 
  176.7500    59.7550     5.8520     4.9460     5.4280    23.7510     2.3410   -15.9700 
  176.8750    57.2040     5.5980     4.7740     5.0330    23.5780     2.3280   -15.9210 
  177.0000    58.3390     5.4670     4.6440     4.6310    23.2620     2.3210   -15.8810 
  177.1250    60.6760     5.5070     4.6010     4.3580    22.8940     2.3170   -15.8520 
  177.2500    60.8980     5.6330     4.6180     4.3820    22.8330     2.3150   -15.8420 
  177.3750    59.2910     5.7630     4.6540     4.8480    23.0370     2.3170   -15.8720 
  177.5000    56.3590     5.8310     4.6730     5.6690    23.2340     2.3260   -15.9360 
  177.6250    50.9500     5.8160     4.6520     5.6100    23.3060     2.3430   -16.0310 
  177.7500    45.4420     5.7900     4.6130     4.8500    23.2730     2.3600   -16.1280 
  177.8750    42.5120     5.8160     4.5840     4.4780    23.1480     2.3680   -16.1990 
  178.0000    42.9770     5.9180     4.5860     4.6610    23.0140     2.3650   -16.2480 
  178.1250    45.8270     6.0620     4.6250     4.7430    23.0490     2.3580   -16.2750 
  178.2500    47.6460     6.1810     4.6770     4.5080    23.2360     2.3580   -16.2750 
  178.3750    46.1580     6.2410     4.7220     4.4600    23.3920     2.3720   -16.2290 
  178.5000    42.2620     6.2380     4.7430     4.7390    23.4210     2.3950   -16.1500 
  178.6250    38.9260     6.1700     4.7160     5.0210    23.4080     2.4130   -16.0420 
  178.7500    37.4620     6.0440     4.6370     4.8840    23.2990     2.4130   -15.9270 
  178.8750    37.4670     5.8480     4.4960     4.7460    23.0640     2.3950   -15.8130 
  179.0000    39.4190     5.5930     4.3000     4.6170    22.6870     2.3680   -15.7100 
  179.1250    42.6920     5.3590     4.0950     4.4310    22.4240     2.3470   -15.6420 
  179.2500    44.7430     5.2390     3.9490     3.9720    22.1290     2.3440   -15.6220 
  179.3750    44.2600     5.2650     3.9050     3.6650    21.6290     2.3580   -15.6620 
  179.5000    42.5310     5.4240     3.9740     3.7820    21.0180     2.3770   -15.7590 
  179.6250    42.4440     5.6630     4.1430     4.5300    20.8340     2.3890   -15.8970 
  179.7500    44.5340     5.8730     4.3340     5.6880    21.2710     2.3940   -16.0370 
  179.8750    47.2390     5.9800     4.4740     6.2230    22.1260     2.3960   -16.1860 
  180.0000    47.9790     5.9540     4.5140     5.6180    22.9440     2.3980   -16.3210 
  180.1250    44.5340     5.8070     4.4390     5.1060    23.2090     2.3990   -16.4110 
  180.2500    39.6900     5.6170     4.3080     4.9150    23.1840     2.3960   -16.4520 
  180.3750    37.2060     5.4290     4.1630     4.6800    23.0780     2.3880   -16.4570 
  180.5000    37.2740     5.2660     4.0370     4.4460    23.1080     2.3810   -16.4250 
  180.6250    37.0500     5.1310     3.9390     4.3150    23.1990     2.3820   -16.3620 
  180.7500    36.4720     5.0180     3.8550     4.1960    23.2930     2.3900   -16.2930 
  180.8750    36.0580     4.9330     3.7770     4.0420    23.3550     2.4040   -16.2200 
  181.0000    35.3380     4.8780     3.7050     4.0130    23.3880     2.4230   -16.1440 
  181.1250    35.4540     4.8410     3.6350     4.0350    23.4160     2.4390   -16.0780 
  181.2500    37.3430     4.7900     3.5660     4.0090    23.4490     2.4500   -16.0220 
  181.3750    39.0240     4.7030     3.4980     3.8790    23.4450     2.4510   -15.9560 
  181.5000    38.5990     4.5800     3.4340     3.7660    23.3750     2.4420   -15.8810 
  181.6250    37.3850     4.4540     3.3810     3.7400    23.2200     2.4220   -15.7990 
  181.7500    36.7400     4.3740     3.3500     3.7320    23.1010     2.3990   -15.7230 
  181.8750    36.0270     4.3830     3.3510     3.7000    23.0980     2.3780   -15.6510 
  182.0000    34.6480     4.4920     3.3930     3.7520    23.2400     2.3620   -15.5880 
  182.1250    33.2570     4.6820     3.4740     3.9850    23.4170     2.3560   -15.5430 
  182.2500    32.6070     4.8740     3.5680     4.2880    23.4870     2.3570   -15.4940 
  182.3750    33.4720     5.0070     3.6500     4.4900    23.4610     2.3630   -15.4450 
  182.5000    35.3310     5.0480     3.6990     4.4550    23.3840     2.3710   -15.3990 
  182.6250    36.7840     4.9900     3.7010     4.2540    23.2260     2.3770   -15.3430 
  182.7500    36.7680     4.8960     3.6730     3.9910    22.9300     2.3730   -15.2710 
  182.8750    36.7300     4.8080     3.6270     3.6880    22.4700     2.3550   -15.1990 
  183.0000    39.0580     4.7510     3.5760     3.4860    22.0540     2.3250   -15.1490 
  183.1250    42.1120     4.7300     3.5320     3.4320    22.1750     2.2940   -15.1200 
  183.2500    41.6190     4.7170     3.5000     3.5620    22.7840     2.2770   -15.1030 
  183.3750    38.5040     4.7010     3.4810     3.7400    23.3150     2.2760   -15.0950 
  183.5000    36.9450     4.6810     3.4750     3.8070    23.5490     2.2870   -15.0880 
  183.6250    38.0770     4.6800     3.4810     3.8150    23.5910     2.3050   -15.0990 
  183.7500    38.7220     4.7080     3.4940     3.8290    23.5990     2.3280   -15.1210 
  183.8750    37.9560     4.7620     3.5070     3.8630    23.5920     2.3570   -15.1310 
  184.0000    37.0050     4.8180     3.5140     3.8280    23.5300     2.3880   -15.1120 
  184.1250    36.5320     4.8350     3.5040     3.7420    23.3710     2.4100   -15.0830 
  184.2500    37.0070     4.7950     3.4750     3.7100    23.2640     2.4150   -15.0660 
  184.3750    39.1380     4.7170     3.4320     3.7420    23.2610     2.4060   -15.0730 
  184.5000    41.0820     4.6530     3.3990     3.7590    23.2550     2.3910   -15.1180 
  184.6250    41.8220     4.6910     3.4260     3.6780    23.1430     2.3760   -15.2280 
  184.7500    42.9520     4.8830     3.5500     3.6520    23.0060     2.3630   -15.4050 
  184.8750    46.8260     5.2560     3.7920     3.9980    23.0230     2.3510   -15.6550 
  185.0000    53.0260     5.7950     4.1480     5.1070    23.2640     2.3400   -15.9610 
  185.1250    59.3040     6.4230     4.5840     6.7670    23.5740     2.3250   -16.2770 
  185.2500    64.7700     6.9830     5.0090     7.2290    23.7690     2.3030   -16.6110 
  185.3750    68.6730     7.3820     5.3670     6.6430    23.7640     2.2810   -16.9540 
  185.5000    72.1720     7.6300     5.6480     6.5820    23.6190     2.2710   -17.2910 
  185.6250    76.5520     7.8630     5.9100     6.9310    23.4970     2.2870   -17.5860 
  185.7500    79.6290     8.2340     6.2360     7.4150    23.5140     2.3170   -17.8100 
  185.8750    81.0620     8.7700     6.6520     7.9980    23.5560     2.3480   -17.9520 
  186.0000    82.9670     9.3460     7.0950     8.6280    23.5040     2.3620   -18.0180 
  186.1250    86.8380     9.6270     7.3680     9.2500    23.3400     2.3530   -18.0040 
  186.2500    89.3670     9.3990     7.3160     9.2530    23.2120     2.3330   -17.9050 
  186.3750    88.1830     8.6500     6.9040     8.5470    23.2250     2.3160   -17.7000 
  186.5000    82.9960     7.5940     6.2340     7.3100    23.3220     2.3120   -17.3830 
  186.6250    74.0000     6.5640     5.4990     6.2780    23.3040     2.3310   -17.0100 
  186.7500    65.1030     5.7830     4.8720     5.0400    23.2440     2.3680   -16.6050 
  186.8750    57.3250     5.3050     4.4160     4.5370    23.2370     2.4130   -16.1990 
