~V
VERS. 2.00: Ver 2.00
~W
STRT.M 61.0000:
STOP.M 190.0000:
STEP.M 0.1250:
NULL. -999.2500:
UWI. F10559:
~C
DEPT.M :
SP.MV :
DEN.GM/CC :
GR.API :
RML.OHMM :
RI. :
RXO.OHMM :
CALI.CM :
~A
# ...
  117.2500   -10.3380     2.4270    52.5670    43.9430    44.1720    38.1730    25.7230 
  117.3750   -10.3010     2.4590    54.6910    44.5970    44.7080    37.4640    25.6010 
  117.5000   -10.2700     2.4940    55.6650    45.5310    45.7700    38.1780    25.5910 
  117.6250   -10.2770     2.5100    54.3930    46.0950    46.7520    44.8550    25.8100 
  117.7500   -10.3270     2.5000    53.8010    45.8380    46.9810    53.7600    26.0910 
  117.8750   -10.3780     2.4670    55.5370    44.6030    46.0410    51.0290    26.2560 
  118.0000   -10.3780     2.4250    57.5630    42.6080    44.0020    40.8000    26.2840 
  118.1250   -10.3730     2.3950    57.8010    40.4540    41.4570    36.6280    26.2310 
  118.2500   -10.3610     2.3960    57.5020    38.8510    39.2660    34.1080    26.1910 
  118.3750   -10.3240     2.4330    56.5900    38.2070    37.9160    31.6350    26.1210 
  118.5000   -10.3110     2.4970    54.5240    38.6690    37.6590    29.6470    26.0220 
  118.6250   -10.2590     2.5640    52.1530    40.2210    38.6560    30.0520    25.9540 
  118.7500   -10.1860     2.6110    51.9330    42.2230    40.4140    33.4970    25.9900 
  118.8750   -10.0990     2.6340    52.6830    44.0610    42.4390    35.8610    26.0940 
  119.0000   -10.0350     2.6420    52.1310    45.0910    44.0860    38.4550    26.2270 
  119.1250    -9.9530     2.6450    50.6840    44.5430    44.3560    44.3370    26.2580 
  119.2500    -9.8540     2.6450    51.2910    42.5190    42.9580    43.7070    26.1330 
  119.3750    -9.7700     2.6370    54.3970    39.3510    40.0730    36.0410    25.9230 
  119.5000    -9.6530     2.6170    56.8660    35.6480    36.3460    30.3620    25.7480 
  119.6250    -9.4980     2.5840    56.0240    32.1610    32.6370    26.3020    25.6740 
  119.7500    -9.3140     2.5450    55.0010    29.3610    29.5740    22.4340    25.6640 
  119.8750    -9.1640     2.5060    55.4600    27.4250    27.3980    20.0770    25.7160 
  120.0000    -8.9540     2.4790    56.3300    26.3240    26.0890    20.4650    25.8630 
  120.1250    -8.8440     2.4740    55.3410    25.9930    25.5700    21.2360    26.0790 
  120.2500    -8.7630     2.4900    53.3210    26.1070    25.5150    22.0800    26.2360 
  120.3750    -8.6570     2.5170    51.5160    26.4890    25.7570    22.2410    26.3120 
  120.5000    -8.5990     2.5340    50.1170    26.9980    26.1610    22.2360    26.3310 
  120.6250    -8.5450     2.5270    49.8630    27.5200    26.6400    21.4610    26.3200 
  120.7500    -8.5080     2.5000    50.8570    27.9730    27.1270    22.2830    26.2920 
  120.8750    -8.4510     2.4660    53.2910    28.3000    27.5610    24.8720    26.3010 
  121.0000    -8.3840     2.4370    56.4970    28.4500    27.8550    27.8600    26.3650 
  121.1250    -8.2910     2.4190    57.3440    28.3890    27.8970    26.9440    26.4050 
  121.2500    -8.2060     2.4090    55.9750    28.2080    27.7330    25.5420    26.3880 
  121.3750    -8.1300     2.4110    55.4170    27.9930    27.4350    25.1620    26.3400 
  121.5000    -8.0550     2.4300    55.0110    27.8000    27.0820    24.2860    26.3020 
  121.6250    -7.9960     2.4670    52.8340    27.6080    26.7110    24.2430    26.2730 
  121.7500    -7.9540     2.5130    51.1540    27.3280    26.2840    23.3670    26.2300 
  121.8750    -7.8820     2.5560    51.8380    26.8840    25.7190    23.0730    26.1690 
  122.0000    -7.8870     2.5860    53.5980    26.2630    24.9850    22.5940    26.1620 
  122.1250    -7.8530     2.5990    53.5850    25.5520    24.1580    22.0310    26.2670 
  122.2500    -7.7660     2.5970    53.3550    24.9300    23.4260    21.0580    26.3730 
  122.3750    -7.7190     2.5800    54.3070    24.5160    22.9230    19.8390    26.4250 
  122.5000    -7.6790     2.5540    57.6160    24.3500    22.7110    18.9020    26.4310 
  122.6250    -7.6100     2.5280    60.0450    24.3900    22.7890    19.3820    26.4250 
  122.7500    -7.5180     2.5130    58.8130    24.4650    22.9730    22.2440    26.4400 
  122.8750    -7.4760     2.5110    55.7490    24.4600    23.1120    24.2470    26.4710 
  123.0000    -7.3830     2.5150    54.9480    24.3230    23.1050    23.9180    26.4730 
  123.1250    -7.3650     2.5060    56.4850    24.0610    22.9170    22.6740    26.4490 
  123.2500    -7.4240     2.4740    57.6740    23.7600    22.6420    21.6420    26.5380 
  123.3750    -7.4220     2.4230    58.0740    23.4650    22.3510    21.7210    26.6980 
  123.5000    -7.4240     2.3680    56.2820    23.1740    22.0830    22.1530    26.8450 
  123.6250    -7.4490     2.3350    52.9480    22.8280    21.8060    22.6490    26.9200 
  123.7500    -7.4270     2.3360    51.4340    22.3580    21.4340    22.7040    26.8230 
  123.8750    -7.4150     2.3700    54.2110    21.7000    20.8810    20.7000    26.5730 
  124.0000    -7.4440     2.4250    59.6140    20.8180    20.0800    19.3850    26.3440 
  124.1250    -7.3880     2.4770    61.6770    19.6960    18.9690    19.5580    26.2140 
  124.2500    -7.3260     2.5090    59.5220    18.4720    17.6870    18.6870    26.1490 
  124.3750    -7.2590     2.5170    55.8910    17.2970    16.4090    16.3050    26.1300 
  124.5000    -7.1420     2.5060    54.2860    16.3160    15.3200    13.9320    26.1290 
  124.6250    -7.0540     2.4880    57.4740    15.6610    14.5870    12.6390    26.1980 
  124.7500    -6.9910     2.4760    62.1050    15.2510    14.1620    12.0720    26.2440 
  124.8750    -6.9170     2.4720    64.9980    14.9820    13.9510    11.9460    26.0470 
  125.0000    -6.8060     2.4700    64.1310    14.7300    13.8090    11.9680    25.5880 
  125.1250    -6.7440     2.4590    60.9630    14.3930    13.5770    11.5840    25.1920 
  125.2500    -6.6950     2.4380    58.4630    13.9880    13.2220    10.8710    25.0790 
  125.3750    -6.6770     2.4140    57.3940    13.5830    12.8020    10.2670    25.2400 
  125.5000    -6.7050     2.3960    58.1230    13.2550    12.4150    10.0210    25.5180 
  125.6250    -6.7020     2.3920    58.3440    13.0650    12.1590    10.2560    25.7730 
  125.7500    -6.7290     2.3960    55.9290    12.9710    12.0210    10.7730    25.9420 
  125.8750    -6.7710     2.4030    51.7280    12.9280    11.9540    11.6540    26.0810 
  126.0000    -6.8330     2.4100    48.9640    12.9150    11.9090    12.4200    26.2380 
  126.1250    -6.9020     2.4150    50.2460    12.9800    11.8900    12.2920    26.4830 
  126.2500    -6.9300     2.4210    52.5490    13.1890    11.9620    11.4140    26.6650 
  126.3750    -6.9240     2.4260    54.3810    13.5820    12.1940    10.8090    26.7310 
  126.5000    -6.9070     2.4300    57.9970    14.1130    12.6020    10.8660    26.7390 
  126.6250    -6.9020     2.4330    61.5940    14.6070    13.0870    11.6220    26.7200 
  126.7500    -6.8600     2.4340    60.9930    14.8500    13.4190    13.1090    26.6710 
  126.8750    -6.7930     2.4340    58.9420    14.7110    13.4040    14.7470    26.5860 
  127.0000    -6.7190     2.4340    59.6080    14.2030    12.9720    15.1540    26.4820 
  127.1250    -6.5240     2.4350    61.1590    13.5080    12.2340    12.8130    26.3510 
  127.2500    -6.3290     2.4400    59.0290    12.9580    11.5250    10.5480    26.2200 
  127.3750    -6.2000     2.4480    55.8710    12.7960    11.0800     9.9530    26.0590 
  127.5000    -6.0210     2.4540    56.5750    13.1900    11.0560    10.2420    25.8010 
  127.6250    -5.8930     2.4540    60.2430    14.3380    11.6440    11.0740    25.6250 
  127.7500    -5.7790     2.4440    63.5860    16.1030    12.7850    12.6360    25.5070 
  127.8750    -5.6600     2.4270    66.6150    18.3000    14.4090    14.7940    25.5230 
  128.0000    -5.5770     2.4090    69.5120    20.5800    16.3240    16.9720    25.6610 
  128.1250    -5.5320     2.3970    70.4940    22.3140    18.0900    19.9380    25.9430 
  128.2500    -5.4870     2.3960    67.7840    23.0720    19.1680    24.5160    26.2050 
  128.3750    -5.3760     2.4030    64.5270    22.6720    19.1970    27.1490    26.3320 
