~V
VERS. 2.00: Ver 2.00
~W
STRT.M 58.0000:
STOP.M 203.0000:
STEP.M 0.1250:
NULL. -999.2500:
UWI. F10566:
~C
DEPT.M :
GR.API :
RML.OHMM :
RI. :
RXO.OHMM :
CALI.CM :
SP.MV :
DEN.GM/CC :
~A
# ...
  159.2500    60.6960    59.8660    55.1420    51.3990    25.0910   -18.1180     2.2110 
  159.3750    64.5920    67.1720    61.3870    57.4900    25.1220   -18.3150     2.2020 
  159.5000    66.9660    73.9180    67.0330    60.4560    25.1140   -18.5030     2.1930 
  159.6250    65.5020    77.8980    70.3160    65.2440    25.0780   -18.5920     2.1860 
  159.7500    63.5440    77.9380    70.3970    64.5370    25.0120   -18.6540     2.1900 
  159.8750    62.5910    73.7100    66.9860    51.0500    24.8960   -18.7090     2.2080 
  160.0000    62.2360    66.2640    60.7750    34.4980    24.6970   -18.7410     2.2360 
  160.1250    61.9770    57.8520    53.4010    28.5770    24.5100   -18.6900     2.2560 
  160.2500    60.6030    50.9580    47.0440    25.8390    24.2460   -18.6030     2.2630 
  160.3750    59.0690    46.8830    43.0330    21.9230    23.8530   -18.4410     2.2640 
  160.5000    59.6620    46.1960    42.0960    19.1800    23.5550   -18.2460     2.2810 
  160.6250    61.9310    49.2270    44.7160    22.3260    23.5240   -18.1480     2.3280 
  160.7500    63.0780    54.1940    49.3070    25.6430    23.6310   -18.0130     2.3920 
  160.8750    62.5080    58.7940    53.8900    30.9790    23.8490   -17.8710     2.4470 
  161.0000    62.8540    60.0070    55.9110    41.7270    24.1310   -17.6510     2.4710 
  161.1250    64.6920    54.6720    52.4350    54.8070    24.2920   -17.5050     2.4540 
  161.2500    64.4570    44.7440    44.4780    41.4490    24.3410   -17.2940     2.4140 
  161.3750    63.0020    33.2900    34.3110    28.5110    24.3580   -17.1110     2.3680 
  161.5000    64.0190    23.0870    24.5350    30.1260    24.3530   -16.9280     2.3280 
  161.6250    69.1810    15.8710    17.1720    27.7890    24.2860   -16.7660     2.3030 
  161.7500    70.6890    11.0990    12.1160    17.0860    24.1760   -16.6210     2.2910 
  161.8750    65.7660     8.2070     8.9320     7.4550    24.0780   -16.4840     2.2860 
  162.0000    63.5680     6.6460     7.0930     4.6580    24.0340   -16.4890     2.2860 
  162.1250    73.5700     6.0880     6.2860     5.3130    24.0460   -16.5000     2.2900 
  162.2500    88.1180     6.0640     6.0780     5.5610    24.1330   -16.6350     2.2980 
  162.3750    98.5230     6.3900     6.3070     6.3500    24.3350   -16.8040     2.3100 
  162.5000   102.9720     6.9090     6.8300     7.4540    24.6050   -17.0010     2.3240 
  162.6250   103.6870     7.5040     7.5000     7.9430    24.7440   -17.2280     2.3370 
  162.7500   104.0230     8.0380     8.1450     8.0810    24.7920   -17.4730     2.3460 
  162.8750   103.7020     8.6260     8.6730     8.2380    24.8110   -17.7520     2.3480 
  163.0000   102.0960     9.1080     9.0410     8.4570    24.8420   -17.9720     2.3420 
  163.1250    99.2590     9.4110     9.2230     8.7380    24.8980   -18.2330     2.3320 
  163.2500    98.5270     9.4720     9.2670     8.9390    24.9590   -18.4660     2.3230 
  163.3750   102.1500     9.3510     9.1950     9.0510    25.0460   -18.7130     2.3210 
  163.5000   106.6840     9.0960     9.0250     8.9780    25.1030   -18.9420     2.3280 
  163.6250   107.4460     8.8400     8.7710     8.8990    25.0720   -19.1500     2.3430 
  163.7500   105.9410     8.7680     8.4880     8.8010    25.0050   -19.3180     2.3590 
  163.8750   105.3340     8.7840     8.2280     8.6390    24.9480   -19.4640     2.3720 
  164.0000   106.7860     8.8620     8.0600     8.5060    24.9220   -19.5920     2.3780 
  164.1250   106.8760     9.1360     8.1300     8.4770    24.9170   -19.6950     2.3750 
  164.2500   106.0120     9.7800     8.5640     8.7860    24.9190   -19.7710     2.3660 
  164.3750   104.3060    11.0390     9.5640    10.2190    24.9370   -19.8460     2.3560 
  164.5000    98.4100    13.1170    11.4160    12.8050    24.9850   -19.9950     2.3460 
  164.6250    88.3310    16.5220    14.7560    18.6620    25.0400   -20.1460     2.3350 
  164.7500    78.1720    21.4980    19.7840    26.3530    25.0890   -20.3660     2.3220 
  164.8750    69.6010    28.5120    26.5930    38.0130    25.1250   -20.5990     2.3060 
  165.0000    63.9200    37.1460    34.7220    37.1440    25.1730   -20.8920     2.2900 
  165.1250    63.1580    46.0440    42.9040    43.0170    25.2250   -21.0980     2.2750 
  165.2500    64.9390    53.5900    49.7520    43.1420    25.2640   -21.2810     2.2650 
  165.3750    64.1470    59.1860    54.8040    41.1760    25.2770   -21.4030     2.2580 
  165.5000    60.8390    63.3560    58.5530    42.5570    25.2850   -21.5150     2.2550 
  165.6250    60.1680    67.4410    62.1860    50.0650    25.2940   -21.5670     2.2520 
  165.7500    62.0360    72.4580    66.6730    55.4790    25.2940   -21.6060     2.2470 
  165.8750    62.5860    78.3500    72.0970    57.9250    25.2810   -21.6040     2.2390 
  166.0000    60.8310    84.1530    77.7860    64.4540    25.2670   -21.5880     2.2310 
  166.1250    60.6010    87.8300    82.1810    74.9360    25.2500   -21.5880     2.2260 
  166.2500    62.8760    88.2700    84.1440    82.2390    25.2280   -21.5560     2.2250 
  166.3750    64.4520    85.2840    83.1360    82.0650    25.2180   -21.5510     2.2260 
  166.5000    64.9380    80.0480    79.4360    68.5690    25.2170   -21.4140     2.2270 
  166.6250    64.5030    74.5220    74.0450    55.7660    25.2090   -21.2360     2.2270 
  166.7500    62.8410    70.3230    68.8790    52.0550    25.1880   -20.9610     2.2280 
  166.8750    61.7650    67.5700    65.2300    53.7760    25.1670   -20.6450     2.2290 
  167.0000    63.5650    66.7990    63.7990    45.7060    25.1550   -20.2060     2.2260 
  167.1250    64.7990    67.8650    64.5310    42.4930    25.1430   -19.7960     2.2170 
  167.2500    60.8800    68.5730    65.4950    48.1240    25.1200   -19.2990     2.2080 
  167.3750    56.2570    66.5960    64.6280    62.5340    25.0950   -18.7680     2.2090 
  167.5000    56.9610    60.3450    60.2690    76.1600    25.0650   -18.1640     2.2270 
  167.6250    64.0290    49.9710    51.7940    59.3830    25.0240   -17.6120     2.2600 
  167.7500    71.4350    38.8900    41.7420    34.1680    24.9920   -17.0840     2.2920 
  167.8750    75.6380    29.4690    32.3510    20.7040    24.9720   -16.5760     2.3130 
  168.0000    77.6510    22.7950    25.1010    14.8600    24.9310   -16.0670     2.3250 
  168.1250    79.5610    19.1760    20.7780    11.4390    24.8310   -15.5000     2.3380 
  168.2500    80.2480    17.4670    18.4950    10.0050    24.7360   -14.9870     2.3590 
  168.3750    78.3830    16.9160    17.5380    11.3110    24.6760   -14.4810     2.3850 
  168.5000    75.5310    16.7240    17.0980    14.8070    24.6100   -14.0440     2.4080 
  168.6250    74.0810    16.0110    16.2690    17.1910    24.4790   -13.6230     2.4160 
  168.7500    72.2100    14.4700    14.6810    15.2210    24.3570   -13.2340     2.4070 
  168.8750    69.9160    12.2870    12.5000    11.5840    24.2650   -12.8720     2.3880 
  169.0000    66.7260     9.9280    10.1960     7.3010    24.2220   -12.5980     2.3650 
  169.1250    61.1040     8.1260     8.3110     7.1330    24.2130   -12.4190     2.3460 
  169.2500    54.5060     6.9320     6.9750     5.9230    24.2160   -12.3230     2.3360 
  169.3750    50.0490     6.2590     6.1420     5.5640    24.2180   -12.2890     2.3340 
  169.5000    50.3170     5.9660     5.6860     5.4570    24.2220   -12.3140     2.3380 
  169.6250    52.2790     5.9550     5.5070     5.4090    24.2430   -12.4100     2.3410 
  169.7500    52.7040     6.0660     5.4620     5.3800    24.3090   -12.5430     2.3430 
  169.8750    52.5530     6.2250     5.4950     5.3860    24.4290   -12.7650     2.3450 
  170.0000    53.9520     6.3860     5.5710     5.4420    24.5670   -13.0370     2.3520 
  170.1250    55.7730     6.5270     5.6760     5.7580    24.6390   -13.3530     2.3640 
  170.2500    56.0030     6.6440     5.7930     6.3430    24.6190   -13.7190     2.3730 
  170.3750    55.6570     6.7440     5.9160     6.5570    24.5290   -14.1060     2.3730 
