~V
VERS. 2.00: Ver 2.00
~W
STRT.M 50.0000:
STOP.M 222.0000:
STEP.M 0.1250:
NULL. -999.2500:
UWI. F10580:
~C
DEPT.M :
DEN.GM/CC :
SP.MV :
GR.API :
RML.OHMM :
RI. :
RXO.OHMM :
CALI.CM :
~A
# ...
  207.5000     2.3680   -12.6340    63.0290     7.0530     5.5490     6.3140    24.8620 
  207.6250     2.3410   -12.6360    64.5140     6.9920     5.5130     6.2410    24.8620 
  207.7500     2.3010   -12.6430    63.5450     6.8840     5.4340     5.8980    24.8620 
  207.8750     2.2710   -12.6510    62.5120     6.7780     5.3400     5.3610    24.8620 
  208.0000     2.2750   -12.6650    61.9410     6.7270     5.2690     5.0500    24.8620 
  208.1250     2.3120   -12.7000    61.0060     6.7700     5.2620     5.1720    24.8620 
  208.2500     2.3500   -12.7590    61.1390     6.8800     5.3180     5.4010    24.8620 
  208.3750     2.3620   -12.8460    62.6090     7.0100     5.4090     5.7300    24.8620 
  208.5000     2.3400   -12.9520    63.4290     7.0890     5.4850     6.0270    24.8620 
  208.6250     2.2980   -13.0630    63.1970     7.0150     5.4670     5.9080    24.8620 
  208.7500     2.2630   -13.1960    64.6170     6.7840     5.3350     5.4760    24.8620 
  208.8750     2.2440   -13.3470    66.6080     6.4650     5.1320     5.0150    24.8610 
  209.0000     2.2380   -13.5310    68.7660     6.1930     4.9440     4.7260    24.8520 
  209.1250     2.2410   -13.7360    72.6440     6.1580     4.9090     4.8420    24.8280 
  209.2500     2.2550   -13.9220    78.0900     6.4110     5.0790     5.8150    24.7990 
  209.3750     2.2780   -14.0720    82.0430     6.9110     5.4420     7.9800    24.8010 
  209.5000     2.2940   -14.1970    83.0990     7.5020     5.9000     9.5650    24.8540 
  209.6250     2.2800   -14.2930    82.1810     7.8960     6.2400     8.9800    24.9910 
  209.7500     2.2300   -14.3160    81.0430     7.9280     6.3040     7.6080    25.2220 
  209.8750     2.1550   -14.2610    79.8340     7.6050     6.0620     6.0400    25.7510 
  210.0000     2.0820   -14.0990    77.8160     7.0830     5.6150     5.0850    26.6280 
  210.1250     2.0370   -13.6370    75.5020     6.5770     5.1420     4.7290    27.3000 
  210.2500     2.0060   -12.9180    75.3590     6.2160     4.7840     4.5860    27.3790 
  210.3750     1.9830   -12.3780    77.8370     6.0460     4.5990     4.4770    27.4770 
  210.5000     1.9830   -12.1950    81.0190     6.0910     4.6140     4.3920    27.5210 
  210.6250     2.0350   -12.1200    81.4990     6.4330     4.8830     4.6850    26.7290 
  210.7500     2.1260   -12.0910    80.8630     7.0510     5.3840     5.5380    25.9220 
  210.8750     2.2240   -12.0800    80.8390     7.8880     6.0860     7.0790    25.3490 
  211.0000     2.2890   -12.1030    81.3080     8.7690     6.8770     8.8200    25.1240 
  211.1250     2.3000   -12.3230    80.6760     9.3260     7.4780     9.5040    25.0960 
  211.2500     2.2740   -12.7290    79.2880     9.3500     7.6640     9.2810    25.1330 
  211.3750     2.2210   -12.9380    79.3350     8.8550     7.3750     7.9270    25.4890 
  211.5000     2.1510   -12.7750    80.9970     8.0780     6.7530     5.8160    26.5590 
  211.6250     2.0940   -12.4820    81.5380     7.3550     6.0560     4.7210    28.3670 
  211.7500     2.0610   -12.1830    81.5380     6.8500     5.4850     4.4710    29.3020 
  211.8750     2.0460   -11.8840    81.5380     6.5610     5.0910     4.6310    29.4140 
  212.0000     2.0430   -11.5910    81.5380     6.4180     4.8520     4.5880    29.2150 
  212.1250     2.0480   -11.3310    81.5380     6.3290     4.7150     4.3270    28.6110 
  212.2500     2.0420   -11.1210    81.5380     6.2170     4.6040     4.0580    27.8190 
  212.3750     1.9970   -10.9420    81.5380     6.0730     4.4910     3.9640    27.9470 
  212.5000     1.9180   -10.7970    81.5380     5.9280     4.3890     3.9400    29.5270 
  212.6250     1.8680   -10.6800    81.5380     5.8390     4.3350     3.8820    31.5200 
  212.7500     1.8740   -10.5590    81.5380     5.8300     4.3450     3.9020    32.5320 
  212.8750     1.9270   -10.4750    81.5380     5.8960     4.4090     3.8770    32.1950 
  213.0000     1.9960   -10.4130    81.5380     6.0010     4.4970     3.7900    31.0750 
  213.1250     2.0430   -10.3500    81.5380     6.0750     4.5580     3.9140    30.4230 
  213.2500     2.0540   -10.2780    81.5380     6.0660     4.5570     3.9200    30.0800 
  213.3750     2.0420   -10.1970    81.5380     5.9680     4.4830     3.7160    29.8080 
  213.5000     2.0400   -10.1070    81.5380     5.8120     4.3520     3.4580    29.7070 
  213.6250     2.0650   -10.0340    81.5380     5.6640     4.2010     3.3890    30.0430 
  213.7500     2.0870    -9.9610    81.5380     5.5760     4.0780     3.3630    30.9090 
  213.8750     2.0780    -9.8740    81.5380     5.5660     4.0130     3.3550    32.1510 
  214.0000     2.0570    -9.8140    81.5380     5.6300     4.0180     3.4090    32.8830 
  214.1250     2.0610    -9.7730    81.5380     5.7430     4.0900     3.7380    32.4050 
  214.2500     2.0750    -9.7590    81.5380     5.8510     4.1850     4.1100    31.5700 
  214.3750     2.0770    -9.7640    81.5380     5.9200     4.2760     4.3610    31.2710 
  214.5000     2.0650    -9.7840    81.5380     5.9440     4.3500     4.5010    31.3400 
  214.6250     2.0600    -9.8390    81.5380     5.9580     4.4180     4.4370    31.1400 
  214.7500     2.0830    -9.9120    81.5380     6.0180     4.5080     4.2660    30.2120 
  214.8750     2.1430   -10.0080    81.5380     6.1610     4.6450     4.3330    28.6820 
  215.0000     2.2200   -10.1070    81.5380     6.3840     4.8310     4.5740    26.6830 
  215.1250     2.2440   -10.2290    81.5380     6.6380     5.0330     4.9240    25.7920 
  215.2500     2.1970   -10.3450    81.5380     6.8460     5.1950     5.1860    26.0000 
  215.3750     2.1280   -10.4480    81.5380     6.9620     5.2820     5.0900    26.7560 
  215.5000     2.0750   -10.5220    81.5380     6.9720     5.2920     4.6300    27.4680 
  215.6250     2.0270   -10.5670    81.5380     6.8930     5.2520     4.0720    28.3820 
  215.7500     1.9940   -10.5930    81.5380     6.8060     5.2110     3.7790    29.7240 
  215.8750     2.0040   -10.6000    81.5380     6.7610     5.1880     3.7230    30.4400 
  216.0000     2.0610   -10.5900    81.5380     6.7640     5.1810     3.8730    29.7960 
  216.1250     2.1380   -10.5440    81.5380     6.7820     5.1810     4.3020    27.9920 
  216.2500     2.2070   -10.5010    81.5380     6.7780     5.1830     4.8570    26.4230 
  216.3750     2.2680   -10.4630    81.5380     6.7470     5.1820     5.2970    25.2770 
  216.5000     2.3200   -10.4250    81.5380     6.7110     5.1780     5.5590    24.6720 
  216.6250     2.3490   -10.3700    81.5380     6.6950     5.1720     5.6320    24.4530 
  216.7500     2.3600   -10.3090    81.5380     6.7000     5.1680     5.8760    24.2940 
  216.8750     2.3660   -10.2340    81.5380     6.7180     5.1680     6.1980    24.1340 
  217.0000     2.3730   -10.1620    81.5380     6.7380     5.1710     6.4610    23.9720 
  217.1250     2.3790   -10.1000    81.5380     6.7520     5.1730     6.5930    23.8850 
  217.2500     2.3740   -10.0250    81.5380     6.7570     5.1720     6.6450    23.8160 
  217.3750     2.3490    -9.9410    81.5380     6.7570     5.1720     6.6670    23.7880 
  217.5000     2.2990    -9.8820    81.5380     6.7510     5.1720     6.5340    23.6310 
  217.6250     2.2210    -9.8330    81.5380     6.7510     5.1720     5.9370    23.5230 
  217.7500     2.1160    -9.7780    81.5380     6.7510     5.1720     5.0470    23.4530 
  217.8750     1.9790    -9.7370    81.5380     6.7510     5.1720     4.3710    23.3980 
  218.0000     1.8410    -9.6920    81.5380     6.7510     5.1720     4.1710    22.9760 
  218.1250     1.7570    -9.6760    81.5380     6.7510     5.1720     4.1440    21.5780 
  218.2500     1.7300    -9.6620    81.5380     6.7510     5.1720     4.1220    19.5700 
  218.3750     1.7380    -9.6800    81.5380     6.7510     5.1720     4.2000    18.1910 
  218.5000     1.7570    -9.6800    81.5380     6.7510     5.1720     4.4920    17.5570 
  218.6250     1.7710    -9.6730    81.5380     6.7510     5.1720     4.7310    17.3750 
