~V
VERS. 2.00: Ver 2.00
~W
STRT.M 52.0000:
STOP.M 224.0000:
STEP.M 0.1250:
NULL. -999.2500:
UWI. F10595:
~C
DEPT.M :
GR.API :
RML.OHMM :
RI. :
RXO.OHMM :
CALI.CM :
DEN.GM/CC :
SP.MV :
~A
# ...
  164.5000    56.7980    35.7760    30.6420    34.6320    23.6570     2.2030    -5.2580 
  164.6250    53.6880    36.1930    31.2040    37.4470    23.5330     2.2200    -5.1880 
  164.7500    51.1290    35.5370    30.9530    39.1550    23.2810     2.2380    -5.1330 
  164.8750    51.9870    33.9280    29.9000    37.4550    23.0820     2.2480    -5.0980 
  165.0000    57.1950    31.7190    28.2420    33.0570    22.9920     2.2500    -5.0850 
  165.1250    63.1890    29.4290    26.3520    30.4760    23.0360     2.2480    -5.0940 
  165.2500    64.5570    27.6340    24.6960    28.2340    23.2640     2.2480    -5.1220 
  165.3750    62.5060    26.5220    23.5310    26.8370    23.4930     2.2560    -5.1610 
  165.5000    61.6070    26.1270    22.9610    25.3800    23.5700     2.2690    -5.2060 
  165.6250    62.0510    26.3750    22.9770    25.8920    23.5720     2.2770    -5.2560 
  165.7500    60.0350    27.1460    23.5250    28.6330    23.6310     2.2700    -5.3100 
  165.8750    56.7250    28.1000    24.3150    30.3240    23.6680     2.2510    -5.3640 
  166.0000    54.2060    28.9690    25.1400    31.1440    23.6870     2.2300    -5.4160 
  166.1250    53.8150    29.5280    25.8210    32.1460    23.7040     2.2170    -5.4650 
  166.2500    56.7350    29.6990    26.2490    32.8390    23.7110     2.2160    -5.5070 
  166.3750    59.8520    29.7950    26.5780    32.2750    23.7070     2.2270    -5.5350 
  166.5000    58.3890    30.1070    27.0080    31.4330    23.7070     2.2480    -5.5400 
  166.6250    52.9360    30.7220    27.6490    31.6320    23.7230     2.2740    -5.5120 
  166.7500    50.3880    31.3800    28.3850    32.7900    23.7240     2.2970    -5.4400 
  166.8750    50.8110    31.6770    28.8990    34.8520    23.7160     2.3060    -5.3330 
  167.0000    51.3790    31.3920    28.9480    37.8320    23.7180     2.3010    -5.1950 
  167.1250    52.0070    30.5390    28.4460    38.9370    23.7160     2.2870    -5.0280 
  167.2500    54.3480    29.2650    27.4280    34.3900    23.6990     2.2780    -4.8320 
  167.3750    55.9990    27.8110    26.1590    29.6840    23.6920     2.2800    -4.6220 
  167.5000    55.8190    26.2360    24.7590    29.6750    23.6800     2.2890    -4.4120 
  167.6250    55.8850    24.5600    23.2860    29.4940    23.6550     2.2990    -4.2170 
  167.7500    57.6950    22.8540    21.7860    26.4950    23.6160     2.3030    -4.0560 
  167.8750    61.0380    21.2690    20.3500    22.9010    23.5960     2.3030    -3.9320 
  168.0000    64.1180    19.9550    19.1030    20.7950    23.5760     2.3030    -3.8450 
  168.1250    63.9230    19.0470    18.1840    20.1570    23.5210     2.3030    -3.8020 
  168.2500    60.7670    18.6920    17.7570    20.1080    23.4370     2.2950    -3.8150 
  168.3750    58.7870    18.7550    17.7260    20.1420    23.4080     2.2740    -3.8730 
  168.5000    58.8500    19.0970    17.9740    20.8280    23.4920     2.2460    -3.9690 
  168.6250    58.9230    19.5400    18.3410    22.7450    23.6140     2.2200    -4.0920 
  168.7500    58.7580    19.8740    18.6480    23.3690    23.6620     2.2050    -4.2290 
  168.8750    59.3290    19.9970    18.7960    22.5800    23.6520     2.2030    -4.3660 
  169.0000    60.7610    19.9110    18.7620    22.1290    23.6170     2.2080    -4.4990 
  169.1250    62.5130    19.7610    18.6230    22.4210    23.6390     2.2170    -4.6240 
  169.2500    63.8920    19.8920    18.6180    24.0110    23.6590     2.2250    -4.7370 
  169.3750    63.9140    20.5850    18.9980    24.3120    23.6710     2.2270    -4.8340 
  169.5000    63.6200    22.0430    19.9630    24.1790    23.6740     2.2220    -4.9120 
  169.6250    64.9530    24.3490    21.6360    24.9220    23.6850     2.2110    -4.9670 
  169.7500    65.4650    27.4680    24.0960    30.7190    23.7120     2.1990    -4.9980 
  169.8750    61.7960    30.7950    26.9150    38.7340    23.7280     2.1940    -5.0140 
  170.0000    56.3520    33.6620    29.5730    42.4940    23.7270     2.1950    -5.0150 
  170.1250    54.0330    35.4560    31.5050    42.9340    23.7200     2.2010    -5.0020 
  170.2500    54.8340    35.7670    32.2340    40.9090    23.7340     2.2100    -4.9710 
  170.3750    55.0680    35.2430    32.1610    40.0600    23.7370     2.2170    -4.9300 
  170.5000    54.1040    34.5100    31.7750    39.5850    23.7310     2.2220    -4.8880 
  170.6250    53.0630    34.0630    31.4960    38.9110    23.7150     2.2210    -4.8550 
  170.7500    53.2170    34.2510    31.6310    38.4350    23.7100     2.2130    -4.8400 
  170.8750    55.9030    34.9930    32.2030    38.6240    23.7140     2.2030    -4.8450 
  171.0000    59.3640    36.0620    33.1380    39.0540    23.7300     2.2010    -4.8710 
  171.1250    59.3500    36.9660    34.1180    39.1250    23.7410     2.2160    -4.9230 
  171.2500    55.6230    36.7430    34.3300    39.4560    23.7330     2.2440    -5.0030 
  171.3750    53.0410    34.8410    33.0720    40.0040    23.7120     2.2680    -5.1000 
  171.5000    54.6280    31.1540    30.0340    37.6710    23.6950     2.2780    -5.2080 
  171.6250    58.7490    26.3250    25.7060    30.5990    23.6940     2.2740    -5.3170 
  171.7500    62.3920    21.6390    21.3080    22.0090    23.6890     2.2640    -5.4200 
  171.8750    64.0220    18.0640    17.8330    17.7350    23.6830     2.2600    -5.5130 
  172.0000    64.6070    15.9350    15.5910    15.1770    23.6780     2.2610    -5.5910 
  172.1250    66.9260    15.2730    14.5960    14.4580    23.6740     2.2630    -5.6510 
  172.2500    69.8850    16.1540    14.9470    16.3220    23.6710     2.2570    -5.6900 
  172.3750    69.3060    18.1340    16.3480    20.0180    23.6710     2.2430    -5.7120 
  172.5000    63.8870    20.9670    18.6630    23.0020    23.6700     2.2230    -5.7140 
  172.6250    57.1290    24.3350    21.6620    25.3250    23.6500     2.2020    -5.7000 
  172.7500    55.5680    27.7350    24.9340    29.2780    23.5840     2.1890    -5.6780 
  172.8750    58.5040    30.6190    27.9130    33.0610    23.5230     2.1880    -5.6520 
  173.0000    62.5290    32.6770    30.2550    35.5750    23.5400     2.1970    -5.6200 
  173.1250    63.0810    33.8480    31.8150    37.1550    23.6030     2.2060    -5.5870 
  173.2500    59.4160    34.1770    32.4960    38.0920    23.6420     2.2040    -5.5650 
  173.3750    57.1550    34.0780    32.5880    37.9970    23.6330     2.1920    -5.5660 
  173.5000    58.4160    33.7820    32.2870    37.1080    23.5570     2.1850    -5.6040 
  173.6250    60.9230    33.3710    31.7310    36.1950    23.4830     2.2090    -5.6850 
  173.7500    60.0680    32.7940    30.9520    35.4600    23.4820     2.2870    -5.8120 
  173.8750    56.5930    32.1190    30.0730    34.4060    23.4950     2.3850    -5.9760 
  174.0000    53.0990    31.4860    29.2460    32.7460    23.4040     2.4470    -6.1810 
  174.1250    51.0770    31.0720    28.6470    31.3480    23.2420     2.4380    -6.4230 
  174.2500    52.3570    31.0980    28.4840    29.8200    23.2840     2.3670    -6.7000 
  174.3750    55.0840    31.5200    28.7200    31.8760    23.4510     2.2900    -6.9960 
  174.5000    56.9210    32.2080    29.2480    34.2910    23.5860     2.2330    -7.3040 
  174.6250    57.5570    32.9620    29.8950    35.5290    23.6260     2.2040    -7.6120 
  174.7500    57.7410    33.5780    30.4630    34.8550    23.6000     2.1950    -7.9030 
  174.8750    58.1150    34.0290    30.8730    33.3700    23.5420     2.1990    -8.1640 
  175.0000    57.3180    34.4120    31.1580    32.1820    23.4420     2.2110    -8.3870 
  175.1250    56.9700    34.8830    31.4300    32.7050    23.3860     2.2260    -8.5650 
  175.2500    59.0180    35.5750    31.8320    34.3520    23.3960     2.2330    -8.6890 
  175.3750    60.9530    36.4160    32.3670    35.8110    23.4900     2.2250    -8.7660 
  175.5000    60.6010    37.3310    32.9910    37.2260    23.6010     2.2060    -8.7880 
  175.6250    58.6590    38.2500    33.6460    38.4190    23.6510     2.1880    -8.7570 
