~V
VERS. 2.00: Ver 2.00
~W
STRT.M 52.0000:
STOP.M 224.0000:
STEP.M 0.1250:
NULL. -999.2500:
UWI. F10595:
~C
DEPT.M :
GR.API :
RML.OHMM :
RI. :
RXO.OHMM :
CALI.CM :
DEN.GM/CC :
SP.MV :
~A
# ...
  153.2500    49.5730    16.4630    13.6630    14.4480    22.3440     2.4660    -1.9540 
  153.3750    54.0000    16.7240    13.7930    15.0100    22.5940     2.4750    -1.9210 
  153.5000    53.6730    16.9920    13.9780    16.2420    23.0150     2.4660    -1.9270 
  153.6250    50.4760    17.1950    14.1540    17.0670    23.4240     2.4460    -1.9700 
  153.7500    46.9740    17.2880    14.2350    17.2120    23.7330     2.4260    -2.0510 
  153.8750    42.8310    17.2990    14.2030    17.5780    23.9300     2.4100    -2.1600 
  154.0000    39.1680    17.2230    14.0630    18.0520    24.0450     2.3930    -2.2890 
  154.1250    38.2010    17.0240    13.8400    17.7540    24.0770     2.3800    -2.4300 
  154.2500    39.9990    16.6510    13.5620    17.3750    24.0270     2.3820    -2.5750 
  154.3750    42.6320    16.1790    13.2820    17.7940    23.8970     2.4030    -2.7150 
  154.5000    46.0650    15.7330    13.0470    17.5380    23.6890     2.4340    -2.8420 
  154.6250    48.3580    15.4570    12.9160    16.4990    23.4560     2.4580    -2.9500 
  154.7500    47.0790    15.3840    12.9180    15.2930    23.4900     2.4580    -3.0310 
  154.8750    45.3100    15.2360    12.9050    15.0370    23.6910     2.4390    -3.0890 
  155.0000    46.4070    14.7030    12.6620    15.2560    23.8700     2.4130    -3.1280 
  155.1250    50.1160    13.6040    12.0040    15.7120    23.9010     2.3890    -3.1480 
  155.2500    54.1630    11.9960    10.8680    14.0560    23.8650     2.3740    -3.1480 
  155.3750    58.8130    10.3310     9.5600    10.7370    23.7970     2.3700    -3.1390 
  155.5000    62.8540     8.9180     8.3410     8.0140    23.7380     2.3740    -3.1320 
  155.6250    64.7250     7.8950     7.3820     7.0460    23.6890     2.3800    -3.1380 
  155.7500    65.9960     7.2980     6.7750     7.1650    23.6840     2.3760    -3.1710 
  155.8750    69.0350     6.9700     6.4210     7.3040    23.7050     2.3630    -3.2320 
  156.0000    73.4420     6.8200     6.2460     7.3390    23.7420     2.3470    -3.3220 
  156.1250    76.5630     6.7640     6.1610     7.3290    23.7850     2.3360    -3.4390 
  156.2500    77.0600     6.7530     6.1050     7.0360    23.7970     2.3330    -3.5880 
  156.3750    75.4510     6.7900     6.0740     7.0040    23.7780     2.3360    -3.7540 
  156.5000    74.1760     6.9120     6.1000     7.0470    23.7570     2.3490    -3.9290 
  156.6250    76.8730     7.1410     6.2110     6.9780    23.7490     2.3710    -4.1030 
  156.7500    81.8770     7.4630     6.4100     7.3800    23.7600     2.3940    -4.2650 
  156.8750    82.7990     7.7820     6.6340     8.5730    23.7850     2.4050    -4.4120 
  157.0000    77.3410     8.0180     6.8200     9.5930    23.8230     2.3950    -4.5380 
  157.1250    69.5840     8.1450     6.9340     9.3620    23.8710     2.3660    -4.6430 
  157.2500    67.1190     8.2320     6.9990     9.0950    23.9180     2.3360    -4.7260 
  157.3750    69.3880     8.4160     7.1040     9.0480    23.9200     2.3230    -4.7880 
  157.5000    71.9700     8.8090     7.3320     9.5470    23.8920     2.3320    -4.8270 
  157.6250    72.0730     9.4910     7.7580    10.0960    23.8610     2.3590    -4.8390 
  157.7500    71.6510    10.5300     8.4750    11.6470    23.8290     2.3930    -4.8120 
  157.8750    72.0170    11.8080     9.4280    13.2720    23.8000     2.4190    -4.7470 
  158.0000    72.0710    13.1930    10.5380    14.7480    23.7530     2.4240    -4.6460 
  158.1250    71.7020    14.4990    11.6710    17.3210    23.6940     2.4050    -4.5160 
  158.2500    70.6700    15.4440    12.6040    18.8230    23.6680     2.3620    -4.3550 
  158.3750    68.5920    15.8860    13.1810    19.5680    23.6630     2.3120    -4.1740 
  158.5000    66.7620    15.7600    13.3150    18.5240    23.6680     2.2700    -3.9830 
  158.6250    67.4120    15.1330    13.0300    17.0720    23.6720     2.2470    -3.7920 
  158.7500    69.4430    14.2320    12.4600    15.4280    23.6760     2.2440    -3.6190 
  158.8750    71.5040    13.4640    11.9010    14.3610    23.6770     2.2550    -3.4720 
  159.0000    71.9510    13.0730    11.5420    13.6850    23.6760     2.2780    -3.3590 
  159.1250    70.6910    13.1360    11.4720    12.9810    23.6720     2.3130    -3.2890 
  159.2500    68.8280    13.5940    11.7040    13.7030    23.6680     2.3460    -3.2750 
  159.3750    67.0170    14.1330    12.0570    15.3030    23.6450     2.3630    -3.3150 
  159.5000    65.2470    14.5090    12.3590    16.7020    23.5870     2.3560    -3.4120 
  159.6250    64.4040    14.5790    12.4810    15.8750    23.5160     2.3240    -3.5610 
  159.7500    66.3950    14.3420    12.3750    14.3550    23.5950     2.2810    -3.7640 
  159.8750    68.7540    13.9930    12.1530    14.0710    23.6430     2.2470    -4.0030 
  160.0000    68.9670    13.6690    11.9070    14.3130    23.6630     2.2340    -4.2670 
  160.1250    67.7270    13.4990    11.7380    14.3500    23.6690     2.2460    -4.5420 
  160.2500    67.2260    13.6720    11.7940    15.6470    23.6530     2.2870    -4.8090 
  160.3750    67.5340    14.2790    12.1450    16.2000    23.5870     2.3390    -5.0590 
  160.5000    68.0650    15.4400    12.8720    15.7840    23.4630     2.3790    -5.2810 
  160.6250    67.3720    17.1880    14.0260    17.1210    23.3440     2.3900    -5.4700 
  160.7500    64.0820    19.3610    15.5940    22.4310    23.3480     2.3700    -5.6160 
  160.8750    60.5530    21.4190    17.2490    25.5600    23.4660     2.3360    -5.7180 
  161.0000    58.2340    22.9030    18.6400    26.3390    23.5970     2.3020    -5.7700 
  161.1250    56.5500    23.5670    19.4840    25.8420    23.6630     2.2760    -5.7720 
  161.2500    54.8010    23.5330    19.6990    23.7280    23.6780     2.2660    -5.7310 
  161.3750    54.7050    23.4740    19.7290    22.8020    23.6780     2.2670    -5.6620 
  161.5000    55.8810    23.8550    19.9500    23.7030    23.6750     2.2810    -5.5740 
  161.6250    56.0200    24.8730    20.5840    25.7420    23.6740     2.2990    -5.4770 
  161.7500    55.0210    26.5360    21.7170    29.4100    23.6740     2.2940    -5.3750 
  161.8750    55.3310    28.5220    23.1610    32.1770    23.6720     2.2550    -5.2830 
  162.0000    56.1860    30.6140    24.8030    35.1240    23.6720     2.1970    -5.2110 
  162.1250    56.3270    32.6840    26.5750    36.3310    23.6740     2.1470    -5.1670 
  162.2500    56.5320    34.6970    28.4480    36.3370    23.6340     2.1380    -5.1520 
  162.3750    56.2080    36.5940    30.2890    38.6330    23.4890     2.1680    -5.1610 
  162.5000    54.2290    38.1090    31.8360    43.5600    23.2490     2.2100    -5.1900 
  162.6250    51.6000    38.8350    32.7290    47.2680    23.0850     2.2300    -5.2380 
  162.7500    51.3620    38.2080    32.4600    43.9130    23.2310     2.2130    -5.3040 
  162.8750    53.9700    36.4030    31.1450    37.2200    23.5050     2.1890    -5.3820 
  163.0000    57.3160    33.8290    29.0990    33.1070    23.6520     2.1810    -5.4650 
  163.1250    59.1330    31.1430    26.8530    30.3020    23.6490     2.1910    -5.5460 
  163.2500    61.0880    29.1430    25.0340    29.4620    23.6120     2.2030    -5.6150 
  163.3750    64.3090    28.1000    23.9100    27.6320    23.6110     2.2090    -5.6660 
  163.5000    65.2750    28.0390    23.5550    26.2260    23.6350     2.2150    -5.6950 
  163.6250    61.6400    28.7660    23.9000    29.2630    23.6570     2.2350    -5.7020 
  163.7500    58.4490    29.9440    24.8000    30.9640    23.6140     2.2680    -5.6860 
  163.8750    59.4530    31.1110    25.8840    31.2090    23.4990     2.2880    -5.6500 
  164.0000    60.6410    32.1000    26.9400    30.7200    23.4330     2.2800    -5.5930 
  164.1250    58.9760    32.9440    27.8800    30.7890    23.5260     2.2470    -5.5170 
  164.2500    57.7180    33.8370    28.7800    31.5560    23.6350     2.2140    -5.4290 
  164.3750    58.0210    34.8500    29.7350    32.7040    23.6820     2.1990    -5.3400 
