~V
VERS. 2.00: Ver 2.00
~W
STRT.M 52.0000:
STOP.M 224.0000:
STEP.M 0.1250:
NULL. -999.2500:
UWI. F10595:
~C
DEPT.M :
GR.API :
RML.OHMM :
RI. :
RXO.OHMM :
CALI.CM :
DEN.GM/CC :
SP.MV :
~A
# ...
  175.7500    57.0180    39.0720    34.2450    38.4770    23.6050     2.1880    -8.6760 
  175.8750    56.8470    39.7040    34.7050    37.2130    23.4650     2.2080    -8.5720 
  176.0000    58.3260    40.0530    34.9550    35.4980    23.2450     2.2340    -8.4570 
  176.1250    60.4340    40.0690    34.9520    34.6590    23.0520     2.2500    -8.3410 
  176.2500    59.7670    39.7970    34.6910    34.9480    23.0440     2.2430    -8.2290 
  176.3750    56.9750    39.5510    34.3910    34.5450    23.1860     2.2170    -8.1270 
  176.5000    55.0740    39.6380    34.2940    35.2320    23.3470     2.1940    -8.0470 
  176.6250    56.2740    40.2620    34.5890    36.6220    23.4340     2.1970    -7.9980 
  176.7500    57.4860    41.4740    35.3820    37.7340    23.4340     2.2370    -7.9920 
  176.8750    55.5090    42.8910    36.4310    38.8520    23.3940     2.2840    -8.0210 
  177.0000    52.1450    44.1160    37.4460    40.4720    23.2890     2.3040    -8.0840 
  177.1250    49.7890    44.8040    38.1120    42.9290    23.1780     2.2820    -8.1770 
  177.2500    50.3940    44.7760    38.1540    42.0130    23.0610     2.2310    -8.3020 
  177.3750    53.3600    44.3840    37.7560    40.4230    22.9460     2.1860    -8.4490 
  177.5000    57.2220    43.9070    37.1570    38.4840    22.7970     2.1590    -8.6140 
  177.6250    59.2130    43.5430    36.6140    37.0250    22.7640     2.1480    -8.7950 
  177.7500    58.4390    43.4870    36.4160    37.1880    22.7450     2.1400    -8.9970 
  177.8750    58.3910    43.8170    36.6590    36.2910    22.6390     2.1390    -9.2130 
  178.0000    58.0320    44.6210    37.3810    35.5480    22.4050     2.1540    -9.4450 
  178.1250    55.9640    45.9900    38.5980    35.2450    22.1680     2.1920    -9.6870 
  178.2500    54.2440    48.1770    40.4860    36.0680    22.0910     2.2460    -9.9370 
  178.3750    53.5130    51.2090    43.0910    40.1530    22.2240     2.2950   -10.1920 
  178.5000    53.1010    55.1670    46.5180    46.0480    22.4480     2.3290   -10.4540 
  178.6250    52.6300    59.9550    50.7410    50.4560    22.5410     2.3570   -10.7280 
  178.7500    53.4910    64.7460    55.3120    54.5510    22.6240     2.3850   -11.0040 
  178.8750    54.8510    67.3310    58.6150    59.1680    22.6340     2.3940   -11.2710 
  179.0000    54.6890    64.9070    58.1800    62.8560    22.4980     2.3680   -11.5160 
  179.1250    53.6730    56.4000    52.4230    64.7710    22.2530     2.3230   -11.7310 
  179.2500    52.9380    44.7900    43.0390    64.6550    22.1600     2.3010   -11.9000 
  179.3750    53.7790    35.2900    34.6100    65.7530    22.0770     2.3370   -12.0120 
  179.5000    55.2490    29.6650    28.9890    59.5130    21.9250     2.4350   -12.0410 
  179.6250    55.3010    27.5220    26.2330    62.4230    21.8980     2.5620   -11.9640 
  179.7500    53.7600    27.3060    25.4800    68.8090    22.0730     2.6570   -11.7440 
  179.8750    52.3350    26.2610    24.4960    77.9470    22.3880     2.6960   -11.4030 
  180.0000    52.7440    22.7200    21.6540    75.8760    22.6880     2.6850   -10.9540 
  180.1250    55.7270    17.0330    16.9530    49.7750    22.8540     2.6320   -10.4190 
  180.2500    62.0850    13.4420    12.2200    23.1570    22.8910     2.5510    -9.8290 
  180.3750    65.7640     9.6380     8.7620    10.4620    22.8990     2.4720    -9.2350 
  180.5000    63.4780     7.3130     6.6480     6.8030    22.9140     2.4190    -8.6750 
  180.6250    59.1990     6.1530     5.5940     5.7900    22.9440     2.3980    -8.1840 
  180.7500    58.7360     5.9470     5.4060     5.7500    22.9640     2.4020    -7.8030 
  180.8750    62.2500     6.3170     5.7430     6.3670    22.9690     2.4090    -7.5330 
  181.0000    67.7600     7.0940     6.4500     7.3110    22.9660     2.4150    -7.3770 
  181.1250    74.5590     8.0920     7.3570     8.1070    22.9690     2.4190    -7.3270 
  181.2500    83.9320     9.0730     8.2480     8.8230    22.9720     2.4240    -7.3700 
  181.3750    93.8090     9.8290     8.9360     9.0180    22.9690     2.4290    -7.4640 
  181.5000   100.7850    10.2730     9.3390     8.9820    22.9550     2.4330    -7.5870 
  181.6250   101.1380    10.4300     9.4810     8.8940    22.9410     2.4320    -7.7280 
  181.7500    97.6240    10.3740     9.4310     8.9740    23.0000     2.4240    -7.8900 
  181.8750    98.5990    10.2360     9.3060     9.0960    23.1060     2.4140    -8.0640 
  182.0000   102.9630    10.0730     9.1570     9.1800    23.1720     2.4040    -8.2460 
  182.1250   106.6780     9.9120     9.0110     9.1680    23.1790     2.4000    -8.4290 
  182.2500   108.3650     9.7530     8.8670     9.1230    23.1340     2.3990    -8.6160 
  182.3750   108.6810     9.5610     8.6920     9.1690    23.0900     2.4000    -8.8160 
  182.5000   107.5320     9.2870     8.4430     9.2040    23.0550     2.3960    -9.0390 
  182.6250   105.1160     8.9180     8.1070     9.1340    23.0370     2.3830    -9.2900 
  182.7500   102.0560     8.5490     7.7720     9.0080    23.0260     2.3600    -9.5710 
  182.8750   100.2160     8.3690     7.6080     8.8450    23.0120     2.3450    -9.8800 
  183.0000    98.4230     8.5880     7.8070     8.8240    22.9980     2.3570   -10.2180 
  183.1250    94.8730     9.4670     8.6070     9.9420    22.9830     2.4080   -10.5850 
  183.2500    86.8250    11.6220    10.5650    14.3960    22.9340     2.4790   -10.9890 
  183.3750    76.4370    15.5050    14.0950    23.0950    22.8610     2.5130   -11.4220 
  183.5000    69.2380    21.8740    19.8860    31.9100    22.8070     2.4830   -11.8770 
  183.6250    66.9220    31.4690    28.6080    47.2330    22.8370     2.4060   -12.3440 
  183.7500    66.3400    44.7940    40.7220    75.4680    22.9760     2.3160   -12.8020 
  183.8750    62.5430    59.7150    54.2860   107.7060    23.1960     2.2470   -13.2320 
  184.0000    57.1060    74.1630    67.4210   116.6180    23.3910     2.2090   -13.6210 
  184.1250    55.0070    86.7970    78.9060   111.9400    23.4910     2.2010   -13.9550 
  184.2500    57.3220    96.7610    87.9650   123.6350    23.5010     2.2100   -14.2190 
  184.3750    59.7870   104.3300    94.8460   144.9720    23.4900     2.2180   -14.4230 
  184.5000    59.8930   109.3930    99.4480   156.6360    23.4900     2.2220   -14.5640 
  184.6250    57.1380   111.6430   101.4930   152.4310    23.5010     2.2280   -14.6420 
  184.7500    53.3740   110.5030   100.4580   134.2820    23.5060     2.2410   -14.6550 
  184.8750    52.1860   107.4620    97.6920   117.1700    23.4970     2.2580   -14.6280 
  185.0000    54.6400   103.9890    94.5350   110.5300    23.4480     2.2650   -14.5840 
  185.1250    57.9450   101.1520    91.9560   102.3480    23.3800     2.2510   -14.5350 
  185.2500    58.2800    99.3330    90.3030    97.5480    23.3670     2.2180   -14.4880 
  185.3750    58.7300    98.0580    89.1440    97.0410    23.3900     2.1860   -14.4420 
  185.5000    60.9580    97.0380    88.2160    97.2040    23.3570     2.1680   -14.4010 
  185.6250    63.0340    96.2750    87.5230    98.5400    23.3330     2.1650   -14.3700 
  185.7500    62.0730    96.3090    87.5540    92.3900    23.3140     2.1680   -14.3660 
  185.8750    60.0600    97.7120    88.8290    84.5000    23.2770     2.1710   -14.3890 
  186.0000    59.3670   101.0600    91.8720    89.1320    23.2640     2.1730   -14.4380 
  186.1250    58.2780   106.6210    96.9280   106.9060    23.2680     2.1730   -14.5120 
  186.2500    56.0960   114.2960   103.9060   119.5050    23.1920     2.1710   -14.6130 
  186.3750    54.5400   122.5160   111.3780   128.8110    23.1980     2.1670   -14.7300 
  186.5000    53.4950   129.4410   117.6730   145.5270    23.2090     2.1630   -14.8540 
  186.6250    52.3080   132.8070   120.7340   146.4680    23.2000     2.1630   -14.9800 
  186.7500    53.7850   129.6360   117.8510   135.1030    23.1610     2.1660   -15.0990 
  186.8750    59.0380   121.0590   110.0530   123.7950    23.0990     2.1740   -15.2090 
