~V
VERS. 2.00: Ver 2.00
~W
STRT.M 55.0000:
STOP.M 211.0000:
STEP.M 0.1250:
NULL. -999.2500:
UWI. F10586:
~C
DEPT.M :
GR.API :
RML.OHMM :
RI. :
RXO.OHMM :
CALI.CM :
DEN.GM/CC :
SP.MV :
~A
   55.0000    50.0310     3.4390     0.4160     1.8810    25.4650     1.9910   169.7100 
   55.1250    48.0890     3.5390     0.4140     1.6370    25.4650     2.0030   169.3790 
   55.2500    45.3000     3.7340     0.4090     1.4220    25.4650     2.0220   168.8990 
   55.3750    44.7160     3.9490     0.4030     1.2810    25.4650     2.0440   168.2290 
   55.5000    46.5730     4.0860     0.3970     1.2030    25.4650     2.0610   167.4120 
   55.6250    48.6940     4.0470     0.3930     1.1170    25.4650     2.0660   166.5540 
   55.7500    48.7680     3.8850     0.3910     1.0050    25.4650     2.0570   165.7550 
   55.8750    45.6470     3.6880     0.3900     0.9110    25.4650     2.0380   165.0540 
   56.0000    40.5070     3.5370     0.3880     0.8660    25.4650     2.0180   164.4400 
   56.1250    37.2820     3.4680     0.3850     0.8640    25.4650     2.0050   163.8720 
   56.2500    36.5320     3.4360     0.3830     0.8930    25.4650     1.9980   163.3070 
   56.3750    37.3520     3.3850     0.3820     0.9580    25.4650     1.9980   162.7410 
   56.5000    38.7160     3.2810     0.3830     1.0450    25.4650     2.0010   162.1220 
   56.6250    39.4790     3.1340     0.3850     1.0930    25.4650     2.0070   161.4410 
   56.7500    40.1730     3.0040     0.3870     1.1080    25.4650     2.0130   160.6830 
   56.8750    41.0930     2.9270     0.3860     1.0930    25.4650     2.0200   159.7870 
   57.0000    42.9740     2.9000     0.3830     1.0890    25.4650     2.0260   158.8030 
   57.1250    45.3010     2.8780     0.3790     1.1330    25.4650     2.0270   157.7820 
   57.2500    46.2650     2.8100     0.3740     1.2090    25.4650     2.0220   156.7280 
   57.3750    46.1680     2.6800     0.3730     1.3170    25.4650     2.0050   155.6780 
   57.5000    46.4650     2.5130     0.3780     1.4830    25.4650     1.9720   154.6630 
   57.6250    47.8580     2.3410     0.3890     1.6910    25.4650     1.9270   153.5710 
   57.7500    47.9150     2.1690     0.4000     1.8280    25.4650     1.8910   152.2960 
   57.8750    45.6950     1.9800     0.4000     1.8140    25.4650     1.8910   150.7150 
   58.0000    44.8650     1.7440     0.3800     1.5720    25.4650     1.9550   148.6610 
   58.1250    47.1640     1.4400     0.3300     1.1770    25.4650     2.1070   145.8310 
   58.2500    49.6270     1.1090     0.2640     0.7530    25.4650     2.3030   142.0900 
   58.3750    50.1670     0.8180     0.2000     0.4980    25.4660     2.4760   137.1170 
   58.5000    48.6630     0.6130     0.1460     0.6510    25.4770     2.5580   130.5830 
   58.6250    47.0850     0.5200     0.1100     1.2560    25.5350     2.5170   121.8830 
   58.7500    48.4940     0.5590     0.1430     2.6570    25.6890     2.4180   111.2210 
   58.8750    52.1740     0.8440     0.3800     5.0310    26.0380     2.3090    98.8170 
   59.0000    54.9660     1.5390     1.0330     7.0730    26.6740     2.2200    85.1590 
   59.1250    56.6130     2.8840     2.4530     9.3630    27.6430     2.1770    70.9020 
   59.2500    58.8140     4.7410     4.6050    10.4220    28.4380     2.1710    56.8240 
   59.3750    60.5720     6.8220     7.2730    11.0200    28.9720     2.1840    43.4350 
   59.5000    59.9880     8.6620     9.9850    11.5630    29.3060     2.2010    31.1630 
   59.6250    60.0180     9.8260    12.1400    12.2870    29.5820     2.2040    20.7190 
   59.7500    62.1390    10.5800    13.7140    12.9490    29.8650     2.1930    12.1420 
   59.8750    63.7160    11.2040    14.8860    13.4610    30.1650     2.1740     5.3860 
   60.0000    64.5940    11.7940    15.7990    13.7490    30.5020     2.1540     0.1530 
   60.1250    64.1870    12.3110    16.4780    13.5790    30.9130     2.1370    -3.8880 
   60.2500    61.9100    12.7300    16.9800    13.4400    31.3660     2.1220    -7.2850 
   60.3750    60.5250    13.0460    17.3190    13.3630    31.8110     2.1010   -10.2080 
   60.5000    61.5480    13.2660    17.5040    13.4610    32.2430     2.0680   -12.7330 
   60.6250    62.4640    13.3960    17.5250    13.6110    32.7290     2.0160   -14.8410 
   60.7500    61.7200    13.4660    17.4330    13.6920    33.3510     1.9540   -16.7340 
   60.8750    61.6890    13.4960    17.2710    13.7010    34.1270     1.8890   -18.4360 
   61.0000    61.8250    13.4970    17.0910    13.5000    34.9620     1.8330   -19.9880 
   61.1250    59.4730    13.4560    16.9610    13.0130    35.6190     1.7980   -21.4000 
   61.2500    58.0950    13.3720    16.9180    12.3090    35.9490     1.7840   -22.6710 
   61.3750    59.7040    13.2560    16.9770    11.5230    35.9060     1.7890   -23.7800 
   61.5000    59.9340    13.1380    17.1260    10.8220    35.4450     1.8030   -24.7440 
   61.6250    55.6990    13.0660    17.3250    10.7290    34.5800     1.8220   -25.6200 
   61.7500    52.6870    13.0480    17.4950    11.1850    33.8110     1.8420   -26.4190 
   61.8750    53.3120    13.0410    17.5640    11.6120    33.4290     1.8630   -27.1690 
   62.0000    55.6050    12.9700    17.4660    11.7170    33.2860     1.8820   -27.8950 
   62.1250    56.1960    12.7430    17.1220    11.7620    33.1080     1.8830   -28.5420 
   62.2500    56.0020    12.3760    16.5710    12.2100    32.8410     1.8540   -29.1450 
   62.3750    55.6360    11.9300    15.8840    12.8430    32.6240     1.7990   -29.7590 
   62.5000    55.5870    11.5150    15.2190    13.0190    32.5740     1.7420   -30.3450 
   62.6250    57.5970    11.3650    14.9600    12.5280    32.5330     1.7340   -30.9080 
   62.7500    60.7940    11.7600    15.5670    12.6340    32.2740     1.8060   -31.4290 
   62.8750    63.6390    13.1760    17.6890    16.4080    31.6110     1.9640   -31.9030 
   63.0000    64.3870    16.1400    21.9890    26.6240    30.3540     2.1840   -32.2910 
   63.1250    62.5340    21.1440    29.0680    43.5340    28.5360     2.3980   -32.6360 
   63.2500    60.0300    27.1390    37.5170    63.7390    27.1840     2.5450   -32.9910 
   63.3750    58.8970    32.4640    45.1680    78.7420    26.6030     2.6170   -33.3410 
   63.5000    61.6700    34.9730    49.2610    78.0480    26.4950     2.6330   -33.7100 
   63.6250    68.3710    32.5160    46.8280    73.9640    26.5290     2.5990   -34.0710 
   63.7500    73.4420    27.0960    39.8090    72.8410    26.5950     2.5220   -34.4110 
   63.8750    73.4860    21.3050    31.2760    67.4690    26.7210     2.4190   -34.6930 
   64.0000    70.3990    16.7090    23.8660    52.3310    26.9840     2.3140   -34.9500 
   64.1250    69.2570    13.8270    18.9370    29.9770    27.5210     2.2340   -35.1710 
   64.2500    69.7090    12.2010    15.9020    17.9470    28.2790     2.1830   -35.3620 
   64.3750    68.8630    11.5830    14.2790    14.0270    29.0870     2.1570   -35.5230 
   64.5000    66.6630    11.6790    13.6190    13.1510    29.7250     2.1460   -35.6250 
   64.6250    63.6790    12.1710    13.5820    12.9740    30.1510     2.1410   -35.6500 
   64.7500    61.8290    12.6770    13.7400    12.8030    30.5020     2.1380   -35.6330 
   64.8750    61.5610    13.0370    13.9010    12.7330    30.8050     2.1360   -35.6080 
   65.0000    61.8540    13.2150    13.9770    12.6960    31.0320     2.1360   -35.5750 
   65.1250    61.6500    13.2300    13.9330    12.6240    31.1850     2.1370   -35.5570 
   65.2500    62.6610    13.1590    13.8050    12.5700    31.3380     2.1350   -35.4710 
   65.3750    64.8590    13.0400    13.6080    12.5380    31.5110     2.1230   -35.3490 
   65.5000    66.3200    12.9040    13.3590    12.5300    31.6950     2.0980   -35.2420 
   65.6250    64.0930    12.7870    13.0830    12.4570    31.8750     2.0630   -35.0950 
   65.7500    60.0620    12.7160    12.8200    12.1920    32.0230     2.0320   -34.9080 
   65.8750    56.6520    12.7090    12.5980    11.7840    32.1890     2.0190   -34.6660 
   66.0000    55.4220    12.7640    12.4330    11.3620    32.4130     2.0270   -34.3330 
   66.1250    58.4080    12.8570    12.3210    11.0940    32.5620     2.0520   -33.8770 
