~V
VERS. 2.00: Ver 2.00
~W
STRT.M 60.0000:
STOP.M 200.0000:
STEP.M 0.1250:
NULL. -999.2500:
UWI. F10576:
~C
DEPT.M :
GR.API :
RML.OHMM :
RI. :
RXO.OHMM :
CALI.CM :
DEN.GM/CC :
SP.MV :
~A
# ...
  105.0000    84.6970    12.1910    12.6690     9.0890    23.3010     2.3020   -24.7990 
  105.1250    88.0170    10.7180    10.9720     7.7820    23.3260     2.3280   -25.0320 
  105.2500    89.7610     9.9620     9.9490     7.7010    23.5840     2.3410   -25.2380 
  105.3750    92.0230     9.6480     9.3970     7.9390    23.9050     2.3430   -25.3940 
  105.5000    94.1580     9.5290     9.1150     8.1310    24.0620     2.3380   -25.4940 
  105.6250    94.7740     9.4440     8.9460     8.0520    24.0170     2.3340   -25.5610 
  105.7500    94.6050     9.3610     8.8070     7.8460    23.9580     2.3330   -25.5770 
  105.8750    93.9500     9.3580     8.7360     7.6360    23.9270     2.3340   -25.5510 
  106.0000    91.6800     9.5370     8.8270     7.5720    23.9180     2.3310   -25.4700 
  106.1250    88.9830    10.0400     9.2360     7.8190    23.9210     2.3190   -25.3260 
  106.2500    86.9430    10.8640     9.9840     8.7120    23.9310     2.3000   -25.1490 
  106.3750    84.6590    11.9880    11.0610    10.6040    23.9160     2.2770   -24.9720 
  106.5000    80.9200    13.3270    12.3920    13.7280    23.7820     2.2540   -24.8350 
  106.6250    76.6300    14.7420    13.8570    14.8270    23.5430     2.2340   -24.7040 
  106.7500    73.7750    16.1150    15.3180    14.9020    23.5650     2.2170   -24.5850 
  106.8750    71.7280    17.4750    16.7650    15.8160    23.8970     2.2030   -24.4290 
  107.0000    69.4950    18.9470    18.2690    17.6700    24.1260     2.1920   -24.3100 
  107.1250    67.7990    20.6230    19.8750    18.8320    24.1210     2.1830   -24.2600 
  107.2500    67.6010    22.1600    21.3100    20.4520    24.0800     2.1760   -24.2250 
  107.3750    68.3300    22.9050    22.0270    23.6700    24.0560     2.1760   -24.2080 
  107.5000    70.0520    22.2040    21.4560    26.7420    24.0190     2.1940   -24.2250 
  107.6250    74.5010    19.7400    19.2570    26.8800    23.9470     2.2360   -24.2610 
  107.7500    81.6560    16.5350    16.2870    20.9580    23.8370     2.2950   -24.2950 
  107.8750    89.1950    13.5040    13.3530    13.2510    23.7590     2.3530   -24.3420 
  108.0000    93.2270    11.2950    11.0670     9.0810    23.7860     2.3930   -24.3770 
  108.1250    91.6460    10.3620     9.8830     8.6500    23.8830     2.3950   -24.3700 
  108.2500    87.8370    10.5280     9.7030     9.1570    23.8560     2.3670   -24.4170 
  108.3750    84.0460    11.7120    10.5110     9.1110    23.7330     2.3240   -24.4920 
  108.5000    79.2690    13.7290    12.2190    11.0480    23.6490     2.2840   -24.5300 
  108.6250    72.0220    16.0990    14.5220    16.6150    23.6990     2.2660   -24.5640 
  108.7500    65.7880    17.9250    16.5750    26.0120    23.7520     2.2650   -24.6060 
  108.8750    65.6980    18.5540    17.6660    26.1880    23.7530     2.2720   -24.6440 
  109.0000    73.1290    17.8990    17.5290    18.5470    23.7350     2.2780   -24.6890 
  109.1250    82.3310    16.5510    16.5230    12.9600    23.7260     2.2740   -24.7450 
  109.2500    84.9040    15.5220    15.5920    11.0570    23.7310     2.2660   -24.7650 
  109.3750    79.4220    15.3260    15.2840    11.9490    23.7510     2.2610   -24.7530 
  109.5000    71.8580    16.1360    15.8460    14.4600    23.7710     2.2660   -24.7500 
  109.6250    69.3970    18.0300    17.4340    19.9000    23.7370     2.2860   -24.7600 
  109.7500    70.6630    20.6930    19.7880    28.0020    23.6540     2.3130   -24.7890 
  109.8750    70.5160    24.0190    22.8010    34.5890    23.5660     2.3350   -24.8180 
  110.0000    66.0630    27.9550    26.3890    34.2010    23.5050     2.3440   -24.8720 
  110.1250    60.8070    32.3930    30.4090    38.8520    23.5900     2.3400   -24.9540 
  110.2500    57.7850    36.6640    34.2620    46.9430    23.7370     2.3370   -25.0340 
  110.3750    56.8370    39.8500    37.1670    49.3760    23.8260     2.3410   -25.1130 
  110.5000    56.4350    41.1240    38.4160    46.1700    23.8450     2.3520   -25.1950 
  110.6250    55.6610    40.1430    37.6350    39.0620    23.8530     2.3630   -25.2360 
  110.7500    56.5550    38.2500    35.8820    32.9400    23.8750     2.3710   -25.2320 
  110.8750    58.3730    36.5950    34.1340    28.4080    23.9210     2.3850   -25.2500 
  111.0000    58.0740    35.9450    33.1430    26.6400    23.9580     2.4100   -25.2620 
  111.1250    54.6190    36.7170    33.4350    30.4050    23.9640     2.4490   -25.2470 
  111.2500    52.5270    38.4850    34.7610    35.6060    23.9500     2.4900   -25.2290 
  111.3750    54.2450    40.8820    36.8510    38.6900    23.9440     2.5250   -25.2060 
  111.5000    57.4330    43.4720    39.3190    38.7820    23.9360     2.5490   -25.1950 
  111.6250    58.2940    45.6280    41.5990    43.3990    23.9310     2.5580   -25.2180 
  111.7500    56.8840    46.8800    43.2010    48.4820    23.8970     2.5570   -25.2350 
  111.8750    55.1380    46.9870    43.8450    48.1600    23.8060     2.5470   -25.2200 
  112.0000    55.2730    46.0560    43.5280    43.9130    23.7260     2.5340   -25.1460 
  112.1250    56.9200    44.5540    42.5020    39.8440    23.6420     2.5300   -25.0500 
  112.2500    56.6500    43.2660    41.4140    33.6440    23.4910     2.5350   -24.9360 
  112.3750    54.9230    42.6400    40.6970    29.6480    23.2950     2.5440   -24.8350 
  112.5000    54.2110    42.7760    40.5610    32.7750    23.1840     2.5430   -24.6950 
  112.6250    55.9860    43.4310    40.9700    40.7780    23.3900     2.5190   -24.5090 
  112.7500    56.9980    44.0380    41.5040    44.6640    23.6630     2.4860   -24.3440 
  112.8750    56.2840    44.3280    41.8890    38.4570    23.7540     2.4630   -24.2250 
  113.0000    56.6780    44.3220    42.0360    32.8910    23.6220     2.4630   -24.1450 
  113.1250    58.9590    44.3040    42.0880    30.9720    23.3840     2.4900   -24.0080 
  113.2500    59.9010    44.5530    42.3190    29.9660    23.2520     2.5260   -23.9200 
  113.3750    58.4230    45.1070    42.8530    31.6380    23.2190     2.5550   -23.8360 
  113.5000    56.0710    45.7720    43.6030    33.9230    23.2260     2.5700   -23.7490 
  113.6250    55.4630    46.1300    44.2320    36.3520    23.2550     2.5670   -23.6820 
  113.7500    56.1320    45.9150    44.4210    37.1750    23.3000     2.5520   -23.6300 
  113.8750    55.4450    45.0630    44.0360    36.5810    23.3550     2.5320   -23.5870 
  114.0000    52.2670    43.7490    43.1660    35.6080    23.4370     2.5140   -23.5960 
  114.1250    49.5300    42.3830    42.1160    32.9930    23.6310     2.5070   -23.7260 
  114.2500    50.4470    41.4250    41.3050    32.4490    23.8660     2.5090   -23.8400 
  114.3750    52.5900    41.1410    40.9950    34.2710    24.0330     2.5170   -23.9410 
  114.5000    52.6960    41.5890    41.2850    36.8960    24.0330     2.5260   -24.0480 
  114.6250    52.4000    42.6190    42.1240    41.2610    24.0090     2.5350   -24.1420 
  114.7500    53.2310    43.6830    43.0820    45.0330    24.0200     2.5460   -24.2550 
  114.8750    53.9170    44.3320    43.7690    45.2640    24.0590     2.5580   -24.3540 
  115.0000    53.7170    44.2810    43.8870    44.8250    24.1120     2.5670   -24.4020 
  115.1250    54.4940    43.4720    43.2820    43.4780    24.3060     2.5660   -24.4230 
  115.2500    56.1830    42.3740    42.3080    39.3440    24.4970     2.5560   -24.4350 
  115.3750    56.0400    41.3670    41.3160    34.3250    24.3790     2.5380   -24.4250 
  115.5000    53.9170    40.7110    40.6070    33.0070    24.2000     2.5130   -24.4200 
  115.6250    53.0370    40.5460    40.4130    33.9480    24.0950     2.4860   -24.4400 
  115.7500    54.1240    40.6960    40.6080    36.1460    24.0760     2.4650   -24.4380 
  115.8750    55.1710    40.9750    41.0000    37.4020    24.0590     2.4570   -24.4320 
  116.0000    55.7290    41.1770    41.3390    37.6800    24.0170     2.4630   -24.4750 
  116.1250    55.8030    41.0840    41.3650    35.1510    23.9140     2.4790   -24.5090 
