~V
VERS. 2.00: Ver 2.00
~W
STRT.M 46.0000:
STOP.M 208.0000:
STEP.M 0.1250:
NULL. -999.2500:
UWI. F10533:
~C
DEPT.M :
GR.API :
RML.OHMM :
RI. :
RXO.OHMM :
CALI.CM :
DEN.GM/CC :
SP.MV :
~A
# ...
  124.7500    77.7550     5.8490     5.0180     5.7310    23.5340     2.2550   -14.9690 
  124.8750    77.0320     6.3260     5.3010     5.8770    23.4790     2.2850   -14.9690 
  125.0000    71.8690     7.1280     5.8330     6.1870    23.3470     2.3430   -14.9410 
  125.1250    66.1660     8.1000     6.5520     7.0480    23.2730     2.4060   -14.8760 
  125.2500    63.1740     8.9020     7.2220     7.9330    23.2210     2.4280   -14.7950 
  125.3750    62.4140     9.2700     7.6300     7.8580    23.1180     2.3930   -14.7140 
  125.5000    62.8000     9.1420     7.6700     7.3410    22.9640     2.3260   -14.6360 
  125.6250    62.6110     8.6740     7.3850     7.0690    22.8920     2.2550   -14.5740 
  125.7500    61.4810     8.1860     7.0180     7.1070    22.8590     2.2040   -14.5110 
  125.8750    59.3570     7.8190     6.7050     7.1320    22.8010     2.1760   -14.4670 
  126.0000    56.9820     7.6040     6.5020     7.1260    22.7520     2.1640   -14.4350 
  126.1250    56.7450     7.5190     6.4140     7.0680    22.7350     2.1620   -14.4320 
  126.2500    58.3500     7.5020     6.3880     7.0700    22.7330     2.1650   -14.4590 
  126.3750    59.8630     7.5400     6.4050     7.1190    22.7320     2.1700   -14.5230 
  126.5000    60.1220     7.6250     6.4570     7.1990    22.7330     2.1740   -14.6180 
  126.6250    58.0890     7.7350     6.5320     7.3760    22.7360     2.1680   -14.7200 
  126.7500    56.3480     7.8270     6.6040     7.6210    22.7520     2.1510   -14.8380 
  126.8750    55.8810     7.8690     6.6500     7.5750    22.7860     2.1260   -14.9600 
  127.0000    56.1250     7.8540     6.6580     7.4720    22.8120     2.1020   -15.0880 
  127.1250    55.6150     7.8070     6.6250     7.3680    22.8250     2.0920   -15.2050 
  127.2500    55.7850     7.7650     6.5730     7.2410    22.8260     2.0980   -15.2890 
  127.3750    57.5800     7.7410     6.5220     7.1360    22.8120     2.1210   -15.3370 
  127.5000    59.8450     7.7380     6.4880     7.1430    22.7650     2.1500   -15.3440 
  127.6250    61.1680     7.7570     6.4850     7.1760    22.7410     2.1710   -15.3000 
  127.7500    61.7210     7.7920     6.5040     7.1890    22.7320     2.1770   -15.2220 
  127.8750    62.1150     7.8330     6.5370     7.1850    22.7320     2.1700   -15.1170 
  128.0000    61.4860     7.8710     6.5710     7.1180    22.7320     2.1580   -14.9840 
  128.1250    59.1420     7.8920     6.5930     7.1130    22.7020     2.1500   -14.8240 
  128.2500    58.2610     7.8890     6.6010     7.2610    22.6280     2.1490   -14.6670 
  128.3750    59.5040     7.8640     6.5930     7.3630    22.5480     2.1510   -14.5100 
  128.5000    60.4780     7.8240     6.5720     7.4130    22.5120     2.1540   -14.3620 
  128.6250    58.5380     7.7860     6.5350     7.3380    22.5150     2.1540   -14.2350 
  128.7500    55.8210     7.7590     6.4900     7.1130    22.5210     2.1510   -14.1300 
  128.8750    54.5770     7.7380     6.4410     6.9840    22.5200     2.1480   -14.0560 
  129.0000    55.7570     7.7100     6.3930     7.0860    22.5020     2.1460   -14.0140 
  129.1250    58.4450     7.6620     6.3560     7.3890    22.4990     2.1480   -14.0170 
  129.2500    59.3790     7.6120     6.3320     7.4320    22.5830     2.1520   -14.0410 
  129.3750    58.7260     7.5880     6.3240     7.2350    22.7560     2.1580   -14.0840 
  129.5000    59.6190     7.6090     6.3310     7.0340    22.8700     2.1620   -14.1420 
  129.6250    60.9900     7.6670     6.3540     6.9920    22.8480     2.1650   -14.2100 
  129.7500    59.1540     7.7190     6.3840     7.0370    22.8070     2.1670   -14.2730 
  129.8750    55.9550     7.7440     6.4200     7.0530    22.7900     2.1700   -14.3130 
  130.0000    55.6500     7.7420     6.4610     7.1600    22.7910     2.1750   -14.3250 
  130.1250    57.8030     7.7320     6.4990     7.6520    22.7890     2.1750   -14.2910 
  130.2500    58.2990     7.7130     6.5110     8.2190    22.7800     2.1680   -14.2270 
  130.3750    57.9150     7.6500     6.4680     8.0420    22.8140     2.1530   -14.1270 
  130.5000    58.4970     7.5060     6.3510     7.6090    22.9240     2.1380   -13.9830 
  130.6250    60.4930     7.2580     6.1550     7.0850    23.0570     2.1390   -13.8030 
  130.7500    63.5840     6.9630     5.9270     6.5220    23.1140     2.1570   -13.6020 
  130.8750    66.8610     6.6800     5.7060     5.9290    23.1690     2.1880   -13.3910 
  131.0000    69.3190     6.4590     5.5310     5.8130    23.3190     2.2170   -13.1840 
  131.1250    69.0800     6.3330     5.4280     6.0100    23.5930     2.2340   -13.0040 
  131.2500    68.7820     6.2650     5.3780     6.1890    23.7650     2.2420   -12.8510 
  131.3750    69.2410     6.2130     5.3570     6.2930    23.7580     2.2450   -12.7350 
  131.5000    68.4080     6.1470     5.3400     6.2720    23.5970     2.2470   -12.6590 
  131.6250    67.4910     6.0540     5.3090     6.2750    23.4110     2.2470   -12.6170 
  131.7500    67.4440     5.9610     5.2730     6.1930    23.2780     2.2420   -12.5950 
  131.8750    67.9380     5.9050     5.2510     6.2680    23.2330     2.2320   -12.5810 
  132.0000    66.6310     5.9190     5.2680     6.5500    23.2330     2.2170   -12.5730 
  132.1250    64.3920     6.0180     5.3460     6.7180    23.2390     2.2000   -12.5440 
  132.2500    65.2150     6.1470     5.4620     6.8080    23.2410     2.1860   -12.4850 
  132.3750    67.9890     6.2330     5.5670     6.8810    23.2390     2.1780   -12.4020 
  132.5000    68.3530     6.2000     5.5950     6.7180    23.2420     2.1790   -12.2990 
  132.6250    65.5240     5.9940     5.4870     6.4600    23.2470     2.1960   -12.1750 
  132.7500    64.9500     5.6990     5.2890     5.8980    23.2550     2.2230   -12.0540 
  132.8750    70.2510     5.4050     5.0740     5.2410    23.2650     2.2500   -11.9430 
  133.0000    77.5530     5.1930     4.9130     5.0300    23.2590     2.2630   -11.8410 
  133.1250    79.7160     5.1160     4.8560     5.4390    23.2470     2.2570   -11.7450 
  133.2500    78.0900     5.1220     4.8680     6.1370    23.2440     2.2450   -11.6550 
  133.3750    76.7380     5.1480     4.8980     6.4750    23.3120     2.2390   -11.5550 
  133.5000    77.5690     5.1250     4.8910     5.8920    23.4720     2.2460   -11.4500 
  133.6250    77.0450     5.0050     4.8050     5.3720    23.6310     2.2630   -11.3400 
  133.7500    75.9480     4.8350     4.6670     5.1230    23.7780     2.2780   -11.2060 
  133.8750    76.6910     4.6760     4.5190     5.0700    23.8560     2.2860   -11.0530 
  134.0000    78.7280     4.5770     4.4020     5.1470    23.8800     2.2930   -10.8830 
  134.1250    80.3030     4.5530     4.3450     5.0490    23.8710     2.3040   -10.7070 
  134.2500    81.4080     4.5580     4.3250     5.0420    23.8460     2.3130   -10.5470 
  134.3750    82.1700     4.5490     4.3070     5.1410    23.8160     2.3170   -10.4280 
  134.5000    81.8110     4.4910     4.2640     5.1600    23.7800     2.3150   -10.3520 
  134.6250    80.7270     4.3990     4.1930     5.1040    23.7050     2.3080   -10.3260 
  134.7500    79.6570     4.3730     4.1610     4.9370    23.5690     2.3030   -10.3790 
  134.8750    77.8470     4.5340     4.2610     4.8150    23.3780     2.3070   -10.5060 
  135.0000    76.0510     4.9990     4.5850     4.9970    23.2260     2.3270   -10.6870 
  135.1250    75.2340     6.1130     5.2550     6.0170    23.1280     2.3540   -10.9300 
  135.2500    72.3150     7.9540     6.2090     8.2460    23.0240     2.3690   -11.2060 
  135.3750    66.2950     9.2920     7.3100     9.6520    22.8710     2.3580   -11.4960 
  135.5000    61.4290    10.3720     8.2990     9.0870    22.7690     2.3220   -11.7860 
  135.6250    61.4250    10.7750     8.8090     8.0930    22.7400     2.2780   -12.0530 
  135.7500    63.0600    10.6090     8.8250     7.6840    22.7390     2.2450   -12.2680 
  135.8750    63.5430    10.1580     8.5150     7.5210    22.7350     2.2300   -12.4240 
