~V
VERS. 2.00: Ver 2.00
~W
STRT.M 50.0000:
STOP.M 191.0000:
STEP.M 0.1250:
NULL. -999.2500:
UWI. F10562:
~C
DEPT.M :
DEN.GM/CC :
SP.MV :
GR.API :
RML.OHMM :
RI. :
RXO.OHMM :
CALI.CM :
~A
# ...
   72.5000     2.1040   -24.3900    70.9540    20.4260    20.2820    15.4800    25.3150 
   72.6250     2.0990   -24.2460    72.7860    20.4420    19.9980    15.7740    25.1110 
   72.7500     2.1050   -24.0720    71.8660    20.7150    20.0470    15.1840    24.8040 
   72.8750     2.1170   -23.8890    71.1970    20.7850    20.1290    14.7970    24.5700 
   73.0000     2.1280   -23.7120    70.7440    20.4430    20.0150    14.6730    24.4970 
   73.1250     2.1390   -23.5400    69.4760    19.7610    19.5780    14.5850    24.4820 
   73.2500     2.1570   -23.4010    70.3100    19.0290    18.9100    14.1810    24.3560 
   73.3750     2.1830   -23.3120    74.4240    18.3850    18.0750    12.9850    24.0730 
   73.5000     2.2130   -23.2240    78.5310    17.9260    17.2040    11.7690    23.7080 
   73.6250     2.2400   -23.1720    81.0210    17.8740    16.6420    13.0260    23.4580 
   73.7500     2.2570   -23.1510    83.0560    18.2880    16.6330    15.8470    23.3710 
   73.8750     2.2500   -23.1430    84.0140    19.2960    17.3450    16.5850    23.3560 
   74.0000     2.2130   -23.1870    81.6700    21.0700    18.8920    17.7190    23.3560 
   74.1250     2.1720   -23.2800    77.2560    23.5180    21.2300    21.5410    23.3630 
   74.2500     2.1520   -23.4130    75.1030    25.6160    23.4770    24.9370    23.4360 
   74.3750     2.1540   -23.5730    74.8810    26.0790    24.4240    27.2680    23.7010 
   74.5000     2.1640   -23.7790    74.7690    24.0460    23.1080    26.9640    24.2650 
   74.6250     2.1740   -23.9990    76.7810    19.8030    19.5810    25.9290    24.9220 
   74.7500     2.1890   -24.2580    80.8340    15.2760    15.5750    20.3940    25.2680 
   74.8750     2.2170   -24.5410    85.6220    11.5440    12.0880    13.3810    25.0270 
   75.0000     2.2620   -24.8110    91.2010     8.9310     9.4820     7.8470    24.3420 
   75.1250     2.3120   -25.0440    98.1360     7.4970     7.8580     6.3550    23.6710 
   75.2500     2.3520   -25.2620   103.3930     6.9210     6.9460     6.2130    23.2500 
   75.3750     2.3740   -25.4620   105.0530     6.9810     6.5900     6.7460    23.0520 
   75.5000     2.3770   -25.6530   104.9390     7.3210     6.5780     6.8250    23.1150 
   75.6250     2.3660   -25.8590   103.9330     7.5360     6.6620     6.2870    23.5440 
   75.7500     2.3560   -26.0500   102.6130     7.5290     6.6920     5.5830    24.1510 
   75.8750     2.3580   -26.1900   101.9930     7.5490     6.7520     5.5570    24.5980 
   76.0000     2.3800   -26.2880   101.8350     7.9680     7.0290     6.5810    24.7540 
   76.1250     2.4170   -26.3090    98.9040     9.0770     7.7490     9.2130    24.7570 
   76.2500     2.4390   -26.2270    94.1700    10.5510     8.8030    12.5650    24.7570 
   76.3750     2.4170   -26.0340    90.5540    11.8970     9.9150    12.4970    24.7730 
   76.5000     2.3470   -25.7320    88.6850    12.7070    10.7560     8.7730    24.8060 
   76.6250     2.2610   -25.3160    86.6900    12.9770    11.2000     8.5810    24.8370 
   76.7500     2.1910   -24.8500    83.2740    13.1880    11.5390    10.5390    24.9410 
   76.8750     2.1420   -24.4170    79.5730    13.5070    11.9260    12.8140    25.1740 
   77.0000     2.1130   -24.0540    76.8550    13.7440    12.2490    13.3560    25.3920 
   77.1250     2.1100   -23.7980    76.6310    13.3490    12.0580    13.0790    25.4750 
   77.2500     2.1270   -23.6510    79.2500    12.1720    11.1760    13.2390    25.4710 
   77.3750     2.1580   -23.6190    85.3700    10.4490     9.7580    11.9010    25.3450 
   77.5000     2.2050   -23.6940    93.1600     8.6220     8.1740     8.7320    24.9770 
   77.6250     2.2610   -23.8430    99.9820     7.1170     6.7890     5.9060    24.3860 
   77.7500     2.2960   -24.0600   105.3090     6.0440     5.7340     5.2320    23.9930 
   77.8750     2.2990   -24.2950   108.9680     5.4020     5.0500     5.2250    23.8320 
   78.0000     2.2900   -24.5060   109.3020     5.1220     4.7090     5.0840    23.7990 
   78.1250     2.2850   -24.6490   104.8730     5.1570     4.6690     4.7920    23.8010 
   78.2500     2.2810   -24.7440   100.6540     5.4000     4.7840     4.7600    23.8040 
   78.3750     2.2740   -24.7880   100.7710     5.8190     4.9770     4.7430    23.8050 
   78.5000     2.2670   -24.7990   104.7310     6.3520     5.1980     4.5030    23.8020 
   78.6250     2.2630   -24.8050   107.3720     6.8910     5.4260     4.4420    23.8000 
   78.7500     2.2630   -24.8020   107.4390     7.3190     5.6560     4.6840    23.8000 
   78.8750     2.2690   -24.7940   105.3180     7.5790     5.8830     4.9540    23.8070 
   79.0000     2.2790   -24.8110   102.0770     7.7120     6.1010     5.1570    23.8390 
   79.1250     2.2860   -24.8980   100.9610     7.8330     6.2950     5.4900    23.9300 
   79.2500     2.2810   -25.0550   102.9280     8.0330     6.4500     5.7280    24.0520 
   79.3750     2.2660   -25.2670   104.2560     8.3490     6.5740     6.0660    24.1530 
   79.5000     2.2500   -25.4880   100.2580     8.7470     6.6920     6.3820    24.2130 
   79.6250     2.2480   -25.7230    95.7410     9.1230     6.8260     6.5990    24.2290 
   79.7500     2.2590   -25.9060    95.0950     9.3810     6.9720     6.7920    24.2330 
   79.8750     2.2830   -26.0440    95.7930     9.5230     7.1290     7.0440    24.2330 
   80.0000     2.3210   -26.1170    96.1250     9.6160     7.3090     7.6080    24.2330 
   80.1250     2.3660   -26.1340    95.8610     9.7530     7.5330     8.1000    24.2330 
   80.2500     2.3980   -26.0650    93.9110     9.9920     7.7970     8.6310    24.2280 
   80.3750     2.4080   -25.9370    91.2150    10.3430     8.0870     9.4770    24.1730 
   80.5000     2.3990   -25.7630    90.0390    10.7250     8.3470    11.0250    23.9270 
   80.6250     2.3640   -25.5540    91.2190    10.8900     8.4300    10.6660    23.3920 
   80.7500     2.3180   -25.3630    90.3020    10.6620     8.2630     8.9500    22.8780 
   80.8750     2.2790   -25.1770    88.7340    10.0800     7.8810     7.3280    22.6580 
   81.0000     2.2540   -24.9940    89.9480     9.4480     7.4410     6.3860    22.6220 
   81.1250     2.2350   -24.8240    92.8240     9.2400     7.1960     6.3700    22.6330 
   81.2500     2.2170   -24.6800    93.0320     9.5690     7.2510     6.7800    22.6640 
   81.3750     2.2040   -24.5480    89.3770    10.2820     7.5870     7.3110    22.7070 
   81.5000     2.1970   -24.4630    84.7490    11.0090     8.0670     7.9860    22.7490 
   81.6250     2.1950   -24.3990    83.3420    11.1960     8.4310     9.0350    22.7600 
   81.7500     2.2030   -24.3620    85.1920    10.6830     8.4770     8.7710    22.7630 
   81.8750     2.2200   -24.3530    89.8100     9.6440     8.1680     7.2390    22.7610 
   82.0000     2.2350   -24.3830    93.6380     8.4910     7.6490     6.5610    22.7600 
   82.1250     2.2410   -24.3960    93.1160     7.6660     7.1810     6.5520    22.7650 
   82.2500     2.2490   -24.4080    90.0120     7.2330     6.9050     6.7200    22.7740 
   82.3750     2.2650   -24.4250    88.1750     7.0600     6.7970     6.8510    22.7990 
   82.5000     2.2860   -24.4200    89.7710     6.9570     6.7200     6.9750    22.8700 
   82.6250     2.3040   -24.4030    92.4170     6.7870     6.4940     7.0890    22.9840 
   82.7500     2.3130   -24.3500    92.5030     6.5880     6.1130     6.6170    23.0920 
   82.8750     2.3090   -24.2920    91.2960     6.4480     5.6840     5.6550    23.1670 
   83.0000     2.2950   -24.2060    93.4960     6.4040     5.3340     5.0050    23.1990 
   83.1250     2.2820   -24.1560    98.9800     6.4760     5.1990     4.7710    23.2060 
   83.2500     2.2730   -24.1090   100.4770     6.7540     5.3330     4.7480    23.2060 
   83.3750     2.2580   -24.0570    96.0980     7.4970     5.8580     5.3520    23.2060 
   83.5000     2.2310   -23.9870    89.7940     9.0450     6.9590     7.0470    23.2080 
   83.6250     2.1980   -23.8860    84.9830    11.7970     8.9350    10.0380    23.2580 
