~V
VERS. 2.00: Ver 2.00
~W
STRT.M 46.0000:
STOP.M 208.0000:
STEP.M 0.1250:
NULL. -999.2500:
UWI. F10533:
~C
DEPT.M :
GR.API :
RML.OHMM :
RI. :
RXO.OHMM :
CALI.CM :
DEN.GM/CC :
SP.MV :
~A
   46.0000  -999.2500  -999.2500  -999.2500  -999.2500  -999.2500  -999.2500    62.7620 
   46.1250  -999.2500  -999.2500  -999.2500  -999.2500  -999.2500  -999.2500    63.0630 
   46.2500  -999.2500  -999.2500  -999.2500  -999.2500  -999.2500  -999.2500    62.8260 
   46.3750  -999.2500  -999.2500  -999.2500  -999.2500  -999.2500  -999.2500    62.0310 
   46.5000  -999.2500  -999.2500  -999.2500  -999.2500  -999.2500  -999.2500    60.6320 
   46.6250  -999.2500  -999.2500  -999.2500  -999.2500  -999.2500  -999.2500    58.6940 
   46.7500    42.9320     2.6870     0.5940     0.4210    25.2960  -999.2500    56.5310 
   46.8750    42.9320     2.6870     0.5940     0.4210    25.2960  -999.2500    54.3580 
   47.0000    42.2310     2.5020     0.5880     0.4200    25.2960  -999.2500    52.3380 
   47.1250    40.8100     2.3800     0.5810     0.4190    25.2880  -999.2500    50.5900 
   47.2500    40.1260     2.3790     0.5760     0.4170    25.2690  -999.2500    49.2220 
   47.3750    40.5040     2.4870     0.5730     0.4180    25.2480  -999.2500    48.2740 
   47.5000    41.7130     2.6710     0.5740     0.4200    25.2380  -999.2500    47.7720 
   47.6250    45.4640     2.8680     0.5780     0.4250    25.2370  -999.2500    47.6360 
   47.7500    50.5610     3.0070     0.5820     0.4380    25.2350  -999.2500    47.6470 
   47.8750    54.3310     3.0590     0.5870     0.4530    25.2300     1.9400    47.6390 
   48.0000    56.3780     3.0360     0.5910     0.4630    25.2250     1.9400    47.4670 
   48.1250    56.5950     2.9610     0.5940     0.4630    25.2200     1.9280    46.9790 
   48.2500    55.6940     2.8450     0.5940     0.4610    25.2180     1.9260    46.0840 
   48.3750    54.5130     2.6930     0.5890     0.4590    25.2170     1.9430    44.7010 
   48.5000    55.1060     2.5110     0.5830     0.4490    25.2170     1.9800    42.7980 
   48.6250    58.2950     2.2970     0.5780     0.4410    25.2050     2.0290    40.1760 
   48.7500    59.2170     2.0840     0.5760     0.4230    25.1510     2.0870    36.8130 
   48.8750    57.8240     1.9040     0.5770     0.3720    25.0090     2.1630    32.6170 
   49.0000    57.4750     1.7840     0.5790     0.2850    24.7430     2.2610    27.6240 
   49.1250    55.4510     1.7340     0.5780     0.2460    24.5770     2.3590    21.9620 
   49.2500    49.3490     1.7110     0.5760     0.2710    24.5050     2.4160    15.8970 
   49.3750    41.5920     1.6820     0.5720     0.3890    24.4850     2.4170     9.6570 
   49.5000    36.7900     1.6400     0.5670     0.5720    24.4940     2.3780     3.4730 
   49.6250    35.2040     1.5520     0.5630     0.5050    24.5080     2.3290    -2.3440 
   49.7500    35.2380     1.3710     0.5610     0.3800    24.5080     2.2940    -7.6110 
   49.8750    36.1220     1.1290     0.5620     0.3400    24.4510     2.2770   -12.1460 
   50.0000    34.8520     0.9230     0.5620     0.4420    24.3270     2.2760   -15.8810 
   50.1250    32.4670     0.8780     0.5620     0.5570    24.2780     2.2860   -18.7010 
   50.2500    32.8360     0.9940     0.5600     0.6240    24.2500     2.3020   -20.7370 
   50.3750    35.7060     1.2090     0.5590     0.6820    24.1660     2.3190   -22.0720 
   50.5000    37.5460     1.4110     0.5560     0.7670    24.0190     2.3310   -22.7780 
   50.6250    38.4010     1.4760     0.5530     0.8480    23.8660     2.3350   -22.7830 
   50.7500    40.0080     1.4390     0.5510     0.8630    23.7400     2.3370   -22.2930 
   50.8750    40.9780     1.3500     0.5490     0.8160    23.6630     2.3390   -21.3680 
   51.0000    41.2450     1.2020     0.5480     0.7700    23.6270     2.3430   -20.0130 
   51.1250    43.1390     0.9800     0.5430     0.7970    23.6200     2.3500   -18.2080 
   51.2500    46.8060     0.7760     0.5350     0.8050    23.6200     2.3560   -16.1250 
   51.3750    49.6650     0.6850     0.5230     0.7480    23.6200     2.3600   -13.8320 
   51.5000    49.3270     0.7550     0.5120     0.6180    23.6430     2.3620   -11.3770 
   51.6250    45.7770     0.9910     0.5070     0.5700    23.6490     2.3640    -8.7780 
   51.7500    43.3950     1.2660     0.5100     0.6690    23.5070     2.3670    -6.0460 
   51.8750    45.3450     1.4360     0.5190     0.8220    23.1780     2.3740    -3.1110 
   52.0000    49.2960     1.4050     0.5300     0.9030    22.8520     2.3880     0.0790 
   52.1250    48.8920     1.2250     0.5360     0.9290    22.6680     2.4110     3.5520 
   52.2500    44.8760     1.0590     0.5340     0.9680    22.5710     2.4370     7.2720 
   52.3750    41.2720     0.9530     0.5270     0.9460    22.5390     2.4660    11.2490 
   52.5000    38.5810     0.8970     0.5210     0.8440    22.5610     2.5020    15.4050 
   52.6250    36.1180     0.8710     0.5240     0.7540    22.6270     2.5480    19.5540 
   52.7500    35.9870     0.8700     0.5370     0.7440    22.6970     2.5940    23.4950 
   52.8750    37.7930     0.9000     0.5570     0.7860    22.7510     2.6180    26.9880 
   53.0000    38.6920     0.9420     0.5750     0.8200    22.8130     2.5870    29.7480 
   53.1250    37.0050     0.9680     0.5840     0.7760    22.9810     2.4880    31.3510 
   53.2500    35.5310     0.9690     0.5810     0.6600    23.3140     2.3610    31.8510 
   53.3750    35.4150     0.9490     0.5680     0.4990    23.7960     2.2370    31.2580 
   53.5000    35.8190     0.9150     0.5500     0.3480    24.2380     2.1360    29.5590 
   53.6250    37.0570     0.8710     0.5350     0.3340    24.4250     2.0680    26.6170 
   53.7500    38.1680     0.8410     0.5300     0.3900    24.4950     2.0230    22.7940 
   53.8750    37.0430     0.8470     0.5370     0.4450    24.5260     1.9880    18.2780 
   54.0000    33.9530     0.9030     0.5530     0.5170    24.4140     1.9540    13.2690 
   54.1250    33.4070     0.9930     0.5700     0.5500    24.1990     1.9210     8.0050 
   54.2500    35.4640     1.0500     0.5760     0.5980    24.0500     1.8950     2.6580 
   54.3750    37.5650     1.0250     0.5710     0.6570    24.0920     1.8760    -2.7340 
   54.5000    37.7120     0.9180     0.5600     0.7150    24.3200     1.8650    -8.0140 
   54.6250    35.9030     0.7600     0.5520     0.6960    24.6120     1.8610   -12.9410 
   54.7500    34.5890     0.6070     0.5500     0.6680    24.4650     1.8570   -17.5230 
   54.8750    35.2680     0.4770     0.5530     0.7110    24.2560     1.8510   -21.6660 
   55.0000    36.5910     0.3600     0.5570     0.8010    24.2250     1.8410   -25.2680 
   55.1250    36.5380     0.2540     0.5570     0.8520    24.3480     1.8310   -28.2420 
   55.2500    36.4520     0.1650     0.5560     0.7520    24.4360     1.8200   -30.6330 
   55.3750    36.6530     0.1130     0.5570     0.6360    24.4520     1.8060   -32.3650 
   55.5000    35.4410     0.1180     0.5630     0.5350    24.4620     1.7880   -33.4470 
   55.6250    33.8200     0.1810     0.5770     0.5280    24.4970     1.7720   -33.7940 
   55.7500    34.2690     0.2600     0.5960     0.4930    24.6380     1.7650   -33.4900 
   55.8750    35.5580     0.3230     0.6120     0.4200    24.8800     1.7720   -32.6280 
   56.0000    36.1270     0.3850     0.6200     0.3330    24.9960     1.7920   -31.2990 
   56.1250    35.6920     0.4890     0.6160     0.2680    24.9590     1.8190   -29.4370 
   56.2500    35.6310     0.6250     0.6060     0.3010    24.9330     1.8400   -27.1640 
   56.3750    36.7060     0.7290     0.5940     0.4280    25.0310     1.8470   -24.6470 
   56.5000    38.5610     0.7260     0.5850     0.5530    25.1970     1.8400   -22.0340 
   56.6250    39.4740     0.5980     0.5780     0.6440    25.2740     1.8340   -19.4470 
   56.7500    38.5380     0.3990     0.5630     0.6770    25.2930     1.8500   -17.0320 
   56.8750    36.6210     0.1320     0.5300     0.7660    25.2800     1.9040   -14.8540 
   57.0000    34.6740    -0.1850     0.4710     0.8630    25.2490     2.0070   -12.9460 
   57.1250    34.4330    -0.4460     0.3990     0.8040    25.2100     2.1610   -11.4990 
