~V
VERS. 2.00: Ver 2.00
~W
STRT.M 52.0000:
STOP.M 208.0000:
STEP.M 0.1250:
NULL. -999.2500:
UWI. F10572:
~C
DEPT.M :
GR.API :
RML.OHMM :
RI. :
RXO.OHMM :
CALI.CM :
DEN.GM/CC :
SP.MV :
~A
# ...
  130.7500    47.1590    27.4850    22.4350    28.5970    23.8690     2.5820   -21.1880 
  130.8750    45.5310    25.5850    21.1840    26.0550    24.0660     2.5570   -20.9410 
  131.0000    42.7950    22.5330    18.9850    22.5800    24.0840     2.5220   -20.6480 
  131.1250    41.6790    19.4680    16.6310    16.3910    23.7720     2.4910   -20.4380 
  131.2500    42.9660    17.2350    14.8020    11.6110    23.3080     2.4730   -20.3160 
  131.3750    45.9190    16.0690    13.7250    10.1360    22.9540     2.4700   -20.2160 
  131.5000    49.7080    15.8870    13.3930    10.4250    22.7600     2.4820   -20.1050 
  131.6250    52.9810    16.4970    13.7390    12.1190    22.7030     2.4980   -20.0090 
  131.7500    54.8070    17.3480    14.3830    15.2390    22.7350     2.5050   -19.9800 
  131.8750    56.4590    18.0320    15.0060    16.8340    22.8520     2.4940   -20.0060 
  132.0000    57.8950    18.2730    15.3360    14.2170    23.0010     2.4670   -20.0560 
  132.1250    57.3350    17.9850    15.2270    12.8970    23.0910     2.4350   -20.1190 
  132.2500    55.4700    17.4530    14.8610    11.9260    23.0030     2.4110   -20.1930 
  132.3750    54.0620    16.8840    14.4080    11.4020    22.7570     2.4000   -20.2820 
  132.5000    53.6990    16.4190    14.0090    11.2610    22.3570     2.4010   -20.3670 
  132.6250    54.7800    16.1620    13.7660    11.1810    21.8920     2.4100   -20.4310 
  132.7500    56.9760    16.1250    13.6910    10.6150    21.6350     2.4230   -20.4650 
  132.8750    58.8710    16.3410    13.8080    10.4740    21.6380     2.4420   -20.4760 
  133.0000    58.3890    16.7930    14.1130    11.0480    21.7850     2.4690   -20.4960 
  133.1250    55.5610    17.3700    14.5510    11.8020    21.7930     2.4950   -20.5150 
  133.2500    54.0070    17.8580    14.9660    13.1480    21.6220     2.5100   -20.5170 
  133.3750    54.8220    18.1090    15.2280    13.9270    21.4540     2.5140   -20.5050 
  133.5000    55.1370    18.0790    15.2640    13.2690    21.5390     2.5100   -20.5020 
  133.6250    51.9720    17.8500    15.0960    12.1950    21.9480     2.5050   -20.5260 
  133.7500    48.6480    17.6140    14.8860    12.2340    22.4970     2.5050   -20.5660 
  133.8750    47.8810    17.4430    14.7120    13.0120    23.1920     2.5070   -20.6330 
  134.0000    48.2570    17.3150    14.5860    13.7720    23.9030     2.5060   -20.6910 
  134.1250    47.2580    17.1730    14.4700    14.2390    24.3330     2.4990   -20.6860 
  134.2500    46.8120    16.9990    14.3360    14.8950    24.3970     2.4860   -20.6760 
  134.3750    47.6580    16.8640    14.2220    14.8940    24.3170     2.4700   -20.7020 
  134.5000    47.6400    16.9310    14.2350    14.5750    24.2560     2.4580   -20.7400 
  134.6250    46.7440    17.4720    14.5740    14.4470    24.2270     2.4590   -20.7380 
  134.7500    49.1490    18.5090    15.2770    14.9790    24.2450     2.4720   -20.6850 
  134.8750    53.6400    19.9340    16.2930    15.5140    24.2410     2.4890   -20.6130 
  135.0000    55.6850    21.4230    17.4120    17.1810    24.1840     2.5000   -20.5810 
  135.1250    54.6420    22.3320    18.1770    19.6200    24.1200     2.4990   -20.5570 
  135.2500    55.2790    22.2820    18.2500    20.8200    24.0720     2.4910   -20.4830 
  135.3750    56.8910    21.2630    17.5630    19.3250    24.0620     2.4860   -20.3960 
  135.5000    55.8780    19.6850    16.3740    15.9870    24.0140     2.4850   -20.3190 
  135.6250    52.8340    18.2390    15.1760    13.8560    23.9150     2.4870   -20.2360 
  135.7500    51.0700    17.4300    14.3870    13.0130    23.9490     2.4850   -20.1780 
  135.8750    51.8580    17.4940    14.2140    12.6760    24.1280     2.4790   -20.1570 
  136.0000    53.9380    18.5190    14.7530    13.2940    24.2950     2.4740   -20.0930 
  136.1250    55.2830    20.5980    16.1240    15.5720    24.3220     2.4750   -20.0120 
  136.2500    55.8610    23.3130    18.0660    19.5220    24.2760     2.4790   -19.9770 
  136.3750    58.1700    26.2020    20.2740    23.3670    24.2130     2.4800   -19.9280 
  136.5000    63.1470    28.6280    22.2710    24.9610    24.1700     2.4740   -19.8490 
  136.6250    67.8530    29.7170    23.3520    25.8650    24.1420     2.4670   -19.7720 
  136.7500    68.8540    29.4330    23.3720    26.6330    24.1190     2.4650   -19.6870 
  136.8750    65.8320    28.1010    22.5010    26.8510    24.1320     2.4710   -19.5880 
  137.0000    60.4700    26.2870    21.1480    24.4320    24.1680     2.4820   -19.5250 
  137.1250    56.0670    24.6010    19.7720    21.2030    24.1810     2.4900   -19.4980 
  137.2500    54.6500    23.3970    18.6860    18.2920    24.1660     2.4950   -19.4430 
  137.3750    55.9720    22.7880    18.0110    17.1350    24.1470     2.4950   -19.3830 
  137.5000    58.5050    22.7400    17.7580    17.6890    24.1360     2.4900   -19.3660 
  137.6250    59.8090    23.1320    17.8800    18.8130    24.1400     2.4790   -19.3690 
  137.7500    59.2120    23.6800    18.1750    20.4410    24.1560     2.4660   -19.3390 
  137.8750    57.3290    24.2870    18.5510    22.2400    24.1770     2.4580   -19.2720 
  138.0000    56.0910    25.0070    19.0120    22.5340    24.1910     2.4590   -19.2140 
  138.1250    54.9040    26.0000    19.6600    21.1480    24.1870     2.4660   -19.1990 
  138.2500    54.7480    27.1670    20.4440    20.8670    24.1690     2.4740   -19.1800 
  138.3750    56.2880    28.1720    21.1600    22.5960    24.1370     2.4770   -19.1570 
  138.5000    57.5880    28.5150    21.4820    26.8470    24.0670     2.4740   -19.1410 
  138.6250    56.9130    27.6270    21.0070    28.0000    23.8970     2.4660   -19.1420 
  138.7500    55.9350    25.8340    19.8870    24.8990    23.6500     2.4570   -19.1530 
  138.8750    56.2990    23.7180    18.4660    19.6740    23.4230     2.4500   -19.1730 
  139.0000    55.4880    21.9420    17.1770    16.7640    23.3190     2.4500   -19.1890 
  139.1250    52.1040    21.1100    16.4510    16.7910    23.3510     2.4590   -19.1620 
  139.2500    51.2960    21.1270    16.3010    16.2960    23.4470     2.4740   -19.1160 
  139.3750    52.9690    21.6240    16.5450    16.1670    23.5680     2.4900   -19.0660 
  139.5000    54.4120    21.8480    16.7100    16.9550    23.6140     2.4970   -18.9940 
  139.6250    53.6780    20.6230    15.9640    18.2810    23.5640     2.4830   -18.9120 
  139.7500    52.2320    17.9190    14.1690    18.2320    23.4790     2.4500   -18.8320 
  139.8750    50.6660    14.4670    11.7480    15.2120    23.4020     2.4070   -18.7350 
  140.0000    49.5970    11.2250     9.3540    10.8580    23.2790     2.3680   -18.6220 
  140.1250    51.8210     8.9390     7.5400     6.9510    23.1050     2.3490   -18.5470 
  140.2500    54.5680     7.5380     6.3330     5.0040    23.0480     2.3460   -18.5150 
  140.3750    55.9210     6.8330     5.6460     4.4050    23.0670     2.3530   -18.4970 
  140.5000    57.3730     6.5970     5.3450     4.3510    23.0070     2.3600   -18.4940 
  140.6250    59.8850     6.6410     5.3160     4.4080    22.8420     2.3620   -18.5390 
  140.7500    62.5040     6.7570     5.3880     4.4830    22.6390     2.3630   -18.6740 
  140.8750    64.5380     6.8650     5.4770     4.6650    22.4910     2.3660   -18.8630 
  141.0000    65.8430     6.9450     5.5450     4.9900    22.4510     2.3730   -19.0550 
  141.1250    67.1130     6.9940     5.5850     5.3400    22.6380     2.3850   -19.2610 
  141.2500    67.8540     7.0020     5.6020     5.7300    23.0960     2.3940   -19.5130 
  141.3750    68.1990     6.9590     5.5930     6.1760    23.6780     2.3960   -19.7830 
  141.5000    69.0880     6.8920     5.5660     6.4830    24.0640     2.3890   -20.0260 
  141.6250    69.6880     6.8840     5.5600     6.4090    24.1580     2.3810   -20.2500 
  141.7500    69.2480     7.0070     5.6190     6.0580    24.1600     2.3800   -20.4380 
  141.8750    69.3870     7.2950     5.7700     5.9330    24.1370     2.3870   -20.5890 
