~V
VERS. 2.00: Ver 2.00
~W
STRT.M 50.0000:
STOP.M 214.0000:
STEP.M 0.1250:
NULL. -999.2500:
UWI. F10534:
~C
DEPT.M :
DEN.GM/CC :
SP.MV :
GR.API :
RML.OHMM :
RI. :
RXO.OHMM :
CALI.CM :
~A
# ...
  128.7500     2.2150   -26.4940    85.2290     7.2490     6.9240     6.7640    22.8240 
  128.8750     2.1890   -26.7430    86.4500     6.9180     6.4080     6.9570    22.8240 
  129.0000     2.1760   -26.9610    85.6970     7.1020     6.3320     7.7150    22.8240 
  129.1250     2.1680   -27.1060    81.5370     7.6450     6.6390     8.4670    22.8410 
  129.2500     2.1580   -27.2020    77.1440     8.2030     7.0630     8.0360    22.8850 
  129.3750     2.1470   -27.2570    75.7640     8.5460     7.4010     7.5960    22.9390 
  129.5000     2.1440   -27.2780    79.8250     8.5820     7.5360     7.4230    22.9690 
  129.6250     2.1510   -27.2490    86.3210     8.3580     7.4510     7.3860    22.9740 
  129.7500     2.1560   -27.1680    88.5460     8.0780     7.2820     7.2840    22.9730 
  129.8750     2.1570   -27.0190    84.5750     7.8520     7.1160     7.2040    22.9710 
  130.0000     2.1560   -26.8140    77.4970     7.7280     7.0030     7.1780    22.9730 
  130.1250     2.1610   -26.5990    73.5430     7.6970     6.9560     7.2010    22.9510 
  130.2500     2.1690   -26.3780    73.3320     7.6780     6.9240     7.2150    22.8780 
  130.3750     2.1790   -26.1610    76.3860     7.5900     6.8490     7.2850    22.7710 
  130.5000     2.1910   -25.9290    82.8670     7.3750     6.6770     7.2230    22.8100 
  130.6250     2.2110   -25.7360    89.3370     7.0200     6.3770     6.8820    23.1460 
  130.7500     2.2340   -25.5810    92.5370     6.6490     6.0370     6.5580    23.5930 
  130.8750     2.2520   -25.5010    93.5490     6.3760     5.7500     6.5420    23.8120 
  131.0000     2.2580   -25.5080    93.2530     6.2620     5.5840     6.6450    23.8550 
  131.1250     2.2510   -25.6290    93.6870     6.3140     5.5690     6.6440    23.8510 
  131.2500     2.2380   -25.8290    94.0330     6.4270     5.6360     6.6130    23.8230 
  131.3750     2.2200   -26.0740    92.8680     6.5360     5.7270     6.6000    23.7150 
  131.5000     2.1940   -26.3440    89.7540     6.6160     5.8050     6.5700    23.4860 
  131.6250     2.1590   -26.5640    85.2270     6.6870     5.8690     6.5070    23.2360 
  131.7500     2.1270   -26.7230    82.0960     6.7780     5.9440     6.4450    23.0430 
  131.8750     2.1070   -26.7990    79.8790     6.8920     6.0520     6.4270    22.9240 
  132.0000     2.1020   -26.7780    78.6570     7.0300     6.2050     6.5220    22.8700 
  132.1250     2.1060   -26.6080    78.5540     7.2030     6.4130     6.6590    22.8710 
  132.2500     2.1150   -26.3260    77.8880     7.3970     6.6480     7.0500    22.8890 
  132.3750     2.1330   -25.9390    77.6430     7.5620     6.8620     7.8000    22.8980 
  132.5000     2.1650   -25.4900    78.9120     7.6050     6.9800     8.5510    22.8990 
  132.6250     2.2000   -24.9960    82.3180     7.3970     6.8960     8.0530    22.8990 
  132.7500     2.2190   -24.5130    85.1830     6.9670     6.6180     7.4140    22.9000 
  132.8750     2.2250   -24.0490    84.1820     6.3900     6.1860     6.8470    22.9170 
  133.0000     2.2320   -23.6160    81.1660     5.7770     5.6740     6.2150    22.9700 
  133.1250     2.2490   -23.2790    83.7690     5.2660     5.1790     5.5220    23.1060 
  133.2500     2.2670   -23.0300    90.7130     4.9290     4.7890     5.1120    23.2940 
  133.3750     2.2750   -22.8820    95.3130     4.7890     4.5510     5.1510    23.5260 
  133.5000     2.2670   -22.8170    95.7740     4.8230     4.4700     5.3010    23.6590 
  133.6250     2.2520   -22.8750    96.8740     4.9660     4.5180     5.3150    23.6750 
  133.7500     2.2430   -23.0030    98.7990     5.0980     4.6000     5.3090    23.6370 
  133.8750     2.2400   -23.1950    97.4050     5.1460     4.6550     5.3120    23.5900 
  134.0000     2.2440   -23.4390    92.4260     5.0990     4.6560     5.3620    23.5240 
  134.1250     2.2570   -23.7340    89.4860     4.9910     4.6010     5.2790    23.4900 
  134.2500     2.2750   -24.0680    92.7930     4.8820     4.5170     5.1380    23.4630 
  134.3750     2.2910   -24.4520   100.0960     4.8010     4.4220     4.9130    23.4230 
  134.5000     2.2990   -24.8920   104.3780     4.7870     4.3540     4.6850    23.3700 
  134.6250     2.2940   -25.4030   100.9260     4.9360     4.4050     4.6160    23.2560 
  134.7500     2.2820   -25.9660    96.7190     5.3080     4.6450     4.8360    23.0520 
  134.8750     2.2650   -26.5610    93.7970     5.9310     5.1120     5.4290    22.7720 
  135.0000     2.2400   -27.1500    89.5400     6.7420     5.7740     5.9850    22.5450 
  135.1250     2.2120   -27.6870    84.1290     7.5410     6.4960     6.3630    22.4690 
  135.2500     2.1870   -28.1480    80.6460     8.0890     7.0670     6.6510    22.4550 
  135.3750     2.1660   -28.5260    79.3880     8.2780     7.3650     6.7930    22.4540 
  135.5000     2.1480   -28.8220    78.8840     8.1740     7.3970     6.7630    22.4460 
  135.6250     2.1380   -28.9930    78.6450     7.9660     7.2740     6.6390    22.4070 
  135.7500     2.1400   -29.0450    78.6030     7.8390     7.1570     6.6710    22.3220 
  135.8750     2.1530   -29.0060    79.1530     7.8430     7.1070     6.8550    22.1310 
  136.0000     2.1710   -28.9140    81.6830     7.9670     7.1440     7.0630    21.7900 
  136.1250     2.1870   -28.7720    84.7870     8.1810     7.2680     7.0180    21.4340 
  136.2500     2.2010   -28.6060    87.7680     8.4470     7.4510     6.9880    21.5140 
  136.3750     2.2130   -28.4170    90.2700     8.7910     7.7030     6.9660    21.8850 
  136.5000     2.2230   -28.2060    89.5250     9.2850     8.0730     7.0990    22.1950 
  136.6250     2.2290   -27.9730    83.9180    10.0410     8.6670     7.5280    22.4140 
  136.7500     2.2260   -27.7570    77.6820    11.0050     9.4800     8.8380    22.6780 
  136.8750     2.2110   -27.5470    73.5810    11.9910    10.4130    12.0860    22.9320 
  137.0000     2.1950   -27.3450    72.8050    12.6570    11.2030    16.7830    22.9990 
  137.1250     2.1930   -27.1590    75.3590    12.5120    11.3800    14.6590    22.8420 
  137.2500     2.1900   -26.9970    77.0730    11.6480    10.8800    10.0750    22.6470 
  137.3750     2.1750   -26.8590    75.3650    10.4260     9.9370     8.0260    22.5520 
  137.5000     2.1540   -26.7590    73.6930     9.2920     8.9330     7.6040    22.5310 
  137.6250     2.1460   -26.7010    75.1900     8.6000     8.2150     7.6570    22.5310 
  137.7500     2.1460   -26.6590    76.7180     8.3040     7.8300     7.6660    22.5310 
  137.8750     2.1420   -26.6430    75.9770     8.2880     7.7120     7.7220    22.5310 
  138.0000     2.1320   -26.6560    74.6970     8.4150     7.7530     7.8230    22.5300 
  138.1250     2.1150   -26.6880    74.2480     8.5580     7.8410     7.9130    22.5140 
  138.2500     2.0980   -26.7200    74.2120     8.6300     7.8930     7.8840    22.4130 
  138.3750     2.0920   -26.7610    74.1130     8.6110     7.8910     7.7660    22.1630 
  138.5000     2.1000   -26.8080    73.6990     8.5320     7.8520     7.6100    21.8590 
  138.6250     2.1140   -26.8570    74.3540     8.4520     7.8190     7.4570    21.7580 
  138.7500     2.1260   -26.9030    76.1750     8.4090     7.8200     7.3400    21.7190 
  138.8750     2.1340   -26.9070    76.3450     8.4030     7.8510     7.3250    21.6840 
  139.0000     2.1400   -26.8880    74.3550     8.4070     7.8850     7.3640    21.6740 
  139.1250     2.1400   -26.8340    74.9230     8.3750     7.8800     7.3300    21.7010 
  139.2500     2.1360   -26.7810    77.2780     8.2860     7.8210     7.2660    21.7150 
  139.3750     2.1290   -26.7000    77.4570     8.1470     7.7190     7.2530    21.7190 
  139.5000     2.1180   -26.5700    76.0200     7.9840     7.5960     7.2710    21.7190 
  139.6250     2.1060   -26.4150    76.9430     7.8310     7.4740     7.2090    21.7210 
  139.7500     2.0960   -26.2500    77.4050     7.6990     7.3530     7.1200    21.7420 
  139.8750     2.0950   -26.1120    75.0730     7.5630     7.2060     7.0060    21.8030 
