~V
VERS. 2.00: Ver 2.00
~W
STRT.M 60.0000:
STOP.M 200.0000:
STEP.M 0.1250:
NULL. -999.2500:
UWI. F10576:
~C
DEPT.M :
GR.API :
RML.OHMM :
RI. :
RXO.OHMM :
CALI.CM :
DEN.GM/CC :
SP.MV :
~A
# ...
  127.5000    57.6950    18.5370    17.1270    15.5780    23.6830     2.4870   -25.8850 
  127.6250    55.1360    19.2500    17.6280    17.1990    23.5960     2.5000   -25.9260 
  127.7500    54.0890    19.7110    17.9460    17.4550    23.4230     2.5080   -25.9760 
  127.8750    54.0120    19.7260    17.9360    16.6820    23.2350     2.5080   -26.0360 
  128.0000    54.0610    19.2850    17.5680    16.2600    23.2000     2.5020   -26.0920 
  128.1250    53.2540    18.5990    16.9620    16.0640    23.4610     2.4940   -26.1350 
  128.2500    51.1840    18.0460    16.4150    15.3390    23.8210     2.4890   -26.1750 
  128.3750    49.7450    17.8500    16.1390    14.7460    24.0210     2.4890   -26.2370 
  128.5000    50.9170    18.1080    16.2660    14.8090    24.0500     2.4930   -26.2880 
  128.6250    54.7170    18.8250    16.8690    16.3640    24.0200     2.4950   -26.3150 
  128.7500    58.4110    19.7260    17.7220    18.3170    24.0280     2.4930   -26.3270 
  128.8750    59.8480    20.5310    18.5610    18.9000    24.0330     2.4890   -26.3260 
  129.0000    59.3990    20.9510    19.0960    18.9670    24.0280     2.4890   -26.3120 
  129.1250    57.7980    20.7110    19.0410    19.3660    24.0240     2.4960   -26.3080 
  129.2500    55.0920    19.9750    18.5150    18.3130    24.0090     2.5080   -26.3090 
  129.3750    52.1550    18.9910    17.7150    16.3330    23.9750     2.5170   -26.2880 
  129.5000    51.7820    18.0380    16.8720    15.8960    23.9450     2.5190   -26.2690 
  129.6250    53.9350    17.3690    16.1970    16.0290    23.9630     2.5100   -26.2440 
  129.7500    55.2150    16.9900    15.7350    15.8360    24.0020     2.4990   -26.2150 
  129.8750    55.3950    16.8340    15.4640    14.9360    24.0110     2.4930   -26.2130 
  130.0000    56.2650    16.7930    15.3230    14.8890    24.0010     2.4940   -26.2210 
  130.1250    57.0050    16.7720    15.2440    15.4260    23.9220     2.5030   -26.2340 
  130.2500    55.4450    16.7240    15.1610    15.5960    23.8110     2.5110   -26.2480 
  130.3750    52.3390    16.6260    15.0470    15.1910    23.5880     2.5110   -26.2850 
  130.5000    50.0180    16.4420    14.8870    14.3210    23.3710     2.5030   -26.3240 
  130.6250    50.5740    16.1100    14.6600    13.3420    23.2910     2.4880   -26.3790 
  130.7500    52.3600    15.6740    14.3880    12.7840    23.3390     2.4780   -26.4340 
  130.8750    53.2590    15.2190    14.1010    12.6070    23.4400     2.4770   -26.4750 
  131.0000    52.5790    14.8490    13.8390    12.2320    23.5460     2.4870   -26.5320 
  131.1250    51.1650    14.6620    13.6430    11.8520    23.5890     2.5040   -26.5760 
  131.2500    50.8490    14.6260    13.5220    12.2440    23.6040     2.5200   -26.6050 
  131.3750    52.6460    14.7060    13.4860    13.0100    23.6150     2.5290   -26.6020 
  131.5000    54.7000    14.8930    13.5510    13.5160    23.6740     2.5290   -26.5930 
  131.6250    53.8380    15.2390    13.7650    13.5260    23.8050     2.5170   -26.5870 
  131.7500    52.1660    15.7470    14.1220    13.4040    23.9100     2.5010   -26.5750 
  131.8750    52.0770    16.3930    14.6040    14.1410    23.8780     2.4850   -26.5300 
  132.0000    53.1300    17.0970    15.1640    15.9730    23.7540     2.4760   -26.4650 
  132.1250    54.1180    17.7120    15.7070    17.9690    23.7220     2.4740   -26.4250 
  132.2500    55.8990    18.1370    16.1320    18.0800    23.7800     2.4780   -26.4100 
  132.3750    58.8280    18.3380    16.3750    17.3690    23.8820     2.4840   -26.4130 
  132.5000    60.3090    18.3450    16.4280    17.0870    23.9320     2.4930   -26.4340 
  132.6250    59.7410    18.2180    16.3310    17.0290    23.8560     2.5030   -26.4590 
  132.7500    58.8910    18.0550    16.2070    16.2520    23.7760     2.5130   -26.5010 
  132.8750    58.2520    17.9160    16.1360    15.0440    23.7270     2.5190   -26.5620 
  133.0000    56.5980    17.8550    16.1640    14.6630    23.7070     2.5210   -26.6230 
  133.1250    53.9460    17.9380    16.3050    15.3340    23.6980     2.5200   -26.6510 
  133.2500    52.7080    18.1420    16.4940    16.1450    23.6970     2.5210   -26.6360 
  133.3750    52.6140    18.3940    16.6660    16.2870    23.6970     2.5240   -26.6200 
  133.5000    52.5120    18.5820    16.7520    16.6480    23.6970     2.5280   -26.6170 
  133.6250    52.5770    18.5880    16.6840    16.4790    23.6970     2.5280   -26.6050 
  133.7500    53.5760    18.4470    16.5040    16.3760    23.6940     2.5240   -26.5650 
  133.8750    53.9940    18.2470    16.2760    16.0360    23.6850     2.5180   -26.5210 
  134.0000    52.2110    18.0790    16.0760    15.9600    23.6640     2.5160   -26.5010 
  134.1250    50.0710    18.0030    15.9820    15.3540    23.6260     2.5200   -26.4820 
  134.2500    49.7750    18.0080    16.0080    15.2730    23.5590     2.5260   -26.4890 
  134.3750    50.6400    18.0780    16.1480    15.8260    23.5000     2.5280   -26.5200 
  134.5000    51.6480    18.2000    16.3620    16.0600    23.4870     2.5250   -26.5260 
  134.6250    53.2000    18.3500    16.5840    15.4700    23.5300     2.5160   -26.5440 
  134.7500    53.2130    18.4760    16.7380    15.2620    23.5770     2.5100   -26.5840 
  134.8750    51.4750    18.5240    16.7790    15.7620    23.5890     2.5080   -26.6330 
  135.0000    50.5910    18.4620    16.6830    16.3850    23.5520     2.5130   -26.6720 
  135.1250    52.2410    18.2770    16.4440    15.6030    23.5210     2.5210   -26.7290 
  135.2500    53.7140    18.0120    16.1140    14.8620    23.5150     2.5260   -26.7940 
  135.3750    53.6990    17.6850    15.7310    14.6840    23.5220     2.5270   -26.8550 
  135.5000    52.5320    17.3200    15.3460    14.2250    23.5290     2.5260   -26.9410 
  135.6250    51.0140    17.0020    15.0490    13.8600    23.5230     2.5260   -27.0110 
  135.7500    51.3360    16.8430    14.9160    13.4860    23.5100     2.5290   -27.0960 
  135.8750    53.9240    16.9460    15.0130    13.2160    23.5220     2.5350   -27.1820 
  136.0000    56.8380    17.3580    15.3740    13.1650    23.5560     2.5380   -27.2400 
  136.1250    58.8550    18.0580    15.9910    13.6310    23.6110     2.5360   -27.2990 
  136.2500    60.9550    18.8310    16.6950    14.5460    23.6220     2.5280   -27.3560 
  136.3750    63.4680    19.4780    17.3130    16.1570    23.6040     2.5160   -27.4210 
  136.5000    64.8230    19.8400    17.6920    17.7030    23.5650     2.5050   -27.4600 
  136.6250    63.5820    19.8320    17.7240    16.6600    23.4990     2.4990   -27.4950 
  136.7500    60.9890    19.6370    17.5400    15.3750    23.4420     2.4970   -27.5050 
  136.8750    59.0800    19.4240    17.2820    14.7720    23.4270     2.4960   -27.5210 
  137.0000    58.3870    19.3020    17.0770    14.6560    23.4450     2.4940   -27.5510 
  137.1250    56.2690    19.2740    16.9980    15.7780    23.4960     2.4910   -27.5680 
  137.2500    53.4020    19.2250    16.9890    16.2380    23.5600     2.4910   -27.5790 
  137.3750    51.4780    19.0840    16.9800    15.7240    23.6050     2.4940   -27.5620 
  137.5000    50.8510    18.8580    16.9270    15.1470    23.6280     2.4990   -27.5510 
  137.6250    50.6320    18.6420    16.8380    15.4540    23.6530     2.4990   -27.5360 
  137.7500    51.3890    18.5180    16.7680    15.7780    23.6790     2.4940   -27.5270 
  137.8750    52.9150    18.4910    16.7440    15.6560    23.6880     2.4830   -27.5220 
  138.0000    54.3830    18.4940    16.7430    14.9180    23.6780     2.4740   -27.5210 
  138.1250    55.0520    18.3880    16.6800    15.5090    23.6630     2.4710   -27.5630 
  138.2500    54.3100    18.0810    16.4810    16.7300    23.6480     2.4760   -27.6270 
  138.3750    53.4470    17.5340    16.1110    16.1040    23.6490     2.4880   -27.6960 
  138.5000    53.1340    16.7770    15.5800    13.9670    23.6640     2.5000   -27.7890 
  138.6250    52.6540    15.8960    14.9170    12.8080    23.6830     2.5050   -27.9280 
