~V
VERS. 2.00: Ver 2.00
~W
STRT.M 58.0000:
STOP.M 214.0000:
STEP.M 0.1250:
NULL. -999.2500:
UWI. F10594:
~C
DEPT.M :
GR.API :
RML.OHMM :
RI. :
RXO.OHMM :
CALI.CM :
DEN.GM/CC :
SP.MV :
~A
# ...
  159.2500    58.2820    28.2800    22.7040    25.2870    22.9870     2.2650   -26.6710 
  159.3750    58.5430    27.2430    21.9490    23.0420    22.9960     2.2750   -26.7170 
  159.5000    54.4910    26.4430    21.3600    22.9640    23.0350     2.2790   -26.7410 
  159.6250    53.7660    25.9970    21.0370    23.5020    23.1670     2.2730   -26.7410 
  159.7500    58.6330    25.8760    20.9730    24.3330    23.3770     2.2610   -26.7290 
  159.8750    63.3320    26.0550    21.1550    24.2640    23.4930     2.2510   -26.7080 
  160.0000    63.5160    26.4900    21.5410    23.3890    23.4650     2.2450   -26.6780 
  160.1250    60.2290    27.1520    22.0990    22.9580    23.4020     2.2410   -26.6340 
  160.2500    57.1030    27.8830    22.7170    23.9970    23.4690     2.2400   -26.5740 
  160.3750    54.7810    28.4690    23.2530    25.6220    23.5170     2.2400   -26.5040 
  160.5000    53.3310    28.6570    23.5240    26.2840    23.5200     2.2440   -26.4310 
  160.6250    53.9580    28.1790    23.3050    26.2970    23.5270     2.2530   -26.3560 
  160.7500    55.2140    27.2080    22.6770    25.9660    23.5850     2.2660   -26.2800 
  160.8750    56.4320    26.0180    21.8180    24.5560    23.6160     2.2770   -26.2040 
  161.0000    58.0690    24.9520    20.9850    22.4960    23.6210     2.2790   -26.1340 
  161.1250    60.3000    24.3750    20.4760    21.6210    23.6270     2.2670   -26.0800 
  161.2500    61.0590    24.3390    20.3790    21.6790    23.6390     2.2470   -26.0500 
  161.3750    58.2840    24.8220    20.7120    22.6330    23.6510     2.2200   -26.0450 
  161.5000    55.0300    25.7220    21.4280    24.2770    23.6580     2.1930   -26.0690 
  161.6250    56.7440    26.8940    22.4510    25.9480    23.6560     2.1870   -26.1260 
  161.7500    60.1770    28.0640    23.5610    27.1040    23.6530     2.2140   -26.2040 
  161.8750    61.9400    28.9990    24.5620    27.4360    23.6550     2.2670   -26.2960 
  162.0000    60.5490    29.4630    25.2380    27.7390    23.6400     2.3170   -26.3950 
  162.1250    58.0800    29.1440    25.2820    28.3080    23.5820     2.3230   -26.4880 
  162.2500    56.4770    28.1350    24.7040    29.0870    23.5330     2.2940   -26.5630 
  162.3750    56.7070    26.6430    23.6260    29.0240    23.6400     2.2560   -26.6150 
  162.5000    59.3110    25.0030    22.3000    25.1480    23.7610     2.2350   -26.6350 
  162.6250    61.4530    23.5700    21.0210    22.3080    23.8040     2.2380   -26.6280 
  162.7500    60.6870    22.4630    19.9470    20.5140    23.7890     2.2450   -26.6090 
  162.8750    58.6840    21.6550    19.1050    20.4540    23.7970     2.2450   -26.5830 
  163.0000    58.8500    21.0560    18.4530    20.6250    23.8550     2.2350   -26.5540 
  163.1250    62.2170    20.6630    17.9930    19.9500    23.9080     2.2210   -26.5260 
  163.2500    65.0350    20.6260    17.8010    18.7910    23.9170     2.2100   -26.5110 
  163.3750    64.7650    21.3030    18.1120    18.2850    23.8960     2.2140   -26.5150 
  163.5000    63.4580    23.1610    19.2490    18.8000    23.8820     2.2470   -26.5470 
  163.6250    62.2370    27.0310    21.8560    21.3810    23.8550     2.3110   -26.6130 
  163.7500    60.4690    32.9760    26.1240    28.8880    23.7650     2.3740   -26.7050 
  163.8750    57.3830    40.8040    32.1070    45.2840    23.6460     2.4090   -26.8240 
  164.0000    53.2550    49.5400    39.2180    61.5110    23.5090     2.4070   -26.9670 
  164.1250    49.8500    56.9030    45.7030    64.9750    23.2700     2.3800   -27.1360 
  164.2500    47.8840    61.1290    49.8240    56.7850    22.9350     2.3480   -27.3250 
  164.3750    48.6080    61.9040    51.0250    48.6500    22.6970     2.3150   -27.5280 
  164.5000    51.1320    60.2740    49.9650    46.8410    22.8050     2.2800   -27.7340 
  164.6250    53.3160    57.6140    47.7400    48.9230    23.3400     2.2490   -27.9290 
  164.7500    54.5950    54.8380    45.3210    50.5040    23.7820     2.2310   -28.1000 
  164.8750    56.2880    51.9840    42.8780    49.1920    24.0250     2.2250   -28.2460 
  165.0000    57.8010    48.9680    40.3980    45.5820    24.1120     2.2220   -28.3650 
  165.1250    57.1610    45.8720    37.9350    41.9910    24.1510     2.2140   -28.4540 
  165.2500    56.3110    42.9700    35.6470    39.6360    24.2100     2.2020   -28.5120 
  165.3750    55.9850    40.5010    33.6970    38.1780    24.2880     2.1940   -28.5350 
  165.5000    55.8950    38.6220    32.2090    37.1790    24.3340     2.1990   -28.5230 
  165.6250    56.1930    37.4910    31.3380    36.4150    24.3460     2.2160   -28.4820 
  165.7500    56.7720    36.9460    30.9920    35.6850    24.3460     2.2320   -28.4240 
  165.8750    56.6830    36.9090    31.1260    35.6460    24.3490     2.2400   -28.3490 
  166.0000    54.7790    37.3000    31.6780    36.4470    24.3460     2.2450   -28.2570 
  166.1250    53.2380    37.9430    32.5250    38.1010    24.3270     2.2600   -28.1450 
  166.2500    52.5170    38.3080    33.2170    39.1510    24.3210     2.2860   -28.0210 
  166.3750    52.7220    37.7860    33.1980    39.5350    24.3200     2.3130   -27.8940 
  166.5000    54.2820    35.9360    32.0020    39.7090    24.3140     2.3290   -27.7710 
  166.6250    56.0760    32.6920    29.4690    40.2890    24.3100     2.3250   -27.6500 
  166.7500    57.3840    28.9690    26.3840    37.4730    24.3090     2.3070   -27.5330 
  166.8750    58.3530    25.4440    23.3590    30.3310    24.3090     2.2850   -27.4240 
  167.0000    59.6010    22.4720    20.7450    21.7180    24.3090     2.2690   -27.3250 
  167.1250    61.5140    20.1110    18.6380    20.4060    24.3090     2.2660   -27.2400 
  167.2500    62.9600    18.1120    16.8480    19.8800    24.3090     2.2750   -27.1720 
  167.3750    63.3280    16.4280    15.3330    18.9070    24.3080     2.2890   -27.1280 
  167.5000    62.9860    15.1230    14.1360    16.6860    24.3070     2.2990   -27.1110 
  167.6250    63.7960    14.4590    13.4530    14.3510    24.3040     2.2910   -27.1260 
  167.7500    64.3620    14.5300    13.3510    13.0620    24.3030     2.2690   -27.1660 
  167.8750    63.4730    15.4260    13.9330    13.9480    24.3020     2.2440   -27.2320 
  168.0000    61.0490    17.0980    15.2160    16.3230    24.3030     2.2300   -27.3240 
  168.1250    58.3530    19.2840    17.0900    19.4410    24.3000     2.2370   -27.4430 
  168.2500    55.9970    21.2950    18.9750    22.9300    24.2930     2.2550   -27.5740 
  168.3750    54.1100    22.5530    20.2940    25.7020    24.2730     2.2720   -27.7030 
  168.5000    53.4340    22.8150    20.7000    26.3480    24.2530     2.2760   -27.8200 
  168.6250    53.8760    22.3360    20.2950    24.4110    24.2740     2.2610   -27.9210 
  168.7500    55.9770    21.8980    19.7610    21.5650    24.3240     2.2380   -28.0110 
  168.8750    58.3150    21.9740    19.5280    20.3370    24.3720     2.2170   -28.0900 
  169.0000    59.1690    22.7910    19.8250    23.2210    24.4100     2.2050   -28.1600 
  169.1250    57.7240    24.4510    20.7910    27.0740    24.4440     2.2120   -28.2200 
  169.2500    54.2830    26.6450    22.2200    29.4580    24.4600     2.2370   -28.2770 
  169.3750    50.5590    29.1390    23.9290    29.7420    24.4500     2.2750   -28.3400 
  169.5000    48.3150    31.7130    25.7240    29.7550    24.3970     2.3150   -28.4180 
  169.6250    48.8420    34.1780    27.4390    31.7460    24.3360     2.3380   -28.5140 
  169.7500    49.5130    36.4590    29.0100    35.3000    24.3120     2.3460   -28.6250 
  169.8750    49.3650    38.5130    30.4130    37.1870    24.3090     2.3460   -28.7470 
  170.0000    50.3640    40.2920    31.6180    37.8740    24.3090     2.3490   -28.8800 
  170.1250    51.9820    41.6640    32.5260    39.6250    24.3080     2.3560   -29.0250 
  170.2500    52.1500    42.5950    33.1140    40.7680    24.3020     2.3520   -29.1750 
  170.3750    50.4110    43.0100    33.3360    41.7150    24.2910     2.3290   -29.3230 
