~V
VERS. 2.00: Ver 2.00
~W
STRT.M 50.0000:
STOP.M 191.0000:
STEP.M 0.1250:
NULL. -999.2500:
UWI. F10562:
~C
DEPT.M :
DEN.GM/CC :
SP.MV :
GR.API :
RML.OHMM :
RI. :
RXO.OHMM :
CALI.CM :
~A
# ...
  162.5000     2.3110   -24.1520    62.7660     5.8260     5.2370     5.3000    23.6390 
  162.6250     2.2990   -24.1850    57.4500     6.0220     5.3970     5.5070    23.6240 
  162.7500     2.2850   -24.2340    53.3360     6.1820     5.5750     5.3650    23.5240 
  162.8750     2.2730   -24.2780    50.5400     6.2660     5.7490     5.4000    23.2150 
  163.0000     2.2570   -24.2920    47.8490     6.2720     5.8910     5.6850    22.6500 
  163.1250     2.2330   -24.2740    43.8360     6.2190     5.9470     5.8310    22.0730 
  163.2500     2.2190   -24.2490    39.8250     6.1350     5.9000     5.2280    21.6880 
  163.3750     2.2200   -24.2250    37.8940     6.0220     5.7510     4.7440    21.5140 
  163.5000     2.2260   -24.1760    38.8390     5.8800     5.5390     4.6020    21.5120 
  163.6250     2.2210   -24.0830    42.1350     5.7470     5.3410     5.0060    21.6320 
  163.7500     2.2140   -23.9470    46.7660     5.6560     5.2090     5.7550    21.7750 
  163.8750     2.2140   -23.8110    50.4520     5.5770     5.1280     5.9040    21.9830 
  164.0000     2.2320   -23.6940    49.7120     5.4530     5.0260     5.0250    22.3730 
  164.1250     2.2620   -23.5990    43.6460     5.2400     4.8180     4.4810    22.9180 
  164.2500     2.2910   -23.5200    38.7820     5.0020     4.5390     4.2710    23.3080 
  164.3750     2.3100   -23.4500    37.8530     4.8130     4.2670     4.1670    23.4620 
  164.5000     2.3210   -23.4070    38.4870     4.7150     4.0770     4.0660    23.4880 
  164.6250     2.3290   -23.3950    38.2790     4.7100     4.0120     3.9960    23.4870 
  164.7500     2.3370   -23.4400    38.0660     4.7470     4.0240     3.9260    23.4850 
  164.8750     2.3480   -23.5180    37.8260     4.8140     4.0720     3.9640    23.4840 
  165.0000     2.3500   -23.6210    35.9960     4.9190     4.1330     4.1100    23.4840 
  165.1250     2.3240   -23.7460    34.5770     5.0910     4.1970     4.2950    23.4840 
  165.2500     2.2910   -23.8950    35.3340     5.3210     4.2560     4.1610    23.4610 
  165.3750     2.2840   -24.0770    37.6640     5.5800     4.3080     4.0640    23.4000 
  165.5000     2.3110   -24.2860    39.8740     5.8330     4.3600     4.0250    23.3540 
  165.6250     2.3440   -24.5250    40.5720     6.0650     4.4350     4.0750    23.3320 
  165.7500     2.3480   -24.7890    42.1710     6.3170     4.5670     4.2810    23.3230 
  165.8750     2.3240   -25.0850    46.8670     6.6470     4.7920     4.6390    23.3220 
  166.0000     2.2910   -25.4270    53.5440     7.1010     5.1320     4.8900    23.3300 
  166.1250     2.2670   -25.7980    58.7640     7.6910     5.5980     5.0650    23.3320 
  166.2500     2.2530   -26.1530    63.9700     8.3360     6.1300     5.4790    23.3170 
  166.3750     2.2490   -26.4910    70.7420     8.9710     6.6770     6.4040    23.3010 
  166.5000     2.2520   -26.7940    76.5700     9.5410     7.1840     7.5460    23.3620 
  166.6250     2.2600   -27.0400    81.1670     9.9540     7.5690     8.8350    23.5590 
  166.7500     2.2700   -27.1940    86.8530    10.1250     7.7660    10.0660    23.7560 
  166.8750     2.2810   -27.2520    91.7230     9.9400     7.6890    10.0570    23.8420 
  167.0000     2.2920   -27.2220    91.2870     9.3450     7.2920     7.9750    23.8690 
  167.1250     2.3060   -27.1180    84.9700     8.4370     6.6280     6.0220    23.9030 
  167.2500     2.3260   -26.9960    77.3150     7.5740     5.9490     5.1350    23.9180 
  167.3750     2.3440   -26.8780    70.8880     7.0310     5.4590     5.3440    23.9220 
  167.5000     2.3530   -26.7640    68.1720     6.9850     5.2980     6.4800    23.9220 
  167.6250     2.3490   -26.6480    69.4330     7.5210     5.5680     8.4190    23.9220 
  167.7500     2.3370   -26.5230    70.8960     8.3260     6.0980     9.8400    23.9200 
  167.8750     2.3220   -26.3840    71.8190     9.0290     6.6610     9.3880    23.9180 
  168.0000     2.3110   -26.2330    72.7930     9.2580     6.9850     8.3460    23.9180 
  168.1250     2.3180   -26.0390    71.2570     8.7980     6.8420     7.3220    23.9160 
  168.2500     2.3390   -25.8240    67.7280     8.0130     6.3900     6.4340    23.9120 
  168.3750     2.3620   -25.5580    65.3650     7.2510     5.8390     5.6900    23.8940 
  168.5000     2.3740   -25.2620    64.5660     6.7140     5.3670     5.2710    23.8510 
  168.6250     2.3700   -24.9820    63.2680     6.4250     5.0770     5.2270    23.8080 
  168.7500     2.3620   -24.7070    61.9200     6.2490     4.9250     5.4390    23.7800 
  168.8750     2.3630   -24.4410    62.3250     6.1240     4.8540     5.5960    23.7720 
  169.0000     2.3740   -24.2000    62.5570     6.0050     4.7980     5.0980    23.7710 
  169.1250     2.3860   -24.0310    61.2170     5.8730     4.7050     4.5740    23.7710 
  169.2500     2.3860   -23.8890    59.6540     5.7520     4.5800     4.4310    23.7710 
  169.3750     2.3770   -23.7930    57.1130     5.6640     4.4630     4.4220    23.7710 
  169.5000     2.3640   -23.7300    53.3140     5.6170     4.3910     4.3600    23.7800 
  169.6250     2.3520   -23.6620    51.8570     5.6140     4.3900     4.3660    23.8400 
  169.7500     2.3430   -23.6540    55.7750     5.6300     4.4310     4.4140    23.9680 
  169.8750     2.3390   -23.7110    62.7240     5.6380     4.4870     4.5470    24.1120 
  170.0000     2.3440   -23.7790    68.4170     5.6300     4.5440     4.7850    24.2300 
  170.1250     2.3550   -23.8280    70.1170     5.6400     4.5950     4.9650    24.2690 
  170.2500     2.3650   -23.8560    69.3340     5.6890     4.6410     5.0130    24.2800 
  170.3750     2.3700   -23.8510    67.0700     5.7750     4.6820     5.0050    24.2800 
  170.5000     2.3750   -23.8280    64.4280     5.8880     4.7280     5.0720    24.2800 
  170.6250     2.3820   -23.7930    62.9980     6.0090     4.7940     5.2400    24.2800 
  170.7500     2.3870   -23.7240    63.1640     6.1150     4.8840     5.6490    24.2790 
  170.8750     2.3910   -23.6240    64.6100     6.1840     4.9850     6.2560    24.2730 
  171.0000     2.4010   -23.4920    67.2290     6.1810     5.0540     6.4030    24.2540 
  171.1250     2.4160   -23.2790    69.0360     6.0390     5.0180     5.7890    24.2220 
  171.2500     2.4270   -23.0290    66.6600     5.7840     4.8660     5.0380    24.2130 
  171.3750     2.4310   -22.7970    61.2430     5.4800     4.6350     4.6160    24.2340 
  171.5000     2.4300   -22.5710    56.2660     5.2040     4.4030     4.4330    24.2970 
  171.6250     2.4250   -22.3460    53.2580     5.0400     4.2580     4.3040    24.4140 
  171.7500     2.4110   -22.1470    51.2390     5.0030     4.2140     4.2140    24.5980 
  171.8750     2.3820   -21.9650    51.3490     5.0750     4.2560     4.1610    24.8150 
  172.0000     2.3420   -21.8260    53.6120     5.2150     4.3470     3.9970    24.9600 
  172.1250     2.3070   -21.7940    55.5270     5.3690     4.4620     3.9640    25.0110 
  172.2500     2.2860   -21.8320    56.9610     5.4960     4.5880     4.0490    24.9990 
  172.3750     2.2810   -21.8930    58.5130     5.5970     4.7240     4.1140    24.8970 
  172.5000     2.2910   -21.9850    59.0770     5.7140     4.8740     4.1880    24.7130 
  172.6250     2.3170   -22.1270    56.8210     5.8990     5.0440     4.5280    24.5710 
  172.7500     2.3500   -22.2960    53.6350     6.1120     5.2340     5.0550    24.4590 
  172.8750     2.3740   -22.4880    52.8130     6.2890     5.4340     5.6070    24.3800 
  173.0000     2.3820   -22.6930    53.5760     6.3990     5.6270     6.0190    24.3460 
  173.1250     2.3830   -22.8970    53.4770     6.4470     5.7770     6.0530    24.3320 
  173.2500     2.3860   -23.0860    52.1240     6.4660     5.8650     5.8600    24.3020 
  173.3750     2.3930   -23.2480    50.9600     6.4660     5.8760     5.5670    24.2640 
  173.5000     2.4000   -23.3950    51.6280     6.4550     5.8160     5.6080    24.2240 
  173.6250     2.4050   -23.5310    54.6260     6.4570     5.7220     5.9390    24.2090 
