~V
VERS. 2.00: Ver 2.00
~W
STRT.M 52.0000:
STOP.M 224.0000:
STEP.M 0.1250:
NULL. -999.2500:
UWI. F10595:
~C
DEPT.M :
GR.API :
RML.OHMM :
RI. :
RXO.OHMM :
CALI.CM :
DEN.GM/CC :
SP.MV :
~A
# ...
  209.5000    35.5780     5.3680     4.4730     5.4230    21.8430     2.3280    -2.0050 
  209.6250    33.0580     5.3940     4.4950     5.5980    21.6890     2.3310    -2.1130 
  209.7500    31.3460     5.4910     4.5750     5.8770    21.3360     2.3380    -2.2800 
  209.8750    32.0850     5.6380     4.6980     6.0660    21.1640     2.3430    -2.4930 
  210.0000    35.6050     5.8160     4.8470     6.1400    21.5270     2.3440    -2.7370 
  210.1250    40.2270     5.9910     4.9920     6.2580    22.1010     2.3440    -2.9990 
  210.2500    42.7810     6.1040     5.0860     6.4440    22.3520     2.3510    -3.2510 
  210.3750    42.8330     6.1210     5.1010     6.4640    22.4030     2.3610    -3.4790 
  210.5000    42.1130     6.0300     5.0250     6.2110    22.4030     2.3690    -3.6720 
  210.6250    42.2790     5.8430     4.8690     5.8000    22.4030     2.3680    -3.8250 
  210.7500    43.2790     5.6020     4.6680     5.5130    22.4110     2.3540    -3.9350 
  210.8750    43.6000     5.3840     4.4860     5.4150    22.4620     2.3370    -4.0150 
  211.0000    42.9380     5.2400     4.3670     5.3820    22.5850     2.3290    -4.0760 
  211.1250    41.6140     5.1950     4.3290     5.4040    22.7070     2.3370    -4.1300 
  211.2500    39.6320     5.2620     4.3850     5.5530    22.7830     2.3630    -4.1930 
  211.3750    37.8790     5.4130     4.5110     5.8120    22.8180     2.3900    -4.2770 
  211.5000    38.6500     5.6290     4.6900     6.0350    22.8480     2.4070    -4.3800 
  211.6250    42.7030     5.8810     4.9010     6.2820    22.8660     2.4110    -4.4990 
  211.7500    46.8290     6.1400     5.1160     6.7140    22.8700     2.4090    -4.6290 
  211.8750    48.3350     6.3770     5.3140     7.1630    22.8690     2.4080    -4.7570 
  212.0000    48.2540     6.5850     5.4880     7.4570    22.8660     2.4070    -4.8760 
  212.1250    49.1560     6.7740     5.6450     7.5370    22.8650     2.4060    -4.9840 
  212.2500    51.4730     6.9570     5.7980     7.5200    22.8640     2.4050    -5.0670 
  212.3750    52.4500     7.1330     5.9450     7.6690    22.8590     2.4060    -5.1270 
  212.5000    51.8380     7.2870     6.0720     8.0730    22.8470     2.4090    -5.1600 
  212.6250    50.2810     7.3970     6.1640     8.5010    22.8200     2.4110    -5.1700 
  212.7500    49.0340     7.4320     6.1940     8.3800    22.8030     2.4080    -5.1560 
  212.8750    48.4730     7.3950     6.1630     8.0020    22.7970     2.4040    -5.1270 
  213.0000    47.1740     7.2960     6.0800     7.7240    22.7960     2.4020    -5.0840 
  213.1250    45.6660     7.1540     5.9620     7.6460    22.7960     2.4050    -5.0240 
  213.2500    46.0240     6.9960     5.8300     7.5600    22.7980     2.4060    -4.9510 
  213.3750    47.0330     6.8430     5.7030     7.2560    22.8090     2.4010    -4.8630 
  213.5000    47.0330     6.7000     5.5830     7.0220    22.8340     2.3880    -4.7640 
  213.6250    47.0330     6.5600     5.4660     6.8620    22.8560     2.3760    -4.6510 
  213.7500    47.0330     6.4110     5.3420     6.6040    22.8620     2.3730    -4.5190 
  213.8750    47.0330     6.2420     5.2020     6.3940    22.8450     2.3780    -4.3710 
  214.0000    47.0330     6.0510     5.0430     6.1210    22.8040     2.3810    -4.2070 
  214.1250    47.0330     5.8510     4.8760     5.8990    22.7660     2.3770    -4.0340 
  214.2500    47.0330     5.6720     4.7260     5.8080    22.7370     2.3650    -3.8480 
  214.3750    47.0330     5.5330     4.6110     5.7150    22.6780     2.3550    -3.6590 
  214.5000    47.0330     5.4420     4.5350     5.6280    22.5480     2.3470    -3.4730 
  214.6250    47.0330     5.3960     4.4970     5.6470    22.2900     2.3400    -3.2980 
  214.7500    47.0330     5.3800     4.4830     5.5700    21.8780     2.3320    -3.1440 
  214.8750    47.0330     5.3640     4.4700     5.5120    21.4060     2.3250    -3.0110 
  215.0000    47.0330     5.3370     4.4470     5.6140    21.2270     2.3230    -2.9030 
  215.1250    47.0330     5.2970     4.4140     5.8430    21.4050     2.3290    -2.8250 
  215.2500    47.0330     5.2550     4.3790     6.0420    21.7810     2.3380    -2.7920 
  215.3750    47.0330     5.2350     4.3620     6.0380    22.0660     2.3450    -2.7960 
  215.5000    47.0330     5.2580     4.3810     5.9460    22.3000     2.3480    -2.8320 
  215.6250    47.0330     5.3470     4.4560     5.9820    22.5480     2.3500    -2.8980 
  215.7500    47.0330     5.5550     4.6300     6.2350    22.9270     2.3620    -2.9960 
  215.8750    47.0330     5.8990     4.9160     6.7740    23.3230     2.3930    -3.1190 
  216.0000    47.0330     6.3730     5.3110     7.6370    23.5600     2.4390    -3.2630 
  216.1250    47.0330     6.9230     5.7690     8.8840    23.6280     2.4860    -3.4180 
  216.2500    47.0330     7.4190     6.1830     9.3610    23.6300     2.5040    -3.5740 
  216.3750    47.0330     7.7400     6.4500     8.7580    23.6300     2.4900    -3.7310 
  216.5000    47.0330     7.8340     6.5290     7.9310    23.6300     2.4580    -3.8870 
  216.6250    47.0330     7.7390     6.4490     7.5270    23.6360     2.4270    -4.0340 
  216.7500    47.0330     7.5440     6.2870     7.8200    23.6440     2.4120    -4.1570 
  216.8750    47.0330     7.3510     6.1260     8.1140    23.6590     2.4090    -4.2500 
  217.0000    47.0330     7.1840     5.9870     7.9850    23.6830     2.4070    -4.3080 
  217.1250    47.0330     7.0330     5.8610     7.4640    23.6920     2.3980    -4.3330 
  217.2500    47.0330     6.8520     5.7100     6.9980    23.6710     2.3750    -4.3130 
  217.3750    47.0330     6.6120     5.5100     6.5260    23.6310     2.3460    -4.2500 
  217.5000    47.0330     6.3190     5.2660     5.9890    23.5730     2.3230    -4.1480 
  217.6250    47.0330     6.0020     5.0020     5.6130    23.4490     2.3130    -4.0210 
  217.7500    47.0330     5.7070     4.7560     5.5520    23.1220     2.3160    -3.8910 
  217.8750    47.0330     5.4680     4.5560     5.5610    22.7620     2.3200    -3.7720 
  218.0000    47.0330     5.3020     4.4180     5.5840    22.7310     2.3180    -3.6760 
  218.1250    47.0330     5.2110     4.3420     5.5780    22.9950     2.3130    -3.6100 
  218.2500    47.0330     5.1850     4.3210     5.7350    23.3070     2.3150    -3.5910 
  218.3750    47.0330     5.1870     4.3230     5.9890    23.5200     2.3290    -3.6140 
  218.5000    47.0330     5.1970     4.3300     6.3580    23.6040     2.3510    -3.6750 
  218.6250    47.0330     5.2020     4.3350     6.6950    23.6050     2.3700    -3.7640 
  218.7500    47.0330     5.2010     4.3340     6.8750    23.5740     2.3790    -3.8770 
  218.8750    47.0330     5.1990     4.3320     6.8790    23.5470     2.3810    -4.0030 
  219.0000    47.0330     5.1960     4.3300     6.8320    23.4820     2.3780    -4.1300 
  219.1250    47.0330     5.1940     4.3290     6.8940    23.3690     2.3740    -4.2490 
  219.2500    47.0330     5.1930     4.3280     7.0110    23.3910     2.3700    -4.3520 
  219.3750    47.0330     5.1930     4.3280     7.2690    23.5130     2.3680    -4.4330 
  219.5000    47.0330     5.1930     4.3280     7.3500    23.6010     2.3660    -4.4980 
  219.6250    47.0330     5.1930     4.3280     7.3620    23.6290     2.3660    -4.5440 
  219.7500    47.0330     5.1930     4.3280     7.4130    23.6290     2.3710    -4.5610 
  219.8750    47.0330     5.1930     4.3280     7.4790    23.6270     2.3790    -4.5590 
  220.0000    47.0330     5.1930     4.3280     7.4930    23.6240     2.3880    -4.5390 
  220.1250    47.0330     5.1930     4.3280     7.4870    23.6240     2.3930    -4.5070 
  220.2500    47.0330     5.1930     4.3280     7.4710    23.6230     2.3910    -4.4680 
  220.3750    47.0330     5.1930     4.3280     7.5090    23.6020     2.3870    -4.4320 
  220.5000    47.0330     5.1930     4.3280     7.6220    23.5370     2.3830    -4.3980 
  220.6250    47.0330     5.1930     4.3280     7.7260    23.4420     2.3820    -4.3720 
