~V
VERS. 2.00: Ver 2.00
~W
STRT.M 58.0000:
STOP.M 215.0000:
STEP.M 0.1250:
NULL. -999.2500:
UWI. F10587:
~C
DEPT.M :
DEN.GM/CC :
GR.API :
RML.OHMM :
RI. :
RXO.OHMM :
CALI.CM :
SP.MV :
~A
# ...
   91.7500     2.1060    50.5530    25.0970    19.7420    15.6960    23.0310   -17.8920 
   91.8750     2.1170    48.8260    25.3640    19.9640    15.7650    23.0890   -17.9020 
   92.0000     2.1410    48.8710    25.6750    20.2210    15.8340    22.9510   -17.8800 
   92.1250     2.1640    51.7720    25.9750    20.4730    16.0210    22.6210   -17.8860 
   92.2500     2.1740    53.6740    26.2070    20.6780    16.1390    22.3390   -17.8550 
   92.3750     2.1700    52.2360    26.3380    20.8020    16.1270    22.1750   -17.8380 
   92.5000     2.1600    49.0750    26.3470    20.8200    16.0870    22.1210   -17.8060 
   92.6250     2.1500    49.1600    26.2120    20.7020    15.9880    22.1200   -17.8170 
   92.7500     2.1460    52.0800    25.9830    20.4870    15.7890    22.1220   -17.8310 
   92.8750     2.1470    53.6370    25.7170    20.2230    15.4450    22.1470   -17.8670 
   93.0000     2.1510    52.4380    25.4880    19.9750    15.1730    22.1780   -17.9770 
   93.1250     2.1570    50.6170    25.4100    19.8270    15.0970    22.2090   -18.1190 
   93.2500     2.1640    50.3110    25.5080    19.8090    15.1830    22.2410   -18.2950 
   93.3750     2.1700    51.4780    25.7520    19.9110    15.4350    22.2720   -18.4980 
   93.5000     2.1720    53.4150    26.0530    20.0790    15.6400    22.3230   -18.6970 
   93.6250     2.1670    55.5240    26.2630    20.2110    15.6240    22.3960   -18.8880 
   93.7500     2.1570    57.7560    26.2890    20.2260    15.3950    22.4060   -19.0760 
   93.8750     2.1480    60.0990    26.1240    20.0950    15.0010    22.2920   -19.2360 
   94.0000     2.1460    61.1300    25.8420    19.8580    14.5940    22.1130   -19.3440 
   94.1250     2.1550    58.9750    25.5770    19.6090    14.4570    22.0030   -19.3990 
   94.2500     2.1670    55.7390    25.4170    19.4340    14.3910    21.9520   -19.4510 
   94.3750     2.1770    53.6740    25.3710    19.3550    14.3900    21.9550   -19.4570 
   94.5000     2.1820    53.2060    25.3930    19.3570    14.4690    21.9850   -19.4730 
   94.6250     2.1810    53.7430    25.3920    19.3980    14.5250    21.9820   -19.5110 
   94.7500     2.1800    54.9730    25.3120    19.4330    14.4660    21.9590   -19.5310 
   94.8750     2.1820    56.1250    25.1650    19.4620    14.3710    21.9450   -19.6010 
   95.0000     2.1840    57.3360    25.0140    19.5180    14.3370    21.9260   -19.6740 
   95.1250     2.1780    57.7280    24.9580    19.6600    14.3730    21.8500   -19.7520 
   95.2500     2.1620    56.5120    25.0480    19.9060    14.4960    21.8270   -19.8360 
   95.3750     2.1390    54.5110    25.2970    20.2500    14.6000    21.8750   -19.9290 
   95.5000     2.1180    52.6790    25.6830    20.6540    14.6770    21.9170   -19.9910 
   95.6250     2.1130    50.7510    26.1230    21.0360    14.7680    21.9110   -20.0200 
   95.7500     2.1260    49.9370    26.4160    21.2670    14.8140    21.8590   -20.0620 
   95.8750     2.1560    52.6130    26.2740    21.1490    14.5890    21.7750   -20.0430 
   96.0000     2.1950    57.9910    25.3860    20.4580    14.1990    21.6740   -19.9850 
   96.1250     2.2400    60.7990    23.4740    18.9710    13.9190    21.6210   -19.9210 
   96.2500     2.2740    61.0520    20.9690    17.0000    13.2840    21.5930   -19.8170 
   96.3750     2.2790    63.4700    18.4000    14.9340    12.1210    21.5700   -19.6400 
   96.5000     2.2490    68.2940    16.3030    13.1730    10.9840    21.6150   -19.4050 
   96.6250     2.1990    70.9380    15.2700    12.1450    10.4540    21.6680   -19.0180 
   96.7500     2.1700    68.4580    15.4400    11.9550    10.4160    21.6590   -18.5270 
   96.8750     2.1960    62.8320    17.0590    12.7890    11.0500    21.6150   -17.9760 
   97.0000     2.2970    57.7430    20.4750    14.9470    12.1730    21.6440   -17.3610 
   97.1250     2.4500    54.5540    26.6280    19.3200    14.0390    21.7650   -16.7550 
   97.2500     2.5760    52.8100    35.5650    26.1350    16.9360    21.6480   -16.2320 
   97.3750     2.6390    52.3110    46.6900    35.0320    20.1190    21.4580   -15.8230 
   97.5000     2.6510    53.0350    56.8650    43.7070    22.1160    21.3580   -15.5420 
   97.6250     2.6310    53.7710    58.1230    46.3560    22.6520    21.3250   -15.4320 
   97.7500     2.5940    53.5870    49.3140    41.2190    22.3970    21.2540   -15.4720 
   97.8750     2.5450    54.3910    36.0750    31.4970    19.8940    21.1010   -15.6260 
   98.0000     2.4890    58.5540    24.4540    21.9670    15.0190    20.9110   -15.9080 
   98.1250     2.4330    65.5440    17.1840    15.5350    10.9910    20.6620   -16.2360 
   98.2500     2.3830    73.7780    13.0290    11.6220     9.1160    20.5470   -16.4910 
   98.3750     2.3460    80.4480    11.0540     9.4990     8.4320    20.3720   -16.7140 
   98.5000     2.3230    81.0960    10.5020     8.5740     8.2700    20.1070   -16.8850 
   98.6250     2.3180    75.8190    10.7930     8.4880     8.4550    19.8290   -17.0330 
   98.7500     2.3280    72.6800    11.1590     8.6730     8.5700    19.6030   -17.1440 
   98.8750     2.3430    75.5110    11.1710     8.7690     8.3930    19.5690   -17.2050 
   99.0000     2.3540    81.5290    10.6830     8.5720     8.0500    19.8650   -17.2260 
   99.1250     2.3550    87.4960     9.8220     8.0720     7.7180    20.4400   -17.2070 
   99.2500     2.3490    90.7270     8.9310     7.4820     7.4570    20.9250   -17.1620 
   99.3750     2.3410    90.1730     8.1790     6.9320     7.3510    21.2170   -17.1140 
   99.5000     2.3380    88.6240     7.6430     6.4990     7.3690    21.3540   -17.0800 
   99.6250     2.3380    90.6200     7.3860     6.2480     7.3650    21.3680   -17.0270 
   99.7500     2.3390    92.4750     7.3920     6.1770     7.2600    21.3100   -16.9950 
   99.8750     2.3400    90.4990     7.6950     6.3120     7.2880    21.2220   -17.0080 
  100.0000     2.3460    85.9510     8.2950     6.6640     7.6490    21.1180   -17.0130 
  100.1250     2.3540    83.4330     9.1190     7.2150     8.4220    21.0520   -17.0560 
  100.2500     2.3570    82.7980     9.9100     7.7960     9.0870    21.0160   -17.1560 
  100.3750     2.3480    81.4870    10.4240     8.2280     9.4240    20.9520   -17.2750 
  100.5000     2.3290    79.5210    10.4980     8.3560     9.4210    20.8620   -17.3910 
  100.6250     2.3090    79.7740    10.1190     8.1130     8.9370    20.8060   -17.5210 
  100.7500     2.2970    82.8280     9.6040     7.7110     8.3530    20.8520   -17.6290 
  100.8750     2.2940    84.3060     9.1840     7.3280     8.0270    20.7180   -17.7010 
  101.0000     2.2960    81.8050     8.9790     7.0800     7.9520    20.3430   -17.7820 
  101.1250     2.2970    79.0850     9.0160     7.0280     7.9750    19.8920   -17.7790 
  101.2500     2.2940    80.7330     9.1990     7.1240     8.2070    19.7940   -17.7300 
  101.3750     2.2840    85.5070     9.5390     7.3710     8.5550    20.1080   -17.6310 
  101.5000     2.2660    88.3990    10.1840     7.8380     9.0030    20.6800   -17.4580 
  101.6250     2.2410    85.9910    11.5750     8.7760     9.2240    20.9550   -17.2390 
  101.7500     2.2180    80.0150    14.0260    10.4080     9.5920    21.0130   -16.9880 
  101.8750     2.2000    72.0130    17.8080    13.0340    10.5550    20.9940   -16.7110 
  102.0000     2.1910    65.1070    22.7840    16.7690    12.6560    20.9740   -16.4270 
  102.1250     2.1930    62.9110    27.4790    20.8590    14.7520    20.9900   -16.1750 
  102.2500     2.2070    64.4660    29.1470    23.0930    15.2980    20.9870   -15.9230 
  102.3750     2.2330    67.2900    26.3300    21.8630    14.7280    20.9610   -15.6990 
  102.5000     2.2720    70.0500    20.5600    17.8650    13.4080    20.9190   -15.5240 
  102.6250     2.3130    74.5190    15.0020    13.4430    10.9450    20.8380   -15.3570 
  102.7500     2.3440    80.7770    11.1180    10.0740     8.6910    20.7030   -15.2030 
  102.8750     2.3540    86.7700     8.8490     7.8930     7.6800    20.5800   -15.0440 
