~V
VERS. 2.00: Ver 2.00
~W
STRT.M 58.0000:
STOP.M 203.0000:
STEP.M 0.1250:
NULL. -999.2500:
UWI. F10566:
~C
DEPT.M :
GR.API :
RML.OHMM :
RI. :
RXO.OHMM :
CALI.CM :
SP.MV :
DEN.GM/CC :
~A
# ...
  193.0000    49.9080     8.1530     6.4100     8.9470    24.3970   -19.0040     2.3000 
  193.1250    49.9080     8.3150     6.5970     8.8250    24.4090   -19.3360     2.2900 
  193.2500    49.9080     8.4680     6.7550     8.4330    24.4110   -19.7180     2.2810 
  193.3750    49.9080     8.6350     6.8900     8.5280    24.4110   -20.0000     2.2780 
  193.5000    49.9080     8.7970     6.9940     8.9790    24.4090   -20.1160     2.2790 
  193.6250    49.9080     8.8820     7.0340     9.5470    24.4080   -20.0870     2.2850 
  193.7500    49.9080     8.8460     7.0020     9.6730    24.4080   -19.8940     2.2910 
  193.8750    49.9080     8.6820     6.9070     9.1740    24.4090   -19.7890     2.2960 
  194.0000    49.9080     8.4370     6.7800     8.4930    24.4120   -19.5400     2.3000 
  194.1250    49.9080     8.2050     6.6660     7.8540    24.4140   -19.0520     2.3050 
  194.2500    49.9080     8.0600     6.5910     7.5740    24.4140   -18.4250     2.3110 
  194.3750    49.9080     8.0200     6.5530     8.0330    24.4140   -17.8760     2.3440 
  194.5000    49.9080     8.0540     6.5290     8.8800    24.4240   -17.4020     2.3680 
  194.6250    49.9080     8.0820     6.4840     8.7170    24.4620   -16.8000     2.3750 
  194.7500    49.9080     8.0220     6.3960     7.8990    24.5360   -16.1750     2.3560 
  194.8750    49.9080     7.8440     6.2590     7.2610    24.6500   -15.5180     2.3170 
  195.0000    49.9080     7.5770     6.0860     6.6630    24.8500   -14.9020     2.2860 
  195.1250    49.9080     7.3010     5.9070     6.3180    24.9650   -14.5750     2.2810 
  195.2500    49.9080     7.0960     5.7540     6.1200    24.9980   -14.3740     2.3010 
  195.3750    49.9080     6.9950     5.6460     6.2440    24.9570   -14.1860     2.3270 
  195.5000    49.9080     6.9860     5.5870     6.5120    24.7880   -14.1630     2.3360 
  195.6250    49.9080     7.0280     5.5800     6.7310    24.5870   -14.4100     2.3260 
  195.7500    49.9080     7.0720     5.6090     6.7890    24.6080   -14.7450     2.3100 
  195.8750    49.9080     7.1060     5.6680     6.6280    24.8220   -15.1060     2.3070 
  196.0000    49.9080     7.1500     5.7610     6.6220    25.0390   -15.4400     2.3310 
  196.1250    49.9080     7.2400     5.8990     6.7580    25.0140   -15.6830     2.3730 
  196.2500    49.9080     7.3860     6.0750     7.0620    24.7940   -15.9690     2.4160 
  196.3750    49.9080     7.5750     6.2720     7.6820    24.5470   -16.2830     2.4410 
  196.5000    49.9080     7.7670     6.4580     8.5980    24.4070   -16.5480     2.4340 
  196.6250    49.9080     7.9060     6.5850     8.3920    24.3470   -16.7360     2.4110 
  196.7500    49.9080     7.9720     6.6470     7.8560    24.3600   -16.8780     2.3930 
  196.8750    49.9080     7.9800     6.6630     7.3620    24.4130   -17.0560     2.3920 
  197.0000    49.9080     7.9660     6.6650     7.1110    24.4900   -17.2420     2.4070 
  197.1250    49.9080     7.9760     6.6750     6.9700    24.5330   -17.4220     2.4160 
  197.2500    49.9080     8.0270     6.6880     6.7050    24.5000   -17.7220     2.4070 
  197.3750    49.9080     8.1090     6.6960     6.5770    24.3930   -17.9760     2.3790 
  197.5000    49.9080     8.1980     6.6970     6.7450    24.3530   -18.0310     2.3470 
  197.6250    49.9080     8.2540     6.7040     6.6270    24.4300   -17.9720     2.3280 
  197.7500    49.9080     8.2690     6.7210     6.6150    24.5170   -18.0150     2.3250 
  197.8750    49.9080     8.2590     6.7410     6.7600    24.4760   -17.9530     2.3300 
  198.0000    49.9080     8.2490     6.7510     6.9150    24.4130   -17.8920     2.3330 
  198.1250    49.9080     8.2470     6.7540     7.0520    24.4310   -17.8530     2.3340 
  198.2500    49.9080     8.2480     6.7540     7.0470    24.5570   -17.7450     2.3380 
  198.3750    49.9080     8.2490     6.7540     6.9500    24.7280   -17.6060     2.3470 
  198.5000    49.9080     8.2500     6.7540     6.9550    24.8080   -17.6030     2.3500 
  198.6250    49.9080     8.2510     6.7540     7.1690    24.7680   -17.6240     2.3370 
  198.7500    49.9080     8.2530     6.7540     7.1880    24.7140   -17.5530     2.3120 
  198.8750    49.9080     8.2540     6.7540     6.9420    24.7770   -17.5510     2.2870 
  199.0000    49.9080     8.2550     6.7540     6.6200    24.9860   -17.5210     2.2830 
  199.1250    49.9080     8.2560     6.7540     6.5190    25.2630   -17.5140     2.2970 
  199.2500    49.9080     8.2570     6.7540     6.3030    25.2580   -17.6260     2.3160 
  199.3750    49.9080     8.2580     6.7540     5.9980    25.1920   -17.6510     2.3290 
  199.5000    49.9080     8.2600     6.7540     5.9280    25.1380   -17.6280     2.3290 
  199.6250    49.9080     8.2610     6.7540     6.1510    25.0310   -17.6420     2.3240 
  199.7500    49.9080     8.2620     6.7540     6.4540    24.7130   -17.6580     2.3200 
  199.8750    49.9080     8.2630     6.7540     6.6800    24.1620   -17.7020     2.3190 
  200.0000    49.9080     8.2640     6.7540     6.8490    23.6690   -17.8340     2.3180 
  200.1250    49.9080     8.2650     6.7540     7.2850    23.3850   -17.9080     2.3130 
  200.2500    49.9080     8.2670     6.7540     7.7900    23.1820   -17.8140     2.3040 
  200.3750    49.9080     8.2680     6.7540     8.2370    23.0450   -17.8620     2.2930 
  200.5000    49.9080     8.2690     6.7540     8.3410    22.9610   -17.8210     2.2860 
  200.6250    49.9080     8.2700     6.7540     8.1130    22.8620   -17.9080     2.2870 
  200.7500    49.9080     8.2710     6.7540     7.8320    22.7250   -18.0200     2.2960 
  200.8750    49.9080     8.2720     6.7540     7.5880    22.5920   -18.0770     2.3050 
  201.0000    49.9080     8.2740     6.7540     7.3440    22.4940   -18.2030     2.2900 
  201.1250    49.9080     8.2750     6.7540     7.0840    22.4030   -18.2280     2.2340 
  201.2500    49.9080     8.2760     6.7540     6.7420    22.2810   -18.3290     2.1290 
  201.3750    49.9080     8.2770     6.7540     6.3390    22.0970   -18.4070     1.9890 
  201.5000    49.9080     8.2780     6.7540     5.7080    21.6850   -18.5050     1.8470 
  201.6250    49.9080     8.2790     6.7540     4.9640    20.7960   -18.6310     1.7370 
  201.7500    49.9080     8.2810     6.7540     4.4150    19.7280   -18.6580     1.6700 
  201.8750    49.9080     8.2820     6.7540     4.2100    19.1580   -18.6580     1.6390 
  202.0000    49.9080     8.2830     6.7540     4.1750    19.0160   -18.6580     1.6320 
  202.1250    49.9080     8.2840     6.7540     4.1750    19.0140  -999.2500     1.6330 
  202.2500    49.9080     8.2850     6.7540     4.1740    19.0130  -999.2500     1.6360 
  202.3750    49.9080     8.2860     6.7540     4.1720    19.0120  -999.2500     1.6380 
  202.5000    49.9080     8.2880     6.7540     4.1700    19.0110  -999.2500     1.6380 
  202.6250    49.9080     8.2890     6.7540     4.1690    19.0110  -999.2500     1.6360 
  202.7500    49.9080     8.2900     6.7540     4.1690    19.0110  -999.2500     1.6340 
  202.8750    49.9080     8.2900     6.7540     4.1690    19.0110  -999.2500     1.6310 
  203.0000  -999.2500  -999.2500  -999.2500  -999.2500  -999.2500  -999.2500     1.6310 
