~V
VERS. 2.00: Ver 2.00
~W
STRT.M 46.0000:
STOP.M 208.0000:
STEP.M 0.1250:
NULL. -999.2500:
UWI. F10533:
~C
DEPT.M :
GR.API :
RML.OHMM :
RI. :
RXO.OHMM :
CALI.CM :
DEN.GM/CC :
SP.MV :
~A
# ...
  169.7500    70.9570    24.6860    22.6450    23.9140    24.1070     2.5150    -7.7150 
  169.8750    68.1630    23.6730    21.7450    22.3170    24.1070     2.5100    -7.6160 
  170.0000    66.6210    22.7760    20.9130    20.4050    24.1070     2.5010    -7.5440 
  170.1250    65.8160    22.2880    20.4190    18.7770    24.1070     2.4940    -7.5070 
  170.2500    67.2670    22.2840    20.3510    18.4680    24.1070     2.4950    -7.4860 
  170.3750    68.8840    22.7150    20.6870    19.9160    24.1080     2.5070    -7.4920 
  170.5000    67.0260    23.3870    21.2770    21.5910    24.1090     2.5300    -7.5130 
  170.6250    62.8880    23.9830    21.8620    22.3640    24.0970     2.5600    -7.5620 
  170.7500    61.8070    24.2620    22.2060    21.5470    24.0630     2.5840    -7.5900 
  170.8750    63.4710    24.1480    22.2130    20.9220    24.0290     2.5950    -7.5990 
  171.0000    65.0640    23.6790    21.8820    21.1870    24.0160     2.5910    -7.5930 
  171.1250    64.8610    22.8570    21.1740    21.3440    24.0150     2.5740    -7.5450 
  171.2500    62.5830    21.7010    20.1040    20.7450    23.9920     2.5540    -7.4770 
  171.3750    59.2750    20.1710    18.6530    19.1250    23.9520     2.5300    -7.3670 
  171.5000    57.7530    18.3350    16.9050    17.2020    23.9060     2.5000    -7.2200 
  171.6250    59.4500    16.4400    15.0980    14.5220    23.8920     2.4600    -7.0160 
  171.7500    59.7700    14.8080    13.5190    11.7280    23.9110     2.4200    -6.8080 
  171.8750    57.1230    13.6330    12.3370    10.1140    23.9610     2.3910    -6.5920 
  172.0000    54.0550    13.0210    11.6420     9.7950    24.0060     2.3860    -6.3600 
  172.1250    54.8630    13.1190    11.5740    10.0400    24.0090     2.4090    -6.1450 
  172.2500    57.3780    13.8020    12.0370    10.5210    23.9830     2.4480    -5.9540 
  172.3750    57.0010    14.9800    12.9650    11.6240    23.9570     2.4850    -5.7820 
  172.5000    52.6360    16.4930    14.2210    13.5280    23.9390     2.5140    -5.6460 
  172.6250    49.2050    18.0780    15.5850    16.6080    23.9230     2.5340    -5.5620 
  172.7500    49.4570    19.3880    16.7530    18.6650    23.9160     2.5510    -5.5150 
  172.8750    51.1690    20.1540    17.4840    18.6010    23.9180     2.5650    -5.4950 
  173.0000    52.4510    20.2180    17.6200    17.6790    23.9210     2.5720    -5.5300 
  173.1250    54.6050    19.4880    17.0470    17.8120    23.9250     2.5640    -5.5790 
  173.2500    56.1380    18.2820    16.0210    18.4100    23.9320     2.5450    -5.6490 
  173.3750    54.3010    16.8760    14.7780    17.5670    23.9220     2.5250    -5.7330 
  173.5000    50.4910    15.5450    13.5550    14.3730    23.8750     2.5120    -5.8350 
  173.6250    49.6680    14.5570    12.5860    12.2250    23.8200     2.5110    -5.9260 
  173.7500    50.3980    13.9710    11.9360    11.0090    23.7970     2.5090    -6.0270 
  173.8750    50.0270    13.7850    11.6270    10.7900    23.7930     2.4960    -6.1190 
  174.0000    48.6470    13.9240    11.6230    11.4110    23.7930     2.4690    -6.1890 
  174.1250    47.5690    14.2480    11.8450    11.7710    23.7930     2.4400    -6.2350 
  174.2500    47.6660    14.5420    12.1000    12.0910    23.7930     2.4250    -6.2440 
  174.3750    49.7380    14.6870    12.2620    12.4320    23.7930     2.4360    -6.2260 
  174.5000    52.4200    14.6550    12.2700    12.5820    23.7930     2.4640    -6.1520 
  174.6250    52.7500    14.5330    12.1600    12.2090    23.7930     2.4870    -6.0470 
  174.7500    50.3300    14.5180    12.0910    11.4280    23.7930     2.4870    -5.9020 
  174.8750    47.0480    14.7600    12.1910    11.0910    23.7930     2.4690    -5.7340 
  175.0000    45.3250    15.2970    12.5220    11.2740    23.7930     2.4460    -5.5180 
  175.1250    47.9860    16.0030    13.0340    12.6250    23.7930     2.4370    -5.2800 
  175.2500    53.0980    16.5640    13.5010    13.6970    23.7930     2.4450    -5.0260 
  175.3750    56.7720    16.7540    13.7290    14.4270    23.7930     2.4620    -4.7730 
  175.5000    58.6210    16.5130    13.6330    13.6500    23.7930     2.4800    -4.5410 
  175.6250    60.0300    15.9900    13.2790    12.1110    23.7900     2.4930    -4.3350 
  175.7500    60.0180    15.5150    12.9080    10.9200    23.7870     2.5040    -4.1660 
  175.8750    58.7260    15.2400    12.6540    10.7720    23.7880     2.5110    -4.0100 
  176.0000    58.1410    15.1560    12.5360    11.5420    23.7910     2.5060    -3.9120 
  176.1250    60.0380    15.1180    12.4730    12.4220    23.7900     2.4820    -3.8410 
  176.2500    60.9980    14.9390    12.3290    12.4860    23.7840     2.4510    -3.8120 
  176.3750    59.1710    14.5440    12.0350    11.6470    23.7680     2.4270    -3.8280 
  176.5000    56.5310    13.9800    11.6140    10.4370    23.7310     2.4180    -3.9060 
  176.6250    55.5670    13.3950    11.1620     9.5070    23.7020     2.4210    -4.0270 
  176.7500    56.5140    12.9140    10.7760     8.8570    23.6810     2.4150    -4.1630 
  176.8750    56.9580    12.5700    10.4820     8.6560    23.6390     2.3930    -4.3440 
  177.0000    56.3080    12.3490    10.2740     8.7770    23.6000     2.3600    -4.5470 
  177.1250    56.8930    12.2730    10.1750     9.0390    23.5740     2.3400    -4.7870 
  177.2500    60.2560    12.3800    10.2200     9.2060    23.5770     2.3510    -5.0380 
  177.3750    64.2350    12.7330    10.4650     9.2070    23.6150     2.3930    -5.2900 
  177.5000    65.9360    13.3380    10.9230     9.3720    23.7050     2.4420    -5.5110 
  177.6250    65.8550    14.0740    11.5230    10.2980    23.7940     2.4590    -5.7110 
  177.7500    66.4520    14.6620    12.0450    11.8690    23.8940     2.4410    -5.8990 
  177.8750    67.6620    14.8860    12.3090    13.1070    24.0010     2.3970    -6.0500 
  178.0000    68.6970    14.7030    12.2450    12.4380    24.0680     2.3430    -6.1830 
  178.1250    69.5840    14.3190    11.9620    10.4200    24.0870     2.2970    -6.3050 
  178.2500    69.9080    14.1310    11.7620     9.6680    24.1000     2.2700    -6.4180 
  178.3750    69.8720    14.3890    11.8610     9.9900    24.1060     2.2730    -6.5030 
  178.5000    69.4530    15.1770    12.3650    10.8440    24.1110     2.2980    -6.5730 
  178.6250    68.5310    16.4100    13.2760    12.3040    24.1170     2.3300    -6.6330 
  178.7500    67.7940    17.6660    14.2980    14.0950    24.1220     2.3490    -6.6890 
  178.8750    67.3250    18.5620    15.1300    15.7560    24.1210     2.3560    -6.7550 
  179.0000    66.0750    18.8590    15.5430    16.1850    24.1230     2.3580    -6.8420 
  179.1250    64.2670    18.5440    15.4590    15.5050    24.1170     2.3620    -6.9430 
  179.2500    64.1920    18.0430    15.1690    14.6220    24.1100     2.3640    -7.0590 
  179.3750    65.8400    17.6770    14.9230    14.3520    24.1070     2.3660    -7.2020 
  179.5000    66.2790    17.6480    14.9070    14.5230    24.1070     2.3720    -7.3850 
  179.6250    64.4170    18.0260    15.2380    14.9170    24.1040     2.3860    -7.5840 
  179.7500    62.3530    18.5760    15.7790    15.0250    24.0920     2.4050    -7.7940 
  179.8750    60.4510    19.0590    16.3480    15.1120    24.0750     2.4180    -8.0140 
  180.0000    58.6980    19.2650    16.7530    15.9600    24.0680     2.4180    -8.2150 
  180.1250    58.6620    19.0440    16.8160    16.2940    24.0690     2.4050    -8.4200 
  180.2500    61.2750    18.5570    16.6140    15.5930    24.0720     2.3940    -8.6150 
  180.3750    63.9810    17.9990    16.2800    14.3660    24.0710     2.3920    -8.8010 
  180.5000    63.1740    17.5680    15.9750    13.7120    24.0650     2.4000    -8.9600 
  180.6250    61.3860    17.4450    15.8630    13.9300    24.0650     2.4110    -9.1280 
  180.7500    62.9620    17.5770    15.9480    14.3960    24.0720     2.4160    -9.2830 
  180.8750    67.0900    17.8160    16.1410    14.5730    24.0800     2.4140    -9.4440 
