~V
VERS. 2.00: Ver 2.00
~W
STRT.M 50.0000:
STOP.M 191.0000:
STEP.M 0.1250:
NULL. -999.2500:
UWI. F10562:
~C
DEPT.M :
DEN.GM/CC :
SP.MV :
GR.API :
RML.OHMM :
RI. :
RXO.OHMM :
CALI.CM :
~A
   50.0000     2.0300     0.5250    41.6370     1.5460     0.0290     2.0390    25.2160 
   50.1250     1.9440    -1.3440    41.0740     1.2190     0.0280     2.6270    25.2160 
   50.2500     1.9110    -3.1430    38.9280     0.9640     0.0330     2.7770    25.2160 
   50.3750     1.9040    -4.7780    38.3140     0.9250     0.0410     3.1110    25.2140 
   50.5000     1.9030    -6.1580    39.9840     1.0670     0.0470     3.7310    25.2130 
   50.6250     1.9020    -7.1260    41.1030     1.2410     0.0470     4.4950    25.2130 
   50.7500     1.8980    -7.7420    40.3240     1.3340     0.0400     5.0110    25.2140 
   50.8750     1.8930    -8.0750    38.8480     1.3280     0.0280     5.3050    25.2160 
   51.0000     1.8860    -8.1420    38.8290     1.2630     0.0180     5.4010    25.2090 
   51.1250     1.8840    -7.8770    40.5850     1.1800     0.0120     5.5250    25.1890 
   51.2500     1.8870    -7.3520    41.1620     1.0720     0.0130     5.5020    25.1630 
   51.3750     1.8950    -6.6070    39.5790     0.9310     0.0180     5.4260    25.1500 
   51.5000     1.9030    -5.7130    37.5680     0.8610     0.0250     5.3980    25.1460 
   51.6250     1.9060    -4.7040    37.9060     1.1450     0.0330     5.3980    25.1420 
   51.7500     1.9090    -3.6380    39.3100     1.7470     0.0390     5.4740    25.1380 
   51.8750     1.9130    -2.5250    38.8760     2.4050     0.0430     6.2140    25.1390 
   52.0000     1.9130    -1.3920    37.0760     2.7980     0.0430     9.7250    25.1410 
   52.1250     1.9090    -0.3020    36.9430     2.6690     0.0400    17.4280    25.1440 
   52.2500     1.9060     0.7450    38.0820     2.2110     0.0360    18.3750    25.1420 
   52.3750     1.9070     1.7820    39.3730     1.7150     0.0320    15.1640    25.1400 
   52.5000     1.9090     2.8500    41.2860     1.4360     0.0310    10.8810    25.1410 
   52.6250     1.9010     3.9170    42.8450     1.4290     0.0330     9.2940    25.1400 
   52.7500     1.8870     4.9710    42.2170     1.4660     0.0370    10.9260    25.1420 
   52.8750     1.8730     6.0120    41.0160     1.4210     0.0420    13.2200    25.1430 
   53.0000     1.8580     7.0190    42.7790     1.2660     0.0440    13.7980    25.1400 
   53.1250     1.8370     7.9560    46.9720     1.0520     0.0400    15.9150    25.1380 
   53.2500     1.8180     8.8350    50.4130     0.9060     0.0310    23.5200    25.1370 
   53.3750     1.8140     9.6400    52.3190     0.8930     0.0220    29.8490    25.1370 
   53.5000     1.8240    10.3640    52.2000     0.9680     0.0150    66.8590    25.1370 
   53.6250     1.8380    11.0240    50.2010     1.0110     0.0120    40.2770    25.1370 
   53.7500     1.8510    11.6330    48.6330     0.9340     0.0120    16.7250    25.1370 
   53.8750     1.8620    12.2010    48.7680     0.7270     0.0140    11.1290    25.1370 
   54.0000     1.8710    12.7260    51.4970     0.5270     0.0170    21.7070    25.1370 
   54.1250     1.8800    13.2540    54.7280     0.6420     0.0220   105.7750    25.1370 
   54.2500     1.8890    13.7940    56.0700     1.1620     0.0250   186.7270    25.1370 
   54.3750     1.9000    14.3660    54.8990     1.9780     0.0250    69.7270    25.1370 
   54.5000     1.9070    14.9600    54.0360     2.8590     0.0240    33.1590    25.1370 
   54.6250     1.9080    15.5910    56.2090     3.4970     0.0240    23.5970    25.1370 
   54.7500     1.9060    16.2960    57.6490     3.7000     0.0260    40.3490    25.1370 
   54.8750     1.9070    17.0700    55.3040     3.4290     0.0310   134.8160    25.1370 
   55.0000     1.9170    17.9750    51.1990     2.7990     0.0360  1557.4790    25.1370 
   55.1250     1.9400    19.0950    50.7660     2.0180     0.0370  1557.4800    25.1370 
   55.2500     1.9780    20.4530    52.9020     1.3310     0.0340  1557.4800    25.1370 
   55.3750     2.0310    22.1180    54.5590     0.9140     0.0280  1557.4800    25.1370 
   55.5000     2.0970    24.1940    53.9410     0.8630     0.0240  1557.4800    25.1370 
   55.6250     2.1720    26.8520    51.2460     1.1120     0.0270  1557.4800    25.1370 
   55.7500     2.2560    30.0290    48.1080     1.3690     0.0310  1557.4800    25.1360 
   55.8750     2.3450    33.7230    46.0610     1.4410     0.0330  1557.4800    25.1260 
   56.0000     2.4180    37.8170    45.8300     1.2370     0.0310  1557.4800    25.0770 
   56.1250     2.4510    42.0640    46.5900     0.8400     0.0280  1557.4800    24.9110 
   56.2500     2.4640    46.0840    48.2730     0.4720     0.0290  1557.4800    24.6810 
   56.3750     2.4680    49.5420    49.9530     0.2600     0.0360  1557.4800    24.5800 
   56.5000     2.4600    52.2640    50.0780     0.2640     0.0450  1557.4800    24.7630 
   56.6250     2.4350    54.1410    47.6060     0.4710     0.0460  1557.4800    25.0020 
   56.7500     2.4080    55.4200    45.5480     0.7260     0.0390  1557.4800    25.1120 
   56.8750     2.3960    56.2540    45.0250     0.8940     0.0260  1557.4800    25.1270 
   57.0000     2.4010    56.7990    45.7490     0.9020     0.0140  1557.4800    25.0900 
   57.1250     2.4230    57.2310    45.8950     0.7750     0.0110  1557.4800    24.9030 
   57.2500     2.4530    57.8030    45.2680     0.6220     0.0140  1557.4800    24.5540 
   57.3750     2.4820    58.7100    44.7390     0.5480     0.0200  1557.4800    24.2120 
   57.5000     2.5020    60.0220    45.1500     0.6340     0.0250  1557.4800    24.0350 
   57.6250     2.5090    61.7480    47.1080     0.8270     0.0240  1557.4800    23.9330 
   57.7500     2.5150    63.7110    49.2550     0.9410     0.0190  1557.4800    23.7840 
   57.8750     2.5280    65.7260    50.6040     0.8780     0.0140  1557.4800    23.6550 
   58.0000     2.5450    67.7060    50.5730     0.6550     0.0100  1557.4800    23.5990 
   58.1250     2.5570    69.6850    49.5670     0.3890     0.0090  1557.4800    23.5910 
   58.2500     2.5700    71.7620    48.6300     0.1950     0.0100  1557.4800    23.5760 
   58.3750     2.5880    73.9990    48.4310     0.1380     0.0140  1557.4800    23.5350 
   58.5000     2.6110    76.3980    48.8090     0.2210     0.0230  1557.4800    23.4760 
   58.6250     2.6330    78.8850    48.6570     0.3980     0.0350  1557.4800    23.4510 
   58.7500     2.6520    81.2960    48.8770     0.5670     0.0460  1557.4800    23.4440 
   58.8750     2.6630    83.5190    50.8190     0.6490     0.0500  1557.4800    23.4420 
   59.0000     2.6650    85.4120    53.4360     0.6030     0.0470  1557.4800    23.4350 
   59.1250     2.6650    86.8250    54.6810     0.4690     0.0400  1557.4800    23.4170 
   59.2500     2.6640    87.7620    55.1520     0.3630     0.0330  1557.4800    23.4020 
   59.3750     2.6600    88.0810    54.5010     0.3460     0.0270  1557.4800    23.4170 
   59.5000     2.6500    87.5490    52.3760     0.4220     0.0220  1557.4800    23.4350 
   59.6250     2.6350    85.8080    50.1820     0.5730     0.0170  1557.4800    23.4430 
   59.7500     2.6210    83.0720    50.7580     0.7670     0.0120  1557.4800    23.4560 
   59.8750     2.6160    79.6170    53.1810     0.9540     0.0110  1557.4800    23.4870 
   60.0000     2.6230    75.7380    54.6240     1.0470     0.0100  1557.4800    23.5190 
   60.1250     2.6390    71.4460    53.8200     0.9570     0.0100  1557.4800    23.5510 
   60.2500     2.6560    66.6840    52.5680     0.7480     0.0080  1557.4800    23.5900 
   60.3750     2.6710    61.3580    51.0010     0.5190     0.0100  1557.4800    23.6360 
   60.5000     2.6760    55.3770    48.7070     0.4090     0.0530   158.3910    23.6970 
   60.6250     2.6380    48.5150    49.1630     0.6370     0.3360     7.1890    23.7270 
   60.7500     2.5300    41.0250    55.1920     1.3540     1.1940     5.2090    23.7550 
   60.8750     2.3780    33.1590    64.2060     3.0840     3.6510     6.0060    23.8270 
   61.0000     2.2350    25.0850    70.4720     7.8200    11.0570     7.2640    24.0170 
   61.1250     2.1440    17.0180    71.0560    24.0840    35.1390     8.1800    24.4900 
