~V
VERS. 2.00: Ver 2.00
~W
STRT.M 50.0000:
STOP.M 222.0000:
STEP.M 0.1250:
NULL. -999.2500:
UWI. F10580:
~C
DEPT.M :
DEN.GM/CC :
SP.MV :
GR.API :
RML.OHMM :
RI. :
RXO.OHMM :
CALI.CM :
~A
# ...
  140.0000     2.6020   -17.4070    62.8550    41.1230    37.3370    38.3080    24.5820 
  140.1250     2.6310   -17.5030    59.3990    41.8200    37.7450    37.6260    24.5820 
  140.2500     2.6390   -17.5900    56.2980    40.4570    36.4960    36.4760    24.5820 
  140.3750     2.6260   -17.6730    54.1550    37.4790    33.9500    31.7060    24.5820 
  140.5000     2.5910   -17.7250    52.7410    33.9820    31.0010    28.3770    24.5820 
  140.6250     2.5380   -17.7610    55.5390    31.1770    28.6260    24.3650    24.5820 
  140.7500     2.4920   -17.7790    61.4790    29.4040    27.1120    23.0090    24.5820 
  140.8750     2.4720   -17.7750    65.3930    28.5040    26.3670    25.2490    24.5820 
  141.0000     2.4810   -17.7670    64.8260    28.0790    26.0710    27.8230    24.5820 
  141.1250     2.4970   -17.7410    63.6330    27.6620    25.7730    27.1740    24.5820 
  141.2500     2.4980   -17.6940    63.0230    26.9410    25.1390    23.5040    24.5820 
  141.3750     2.4870   -17.6240    61.8280    25.8200    24.0840    20.8310    24.5820 
  141.5000     2.4820   -17.5540    61.5360    24.3590    22.7070    19.4950    24.5820 
  141.6250     2.4870   -17.4640    64.7290    22.7170    21.2230    19.1040    24.5820 
  141.7500     2.4850   -17.3550    68.6450    21.1340    19.8640    16.9020    24.5820 
  141.8750     2.4660   -17.2560    70.2410    19.7660    18.7430    14.5870    24.5820 
  142.0000     2.4390   -17.1260    69.1520    18.7290    17.9220    13.3440    24.5820 
  142.1250     2.4180   -16.9980    66.0200    18.1540    17.4800    13.4780    24.5820 
  142.2500     2.4050   -16.8760    63.2020    17.9400    17.3260    13.9150    24.5820 
  142.3750     2.4010   -16.7630    63.6990    17.9440    17.3480    14.0350    24.5810 
  142.5000     2.4070   -16.6500    66.0540    17.9400    17.3590    14.0830    24.5800 
  142.6250     2.4180   -16.5480    67.8480    17.6280    17.1010    14.5450    24.5790 
  142.7500     2.4240   -16.4610    69.6750    16.9380    16.4990    14.6290    24.5810 
  142.8750     2.4180   -16.3700    71.5930    15.9630    15.6200    13.8760    24.5820 
  143.0000     2.4060   -16.2960    72.3770    14.9270    14.6480    12.2320    24.5820 
  143.1250     2.3970   -16.2200    70.0360    14.1220    13.8380    10.8730    24.5820 
  143.2500     2.3930   -16.1530    66.0050    13.6620    13.3120    10.4510    24.5820 
  143.3750     2.3930   -16.1090    61.7580    13.5530    13.1000    11.0230    24.5820 
  143.5000     2.3930   -16.0710    58.3780    13.7140    13.1520    12.3930    24.5820 
  143.6250     2.3930   -16.0600    57.8220    14.0040    13.3570    12.7960    24.5820 
  143.7500     2.3930   -16.0580    59.1310    14.2450    13.5440    11.7080    24.5820 
  143.8750     2.3900   -16.0480    61.3850    14.3570    13.6220    10.9540    24.5820 
  144.0000     2.3830   -16.0280    63.1730    14.3330    13.5740    10.9630    24.5820 
  144.1250     2.3720   -16.0000    62.2100    14.2180    13.4300    11.3730    24.5800 
  144.2500     2.3650   -15.9700    59.7730    14.1170    13.2820    11.3860    24.5630 
  144.3750     2.3660   -15.9160    58.5290    14.1060    13.1970    11.5270    24.5050 
  144.5000     2.3750   -15.8750    59.6690    14.2380    13.2290    12.1470    24.4090 
  144.6250     2.3840   -15.7970    62.3150    14.5660    13.4360    12.5640    24.3220 
  144.7500     2.3870   -15.7200    63.5400    15.0580    13.8050    12.6970    24.2890 
  144.8750     2.3790   -15.6510    63.0230    15.6900    14.3250    13.7510    24.3010 
  145.0000     2.3590   -15.5940    63.2880    16.4490    14.9680    14.8490    24.3930 
  145.1250     2.3240   -15.5410    65.1970    17.3620    15.7380    15.6270    24.6010 
  145.2500     2.2770   -15.4850    65.6080    18.3930    16.5960    15.3580    24.6940 
  145.3750     2.2260   -15.4190    63.6120    19.4340    17.4710    15.9140    24.4730 
  145.5000     2.1970   -15.3440    61.2420    20.3060    18.2280    17.2780    24.0040 
  145.6250     2.2150   -15.2850    60.4530    20.7500    18.6580    18.5780    23.7850 
  145.7500     2.2600   -15.2310    59.5290    20.7550    18.7230    18.6270    23.7400 
  145.8750     2.3040   -15.1820    58.3800    20.4000    18.4580    16.5720    23.7500 
  146.0000     2.3310   -15.1310    58.5030    19.8520    17.9940    14.6460    23.7510 
  146.1250     2.3460   -15.1030    59.5940    19.2860    17.4900    14.4200    23.7510 
  146.2500     2.3630   -15.1000    60.1170    18.7960    17.0510    14.7720    23.7510 
  146.3750     2.3800   -15.1200    59.9470    18.4100    16.7100    14.6380    23.7610 
  146.5000     2.3920   -15.1370    61.0780    18.1470    16.4750    13.9510    23.7920 
  146.6250     2.3980   -15.1600    62.6140    18.0430    16.3620    13.1180    23.8900 
  146.7500     2.4050   -15.1920    62.5670    18.0930    16.3680    13.1920    24.0050 
  146.8750     2.4140   -15.2370    62.9690    18.2740    16.4950    14.2020    24.0940 
  147.0000     2.4200   -15.3010    65.4280    18.4910    16.6870    15.9100    24.1280 
  147.1250     2.4200   -15.3750    64.6800    18.5930    16.8220    15.3590    24.1280 
  147.2500     2.4150   -15.4390    59.3920    18.5740    16.8610    15.5290    24.1280 
  147.3750     2.4080   -15.5070    55.2640    18.5340    16.8580    16.0510    24.1280 
  147.5000     2.4030   -15.6010    55.1690    18.5970    16.9070    15.7090    24.1280 
  147.6250     2.4050   -15.6890    55.8810    18.8750    17.1150    15.6830    24.1180 
  147.7500     2.4150   -15.7620    55.0440    19.2810    17.4530    17.3720    24.0940 
  147.8750     2.4260   -15.8170    54.7250    19.6720    17.8180    18.9910    24.0710 
  148.0000     2.4330   -15.8510    55.9700    19.9230    18.0910    18.4700    24.0600 
  148.1250     2.4340   -15.8650    56.8340    20.0050    18.2070    17.0750    24.0600 
  148.2500     2.4380   -15.8630    57.5340    20.0520    18.2480    16.7470    24.0590 
  148.3750     2.4470   -15.8390    58.7540    20.1650    18.3020    16.9610    24.0570 
  148.5000     2.4540   -15.8080    59.4930    20.3830    18.4280    17.2980    24.0580 
  148.6250     2.4520   -15.7870    60.6130    20.6290    18.5980    18.5950    24.0600 
  148.7500     2.4410   -15.7590    62.6700    20.7480    18.6860    19.7380    24.0600 
  148.8750     2.4270   -15.7130    63.8100    20.6690    18.6140    19.5370    24.0600 
  149.0000     2.4140   -15.6740    62.1710    20.4430    18.4040    17.9640    24.0600 
  149.1250     2.4040   -15.6190    59.8390    20.2220    18.1750    16.6780    24.0550 
  149.2500     2.3980   -15.5520    59.9560    20.1550    18.0580    16.2600    24.0270 
  149.3750     2.3960   -15.4850    59.5880    20.3150    18.1290    16.7680    23.9650 
  149.5000     2.3990   -15.4050    57.5790    20.7230    18.4170    17.8630    23.9200 
  149.6250     2.4080   -15.3010    57.3150    21.3900    18.9410    17.7310    23.9060 
  149.7500     2.4190   -15.2100    59.5110    22.2230    19.6220    18.0970    23.9060 
  149.8750     2.4290   -15.1180    61.7590    23.1350    20.3860    19.1440    23.9060 
  150.0000     2.4340   -15.0270    61.6390    23.9950    21.1300    19.4230    23.8970 
  150.1250     2.4370   -14.9200    59.3620    24.5840    21.6820    19.3950    23.7960 
  150.2500     2.4410   -14.8320    57.4550    24.7890    21.9330    18.8410    23.5590 
  150.3750     2.4440   -14.7660    57.5880    24.5680    21.8230    17.7100    23.2700 
  150.5000     2.4450   -14.6970    58.7200    24.0040    21.3940    16.4040    23.0510 
  150.6250     2.4450   -14.6470    58.7880    23.2760    20.7730    14.5950    22.8440 
  150.7500     2.4410   -14.5840    58.8540    22.5900    20.1610    13.8210    22.6140 
  150.8750     2.4360   -14.5400    59.5680    22.0130    19.6360    13.6050    22.4210 
  151.0000     2.4320   -14.5140    59.2570    21.5450    19.2140    13.5210    22.3260 
  151.1250     2.4330   -14.5160    57.6250    21.2000    18.9090    12.9150    22.2660 
