~V
VERS. 2.00: Ver 2.00
~W
STRT.M 58.0000:
STOP.M 193.0000:
STEP.M 0.1250:
NULL. -999.2500:
UWI. F10563:
~C
DEPT.M :
GR.API :
RML.OHMM :
RI. :
RXO.OHMM :
CALI.CM :
DEN.GM/CC :
SP.MV :
~A
# ...
   69.2500    88.4720     7.1440     6.3320     6.6840    24.4130     2.2540   -17.5200 
   69.3750    92.0490     6.9630     6.1010     6.1930    24.4420     2.2610   -17.4350 
   69.5000    93.9210     6.8110     5.8990     5.6620    24.4440     2.2640   -17.4440 
   69.6250    90.9400     6.7950     5.8000     5.8120    24.3800     2.2650   -17.4770 
   69.7500    87.3430     6.9880     5.8760     6.2590    24.2860     2.2650   -17.4620 
   69.8750    84.5710     7.4690     6.2080     6.6630    24.2070     2.2620   -17.3640 
   70.0000    81.3190     8.3170     6.8710     6.8640    24.1750     2.2510   -17.3030 
   70.1250    76.3800     9.6850     8.0010     7.6030    24.1840     2.2260   -17.3320 
   70.2500    71.9780    11.5000     9.5340     8.9510    24.2130     2.1910   -17.2880 
   70.3750    69.1490    13.5980    11.3400    11.3840    24.2420     2.1570   -17.1430 
   70.5000    68.0770    15.5980    13.1330    13.9010    24.2530     2.1330   -16.9740 
   70.6250    69.2690    16.8320    14.3820    15.6280    24.2340     2.1290   -16.8750 
   70.7500    72.6100    17.1040    14.8590    15.0790    24.1950     2.1420   -16.7880 
   70.8750    76.7300    16.6180    14.6270    12.9950    24.1670     2.1660   -16.6230 
   71.0000    78.9740    15.8800    14.0200    11.0880    24.1560     2.1910   -16.4120 
   71.1250    77.9290    15.4940    13.5000    10.3620    24.1570     2.2000   -16.3100 
   71.2500    75.7850    15.6740    13.3540    10.7110    24.1740     2.1940   -16.3060 
   71.3750    74.9950    16.3950    13.6500    11.4980    24.2510     2.1780   -16.3190 
   71.5000    75.9700    17.4670    14.3060    12.8060    24.4270     2.1660   -16.2350 
   71.6250    78.0530    18.5900    15.1350    15.5970    24.5590     2.1670   -16.0250 
   71.7500    80.2990    19.5130    15.8960    17.9000    24.5280     2.1770   -15.8170 
   71.8750    80.2500    20.2010    16.5040    15.8770    24.3400     2.1850   -15.7010 
   72.0000    77.1380    20.7880    17.0090    13.8130    24.1170     2.1850   -15.6430 
   72.1250    70.5890    21.5290    17.5880    12.4470    23.9370     2.1760   -15.5360 
   72.2500    64.1380    22.5390    18.3780    12.3660    23.7250     2.1640   -15.4050 
   72.3750    62.2910    23.7410    19.3670    13.1790    23.5090     2.1530   -15.3150 
   72.5000    65.7870    24.8740    20.3810    13.8770    23.4020     2.1480   -15.3080 
   72.6250    70.2120    25.4870    21.0640    14.8190    23.5110     2.1480   -15.3780 
   72.7500    69.3950    25.4500    21.2520    15.6730    23.8660     2.1520   -15.5210 
   72.8750    64.9460    24.8610    20.9830    15.9300    24.3780     2.1550   -15.7650 
   73.0000    62.2760    23.9960    20.4550    15.9800    24.8330     2.1520   -16.0400 
   73.1250    64.0000    23.1600    19.9060    15.3070    25.0840     2.1390   -16.2280 
   73.2500    66.2850    22.4450    19.4220    15.2120    25.1590     2.1180   -16.4210 
   73.3750    66.5960    21.7000    18.8880    15.1990    25.1490     2.0940   -16.6700 
   73.5000    67.2940    20.6310    18.0720    14.7590    25.1000     2.0750   -16.9920 
   73.6250    70.4360    18.8510    16.6550    13.2970    25.0630     2.0810   -17.3580 
   73.7500    74.4030    16.4800    14.7130    12.3270    25.0030     2.1160   -17.6570 
   73.8750    78.9340    13.8400    12.4800    11.8800    24.9000     2.1740   -17.8560 
   74.0000    86.0360    11.3530    10.2950    10.8240    24.8090     2.2390   -18.0240 
   74.1250    95.2710     9.4630     8.5320     8.1830    24.7630     2.2870   -18.2590 
   74.2500   100.1280     8.2200     7.2740     6.4120    24.7530     2.3060   -18.4570 
   74.3750    99.2510     7.5900     6.5160     5.8720    24.7520     2.3050   -18.5590 
   74.5000    95.4720     7.4640     6.1910     5.8910    24.7500     2.3010   -18.5300 
   74.6250    93.0740     7.7260     6.2370     6.1900    24.7520     2.3110   -18.3530 
   74.7500    91.8450     8.1290     6.4670     6.9800    24.7610     2.3330   -18.0970 
   74.8750    90.1590     8.5260     6.7690     7.7690    24.7770     2.3510   -17.8680 
   75.0000    88.3950     8.8220     7.0480     7.9390    24.7900     2.3510   -17.6880 
   75.1250    87.2250     8.9480     7.2290     6.9220    24.8010     2.3230   -17.3920 
   75.2500    86.8290     8.9190     7.2900     6.9580    24.8040     2.2840   -17.0470 
   75.3750    87.7340     8.7230     7.2120     7.4170    24.8040     2.2490   -16.7530 
   75.5000    90.5950     8.3570     6.9780     7.5130    24.8000     2.2310   -16.5770 
   75.6250    94.3970     7.8430     6.5810     7.4150    24.7760     2.2340   -16.5130 
   75.7500    97.3840     7.2990     6.1070     6.6040    24.7260     2.2500   -16.5040 
   75.8750    99.4270     6.8310     5.6440     5.7530    24.6740     2.2710   -16.4490 
   76.0000   101.0330     6.5200     5.2800     5.1670    24.6480     2.2950   -16.3270 
   76.1250   100.1400     6.4220     5.0940     5.0410    24.6430     2.3160   -16.2900 
   76.2500    97.7300     6.4670     5.0500     5.0080    24.6350     2.3280   -16.2690 
   76.3750    98.0310     6.5820     5.0930     5.1970    24.6190     2.3270   -16.1740 
   76.5000   102.2860     6.6910     5.1530     5.3880    24.6090     2.3130   -16.0030 
   76.6250   105.1540     6.7270     5.1650     5.4210    24.6130     2.2880   -15.8020 
   76.7500   104.9150     6.7030     5.1330     5.3260    24.6170     2.2620   -15.6220 
   76.8750   103.1430     6.6780     5.1000     5.3330    24.6070     2.2430   -15.3920 
   77.0000   102.2690     6.7280     5.1260     5.4500    24.5630     2.2350   -15.0450 
   77.1250   101.0800     6.9250     5.2660     5.4430    24.4210     2.2370   -14.7260 
   77.2500    97.7150     7.2250     5.4830     5.2970    24.2110     2.2410   -14.5420 
   77.3750    93.3130     7.5430     5.7100     5.6840    24.0150     2.2440   -14.3940 
   77.5000    91.0200     7.7730     5.8720     6.5850    23.8960     2.2440   -14.1660 
   77.6250    95.2960     7.8210     5.9160     6.6240    23.8530     2.2410   -13.8640 
   77.7500   101.9010     7.7550     5.8920     5.8430    23.8530     2.2350   -13.5410 
   77.8750   104.8160     7.6800     5.8670     5.3590    23.8480     2.2260   -13.2630 
   78.0000   100.9870     7.7000     5.8980     5.3260    23.8160     2.2150   -13.1040 
   78.1250    94.5070     7.8740     6.0100     5.7590    23.8450     2.2060   -12.9470 
   78.2500    91.7700     8.1200     6.1600     6.3970    23.9610     2.2010   -12.6890 
   78.3750    91.8180     8.3350     6.3010     7.1070    24.1130     2.2020   -12.4270 
   78.5000    90.9880     8.4390     6.3980     7.1430    24.2030     2.2060   -12.2500 
   78.6250    90.3490     8.4340     6.4550     6.9470    24.2480     2.2140   -12.1730 
   78.7500    91.5980     8.4620     6.5360     6.6890    24.3180     2.2230   -12.1950 
   78.8750    93.3750     8.6470     6.7040     6.6590    24.4250     2.2280   -12.2990 
   79.0000    92.3400     9.0520     6.9970     7.0010    24.5340     2.2260   -12.3960 
   79.1250    88.7970     9.6450     7.4130     7.7570    24.5790     2.2140   -12.3790 
   79.2500    86.4800    10.2100     7.8370     8.6120    24.5870     2.2000   -12.3290 
   79.3750    85.7280    10.5370     8.1450     9.1570    24.5410     2.1890   -12.3060 
   79.5000    85.1230    10.4850     8.2290     8.7440    24.3930     2.1860   -12.3350 
   79.6250    85.3690    10.0240     8.0190     7.8580    24.1580     2.1940   -12.3720 
   79.7500    88.2310     9.3930     7.6350     7.4380    23.9800     2.2090   -12.3380 
   79.8750    90.5020     8.7770     7.1950     7.0830    23.9000     2.2250   -12.2270 
   80.0000    90.4130     8.3120     6.8090     6.9210    23.8690     2.2360   -12.1280 
   80.1250    91.6960     8.1150     6.5880     6.7910    23.8300     2.2360   -12.1350 
   80.2500    96.2020     8.2020     6.5710     6.7020    23.7820     2.2280   -12.1670 
   80.3750    99.3260     8.6230     6.8000     6.6620    23.7380     2.2230   -12.1440 
