~V
VERS. 2.00: Ver 2.00
~W
STRT.M 57.0000:
STOP.M 205.0000:
STEP.M 0.1250:
NULL. -999.2500:
UWI. F10591:
~C
DEPT.M :
SP.MV :
GR.API :
RML.OHMM :
RI. :
RXO.OHMM :
CALI.CM :
DEN.GM/CC :
~A
# ...
  169.5000   -22.3080    69.7360    44.1130    36.7770    47.3020    24.1700     2.2690 
  169.6250   -22.2950    66.4570    43.3480    36.4610    44.1900    24.1370     2.2780 
  169.7500   -22.2780    65.1030    41.9020    35.5870    37.7000    24.1180     2.2880 
  169.8750   -22.2430    67.5510    40.7920    34.8130    31.4990    24.1090     2.2980 
  170.0000   -22.2110    70.5660    41.0970    34.9540    27.5360    24.1030     2.3060 
  170.1250   -22.1540    70.4200    43.8670    36.9710    31.6250    24.0980     2.3050 
  170.2500   -22.1130    67.4210    48.6110    40.7390    45.1820    24.0960     2.2900 
  170.3750   -22.0630    63.8420    54.5330    45.7870    60.4500    24.0970     2.2650 
  170.5000   -22.0640    61.0500    60.5460    51.2490    67.0840    24.0990     2.2410 
  170.6250   -22.0640    61.2340    65.6150    56.1220    65.4890    24.0970     2.2280 
  170.7500   -22.0820    63.9010    69.9130    60.2860    62.9700    24.0960     2.2270 
  170.8750   -22.1150    65.7220    74.0940    64.2280    63.0000    24.0980     2.2300 
  171.0000   -22.1560    64.2900    78.3560    68.2560    71.7240    24.1030     2.2290 
  171.1250   -22.2260    59.3940    81.1980    71.3730    87.2760    24.1080     2.2250 
  171.2500   -22.2870    55.5520    80.7280    71.9450    90.5240    24.1130     2.2210 
  171.3750   -22.3750    55.7430    76.3260    69.1270    83.9820    24.1150     2.2240 
  171.5000   -22.4300    58.4240    69.5330    63.8050    69.3740    24.1150     2.2320 
  171.6250   -22.5190    60.2610    63.5980    58.4620    52.9410    24.1060     2.2410 
  171.7500   -22.5890    60.1730    60.8210    55.4050    45.9110    24.0860     2.2440 
  171.8750   -22.6640    60.6380    61.9750    55.6440    48.3840    24.0670     2.2400 
  172.0000   -22.7290    61.0980    66.7300    59.2010    58.0390    24.0630     2.2320 
  172.1250   -22.7550    59.0250    73.8460    65.2920    73.8880    24.0650     2.2220 
  172.2500   -22.7480    56.8240    80.3590    71.3920    87.5180    24.0670     2.2130 
  172.3750   -22.6760    58.3140    83.9660    75.4530    91.0430    24.0680     2.2080 
  172.5000   -22.5650    62.7870    83.8710    76.5020    84.5070    24.0690     2.2060 
  172.6250   -22.3940    65.0960    81.1430    75.0070    71.0560    24.0650     2.2070 
  172.7500   -22.1740    63.3070    78.2120    72.9740    62.0680    24.0790     2.2110 
  172.8750   -21.9360    60.0040    75.9020    71.2700    64.8390    24.0920     2.2180 
  173.0000   -21.6550    58.2070    74.0830    69.9640    73.5210    24.0850     2.2270 
  173.1250   -21.3990    57.6340    72.3370    68.7750    69.4200    24.0610     2.2330 
  173.2500   -21.1790    56.5610    70.6050    67.5920    61.9340    24.0580     2.2350 
  173.3750   -20.9960    55.9890    69.2950    66.6900    56.7290    24.0730     2.2330 
  173.5000   -20.8860    56.8560    68.9710    66.5410    57.0350    24.0820     2.2320 
  173.6250   -20.8130    57.4350    70.2720    67.7800    65.3640    24.0700     2.2390 
  173.7500   -20.8160    55.7610    72.9230    70.2750    71.6240    24.0490     2.2500 
  173.8750   -20.8330    53.7650    76.6440    73.7840    73.6640    24.0110     2.2560 
  174.0000   -20.9290    53.8310    81.2240    78.0520    72.7070    23.9630     2.2460 
  174.1250   -21.0310    57.4450    86.7330    83.1040    71.2520    23.9280     2.2210 
  174.2500   -21.1640    59.9120    92.5940    88.5260    73.3210    23.9190     2.1970 
  174.3750   -21.3010    57.3280    97.4880    93.2310    88.9740    23.9480     2.1870 
  174.5000   -21.4170    51.6090    99.6750    95.6580   109.9130    23.9720     2.1940 
  174.6250   -21.5180    48.0620    97.8310    94.4050   112.4210    23.9410     2.2240 
  174.7500   -21.5940    48.3520    94.0150    90.9880    96.2420    23.8460     2.2700 
  174.8750   -21.6570    51.1540    90.7960    87.5740    73.9440    23.7140     2.3190 
  175.0000   -21.6920    55.7560    90.7520    86.7050    63.2710    23.6500     2.3520 
  175.1250   -21.7120    59.0930    96.5700    91.4060    76.4540    23.6550     2.3400 
  175.2500   -21.7100    57.7640   107.6010   101.3250   102.7750    23.6810     2.2970 
  175.3750   -21.6810    54.4080   122.0570   114.7030   109.1760    23.7440     2.2440 
  175.5000   -21.6250    52.5990   135.5170   127.4920   113.3010    23.8190     2.2070 
  175.6250   -21.5360    52.4490   139.1280   132.2070   121.7110    23.8870     2.2030 
  175.7500   -21.4260    52.1310   130.9630   126.7430   117.1180    23.9100     2.2220 
  175.8750   -21.2940    53.9070   115.6120   114.0770    96.8540    23.9210     2.2510 
  176.0000   -21.1300    60.0660    99.7830    99.7090    78.2190    23.9300     2.2760 
  176.1250   -20.9530    67.8640    88.4860    88.5220    67.5800    24.0170     2.2830 
  176.2500   -20.7430    71.6600    82.3820    81.8990    61.0270    24.0580     2.2700 
  176.3750   -20.5410    70.6350    81.1070    80.0740    59.6590    24.0670     2.2400 
  176.5000   -20.3310    67.4200    82.8290    81.8460    62.7920    24.0860     2.2070 
  176.6250   -20.1610    66.6550    82.5360    82.8020    64.8970    24.0960     2.1940 
  176.7500   -19.9890    67.8910    74.4930    76.4720    69.1590    24.1140     2.2130 
  176.8750   -19.8530    67.0680    57.7220    60.5800    74.5320    24.1370     2.2570 
  177.0000   -19.7140    63.3980    37.9870    40.5210    58.6070    24.1440     2.3050 
  177.1250   -19.5820    62.4500    23.1300    24.8950    27.9350    24.1170     2.3300 
  177.2500   -19.4670    66.7750    14.0780    15.1830    12.2560    24.1400     2.3320 
  177.3750   -19.3850    70.8510     9.2710     9.8430     6.4080    24.1550     2.3200 
  177.5000   -19.3240    69.5670     6.9980     7.1160     4.7000    24.1160     2.3040 
  177.6250   -19.2670    64.9810     6.2130     5.9700     4.7830    24.0690     2.2900 
  177.7500   -19.2320    62.4020     6.0250     5.5320     5.1910    24.0480     2.2800 
  177.8750   -19.2020    62.8440     6.1110     5.4880     5.5950    24.0440     2.2800 
  178.0000   -19.1960    62.3800     6.2560     5.6080     5.7990    24.0540     2.2940 
  178.1250   -19.2090    57.8080     6.3040     5.7150     5.7480    24.0530     2.3220 
  178.2500   -19.2200    52.5630     6.2540     5.7440     5.5740    24.0260     2.3520 
  178.3750   -19.2080    49.6660     6.1890     5.7320     5.6710    24.0090     2.3760 
  178.5000   -19.1830    48.9780     6.2430     5.7820     5.9370    24.0650     2.3960 
  178.6250   -19.1650    48.0080     6.6140     6.0730     6.6460    24.1810     2.4280 
  178.7500   -19.1340    47.1300     7.3380     6.6740     8.5300    24.2890     2.4830 
  178.8750   -19.0990    47.2040     8.3590     7.5710    13.0330    24.3800     2.5460 
  179.0000   -19.0550    47.3900     9.4480     8.5850    21.8770    24.4070     2.5880 
  179.1250   -19.0250    46.6320    10.0750     9.2340    34.6740    24.3280     2.5750 
  179.2500   -18.9850    45.6890     9.9250     9.1710    39.2100    24.2390     2.5230 
  179.3750   -18.9640    45.6300     9.0790     8.4240    27.5980    24.1980     2.4560 
  179.5000   -18.9570    46.6210     7.9600     7.3620    13.6000    24.1990     2.3990 
  179.6250   -18.9510    46.2980     7.0590     6.4190     8.0420    24.2140     2.3660 
  179.7500   -18.9790    44.8100     6.5230     5.7680     6.3550    24.2090     2.3510 
  179.8750   -19.0150    44.8920     6.3120     5.4110     6.0640    24.1620     2.3450 
  180.0000   -19.0670    47.6970     6.3110     5.2800     6.0180    24.1020     2.3430 
  180.1250   -19.1180    51.2050     6.3810     5.2810     5.9820    24.0470     2.3420 
  180.2500   -19.1890    52.2320     6.4140     5.3030     5.8850    24.0030     2.3420 
  180.3750   -19.2610    52.3830     6.3860     5.3050     5.6910    23.9620     2.3440 
  180.5000   -19.3420    54.0090     6.3150     5.2750     5.5360    23.9000     2.3520 
  180.6250   -19.4380    56.5980     6.2390     5.2220     5.3970    23.7950     2.3640 
