~V
VERS. 2.00: Ver 2.00
~W
STRT.M 60.0000:
STOP.M 200.0000:
STEP.M 0.1250:
NULL. -999.2500:
UWI. F10576:
~C
DEPT.M :
GR.API :
RML.OHMM :
RI. :
RXO.OHMM :
CALI.CM :
DEN.GM/CC :
SP.MV :
~A
# ...
   82.5000    65.4430    11.1110     9.4650    10.6740    24.5040     2.1600   -26.6500 
   82.6250    61.8580    11.1440     9.4860    10.6620    24.4490     2.1660   -26.5920 
   82.7500    58.9030    11.1580     9.5020    10.6450    24.4340     2.1740   -26.5640 
   82.8750    57.7600    11.1610     9.5100    10.7210    24.4200     2.1800   -26.5220 
   83.0000    57.7240    11.1610     9.5120    10.8440    24.3950     2.1840   -26.4890 
   83.1250    58.6230    11.1610     9.5120    10.7960    24.3940     2.1840   -26.4520 
   83.2500    58.9820    11.1610     9.5190    10.5210    24.4240     2.1820   -26.4300 
   83.3750    57.3440    11.1610     9.5290    10.3170    24.4670     2.1760   -26.4590 
   83.5000    55.8860    11.1610     9.5310    10.6190    24.4930     2.1670   -26.4810 
   83.6250    58.2910    11.1610     9.5130    10.7790    24.4970     2.1580   -26.4910 
   83.7500    62.4130    11.1610     9.4800    10.9840    24.4880     2.1530   -26.5040 
   83.8750    63.5370    11.1610     9.4480    11.1910    24.4660     2.1550   -26.5170 
   84.0000    61.0830    11.1620     9.4330    11.0880    24.4570     2.1650   -26.5030 
   84.1250    57.8080    11.1700     9.4480    10.9210    24.4680     2.1790   -26.4840 
   84.2500    55.4590    11.2020     9.4830    10.8360    24.4890     2.1920   -26.4560 
   84.3750    54.9200    11.2620     9.5220    10.8200    24.4980     2.2040   -26.3820 
   84.5000    56.7000    11.3140     9.5570    10.9610    24.5010     2.2130   -26.3170 
   84.6250    59.9950    11.3620     9.5860    11.2050    24.4990     2.2180   -26.2830 
   84.7500    60.2980    11.4210     9.6110    11.4320    24.4980     2.2180   -26.2180 
   84.8750    58.0030    11.4760     9.6310    11.3410    24.5000     2.2130   -26.1630 
   85.0000    56.7490    11.5040     9.6420    11.1360    24.5080     2.2060   -26.1260 
   85.1250    58.8580    11.5080     9.6500    11.0150    24.5330     2.1990   -26.1220 
   85.2500    59.5120    11.5090     9.6730    11.0280    24.5520     2.1960   -26.1700 
   85.3750    57.4160    11.5090     9.7260    11.0520    24.5600     2.1990   -26.2730 
   85.5000    56.6520    11.5130     9.8120    11.2910    24.5740     2.2070   -26.4100 
   85.6250    58.0190    11.5420     9.9190    11.3520    24.6120     2.2150   -26.5190 
   85.7500    57.6940    11.6030    10.0150    11.4590    24.6770     2.2160   -26.6290 
   85.8750    55.6060    11.6930    10.0830    11.5040    24.7650     2.2090   -26.7380 
   86.0000    55.3600    11.8050    10.1210    11.3770    24.8570     2.1980   -26.8590 
   86.1250    58.6490    11.9470    10.1310    11.2920    24.8610     2.1890   -26.9810 
   86.2500    61.5920    12.0280    10.1240    11.2920    24.7940     2.1880   -27.0720 
   86.3750    63.6880    12.0950    10.0980    11.2030    24.7320     2.1910   -27.1120 
   86.5000    65.4960    12.1940    10.0570    11.1510    24.7430     2.1950   -27.1070 
   86.6250    65.8500    12.3310    10.0270    11.0050    24.7760     2.1980   -27.0900 
   86.7500    63.9470    12.4030    10.0590    10.9340    24.7350     2.2040   -27.0780 
   86.8750    62.3060    12.5190    10.2070    11.0730    24.6640     2.2140   -27.0400 
   87.0000    62.9420    12.7840    10.5080    11.4240    24.6330     2.2260   -26.9770 
   87.1250    63.7000    13.2510    10.9890    11.8720    24.6510     2.2290   -26.8600 
   87.2500    62.1830    13.8200    11.5730    12.2330    24.6640     2.2180   -26.6950 
   87.3750    60.2050    14.3870    12.1840    12.2710    24.6790     2.1930   -26.5110 
   87.5000    60.8060    14.8080    12.7080    12.1730    24.7180     2.1640   -26.2970 
   87.6250    63.7900    14.8210    12.9210    12.0070    24.7890     2.1450   -26.0410 
   87.7500    67.3530    14.3030    12.6890    11.9200    24.8120     2.1480   -25.7640 
   87.8750    72.8600    13.2220    11.9480    11.9400    24.7330     2.1800   -25.4650 
   88.0000    82.7060    11.7200    10.7860    11.8650    24.5250     2.2380   -25.0980 
   88.1250    94.8670    10.1050     9.4280    10.0820    24.2250     2.3090   -24.7360 
   88.2500   102.6670     8.7410     8.1890     7.5620    23.9940     2.3690   -24.4070 
   88.3750   103.6540     7.8430     7.2560     6.5280    23.8930     2.4030   -24.0780 
   88.5000   100.6110     7.5240     6.7390     6.4430    23.8460     2.4060   -23.7770 
   88.6250    97.9410     7.8820     6.7660     6.5490    23.7240     2.3790   -23.5420 
   88.7500    94.9010     8.7000     7.2310     6.7630    23.5310     2.3370   -23.3240 
   88.8750    89.5170     9.7360     7.9960     7.4700    23.3470     2.2920   -23.1120 
   89.0000    83.2740    10.6310     8.7920     8.8100    23.2470     2.2540   -22.9630 
   89.1250    82.6540    10.8680     9.1650    10.3650    23.3030     2.2410   -22.8800 
   89.2500    87.8790    10.3600     8.9270    11.0820    23.4210     2.2540   -22.7850 
   89.3750    94.5920     9.2980     8.1630     9.0880    23.5180     2.2910   -22.6900 
   89.5000   100.4810     8.0780     7.1720     6.5090    23.6380     2.3420   -22.6070 
   89.6250   104.0870     7.1730     6.3570     5.4810    23.7870     2.3920   -22.4550 
   89.7500   103.2600     6.7780     5.9260     5.2920    23.8820     2.4300   -22.2730 
   89.8750    97.4990     6.9410     5.9450     5.6410    23.9180     2.4480   -22.1130 
   90.0000    90.7320     7.6030     6.3960     6.4400    23.9350     2.4410   -21.9330 
   90.1250    84.3280     8.6550     7.2400     7.6490    23.9450     2.4070   -21.6540 
   90.2500    78.5530     9.8220     8.2720     8.8590    23.9760     2.3590   -21.3520 
   90.3750    75.5120    10.9330     9.3430     9.4880    24.0600     2.3110   -21.0540 
   90.5000    76.4150    11.8990    10.3410     9.7570    24.1800     2.2710   -20.7710 
   90.6250    77.0060    12.7120    11.2110    10.2950    24.1420     2.2460   -20.5140 
   90.7500    74.6540    13.4770    12.0140    11.3660    24.0630     2.2290   -20.2960 
   90.8750    71.8400    14.2690    12.8160    12.4200    24.0270     2.2180   -20.0970 
   91.0000    69.3740    15.1270    13.6600    14.0420    24.0340     2.2110   -19.9380 
   91.1250    66.9900    16.0500    14.5410    15.8270    24.0680     2.2100   -19.8130 
   91.2500    65.8460    16.9750    15.3940    17.1750    24.1280     2.2110   -19.7270 
   91.3750    66.5270    17.8340    16.1510    17.7810    24.2100     2.2130   -19.7080 
   91.5000    67.6290    18.5680    16.7610    17.2640    24.3090     2.2140   -19.7450 
   91.6250    66.3130    19.1090    17.1740    16.6860    24.3200     2.2140   -19.8670 
   91.7500    63.4800    19.4500    17.4040    16.8250    24.2710     2.2100   -20.0350 
   91.8750    61.3230    19.5210    17.4030    17.3050    24.1920     2.2030   -20.2530 
   92.0000    61.3760    19.2260    17.0900    17.3790    24.1160     2.1930   -20.4960 
   92.1250    63.2640    18.4780    16.3760    17.4200    24.0870     2.1920   -20.8050 
   92.2500    66.3220    17.4860    15.4290    17.9060    24.0500     2.2100   -21.1760 
   92.3750    70.1160    16.5070    14.4680    16.8550    23.9340     2.2440   -21.5650 
   92.5000    72.0380    15.8470    13.7590    14.4310    23.6950     2.2780   -21.9050 
   92.6250    68.5410    15.9660    13.6970    13.0690    23.5530     2.2880   -22.1830 
   92.7500    62.6570    17.0740    14.4900    15.0190    23.6640     2.2830   -22.4430 
   92.8750    58.7790    19.4670    16.4490    16.9600    23.9130     2.2890   -22.7070 
   93.0000    58.0540    23.4840    19.9910    18.2730    24.0460     2.3360   -22.9800 
   93.1250    59.0280    29.9230    26.0460    23.3130    24.0140     2.4340   -23.2120 
   93.2500    60.0670    38.7480    34.6010    38.6330    23.9360     2.5460   -23.3860 
   93.3750    59.1430    49.3640    45.0570    66.3850    23.9180     2.6390   -23.5320 
   93.5000    54.7480    59.1780    55.1490    88.8800    23.9780     2.6970   -23.6570 
   93.6250    52.0010    61.9190    59.5970    84.9920    23.9460     2.7170   -23.8050 
