~V
VERS. 2.00: Ver 2.00
~W
STRT.M 55.0000:
STOP.M 217.0000:
STEP.M 0.1250:
NULL. -999.2500:
UWI. F10537:
~C
DEPT.M :
SP.MV :
DEN.GM/CC :
GR.API :
RML.OHMM :
RI. :
RXO.OHMM :
CALI.CM :
~A
# ...
   66.2500   -20.7090     2.2230    68.4100     7.9940     6.3140    12.4030    24.3530 
   66.3750   -20.7110     2.2410    67.9460     7.8360     6.1850     7.6050    24.2490 
   66.5000   -20.6330     2.2490    66.9790     7.8450     6.1330     6.2760    24.3280 
   66.6250   -20.4520     2.2320    64.8140     8.1840     6.2920     6.3770    24.4590 
   66.7500   -20.1880     2.2130    62.6520     8.7670     6.6410     6.5690    24.5750 
   66.8750   -19.8320     2.2200    61.2300     9.4290     7.0930     7.1360    24.5750 
   67.0000   -19.4130     2.2760    60.6940     9.9220     7.4900     8.8620    24.2470 
   67.1250   -18.9750     2.3610    64.7420     9.9200     7.5930    12.2190    23.6800 
   67.2500   -18.4910     2.4170    74.0360     9.4420     7.3560    12.5560    23.3140 
   67.3750   -18.0260     2.4220    82.9990     8.6710     6.8590     8.8390    23.1720 
   67.5000   -17.5700     2.3830    85.3240     7.8500     6.2550     6.3740    23.1320 
   67.6250   -17.1680     2.3310    83.3830     7.1880     5.7060     5.2510    23.0950 
   67.7500   -16.8160     2.2930    84.8230     6.7180     5.2800     4.9060    23.0680 
   67.8750   -16.5190     2.2800    89.7110     6.4070     4.9840     4.7880    23.2470 
   68.0000   -16.3060     2.2890    95.4650     6.2140     4.7940     4.6340    23.5950 
   68.1250   -16.1260     2.3120    99.2300     6.1440     4.7040     4.4710    23.9080 
   68.2500   -16.0200     2.3300    99.6280     6.1890     4.6980     4.3430    23.9940 
   68.3750   -15.9860     2.3320    97.4110     6.3380     4.7720     4.3070    23.9130 
   68.5000   -15.9950     2.3210    94.8810     6.5420     4.8980     4.4830    23.7340 
   68.6250   -16.0530     2.3030    92.4160     6.7190     5.0260     4.9040    23.6480 
   68.7500   -16.1790     2.2850    88.6600     6.8150     5.1120     5.0810    23.6280 
   68.8750   -16.3500     2.2700    84.2900     6.8390     5.1490     5.0950    23.6330 
   69.0000   -16.5750     2.2620    84.0110     6.8400     5.1570     5.0590    23.6230 
   69.1250   -16.8640     2.2580    89.2520     6.8810     5.1730     4.9320    23.5810 
   69.2500   -17.1770     2.2550    92.0730     6.9690     5.2080     4.9370    23.5180 
   69.3750   -17.4760     2.2510    87.6270     7.0670     5.2470     5.2030    23.4860 
   69.5000   -17.7600     2.2500    81.3500     7.1120     5.2590     5.5660    23.4890 
   69.6250   -18.0180     2.2560    81.7710     7.0330     5.2080     5.4330    23.5320 
   69.7500   -18.2240     2.2650    86.2200     6.8600     5.1050     5.0610    23.5900 
   69.8750   -18.3930     2.2710    90.5420     6.6620     4.9850     4.6590    23.6130 
   70.0000   -18.4980     2.2720    92.5200     6.5390     4.8960     4.5880    23.5850 
   70.1250   -18.5030     2.2710    87.9130     6.6370     4.9250     4.5250    23.6540 
   70.2500   -18.4280     2.2720    79.4230     6.9900     5.1120     4.7820    23.7370 
   70.3750   -18.2570     2.2780    73.2130     7.5600     5.4570     5.3650    23.6150 
   70.5000   -18.0470     2.2890    72.5010     8.1990     5.8880     6.1150    23.4640 
   70.6250   -17.7450     2.3030    74.8720     8.6030     6.2240     6.9810    23.4900 
   70.7500   -17.4000     2.3180    76.3680     8.5580     6.2950     7.9090    23.6630 
   70.8750   -17.0420     2.3270    78.0800     8.0180     6.0330     7.4890    23.8830 
   71.0000   -16.6490     2.3220    82.1570     7.1470     5.5070     5.8460    24.0300 
   71.1250   -16.3110     2.3050    89.5990     6.2760     4.9040     4.6250    24.0720 
   71.2500   -16.0030     2.2910    96.9990     5.6660     4.4180     4.2480    24.0510 
   71.3750   -15.7680     2.2950   100.2920     5.4130     4.1430     4.1090    24.0100 
   71.5000   -15.6300     2.3150    98.8200     5.5240     4.1140     4.1200    23.9630 
   71.6250   -15.5750     2.3260    94.1070     5.9760     4.3450     4.2260    23.8950 
   71.7500   -15.5910     2.3130    88.3720     6.5760     4.7200     4.7870    23.7790 
   71.8750   -15.6290     2.2790    81.8910     7.1390     5.1270     5.5280    23.6720 
   72.0000   -15.6610     2.2420    76.7220     7.4760     5.4370     5.8990    23.6300 
   72.1250   -15.6780     2.2230    77.4970     7.4140     5.5110     5.7080    23.6580 
   72.2500   -15.7040     2.2210    81.1810     7.0740     5.3780     5.3350    23.7470 
   72.3750   -15.7120     2.2330    84.3230     6.6300     5.1230     4.9740    23.8940 
   72.5000   -15.6920     2.2490    85.9290     6.2570     4.8590     4.7680    23.9760 
   72.6250   -15.7020     2.2630    87.1830     6.0960     4.6930     4.5180    23.9110 
   72.7500   -15.7350     2.2750    89.4830     6.1230     4.6420     4.4730    23.7190 
   72.8750   -15.7990     2.2840    92.1870     6.2830     4.6880     4.6750    23.5060 
   73.0000   -15.9240     2.2900    92.6880     6.4900     4.7890     4.9860    23.3350 
   73.1250   -16.0950     2.2920    89.5050     6.6250     4.8760     5.1540    23.2780 
   73.2500   -16.2630     2.2920    87.1930     6.6430     4.9050     5.2080    23.2640 
   73.3750   -16.4760     2.2900    87.6120     6.5970     4.8910     5.1300    23.2630 
   73.5000   -16.7050     2.2850    87.7690     6.6100     4.9000     4.9410    23.2630 
   73.6250   -16.9940     2.2910    86.2720     6.8580     5.0410     4.8380    23.2940 
   73.7500   -17.3000     2.3240    84.4970     7.3590     5.3390     5.2420    23.4000 
   73.8750   -17.6300     2.3840    82.4430     8.0410     5.7670     6.7960    23.5100 
   74.0000   -18.0060     2.4420    80.0820     8.7270     6.2330     9.9460    23.5130 
   74.1250   -18.3780     2.4570    76.1990     9.1290     6.5610    10.5870    23.4200 
   74.2500   -18.7840     2.4210    72.3580     9.1740     6.6710     8.2070    23.4580 
   74.3750   -19.2040     2.3490    69.1580     8.9530     6.5870     6.6570    23.5830 
   74.5000   -19.5990     2.2650    66.6040     8.6360     6.3990     6.2260    23.7980 
   74.6250   -19.9360     2.1890    62.2160     8.3770     6.2100     6.0720    24.1570 
   74.7500   -20.2280     2.1330    56.6550     8.2090     6.0720     5.9130    24.3390 
   74.8750   -20.4590     2.1070    53.8910     8.0980     5.9840     5.8380    24.4120 
   75.0000   -20.6850     2.1160    55.7640     8.0170     5.9290     5.6990    24.4350 
   75.1250   -20.9280     2.1560    60.7040     8.0060     5.9210     5.4560    24.4440 
   75.2500   -21.1620     2.1940    64.0740     8.1010     5.9770     5.6040    24.4530 
   75.3750   -21.3810     2.2160    65.0550     8.2980     6.0980     6.0220    24.4660 
   75.5000   -21.6010     2.2210    66.1540     8.5470     6.2580     6.3280    24.4900 
   75.6250   -21.8160     2.2110    66.1800     8.7670     6.4090     6.4130    24.6110 
   75.7500   -22.0070     2.1990    63.8920     8.9140     6.5140     6.3820    24.8370 
   75.8750   -22.1980     2.1930    59.5540     8.9970     6.5700     6.2170    24.9450 
   76.0000   -22.3210     2.2020    55.9130     9.0580     6.6020     6.0310    24.7050 
   76.1250   -22.3640     2.2270    56.3080     9.1450     6.6460     6.0950    24.2260 
   76.2500   -22.3640     2.2500    58.7350     9.2570     6.7180     6.2730    23.8730 
   76.3750   -22.3000     2.2520    59.9640     9.3710     6.8070     6.4080    23.8040 
   76.5000   -22.2120     2.2310    58.8320     9.4640     6.8950     6.8100    23.9200 
   76.6250   -22.0350     2.1940    59.5540     9.5080     6.9530     7.0270    24.0740 
   76.7500   -21.8610     2.1660    61.2110     9.5070     6.9760     7.0100    23.9850 
   76.8750   -21.6640     2.1580    59.7330     9.4720     6.9660     6.9720    23.6570 
   77.0000   -21.4250     2.1660    57.6440     9.4190     6.9360     7.0860    23.3580 
   77.1250   -21.2170     2.1780    61.8740     9.3650     6.8950     7.1440    23.2630 
   77.2500   -21.0010     2.1850    66.9810     9.3180     6.8540     7.0590    23.2530 
   77.3750   -20.7930     2.1860    67.5370     9.2780     6.8170     6.9950    23.2650 
