~V
VERS. 2.00: Ver 2.00
~W
STRT.M 50.0000:
STOP.M 233.0000:
STEP.M 0.1250:
NULL. -999.2500:
UWI. F10598:
~C
DEPT.M :
DEN.GM/CC :
SP.MV :
GR.API :
RML.OHMM :
RI. :
RXO.OHMM :
CALI.CM :
~A
# ...
  117.5000     2.0500   -15.7470    66.6360    30.1090    28.5070    25.9370    24.4800 
  117.6250     2.0390   -15.6630    68.8880    28.8450    27.4810    25.5950    24.6030 
  117.7500     2.0280   -15.5400    70.4460    27.3450    26.4570    25.3510    24.7090 
  117.8750     2.0220   -15.3610    70.5520    25.8720    25.6560    25.0100    24.8170 
  118.0000     2.0250   -15.1310    70.5240    24.7260    25.1280    24.5970    24.8810 
  118.1250     2.0420   -14.8700    71.9700    24.2170    24.8010    26.1500    24.8920 
  118.2500     2.0660   -14.5630    73.5760    24.2540    24.5390    27.7490    24.8200 
  118.3750     2.1030   -14.2100    72.9490    24.7370    24.3870    26.8860    24.5820 
  118.5000     2.1640   -13.8060    70.0790    25.4320    24.3940    25.3320    24.1530 
  118.6250     2.2540   -13.4150    69.1280    25.6620    24.2800    26.3100    23.7330 
  118.7500     2.3460   -13.0310    71.7150    24.7180    23.4410    27.4910    23.4840 
  118.8750     2.4100   -12.6880    77.0600    22.3500    21.4480    29.8230    23.3420 
  119.0000     2.4230   -12.3660    82.7220    19.0220    18.4910    29.2100    23.2190 
  119.1250     2.3840   -12.1120    86.3890    15.7850    15.4140    18.0640    23.0730 
  119.2500     2.3420   -11.8900    89.5960    13.3900    12.9790    10.7370    22.9690 
  119.3750     2.3360   -11.7130    92.8990    11.9570    11.3740     9.1960    22.8940 
  119.5000     2.3710   -11.5840    93.9880    11.2380    10.4810    10.6540    22.7790 
  119.6250     2.4160   -11.5280    91.7580    10.8200    10.0640    13.5950    22.6410 
  119.7500     2.4210   -11.5170    90.7310    10.2600     9.7040    13.3920    22.5360 
  119.8750     2.3810   -11.5160    94.2610     9.4490     9.1750     9.7190    22.4790 
  120.0000     2.3310   -11.5480   100.1020     8.5410     8.4470     7.3870    22.4230 
  120.1250     2.3030   -11.5710   103.6460     7.8300     7.6840     6.8210    22.3620 
  120.2500     2.2870   -11.6360   103.9770     7.3950     7.0720     6.5770    22.2840 
  120.3750     2.2780   -11.7020   102.8510     7.1690     6.6650     6.3030    22.1330 
  120.5000     2.2790   -11.7680   103.5950     7.0110     6.4240     6.1420    21.9270 
  120.6250     2.2910   -11.8070   108.7180     6.8280     6.2750     6.0170    21.7380 
  120.7500     2.3030   -11.8380   115.3750     6.6600     6.1570     5.8470    21.5280 
  120.8750     2.3100   -11.8770   120.1750     6.5600     6.0770     5.8370    21.2770 
  121.0000     2.3130   -11.8770   120.2240     6.5330     6.0410     6.0310    21.1100 
  121.1250     2.3160   -11.8870   114.2730     6.5940     6.0730     6.3710    21.0840 
  121.2500     2.3200   -11.8620   107.1200     6.7700     6.1980     6.6050    21.1540 
  121.3750     2.3270   -11.8420   103.1330     7.1050     6.4440     6.8230    21.3300 
  121.5000     2.3360   -11.8350   102.1760     7.5870     6.7980     7.3290    21.6360 
  121.6250     2.3350   -11.8610   102.2020     8.0880     7.1850     8.3440    22.1180 
  121.7500     2.3140   -11.8840   101.4620     8.4020     7.4680     8.9590    22.6660 
  121.8750     2.2780   -11.8880   102.4140     8.4090     7.5500     8.2740    23.1520 
  122.0000     2.2480   -11.9020   106.4590     8.1490     7.4170     7.3250    23.5050 
  122.1250     2.2470   -11.9030   110.7430     7.7770     7.1360     6.9120    23.6540 
  122.2500     2.2610   -11.9050   113.2390     7.4620     6.8220     6.8830    23.6950 
  122.3750     2.2730   -11.9110   114.0100     7.2730     6.5340     6.9610    23.7000 
  122.5000     2.2730   -11.9570   113.9980     7.2210     6.3330     7.0070    23.7080 
  122.6250     2.2710   -11.9630   113.2970     7.3530     6.3190     7.0360    23.7410 
  122.7500     2.2720   -11.9750   109.6720     7.6870     6.5090     7.1220    23.7960 
  122.8750     2.2710   -12.0060   102.4020     8.2270     6.8950     7.5470    23.8350 
  123.0000     2.2610   -12.0610    92.2710     8.8690     7.3880     8.9790    23.8520 
  123.1250     2.2530   -12.1250    86.4890     9.3220     7.7630    10.6320    23.8530 
  123.2500     2.2600   -12.1800    87.9310     9.3870     7.8590    11.0920    23.8520 
  123.3750     2.2750   -12.2300    94.6380     9.1480     7.7320    10.0340    23.8520 
  123.5000     2.2840   -12.2250   102.3970     8.9990     7.6330     8.9250    23.8550 
  123.6250     2.2670   -12.2220   105.4150     9.6230     7.9760     9.6380    23.8810 
  123.7500     2.2280   -12.1980   102.8270    11.3240     9.0320    12.6400    23.9600 
  123.8750     2.1820   -12.1550    96.5330    14.2270    11.0700    19.4650    24.0880 
  124.0000     2.1420   -12.0850    89.1760    18.1570    14.2410    28.8640    24.2290 
  124.1250     2.1180   -12.0190    82.5910    22.4560    18.3820    33.9480    24.2840 
  124.2500     2.1060   -11.9570    78.0180    26.1430    22.4250    33.0550    24.3000 
  124.3750     2.1010   -11.8940    77.7790    28.8720    25.5720    30.1680    24.3020 
  124.5000     2.0960   -11.8590    81.4930    31.0620    27.7810    29.0710    24.3260 
  124.6250     2.0840   -11.8010    85.4810    33.6370    29.8470    31.6810    24.4180 
  124.7500     2.0680   -11.7550    85.2940    37.0780    32.6110    39.1230    24.5750 
  124.8750     2.0540   -11.7050    83.0200    41.3010    36.1800    47.2180    24.7300 
  125.0000     2.0490   -11.6700    82.0470    45.7050    39.9850    50.2900    24.8080 
  125.1250     2.0560   -11.6100    81.2870    49.0130    42.8040    48.1740    24.8250 
  125.2500     2.0630   -11.5660    78.4910    50.4460    43.9760    46.1830    24.8190 
  125.3750     2.0640   -11.5260    76.3160    49.9310    43.4650    43.4930    24.7900 
  125.5000     2.0580   -11.4990    77.6680    48.0330    41.7950    38.2360    24.7030 
  125.6250     2.0520   -11.4990    80.2310    45.5220    39.7290    34.5540    24.5460 
  125.7500     2.0510   -11.5080    81.3640    43.2340    37.9070    33.0640    24.4020 
  125.8750     2.0530   -11.5310    83.1120    41.6600    36.6140    33.3540    24.3220 
  126.0000     2.0550   -11.5480    85.2590    41.1730    36.1310    32.1820    24.3000 
  126.1250     2.0600   -11.5630    83.9810    42.4370    36.9720    32.0910    24.2990 
  126.2500     2.0660   -11.5420    80.7320    45.4850    39.2190    33.5690    24.2910 
  126.3750     2.0710   -11.5200    78.5150    50.2970    43.0170    37.1770    24.2590 
  126.5000     2.0700   -11.4750    77.6150    56.5350    48.3040    42.6280    24.1860 
  126.6250     2.0640   -11.4060    77.9480    63.3880    54.5030    51.2940    24.1230 
  126.7500     2.0590   -11.3250    79.2150    69.2330    60.0380    56.7980    24.0330 
  126.8750     2.0590   -11.2490    79.5820    72.5930    63.5290    55.5190    23.8640 
  127.0000     2.0600   -11.2060    77.5760    72.8500    64.2640    49.1980    23.5930 
  127.1250     2.0600   -11.1770    75.7210    70.5020    62.3620    42.8550    23.3690 
  127.2500     2.0620   -11.1880    76.7530    67.3930    59.6180    36.0980    23.2690 
  127.3750     2.0670   -11.1940    76.7970    64.5430    57.1610    31.9130    23.2470 
  127.5000     2.0750   -11.2180    72.9250    62.3910    55.4180    30.1060    23.2450 
  127.6250     2.0860   -11.2440    70.8870    60.8220    54.1760    30.4100    23.2450 
  127.7500     2.0980   -11.2520    74.7450    59.3220    52.8980    30.6140    23.2450 
  127.8750     2.1090   -11.2230    81.2650    57.9380    51.5260    29.8250    23.2450 
  128.0000     2.1130   -11.1330    84.5170    57.2680    50.4860    27.6080    23.2450 
  128.1250     2.1130   -10.9920    81.9160    58.4590    50.8240    25.6920    23.2600 
  128.2500     2.1140   -10.8120    78.1410    61.9630    53.1590    25.9670    23.3570 
  128.3750     2.1190   -10.6320    75.7010    67.8550    57.7550    29.1090    23.6060 
  128.5000     2.1250   -10.4250    73.9030    74.8270    63.8930    34.5520    23.9450 
  128.6250     2.1230   -10.2620    70.5730    78.7700    68.8960    42.1790    24.1650 
