~V
VERS. 2.00: Ver 2.00
~W
STRT.M 55.0000:
STOP.M 211.0000:
STEP.M 0.1250:
NULL. -999.2500:
UWI. F10586:
~C
DEPT.M :
GR.API :
RML.OHMM :
RI. :
RXO.OHMM :
CALI.CM :
DEN.GM/CC :
SP.MV :
~A
# ...
  190.0000    55.2730     7.0260     5.8380     6.4520    23.4920     2.3860   -10.1350 
  190.1250    54.0300     7.3900     6.1830     6.8100    23.4920     2.3940   -10.0530 
  190.2500    53.0600     7.6730     6.4890     7.2670    23.4910     2.4020   -10.0020 
  190.3750    52.0420     7.8340     6.7070     7.7340    23.4890     2.4100   -10.0020 
  190.5000    50.3330     7.8670     6.8190     8.0400    23.4840     2.4180   -10.0000 
  190.6250    51.1930     7.7850     6.8180     8.0670    23.4750     2.4230    -9.9790 
  190.7500    54.1740     7.6620     6.7570     8.0470    23.4620     2.4250   -10.0160 
  190.8750    54.8630     7.5470     6.6770     7.8490    23.4440     2.4220   -10.1180 
  191.0000    51.5520     7.4800     6.6110     7.4650    23.4100     2.4150   -10.2510 
  191.1250    49.9680     7.4780     6.5810     7.3290    23.3600     2.4080   -10.4170 
  191.2500    52.5520     7.5150     6.5790     7.3940    23.2940     2.4030   -10.6130 
  191.3750    55.5420     7.5660     6.5910     7.4490    23.2410     2.4020   -10.8310 
  191.5000    56.0820     7.6090     6.6030     7.4050    23.2210     2.4010   -11.0960 
  191.6250    54.4050     7.6160     6.5940     7.3160    23.2210     2.3990   -11.4350 
  191.7500    52.5120     7.5720     6.5490     7.2090    23.2200     2.3920   -11.8090 
  191.8750    51.8400     7.4620     6.4540     7.0910    23.2170     2.3840   -12.1930 
  192.0000    54.1460     7.2820     6.3030     7.0420    23.2100     2.3730   -12.6090 
  192.1250    58.4940     7.0590     6.1070     7.0110    23.1930     2.3600   -13.1030 
  192.2500    64.1540     6.8750     5.9270     6.8540    23.1600     2.3420   -13.6850 
  192.3750    70.7030     6.8190     5.8310     6.5480    23.1180     2.3200   -14.3530 
  192.5000    76.7280     6.9670     5.8890     6.2980    23.0920     2.2990   -15.0700 
  192.6250    80.4690     7.3920     6.1830     6.4500    23.0860     2.2850   -15.7670 
  192.7500    84.4610     8.0040     6.6700     7.2470    23.0850     2.2800   -16.3660 
  192.8750    90.5510     8.6890     7.2750     8.3330    23.0840     2.2850   -16.8220 
  193.0000    96.9050     9.2960     7.8770     9.3540    23.0810     2.2950   -17.0950 
  193.1250   100.0650     9.6350     8.3010    10.0580    23.0730     2.3020   -17.1030 
  193.2500   101.2490     9.6830     8.4820    10.4130    23.0580     2.3030   -16.8570 
  193.3750   104.5040     9.4940     8.4340    10.4560    23.0380     2.3000   -16.3500 
  193.5000   110.2310     9.1830     8.2380    10.0530    23.0270     2.2930   -15.6040 
  193.6250   111.1650     8.8700     7.9940     9.3150    23.0260     2.2870   -14.6770 
  193.7500   105.0910     8.6060     7.7670     8.6820    23.0160     2.2860   -13.6710 
  193.8750    97.5430     8.3620     7.5450     8.5230    23.0090     2.2910   -12.6530 
  194.0000    94.2240     8.0810     7.2860     8.5920    23.0040     2.3010   -11.6810 
  194.1250    90.9390     7.6960     6.9300     8.5920    22.9930     2.3160   -10.8080 
  194.2500    82.0830     7.2200     6.4860     8.1000    22.9680     2.3320   -10.0560 
  194.3750    70.4070     6.7000     5.9900     7.3140    22.9330     2.3480    -9.4190 
  194.5000    60.7670     6.2020     5.5060     6.3600    22.9080     2.3640    -8.8740 
  194.6250    55.4210     5.8180     5.1140     5.5680    22.9210     2.3780    -8.4470 
  194.7500    51.1090     5.5780     4.8420     5.1410    22.9730     2.3910    -8.1090 
  194.8750    46.6360     5.4850     4.6990     4.9700    23.0730     2.4040    -7.8690 
  195.0000    44.0140     5.5160     4.6710     4.9290    23.2120     2.4160    -7.6830 
  195.1250    45.7830     5.6290     4.7370     4.9990    23.2840     2.4270    -7.5160 
  195.2500    49.0290     5.7590     4.8480     5.1660    23.3300     2.4360    -7.3220 
  195.3750    50.5020     5.8770     4.9780     5.3540    23.3750     2.4440    -7.1190 
  195.5000    48.9130     5.9780     5.1160     5.4750    23.4070     2.4480    -6.9420 
  195.6250    46.8870     6.0710     5.2540     5.5310    23.4220     2.4460    -6.8020 
  195.7500    46.0970     6.1700     5.3880     5.6500    23.4320     2.4390    -6.6900 
  195.8750    45.6210     6.2700     5.5060     5.9190    23.4510     2.4280    -6.5870 
  196.0000    45.1000     6.3520     5.5930     6.2500    23.4750     2.4180    -6.4900 
  196.1250    46.5140     6.3890     5.6280     6.4130    23.4880     2.4130    -6.4220 
  196.2500    49.7560     6.3840     5.6200     6.3430    23.4910     2.4130    -6.3900 
  196.3750    52.5270     6.3500     5.5840     6.2150    23.4920     2.4150    -6.3680 
  196.5000    53.3110     6.3110     5.5370     6.1650    23.4920     2.4170    -6.3830 
  196.6250    53.2750     6.2920     5.5040     6.1540    23.4920     2.4170    -6.3600 
  196.7500    54.3490     6.3000     5.4910     6.1250    23.4920     2.4150    -6.3380 
  196.8750    56.6240     6.3230     5.4940     6.1190    23.4920     2.4110    -6.2970 
  197.0000    58.2440     6.3390     5.4980     6.1660    23.4920     2.4060    -6.2830 
  197.1250    57.2160     6.3120     5.4770     6.2000    23.4920     2.4000    -6.2830 
  197.2500    54.8820     6.2290     5.4170     6.1860    23.4920     2.3930    -6.3020 
  197.3750    53.8200     6.0950     5.3140     6.1220    23.4900     2.3840    -6.3670 
  197.5000    53.7770     5.9370     5.1850     5.9280    23.4860     2.3700    -6.4480 
  197.6250    52.8380     5.8040     5.0650     5.5710    23.4830     2.3550    -6.5680 
  197.7500    51.5570     5.7240     4.9840     5.3490    23.4820     2.3440    -6.7170 
  197.8750    51.5870     5.7020     4.9520     5.2940    23.4820     2.3390    -6.8630 
  198.0000    53.9010     5.7210     4.9590     5.3760    23.4820     2.3430    -6.9930 
  198.1250    56.9780     5.7420     4.9780     5.5230    23.4820     2.3520    -7.1210 
  198.2500    56.5860     5.7340     4.9810     5.5690    23.4820     2.3620    -7.2120 
  198.3750    51.6450     5.6900     4.9580     5.4680    23.4820     2.3700    -7.2620 
  198.5000    45.5920     5.6260     4.9180     5.2690    23.4830     2.3770    -7.2600 
  198.6250    43.5680     5.5690     4.8770     5.1080    23.4850     2.3810    -7.2230 
  198.7500    44.4170     5.5320     4.8460     5.0420    23.4890     2.3820    -7.1750 
  198.8750    44.6490     5.5090     4.8210     5.0860    23.5000     2.3800    -7.1320 
  199.0000    43.5890     5.4830     4.7940     5.1860    23.5170     2.3720    -7.0650 
  199.1250    42.6490     5.4350     4.7580     5.2760    23.5390     2.3600    -6.9640 
  199.2500    42.9320     5.3720     4.7180     5.2770    23.5480     2.3470    -6.8580 
  199.3750    43.8330     5.3120     4.6860     5.1940    23.5500     2.3400    -6.7490 
  199.5000    44.3340     5.2770     4.6720     5.1250    23.5500     2.3400    -6.6240 
  199.6250    44.0690     5.2930     4.6940     5.1970    23.5500     2.3510    -6.4760 
  199.7500    43.8440     5.3610     4.7570     5.3320    23.5500     2.3660    -6.3190 
  199.8750    44.6810     5.4800     4.8610     5.4210    23.5500     2.3810    -6.2080 
  200.0000    45.2860     5.6330     4.9950     5.4290    23.5500     2.3910    -6.1470 
  200.1250    44.6890     5.7840     5.1270     5.4550    23.5500     2.3920    -6.1070 
  200.2500    44.3380     5.8800     5.2100     5.5940    23.5490     2.3850    -6.0920 
  200.3750    44.7800     5.8790     5.2060     5.7620    23.5490     2.3740    -6.1090 
  200.5000    45.0840     5.7710     5.0990     5.8140    23.5470     2.3650    -6.1790 
  200.6250    44.9540     5.5800     4.9070     5.6520    23.5450     2.3620    -6.3090 
  200.7500    44.9540     5.3930     4.7040     5.3460    23.5430     2.3670    -6.4740 
  200.8750    44.9540     5.2750     4.5510     5.0700    23.5420     2.3790    -6.6610 
  201.0000    44.9540     5.2610     4.4850     4.9560    23.5430     2.3960    -6.8720 
  201.1250    44.9540     5.3590     4.5320     5.1270    23.5410     2.4120    -7.1760 
