~V
VERS. 2.00: Ver 2.00
~W
STRT.M 52.0000:
STOP.M 208.0000:
STEP.M 0.1250:
NULL. -999.2500:
UWI. F10572:
~C
DEPT.M :
GR.API :
RML.OHMM :
RI. :
RXO.OHMM :
CALI.CM :
DEN.GM/CC :
SP.MV :
~A
# ...
   63.2500    66.0770     7.6510     6.7750     5.7140    21.9080     2.2750   -35.6410 
   63.3750    65.8600     7.8260     6.9390     6.0130    22.2840     2.2630   -35.5160 
   63.5000    67.8110     7.9640     7.0470     6.1910    22.8090     2.2520   -35.4130 
   63.6250    67.2440     8.1140     7.1330     5.9110    23.2540     2.2450   -35.3060 
   63.7500    63.9600     8.3390     7.2520     5.1460    23.3610     2.2420   -35.1350 
   63.8750    60.5570     8.7090     7.4620     4.3900    23.1820     2.2370   -34.8540 
   64.0000    59.1110     9.2840     7.8120     4.1310    22.9770     2.2260   -34.4790 
   64.1250    58.5280    10.0950     8.3350     5.0630    22.8600     2.2070   -34.0580 
   64.2500    57.4540    10.9970     8.9430     8.0400    22.9860     2.1900   -33.6210 
   64.3750    55.6570    11.8140     9.5250    11.9110    23.4500     2.1800   -33.1480 
   64.5000    53.2460    12.3890     9.9530     9.5780    23.9510     2.1820   -32.6350 
   64.6250    52.8060    12.6490    10.1170     7.2170    24.1500     2.1900   -32.1140 
   64.7500    54.1270    12.7480    10.0910     5.9900    24.1880     2.1990   -31.6310 
   64.8750    55.9520    12.8030     9.9720     5.6600    24.2300     2.2050   -31.2220 
   65.0000    57.2920    12.8750     9.8520     5.3550    24.3360     2.2050   -30.8840 
   65.1250    57.3860    12.9540     9.7770     5.2200    24.4250     2.1980   -30.6000 
   65.2500    56.4860    12.9770     9.7090     5.2300    24.4480     2.1890   -30.3620 
   65.3750    55.0680    12.8840     9.5940     5.2240    24.4550     2.1820   -30.2060 
   65.5000    55.4530    12.6630     9.4090     5.2020    24.4430     2.1800   -30.1450 
   65.6250    57.7150    12.4450     9.2180     5.2300    24.4490     2.1790   -30.1820 
   65.7500    58.5490    12.5400     9.2060     5.2490    24.4230     2.1780   -30.2890 
   65.8750    57.5470    13.3320     9.6200     5.2680    24.3760     2.1880   -30.4320 
   66.0000    56.2460    15.2750    10.7820     5.3560    24.2720     2.2280   -30.6030 
   66.1250    54.9850    19.2580    13.4330     6.3970    24.2190     2.3310   -30.8120 
   66.2500    52.1260    25.4610    17.8730    10.7540    24.2200     2.4880   -31.0820 
   66.3750    49.7100    33.4030    23.8920    23.9590    24.2140     2.6330   -31.3800 
   66.5000    50.3980    40.2840    29.6960    44.9950    24.1790     2.6880   -31.6590 
   66.6250    52.4230    39.6430    30.7540    55.8790    24.0790     2.6180   -31.8820 
   66.7500    52.8010    32.2660    26.4570    51.1110    23.8470     2.4980   -32.0860 
   66.8750    52.4700    23.3710    19.8790    31.8260    23.6180     2.3740   -32.3130 
   67.0000    54.3740    16.5730    14.1660    13.2710    23.6810     2.2730   -32.5620 
   67.1250    57.9040    12.7370    10.6570     6.4100    24.0360     2.2020   -32.8060 
   67.2500    60.1380    10.6360     8.6240     4.6980    24.4050     2.1500   -33.0050 
   67.3750    61.1890     9.6140     7.5450     4.2640    24.9910     2.1150   -33.1570 
   67.5000    61.2990     9.1940     7.0520     4.0880    25.6480     2.1040   -33.2820 
   67.6250    62.4370     8.9990     6.8750     4.0300    25.5760     2.1290   -33.4180 
   67.7500    66.7420     8.7330     6.7300     4.1130    24.7470     2.1770   -33.5390 
   67.8750    70.5760     8.3240     6.5090     4.3960    23.8520     2.2260   -33.6320 
   68.0000    69.7450     7.8160     6.2020     4.6050    23.3980     2.2590   -33.7040 
   68.1250    67.6260     7.3170     5.8660     4.4430    23.3150     2.2770   -33.7510 
   68.2500    69.9880     6.9410     5.5880     4.1990    23.3200     2.2920   -33.7550 
   68.3750    74.2240     6.7560     5.4280     4.2350    23.3800     2.3050   -33.7190 
   68.5000    76.3430     6.7890     5.4080     4.4460    23.5620     2.3140   -33.6360 
   68.6250    78.1300     7.0420     5.5440     4.5390    23.8500     2.3130   -33.4750 
   68.7500    79.6340     7.4110     5.7750     5.0810    24.0860     2.3030   -33.2550 
   68.8750    77.5830     7.8130     6.0530     5.8140    24.1650     2.2910   -32.9800 
   69.0000    71.4330     8.1890     6.3320     6.2880    24.1490     2.2780   -32.6660 
   69.1250    64.7620     8.5110     6.5800     6.7460    24.1540     2.2680   -32.3320 
   69.2500    61.8230     8.7950     6.7920     6.8970    24.1550     2.2560   -31.9980 
   69.3750    62.9320     9.0130     6.9510     6.2260    24.1220     2.2460   -31.6310 
   69.5000    65.5780     9.0890     7.0110     5.6470    24.0340     2.2390   -31.2500 
   69.6250    66.9400     8.8650     6.8690     5.6660    23.9930     2.2420   -30.9070 
   69.7500    67.8930     8.3440     6.5120     5.8660    24.0310     2.2550   -30.5970 
   69.8750    70.6150     7.6200     5.9850     5.8170    24.1020     2.2750   -30.2550 
   70.0000    75.3120     6.8930     5.4140     5.2090    24.1250     2.2920   -29.8160 
   70.1250    80.6120     6.4690     5.0080     4.4280    24.0210     2.3050   -29.2300 
   70.2500    82.9800     6.5270     4.9120     4.0340    23.7250     2.3270   -28.5310 
   70.3750    79.5210     7.2050     5.2330     4.1580    23.2370     2.3600   -27.7720 
   70.5000    72.2680     8.6090     6.0510     4.8090    22.7020     2.3920   -26.9590 
   70.6250    66.3220    10.8760     7.4930     6.3800    22.3780     2.3890   -26.0380 
   70.7500    63.7740    13.6190     9.3570     8.1780    22.3830     2.3470   -25.0490 
   70.8750    62.7950    16.2480    11.3090     7.8700    22.6600     2.2810   -24.0650 
   71.0000    60.7980    18.0320    12.8590     6.3950    23.0110     2.2140   -23.1630 
   71.1250    58.4410    18.3920    13.5070     5.6360    23.2790     2.1750   -22.4400 
   71.2500    56.8580    17.8840    13.4720     5.6190    23.5000     2.1620   -21.9150 
   71.3750    56.3330    17.1310    13.1140     5.7550    23.8830     2.1600   -21.6140 
   71.5000    56.8810    16.6810    12.8190     5.8460    24.4370     2.1540   -21.5640 
   71.6250    58.7250    16.9290    12.9260     5.8810    24.8660     2.1510   -21.8140 
   71.7500    61.2810    17.6370    13.3810     5.8800    24.9630     2.1770   -22.2720 
   71.8750    61.7450    18.3460    13.9350     6.1580    24.8750     2.2510   -22.9030 
   72.0000    58.8950    18.4550    14.1940     8.0790    24.6540     2.3590   -23.6880 
   72.1250    57.7070    17.3320    13.6600    15.0240    24.1930     2.4370   -24.5970 
   72.2500    62.3750    15.3300    12.4230    20.1370    23.8040     2.4460   -25.5430 
   72.3750    69.5860    13.0680    10.8290    12.7440    23.5890     2.4040   -26.4430 
   72.5000    72.9600    11.1070     9.2860     7.5380    23.5820     2.3490   -27.2220 
   72.6250    71.0850     9.7480     8.0810     6.7500    23.6710     2.3100   -27.8440 
   72.7500    69.5770     8.8540     7.2030     6.4770    23.7450     2.2910   -28.3720 
   72.8750    69.9310     8.3230     6.6300     5.9150    23.7800     2.2930   -28.8270 
   73.0000    72.5210     8.0390     6.3060     5.6740    23.6960     2.3180   -29.1560 
   73.1250    77.5620     7.9540     6.1900     5.5070    23.5160     2.3620   -29.2780 
   73.2500    80.5740     8.0910     6.2510     5.5260    23.3770     2.4010   -29.2300 
   73.3750    79.4360     8.5640     6.5530     6.6450    23.3580     2.4130   -29.0620 
   73.5000    75.6440     9.4570     7.1620     8.6770    23.5470     2.3890   -28.8210 
   73.6250    71.3000    10.9010     8.1930     8.3450    23.9950     2.3380   -28.5250 
   73.7500    66.1550    12.8220     9.6110     8.4390    24.4100     2.2840   -28.1890 
   73.8750    60.6410    15.1100    11.3650     9.5050    24.6490     2.2390   -27.8170 
   74.0000    56.8190    17.5080    13.2830     9.7300    24.7450     2.2050   -27.4470 
   74.1250    55.2730    19.4910    15.0020     9.2510    24.7670     2.1790   -27.1450 
   74.2500    55.3240    20.5970    16.1380     9.1210    24.7630     2.1570   -26.9560 
   74.3750    57.4960    20.5210    16.4090     9.1570    24.7570     2.1440   -26.8900 
