~V
VERS. 2.00: Ver 2.00
~W
STRT.M 52.0000:
STOP.M 224.0000:
STEP.M 0.1250:
NULL. -999.2500:
UWI. F10595:
~C
DEPT.M :
GR.API :
RML.OHMM :
RI. :
RXO.OHMM :
CALI.CM :
DEN.GM/CC :
SP.MV :
~A
# ...
  187.0000    63.6720   109.6480    99.6800   115.9100    23.0270     2.1880   -15.3020 
  187.1250    64.8550    98.8740    89.8850    97.7950    22.9840     2.2060   -15.3700 
  187.2500    64.4680    92.5150    84.1050    70.3870    22.9620     2.2200   -15.4000 
  187.3750    63.2330    91.5570    83.2330    54.7340    22.9230     2.2240   -15.4070 
  187.5000    60.0640    96.1290    87.3900    68.0810    22.8580     2.2150   -15.4030 
  187.6250    56.8390   105.3790    95.7990    99.8030    22.7810     2.1950   -15.3880 
  187.7500    56.5530   117.6370   106.9430   108.6800    22.5910     2.1720   -15.3570 
  187.8750    57.2700   129.5440   117.7670    79.7840    22.2480     2.1570   -15.3060 
  188.0000    58.4880   138.3230   125.7490    57.5190    21.8810     2.1520   -15.2380 
  188.1250    58.9540   141.3750   128.5230    47.5150    21.6530     2.1560   -15.1620 
  188.2500    56.7870   135.1620   122.8740    41.8120    21.4770     2.1680   -15.0940 
  188.3750    55.5650   120.6720   109.7020    35.8840    21.2140     2.1840   -15.0360 
  188.5000    58.3410   100.3170    91.1970    32.1470    20.8680     2.2030   -14.9880 
  188.6250    64.1310    78.5050    71.3680    29.6590    20.6290     2.2260   -14.9550 
  188.7500    67.2100    60.4040    54.9130    27.6370    20.7180     2.2510   -14.9480 
  188.8750    68.3190    47.5370    43.2150    26.0090    21.1220     2.2720   -14.9680 
  189.0000    70.5220    39.7150    36.1050    27.1310    21.7130     2.2800   -15.0180 
  189.1250    73.7750    36.2030    32.9120    29.1830    22.2880     2.2730   -15.0970 
  189.2500    75.0850    37.1430    33.7670    28.9280    22.6630     2.2630   -15.2030 
  189.3750    71.8920    41.9550    38.1410    32.0950    22.7920     2.2600   -15.3210 
  189.5000    65.8760    50.8500    46.2270    41.7120    22.8150     2.2660   -15.4380 
  189.6250    60.1440    63.5950    57.8140    64.2580    22.7680     2.2710   -15.5400 
  189.7500    54.5450    78.9310    71.7550    78.1800    22.5890     2.2620   -15.6130 
  189.8750    51.1510    93.6050    85.0950    76.5070    22.3170     2.2340   -15.6520 
  190.0000    51.7530   105.3240    95.7490    78.1510    22.1620     2.2000   -15.6510 
  190.1250    55.3590   113.3440   103.0400    86.9790    22.1620     2.1850   -15.6010 
  190.2500    57.1430   118.2300   107.4820    91.7020    22.3250     2.2210   -15.4840 
  190.3750    56.0700   122.0250   110.9320   100.5290    22.6230     2.2920   -15.3080 
  190.5000    54.8930   125.8580   114.4160   117.9400    22.9320     2.3600   -15.0840 
  190.6250    54.6750   130.4080   118.5530   124.8550    23.0230     2.3810   -14.8270 
  190.7500    55.2050   135.5870   123.2610   126.4010    22.9780     2.3320   -14.5490 
  190.8750    54.8900   139.8230   127.1120   145.7320    23.2150     2.2570   -14.2610 
  191.0000    53.0990   141.0050   128.1870   175.5270    23.3970     2.1950   -13.9720 
  191.1250    52.2590   137.3160   124.8330   215.6310    23.4540     2.1730   -13.6930 
  191.2500    56.6900   127.9730   116.3390   174.0540    23.4830     2.2060   -13.4480 
  191.3750    64.0870   116.3750   105.7950   103.8040    23.4900     2.2680   -13.2490 
  191.5000    69.4970   105.5760    95.9780    67.1780    23.3560     2.3190   -13.1010 
  191.6250    71.9790    97.7170    88.8340    60.0950    23.1000     2.3280   -13.0000 
  191.7500    74.4730    94.4170    85.8340    62.6390    22.9760     2.2930   -12.9470 
  191.8750    77.7480    94.9170    86.2890    74.1830    22.9110     2.2560   -12.9290 
  192.0000    79.2910    98.3410    89.4010    99.9580    22.8840     2.2430   -12.9400 
  192.1250    76.9900   103.5040    94.0940   115.9130    22.8850     2.2520   -12.9740 
  192.2500    72.3460   109.7990    99.8170   120.4510    22.8800     2.2580   -13.0270 
  192.3750    69.4690   116.8280   106.2070   131.8890    22.9710     2.2410   -13.0810 
  192.5000    69.1390   123.2970   112.0880   140.0250    23.1310     2.2090   -13.1270 
  192.6250    67.4270   125.6310   114.2100   148.9840    23.2590     2.1940   -13.1550 
  192.7500    62.3400   117.0540   106.4120   181.5150    23.3060     2.2260   -13.1590 
  192.8750    59.2590    98.3060    89.3690   210.2150    23.2290     2.2820   -13.1440 
  193.0000    60.0420    75.1110    68.2830   138.4000    23.1670     2.3250   -13.1160 
  193.1250    62.1390    54.4820    49.5290    62.1590    23.1840     2.3270   -13.0770 
  193.2500    62.8190    40.8800    37.1630    31.9500    23.2110     2.2930   -13.0230 
  193.3750    63.9580    32.4930    29.5390    25.1230    23.2240     2.2670   -12.9570 
  193.5000    65.7130    27.4150    24.9220    24.6280    23.2430     2.2810   -12.8890 
  193.6250    66.4000    24.0050    21.8230    25.9580    23.2760     2.3350   -12.8310 
  193.7500    67.3290    21.1480    19.2260    25.4790    23.2930     2.3960   -12.7900 
  193.8750    70.2220    18.3020    16.6380    20.1810    23.2670     2.4230   -12.7590 
  194.0000    72.3000    15.6060    14.1870    13.6760    23.2200     2.4040   -12.7260 
  194.1250    74.3090    13.3470    12.1340    10.6150    23.2020     2.3570   -12.6720 
  194.2500    78.6480    11.7960    10.7230    10.4300    23.2800     2.3110   -12.5750 
  194.3750    83.0120    10.8240     9.8400    10.8170    23.3820     2.2870   -12.4210 
  194.5000    83.8810    10.3360     9.3970    10.6790    23.4160     2.2880   -12.1870 
  194.6250    84.2360    10.2120     9.2830    10.1560    23.3640     2.3040   -11.8510 
  194.7500    88.0490    10.2980     9.3620     9.4780    23.3040     2.3230   -11.3770 
  194.8750    90.4400    10.3530     9.4120     9.3510    23.3600     2.3360   -10.7760 
  195.0000    89.0820    10.2060     9.2780     9.8830    23.4220     2.3430   -10.0540 
  195.1250    84.8500     9.7560     8.8690     9.9330    23.3900     2.3510    -9.2270 
  195.2500    77.4660     8.9910     8.1730     8.5120    23.2690     2.3660    -8.3240 
  195.3750    70.2140     8.1150     7.3780     6.8620    23.1990     2.3790    -7.4020 
  195.5000    66.7800     7.3000     6.6370     6.0230    23.1630     2.3820    -6.5050 
  195.6250    66.4420     6.6620     6.0560     5.8620    23.1490     2.3700    -5.6720 
  195.7500    65.1290     6.2760     5.7060     5.9260    23.1490     2.3470    -4.9450 
  195.8750    61.2940     6.0970     5.5430     6.0170    23.1620     2.3260    -4.3330 
  196.0000    56.1870     6.1120     5.5560     6.1670    23.1700     2.3220    -3.8450 
  196.1250    51.9060     6.3050     5.7320     6.2410    23.1550     2.3470    -3.4840 
  196.2500    50.5310     6.6610     6.0560     6.4730    23.1190     2.4050    -3.2520 
  196.3750    50.5260     7.0780     6.4350     7.4360    23.1110     2.4640    -3.1040 
  196.5000    49.2470     7.4510     6.7730     9.3380    23.1420     2.4960    -3.0120 
  196.6250    46.9110     7.6590     6.9630    11.0210    23.1790     2.4910    -2.9640 
  196.7500    46.9800     7.5880     6.8990     8.5680    23.1950     2.4620    -2.9600 
  196.8750    49.1540     7.3220     6.6560     7.2950    23.1960     2.4370    -2.9840 
  197.0000    51.3150     6.9710     6.3370     6.8790    23.1850     2.4280    -3.0280 
  197.1250    52.7450     6.6610     6.0550     6.9560    23.1660     2.4320    -3.0830 
  197.2500    53.4210     6.5350     5.9410     7.1150    23.1390     2.4330    -3.1490 
  197.3750    52.9930     6.6400     6.0360     7.5610    23.1300     2.4270    -3.2310 
  197.5000    53.0080     6.9950     6.3590     8.5920    23.0690     2.4170    -3.3310 
  197.6250    56.1520     7.5970     6.9070    10.1470    23.0030     2.4110    -3.4410 
  197.7500    62.1910     8.4760     7.7050    12.0070    22.9660     2.4100    -3.5490 
  197.8750    65.0540     9.5620     8.6920    13.2150    22.9330     2.4110    -3.6480 
  198.0000    63.2160    10.7920     9.8110    14.2040    22.9050     2.4120    -3.7360 
  198.1250    60.9140    12.0810    10.9820    15.0960    22.8830     2.4100    -3.8110 
