~V
VERS. 2.00: Ver 2.00
~W
STRT.M 58.0000:
STOP.M 214.0000:
STEP.M 0.1250:
NULL. -999.2500:
UWI. F10594:
~C
DEPT.M :
GR.API :
RML.OHMM :
RI. :
RXO.OHMM :
CALI.CM :
DEN.GM/CC :
SP.MV :
~A
# ...
   80.5000    65.1280     8.6820     6.4850     8.0830    23.1050     2.1840   -30.9520 
   80.6250    62.8790     9.2370     6.8980     8.3270    23.5380     2.1810   -31.1090 
   80.7500    59.7260     9.6500     7.2350     8.7200    23.8750     2.1880   -31.3020 
   80.8750    56.8600     9.8980     7.4650     9.2840    23.9800     2.2010   -31.5050 
   81.0000    56.3830     9.9900     7.5830     9.6330    23.9370     2.2130   -31.6910 
   81.1250    56.9490     9.9490     7.5950     9.6300    23.8920     2.2180   -31.8260 
   81.2500    56.6130     9.8500     7.5480     9.4840    23.8820     2.2120   -31.9070 
   81.3750    56.5870     9.7420     7.4730     9.2620    23.8800     2.1980   -31.9380 
   81.5000    57.3830     9.6650     7.3990     9.1100    23.8850     2.1820   -31.9260 
   81.6250    57.1470     9.6540     7.3650     9.0550    23.8560     2.1760   -31.8760 
   81.7500    56.9280     9.7100     7.3850     9.0170    23.7580     2.1820   -31.8080 
   81.8750    58.2770     9.8300     7.4620     8.9310    23.5580     2.1950   -31.7340 
   82.0000    61.2970     9.9990     7.5830     8.7190    23.2720     2.2050   -31.6670 
   82.1250    62.9780    10.1790     7.7170     8.5840    23.1400     2.2050   -31.6090 
   82.2500    62.8960    10.2840     7.8050     8.7660    23.2080     2.1990   -31.5530 
   82.3750    62.1780    10.2030     7.7750     9.1120    23.3880     2.1910   -31.4860 
   82.5000    61.4660     9.8250     7.5490     9.1820    23.5260     2.1860   -31.3990 
   82.6250    62.1340     9.0980     7.0730     8.6430    23.5580     2.1940   -31.2840 
   82.7500    62.7260     8.2310     6.4710     7.9220    23.4740     2.2160   -31.1410 
   82.8750    63.7190     7.4260     5.8760     6.9080    23.2360     2.2510   -30.9750 
   83.0000    66.0840     6.8480     5.4010     5.7520    22.8010     2.2850   -30.7940 
   83.1250    69.9620     6.6440     5.1540     5.3240    22.1720     2.3010   -30.6170 
   83.2500    73.0250     6.7590     5.1180     5.7050    21.5670     2.2990   -30.4670 
   83.3750    74.0120     7.1440     5.2780     6.0610    21.1810     2.2880   -30.3660 
   83.5000    74.3170     7.7330     5.6020     5.9020    20.9620     2.2820   -30.3270 
   83.6250    74.9110     8.4630     6.0630     6.0310    20.9110     2.2810   -30.3590 
   83.7500    75.1210     9.2160     6.5780     6.7620    21.0480     2.2770   -30.4440 
   83.8750    74.6830     9.9030     7.0850     7.7760    21.4600     2.2670   -30.5720 
   84.0000    73.3380    10.4530     7.5280     8.6190    22.0150     2.2500   -30.7300 
   84.1250    70.9140    10.7740     7.8360     9.0040    22.6120     2.2300   -30.9010 
   84.2500    66.4550    10.8840     8.0030     9.2230    23.0870     2.2080   -31.0690 
   84.3750    61.8020    10.8200     8.0400     9.4560    23.5000     2.1850   -31.2150 
   84.5000    59.7670    10.6410     7.9790     9.7480    23.7850     2.1660   -31.3330 
   84.6250    59.6370    10.3980     7.8500     9.8530    23.8930     2.1590   -31.4090 
   84.7500    57.3760    10.1550     7.7050     9.7150    23.9390     2.1660   -31.4480 
   84.8750    54.3970     9.9610     7.5820     9.3340    23.9740     2.1840   -31.4520 
   85.0000    55.4240     9.8760     7.5210     8.9240    23.9750     2.2050   -31.4260 
   85.1250    60.2350     9.9820     7.5760     8.9910    23.8900     2.2150   -31.3700 
   85.2500    62.7170    10.2360     7.7310     9.3760    23.7190     2.2090   -31.2840 
   85.3750    62.9850    10.5010     7.9100     9.4640    23.6290     2.1960   -31.1630 
   85.5000    63.8940    10.5360     7.9660     9.1160    23.7230     2.1890   -31.0050 
   85.6250    64.3210     9.9990     7.6680     8.9360    23.9600     2.2090   -30.8050 
   85.7500    63.4120     8.9520     7.0210     9.0720    24.1200     2.2530   -30.5720 
   85.8750    65.4790     7.6560     6.1660     8.6980    24.1750     2.3050   -30.3130 
   86.0000    71.3090     6.4720     5.3260     7.2230    24.2240     2.3410   -30.0390 
   86.1250    76.6660     5.7410     4.7340     5.8640    24.3350     2.3300   -29.7640 
   86.2500    79.4900     5.4900     4.4380     5.1390    24.5100     2.2770   -29.5090 
   86.3750    80.9060     5.7500     4.4670     5.5870    24.6930     2.2040   -29.2860 
   86.5000    81.0990     6.5930     4.8670     6.5020    24.8440     2.1440   -29.0980 
   86.6250    75.7990     8.2380     5.7930     7.2910    25.0890     2.1450   -28.9510 
   86.7500    66.5360    10.5620     7.2170     8.4960    25.2880     2.2290   -28.8320 
   86.8750    58.5430    13.2660     9.0280    11.6500    25.2080     2.3780   -28.7260 
   87.0000    55.3940    15.6260    10.8310    19.6730    24.7020     2.5200   -28.6180 
   87.1250    57.9290    16.2450    11.6970    31.8160    24.0290     2.5550   -28.4870 
   87.2500    62.7410    14.8680    11.2270    27.4520    23.4200     2.5070   -28.3280 
   87.3750    70.0310    12.2330     9.7360    14.7480    23.0740     2.4290   -28.1450 
   87.5000    77.2500     9.5070     7.9460     8.7270    22.9490     2.3610   -27.9510 
   87.6250    78.5360     7.5690     6.4830     6.5080    22.9610     2.3240   -27.7600 
   87.7500    76.9540     6.3960     5.4760     6.0260    22.9780     2.3140   -27.5870 
   87.8750    77.6480     5.8020     4.8760     5.5530    23.0100     2.3180   -27.4380 
   88.0000    80.9130     5.5730     4.5790     4.9820    23.0340     2.3250   -27.3170 
   88.1250    82.9180     5.5730     4.4990     4.7080    23.0450     2.3310   -27.2320 
   88.2500    83.6400     5.6660     4.5260     4.9170    23.0590     2.3410   -27.1720 
   88.3750    84.4020     5.7880     4.6060     5.2180    23.0950     2.3550   -27.1260 
   88.5000    83.3330     5.8730     4.6890     5.3230    23.1510     2.3720   -27.0860 
   88.6250    82.8940     5.8540     4.7150     5.3960    23.3360     2.3840   -27.0420 
   88.7500    85.9610     5.7440     4.6760     5.5590    23.6900     2.3860   -26.9860 
   88.8750    90.3200     5.6080     4.5990     5.5400    24.0770     2.3740   -26.9200 
   89.0000    92.3170     5.5390     4.5390     5.2760    24.2780     2.3550   -26.8510 
   89.1250    89.6030     5.6730     4.5820     5.0880    24.3150     2.3450   -26.7760 
   89.2500    84.9910     6.0340     4.7600     5.2760    24.3190     2.3560   -26.6970 
   89.3750    80.2280     6.5890     5.0680     5.8610    24.3250     2.3790   -26.6140 
   89.5000    76.8400     7.2170     5.4450     6.7970    24.3330     2.3990   -26.5260 
   89.6250    75.2780     7.6580     5.7440     7.8920    24.3260     2.3950   -26.4260 
   89.7500    73.1980     7.7330     5.8370     8.4980    24.3060     2.3720   -26.3190 
   89.8750    72.0270     7.4210     5.6840     7.6210    24.2860     2.3440   -26.2110 
   90.0000    73.7190     6.8770     5.3530     6.3630    24.2770     2.3240   -26.1050 
   90.1250    77.4350     6.3510     4.9820     5.4660    24.2710     2.3200   -26.0050 
   90.2500    80.7970     5.9980     4.6930     5.1520    24.2650     2.3230   -25.9200 
   90.3750    83.7100     5.8540     4.5270     5.1000    24.2610     2.3270   -25.8500 
   90.5000    86.9660     5.8800     4.4810     5.3080    24.2520     2.3270   -25.7990 
   90.6250    87.6820     5.9950     4.5260     5.4660    24.1980     2.3200   -25.7800 
   90.7500    87.9120     6.0980     4.5940     5.5120    24.0630     2.3110   -25.7930 
   90.8750    91.9970     6.1520     4.6490     5.8840    23.8660     2.3030   -25.8340 
   91.0000    98.3000     6.1520     4.6720     6.9260    23.6690     2.2980   -25.9020 
   91.1250    98.2410     6.0990     4.6530     7.4380    23.5750     2.2980   -25.9920 
   91.2500    93.1870     6.0210     4.6120     6.3310    23.5350     2.2970   -26.0990 
   91.3750    90.1980     5.9450     4.5670     5.8610    23.5390     2.2980   -26.2200 
   91.5000    89.7890     5.9040     4.5370     5.8720    23.5510     2.2990   -26.3530 
   91.6250    87.0530     5.9580     4.5520     5.5360    23.5600     2.3000   -26.4870 
