~V
VERS. 2.00: Ver 2.00
~W
STRT.M 57.0000:
STOP.M 205.0000:
STEP.M 0.1250:
NULL. -999.2500:
UWI. F10591:
~C
DEPT.M :
SP.MV :
GR.API :
RML.OHMM :
RI. :
RXO.OHMM :
CALI.CM :
DEN.GM/CC :
~A
# ...
  135.7500   -14.8620    47.1340    19.4320    16.9540    16.6850    24.2630     2.4570 
  135.8750   -14.8710    46.3660    19.3090    16.7230    16.1710    24.2390     2.4510 
  136.0000   -14.9050    46.3040    19.5100    16.7780    16.5650    24.2210     2.4460 
  136.1250   -14.9640    48.5890    19.8200    16.9830    17.4050    24.3600     2.4430 
  136.2500   -15.0330    52.3920    20.0580    17.1780    17.8150    24.6910     2.4420 
  136.3750   -15.1380    54.6010    20.1740    17.3090    17.6800    24.7930     2.4430 
  136.5000   -15.2100    53.2640    20.1740    17.3590    17.5680    24.6440     2.4480 
  136.6250   -15.2720    51.2500    20.0900    17.3280    17.4620    24.4210     2.4550 
  136.7500   -15.3260    48.1700    19.9730    17.2510    16.9620    24.3270     2.4600 
  136.8750   -15.3610    43.1270    19.8360    17.1430    16.8870    24.4210     2.4580 
  137.0000   -15.3810    39.7020    19.6870    17.0110    17.1400    24.5340     2.4500 
  137.1250   -15.3440    41.3530    19.5580    16.8720    16.4220    24.5590     2.4380 
  137.2500   -15.2980    44.8260    19.4900    16.7600    16.1060    24.5780     2.4250 
  137.3750   -15.2020    46.8220    19.5320    16.7150    16.1610    24.6820     2.4160 
  137.5000   -15.1120    48.2130    19.7170    16.7760    16.8970    24.7990     2.4130 
  137.6250   -15.0040    49.6690    20.0490    16.9650    17.6090    24.8700     2.4200 
  137.7500   -14.8990    48.9550    20.4060    17.2010    17.7360    24.8940     2.4310 
  137.8750   -14.7840    47.6260    20.6690    17.3890    17.9100    24.9010     2.4410 
  138.0000   -14.6850    48.5720    20.7650    17.4520    18.7050    24.9030     2.4470 
  138.1250   -14.6180    50.9930    20.7310    17.3940    18.7620    24.9050     2.4480 
  138.2500   -14.5510    51.5350    20.7800    17.3770    18.1330    24.9040     2.4480 
  138.3750   -14.5430    50.2010    21.0820    17.5400    17.0140    24.8910     2.4510 
  138.5000   -14.5320    49.9740    21.6740    17.9300    16.9160    24.8530     2.4580 
  138.6250   -14.5750    51.9880    22.4060    18.4630    19.0650    24.8060     2.4650 
  138.7500   -14.6330    52.6720    22.9410    18.8920    22.3640    24.8180     2.4670 
  138.8750   -14.7190    51.4970    22.9940    18.9960    23.2970    24.8250     2.4630 
  139.0000   -14.8130    50.2710    22.4620    18.6670    20.1280    24.8110     2.4540 
  139.1250   -14.9120    50.6350    21.4990    17.9760    17.5920    24.7590     2.4450 
  139.2500   -15.0270    51.3660    20.5200    17.2160    16.7500    24.6830     2.4420 
  139.3750   -15.1280    51.9050    19.7170    16.5360    16.3980    24.5950     2.4460 
  139.5000   -15.2340    51.9300    19.1230    15.9910    15.8910    24.5690     2.4550 
  139.6250   -15.2970    50.4420    18.6630    15.5640    15.5670    24.5890     2.4630 
  139.7500   -15.3630    49.3280    18.2040    15.1700    15.6530    24.5760     2.4650 
  139.8750   -15.4050    50.0770    17.7240    14.7820    15.3420    24.5190     2.4600 
  140.0000   -15.4300    50.8070    17.2790    14.4280    14.4080    24.4700     2.4500 
  140.1250   -15.4460    48.5650    16.9430    14.1600    14.3760    24.5140     2.4440 
  140.2500   -15.4360    46.7640    16.7070    13.9670    14.4680    24.6320     2.4470 
  140.3750   -15.4160    47.3310    16.5530    13.8380    14.2210    24.6650     2.4580 
  140.5000   -15.3750    47.8750    16.4570    13.7590    13.9840    24.6120     2.4690 
  140.6250   -15.3290    45.6060    16.3670    13.6970    14.2980    24.6740     2.4770 
  140.7500   -15.2710    43.3180    16.2240    13.6070    14.5590    24.8070     2.4810 
  140.8750   -15.1860    44.3660    16.0070    13.4610    14.4890    24.8780     2.4870 
  141.0000   -15.1180    48.0610    15.7230    13.2550    14.7610    24.8770     2.4960 
  141.1250   -15.0330    51.0150    15.4200    13.0120    14.4110    24.8870     2.5080 
  141.2500   -14.9600    52.0300    15.1750    12.8010    13.8110    24.8960     2.5170 
  141.3750   -14.9230    51.7180    15.0400    12.6710    13.5130    24.9090     2.5190 
  141.5000   -14.9050    50.2860    15.0240    12.6460    13.6530    24.9010     2.5130 
  141.6250   -14.9110    46.6680    15.0970    12.7190    14.0830    24.8850     2.4980 
  141.7500   -14.9540    43.9500    15.1690    12.8230    14.4060    24.8440     2.4830 
  141.8750   -15.0330    44.8860    15.1560    12.8900    14.3830    24.8220     2.4720 
  142.0000   -15.1370    47.6660    14.9990    12.8590    13.7430    24.8060     2.4710 
  142.1250   -15.2770    48.2710    14.6800    12.6920    13.2140    24.7770     2.4780 
  142.2500   -15.4480    47.1990    14.3120    12.4590    12.8620    24.7590     2.4840 
  142.3750   -15.5960    45.9760    14.0060    12.2370    12.5630    24.7560     2.4830 
  142.5000   -15.7650    44.3540    13.8220    12.0810    12.5680    24.7630     2.4800 
  142.6250   -15.9290    42.5100    13.7310    11.9840    12.7000    24.7730     2.4830 
  142.7500   -16.0740    42.0880    13.5750    11.8460    13.0070    24.7860     2.4930 
  142.8750   -16.2230    43.5230    13.2230    11.5650    13.2740    24.7510     2.4990 
  143.0000   -16.3450    46.2280    12.6300    11.0890    12.9490    24.6810     2.4900 
  143.1250   -16.4310    51.2320    11.9040    10.4720    11.6700    24.5970     2.4610 
  143.2500   -16.4730    58.8810    11.3020     9.9130    10.4250    24.5540     2.4300 
  143.3750   -16.4700    66.4690    10.9990     9.5680     9.5860    24.5130     2.4100 
  143.5000   -16.4430    70.3010    11.0690     9.5250     9.4480    24.4710     2.3990 
  143.6250   -16.3630    69.7420    11.5090     9.8290    10.6330    24.4080     2.3830 
  143.7500   -16.2690    69.1670    12.0820    10.3190    12.5070    24.3780     2.3510 
  143.8750   -16.1470    69.3420    12.5610    10.8140    13.3770    24.4060     2.3090 
  144.0000   -16.0340    68.3100    12.7530    11.1310    12.7960    24.4770     2.2730 
  144.1250   -15.9100    65.3730    12.5540    11.1260    11.9640    24.5880     2.2570 
  144.2500   -15.8050    63.9420    12.1570    10.9080    11.6540    24.6900     2.2540 
  144.3750   -15.7360    63.9420    11.7570    10.6160    11.2950    24.7500     2.2520 
  144.5000   -15.6920    63.6950    11.5340    10.3980    10.8840    24.7440     2.2480 
  144.6250   -15.7070    63.3260    11.6670    10.4150    10.8990    24.6770     2.2510 
  144.7500   -15.7440    64.5070    12.1330    10.6860    11.4430    24.6090     2.2770 
  144.8750   -15.8170    65.7470    12.8690    11.1890    11.7520    24.5170     2.3210 
  145.0000   -15.8810    63.9910    13.7350    11.8400    12.0120    24.3700     2.3630 
  145.1250   -15.9790    63.0210    14.4820    12.4530    13.5680    24.2270     2.3720 
  145.2500   -16.0770    65.5300    14.9020    12.8320    14.3500    24.1660     2.3490 
  145.3750   -16.1970    68.3740    14.9510    12.9020    13.9870    24.2720     2.3090 
  145.5000   -16.2900    67.7270    14.8040    12.7670    13.0290    24.4340     2.2700 
  145.6250   -16.3800    65.4780    14.8740    12.7170    12.9080    24.5100     2.2470 
  145.7500   -16.4460    64.2220    15.5360    13.0480    12.8130    24.5280     2.2360 
  145.8750   -16.4980    63.2950    17.0680    13.9830    13.5210    24.5350     2.2340 
  146.0000   -16.5280    63.0150    19.5890    15.6590    15.5420    24.5530     2.2380 
  146.1250   -16.5420    62.3310    23.0270    18.1560    19.8500    24.6150     2.2430 
  146.2500   -16.5560    59.5060    26.6290    21.0110    24.8700    24.6960     2.2430 
  146.3750   -16.5050    56.4410    29.6020    23.6380    27.9090    24.7580     2.2380 
  146.5000   -16.4670    56.7640    31.3090    25.4390    29.2190    24.7600     2.2290 
  146.6250   -16.4020    59.8790    31.5660    26.0470    28.8930    24.6780     2.2180 
  146.7500   -16.3330    58.8740    31.3520    26.0790    27.9880    24.5630     2.2070 
  146.8750   -16.2870    55.2940    31.4690    26.1500    27.4780    24.4970     2.1970 
