~V
VERS. 2.00: Ver 2.00
~W
STRT.M 61.0000:
STOP.M 190.0000:
STEP.M 0.1250:
NULL. -999.2500:
UWI. F10559:
~C
DEPT.M :
SP.MV :
DEN.GM/CC :
GR.API :
RML.OHMM :
RI. :
RXO.OHMM :
CALI.CM :
~A
# ...
   83.5000   -15.6080     2.2730    83.9220     8.2110     7.3040     5.8850    25.8890 
   83.6250   -15.1710     2.2850    84.2960     8.1930     7.2310     6.3020    25.8570 
   83.7500   -14.7180     2.2900    85.6590     8.3520     7.2730     6.5610    25.8350 
   83.8750   -14.3310     2.2840    87.5530     8.7010     7.4790     6.5470    25.8030 
   84.0000   -13.9830     2.2710    89.9860     9.1930     7.8440     6.5740    25.7710 
   84.1250   -13.6490     2.2540    92.2600     9.7100     8.2900     7.3830    25.7600 
   84.2500   -13.3890     2.2380    91.6190    10.1340     8.6890     8.6640    25.7300 
   84.3750   -13.1940     2.2270    88.1840    10.4240     8.9780     9.5230    25.6220 
   84.5000   -13.0430     2.2210    84.6890    10.6130     9.1540     9.8530    25.4400 
   84.6250   -12.9220     2.2200    82.5850    10.8150     9.2810     8.3340    25.2300 
   84.7500   -12.8620     2.2250    82.5890    11.1610     9.4700     8.2460    25.1080 
   84.8750   -12.8420     2.2340    83.2700    11.7490     9.8090     9.0490    25.1630 
   85.0000   -12.8480     2.2430    82.8690    12.6550    10.3690     9.9740    25.3520 
   85.1250   -12.8350     2.2430    79.0150    13.9890    11.2570    10.2520    25.7070 
   85.2500   -12.8520     2.2330    74.9990    15.6830    12.4620     9.9010    26.1100 
   85.3750   -12.8380     2.2140    72.5120    17.6480    13.9790    10.3360    26.4800 
   85.5000   -12.8150     2.1930    69.3960    19.7030    15.7450    13.3820    26.7880 
   85.6250   -12.7880     2.1750    68.1020    21.5410    17.5750    19.3110    27.0790 
   85.7500   -12.7850     2.1650    70.1180    22.9610    19.1870    20.9480    27.3140 
   85.8750   -12.7360     2.1580    72.2440    23.9010    20.4270    18.8180    27.4600 
   86.0000   -12.6870     2.1540    70.5830    24.4450    21.3170    18.0940    27.5590 
   86.1250   -12.6770     2.1480    66.7350    24.6910    22.0060    19.6740    27.7040 
   86.2500   -12.6440     2.1420    66.5670    24.7090    22.6210    23.6260    27.8100 
   86.3750   -12.6500     2.1360    68.2200    24.3850    23.0480    26.3610    27.8730 
   86.5000   -12.6940     2.1320    68.2210    23.5600    23.0400    25.5900    27.8660 
   86.6250   -12.7730     2.1260    67.2400    22.0230    22.2720    21.1450    27.7150 
   86.7500   -12.8380     2.1180    67.3690    19.8890    20.7640    17.0230    27.4370 
   86.8750   -12.9390     2.1100    67.9000    17.2650    18.5250    14.1100    27.1380 
   87.0000   -13.0360     2.1100    67.0310    14.3440    15.7030    12.0620    26.8860 
   87.1250   -13.1290     2.1270    69.2630    11.4510    12.6550    10.7730    26.6690 
   87.2500   -13.2480     2.1570    76.9170     8.9120     9.8720     8.9970    26.4070 
   87.3750   -13.3320     2.1950    86.2990     6.9250     7.6340     6.6420    26.2290 
   87.5000   -13.3650     2.2310    94.2930     5.5560     6.0370     4.6290    26.1300 
   87.6250   -13.3020     2.2580   100.6530     4.8420     5.1200     3.9500    25.9810 
   87.7500   -13.1510     2.2800   104.4790     4.5940     4.6830     3.9190    25.8530 
   87.8750   -12.9090     2.3020   103.9910     4.7910     4.6680     4.2500    25.7220 
   88.0000   -12.6000     2.3240   100.0000     5.4780     5.0700     4.6730    25.6150 
   88.1250   -12.1520     2.3390    95.4480     6.9490     6.0400     4.9840    25.5520 
   88.2500   -11.5900     2.3380    90.6540     9.2310     7.6430     5.9740    25.5310 
   88.3750   -10.9420     2.3190    83.2020    12.3640    10.0240     8.7460    25.5410 
   88.5000   -10.1700     2.2870    73.3180    16.1690    13.2470    12.9090    25.5660 
   88.6250    -9.3100     2.2540    64.3510    20.0450    17.1620    14.9730    25.6100 
   88.7500    -8.4240     2.2280    59.8890    23.5130    20.9990    16.4440    25.7260 
   88.8750    -7.5480     2.2090    60.3450    26.1650    24.0520    19.0780    25.9020 
   89.0000    -6.6990     2.1960    62.2340    27.8370    25.9690    23.3580    26.0890 
   89.1250    -5.9650     2.1830    62.4760    28.4730    26.7360    26.0460    26.2860 
   89.2500    -5.3160     2.1660    59.9140    28.3970    26.7690    26.3630    26.5370 
   89.3750    -4.8120     2.1480    55.2110    27.7110    26.1430    25.5020    26.8310 
   89.5000    -4.4630     2.1290    51.4140    26.5360    24.9290    24.0730    26.9770 
   89.6250    -4.2610     2.1220    54.5140    25.1170    23.3460    20.6190    26.9640 
   89.7500    -4.1910     2.1300    62.0060    23.8650    21.8650    17.4600    26.8740 
   89.8750    -4.1710     2.1530    66.2380    23.0500    20.8020    15.2390    26.7590 
   90.0000    -4.1540     2.1790    64.2690    22.7870    20.3070    14.8730    26.6140 
   90.1250    -4.0890     2.1910    61.8270    23.0870    20.4480    15.8860    26.4560 
   90.2500    -3.9930     2.1880    61.6470    23.6870    20.9780    17.1980    26.4990 
   90.3750    -3.8920     2.1740    61.7450    24.3970    21.6870    18.4040    26.6980 
   90.5000    -3.8180     2.1580    62.4350    25.0650    22.3610    18.0350    26.8070 
   90.6250    -3.7750     2.1460    66.0110    25.5770    22.8490    16.1860    26.6060 
   90.7500    -3.7110     2.1410    69.1090    25.9310    23.1860    15.4910    26.2830 
   90.8750    -3.6980     2.1400    69.8280    26.1100    23.3940    16.3480    25.9480 
   91.0000    -3.7380     2.1470    69.5530    26.0770    23.4370    17.5680    25.6150 
   91.1250    -3.8910     2.1600    70.9270    25.7730    23.2180    16.6950    25.3150 
   91.2500    -4.0900     2.1740    73.3360    25.3030    22.7720    15.0410    25.0170 
   91.3750    -4.2700     2.1820    73.9140    24.8080    22.2020    13.8530    24.7690 
   91.5000    -4.4430     2.1830    71.2810    24.4730    21.6990    13.3410    24.7040 
   91.6250    -4.5600     2.1790    65.9050    24.5130    21.5190    13.4010    24.9120 
   91.7500    -4.6810     2.1760    61.8880    24.9170    21.7080    14.2370    25.3150 
   91.8750    -4.7920     2.1740    61.1680    25.6120    22.2300    15.2870    25.7760 
   92.0000    -4.9260     2.1730    62.2330    26.4740    22.9980    15.6810    26.2020 
   92.1250    -5.0690     2.1740    62.2200    27.3530    23.8860    15.8300    26.3700 
   92.2500    -5.2720     2.1780    60.6160    28.1190    24.7110    16.2160    26.2690 
   92.3750    -5.5400     2.1860    60.5170    28.6770    25.3640    16.4750    25.9770 
   92.5000    -5.9000     2.1930    62.8700    28.9060    25.7980    15.4250    25.6430 
   92.6250    -6.4070     2.1970    64.5150    28.4680    25.8630    14.3370    25.4990 
   92.7500    -7.0180     2.1990    64.1310    27.1490    25.2960    13.7090    25.3970 
   92.8750    -7.7090     2.2110    63.4500    24.7890    23.7220    14.0750    25.2670 
   93.0000    -8.4640     2.2380    63.7430    21.5320    21.0460    14.5240    25.1430 
   93.1250    -9.2310     2.2780    67.4980    17.9210    17.6890    14.2980    24.9850 
   93.2500   -10.0120     2.3090    74.6770    14.7350    14.5420    12.5980    24.9320 
   93.3750   -10.7620     2.3160    82.7600    12.3930    12.0980     9.5290    25.0870 
   93.5000   -11.3980     2.2970    87.1840    10.9930    10.5300     7.6010    25.4230 
   93.6250   -11.9350     2.2630    85.0490    10.4510     9.8460     7.2300    25.8340 
   93.7500   -12.4150     2.2340    81.2440    10.2890     9.6400     7.8910    26.2330 
   93.8750   -12.8400     2.2210    79.9310    10.1960     9.6200     8.7790    26.4300 
   94.0000   -13.2310     2.2260    82.6370     9.9490     9.5200     9.3940    26.4930 
   94.1250   -13.5790     2.2460    85.3850     9.4330     9.1330     8.8430    26.4790 
   94.2500   -13.8920     2.2730    88.0710     8.7820     8.5470     7.6830    26.4420 
   94.3750   -14.2010     2.3040    92.6910     8.1510     7.9140     6.9420    26.3950 
   94.5000   -14.5200     2.3390    96.2990     7.6730     7.3820     6.9800    26.3960 
   94.6250   -14.8110     2.3730    94.6130     7.4540     7.0840     6.7530    26.4510 
