~V
VERS. 2.00: Ver 2.00
~W
STRT.M 50.0000:
STOP.M 222.0000:
STEP.M 0.1250:
NULL. -999.2500:
UWI. F10580:
~C
DEPT.M :
DEN.GM/CC :
SP.MV :
GR.API :
RML.OHMM :
RI. :
RXO.OHMM :
CALI.CM :
~A
# ...
   61.2500     2.1750   -24.4660    79.8560     4.9630     3.4850     6.4300    23.5460 
   61.3750     2.1830   -25.2120    80.8310     5.5400     4.3870     6.1990    23.5460 
   61.5000     2.1890   -25.8300    80.6660     5.4590     4.8760     6.7710    23.5590 
   61.6250     2.1900   -26.2500    82.6370     5.1920     5.0060     7.7160    23.6600 
   61.7500     2.1880   -26.5560    84.4090     4.9630     4.9640     6.7600    23.8650 
   61.8750     2.1880   -26.8260    86.2130     4.7860     4.8290     5.4900    24.0580 
   62.0000     2.1940   -27.1240    89.8580     4.6800     4.6910     4.8820    24.1410 
   62.1250     2.2030   -27.4760    92.6450     4.7200     4.6890     4.7720    24.1330 
   62.2500     2.2090   -27.8900    91.3470     4.9380     4.9010     4.9340    24.0890 
   62.3750     2.2090   -28.3540    86.7100     5.3660     5.3650     5.2380    24.0040 
   62.5000     2.2020   -28.8020    81.5260     6.0020     6.0550     6.0960    23.8680 
   62.6250     2.1850   -29.2100    78.1850     6.7580     6.8450     7.5580    23.7970 
   62.7500     2.1640   -29.5680    77.8890     7.3730     7.4670     7.9650    23.7720 
   62.8750     2.1470   -29.8170    79.6160     7.6030     7.7000     7.4580    23.7710 
   63.0000     2.1420   -29.9130    79.1760     7.3620     7.4600     6.9850    23.7720 
   63.1250     2.1550   -29.8110    77.5260     6.7880     6.8330     6.6610    23.8180 
   63.2500     2.1820   -29.5560    80.5480     6.2160     6.1290     5.9670    23.9660 
   63.3750     2.2130   -29.1870    87.9630     5.8060     5.5300     4.9760    24.1920 
   63.5000     2.2370   -28.7780    94.7770     5.6010     5.1220     4.5200    24.3340 
   63.6250     2.2450   -28.3450    96.7320     5.5800     4.9450     4.6640    24.3690 
   63.7500     2.2470   -27.9540    96.4840     5.6430     4.9250     4.9930    24.3660 
   63.8750     2.2480   -27.6600    97.6610     5.7340     5.0100     5.1130    24.3440 
   64.0000     2.2480   -27.4410   100.8940     5.8220     5.1410     4.9860    24.2850 
   64.1250     2.2400   -27.3470   102.2650     5.8980     5.2550     4.9010    24.1690 
   64.2500     2.2290   -27.3220    99.3740     5.9770     5.3310     4.9550    23.9360 
   64.3750     2.2230   -27.3480    94.2100     6.0730     5.3830     5.0860    23.5700 
   64.5000     2.2270   -27.3860    89.7670     6.1870     5.4370     5.2120    23.2760 
   64.6250     2.2350   -27.4810    88.4750     6.3110     5.5050     4.9550    23.1760 
   64.7500     2.2320   -27.6120    90.4500     6.4100     5.5610     5.4140    23.1780 
   64.8750     2.2170   -27.7390    92.9080     6.4270     5.5490     6.3150    23.2650 
   65.0000     2.1970   -27.8870    92.2390     6.2950     5.4120     6.0760    23.5240 
   65.1250     2.1860   -28.0140    88.3550     5.9980     5.1340     5.6570    23.9450 
   65.2500     2.1900   -28.1650    85.8790     5.7170     4.8580     5.3990    24.2840 
   65.3750     2.2100   -28.3250    86.6280     5.6710     4.7610     5.0520    24.3620 
   65.5000     2.2420   -28.5280    87.4750     6.0760     5.0330     5.0380    24.2290 
   65.6250     2.2760   -28.7280    84.7270     7.2470     5.9410     6.9810    24.0890 
   65.7500     2.3000   -28.9120    79.1590     9.1750     7.4590    12.2560    23.9780 
   65.8750     2.3050   -29.1060    74.7050    11.6230     9.3980    19.8840    23.7690 
   66.0000     2.2790   -29.3090    73.4670    13.7510    11.2070    19.6080    23.3390 
   66.1250     2.2180   -29.5410    74.5370    14.1070    11.9230    11.6050    22.7830 
   66.2500     2.1540   -29.7610    75.6880    13.0520    11.5090     7.8550    22.4060 
   66.3750     2.1130   -29.9940    75.9320    11.6610    10.5010     6.4540    22.1660 
   66.5000     2.0990   -30.1880    75.4830    10.6620     9.5160     6.1390    22.0580 
   66.6250     2.0950   -30.3690    75.5980    10.2720     8.9490     6.4350    22.1080 
   66.7500     2.0890   -30.5300    75.5260    10.2170     8.7330     7.0900    22.4870 
   66.8750     2.0860   -30.6760    74.5100    10.2880     8.7260     7.9350    23.3280 
   67.0000     2.0900   -30.7980    72.7960    10.3370     8.7810     8.4990    24.2130 
   67.1250     2.1000   -30.8910    70.7250    10.2880     8.8040     8.6430    24.7790 
   67.2500     2.1040   -30.9600    70.0840    10.1790     8.7800     8.4420    24.9950 
   67.3750     2.0970   -30.9600    71.2970    10.0520     8.7260     8.0320    25.0510 
   67.5000     2.0860   -30.9390    73.1210     9.9230     8.6610     7.7730    25.0200 
   67.6250     2.0840   -30.8490    73.5660     9.7640     8.5790     7.8000    24.8530 
   67.7500     2.0900   -30.7190    73.5560     9.5560     8.4630     7.8630    24.5660 
   67.8750     2.1010   -30.5160    73.4480     9.3090     8.3040     7.7240    24.3340 
   68.0000     2.1190   -30.2730    73.7210     9.0530     8.1010     7.3010    24.1860 
   68.1250     2.1450   -29.9850    79.0940     8.8090     7.8410     6.4920    24.0730 
   68.2500     2.1660   -29.6510    87.7780     8.5590     7.5200     5.8460    24.0120 
   68.3750     2.1730   -29.3210    94.6050     8.2650     7.1260     5.6500    23.9880 
   68.5000     2.1760   -28.9610    98.6110     7.8990     6.6600     5.4000    23.9700 
   68.6250     2.1940   -28.6270   103.6310     7.4680     6.1470     4.9950    23.9310 
   68.7500     2.2210   -28.3140   110.6090     7.0480     5.6490     4.5280    23.8870 
   68.8750     2.2410   -28.0650   115.8670     6.7010     5.2170     4.2460    23.7970 
   69.0000     2.2460   -27.8380   117.3250     6.4590     4.8870     4.0440    23.6750 
   69.1250     2.2400   -27.6500   117.2640     6.3210     4.6900     4.0680    23.5110 
   69.2500     2.2320   -27.5420   118.8630     6.2410     4.6030     4.2210    23.3270 
   69.3750     2.2320   -27.4570   120.4890     6.2460     4.6380     4.4270    23.1120 
   69.5000     2.2420   -27.4410   119.5950     6.4630     4.8530     4.5310    22.9140 
   69.6250     2.2700   -27.4600   116.1640     7.2110     5.4330     4.8030    22.8180 
   69.7500     2.3090   -27.4960   111.3770     8.6750     6.4920     5.6660    22.7890 
   69.8750     2.3560   -27.5370   101.5850    10.9660     8.1460     8.0320    22.7850 
   70.0000     2.3950   -27.6180    86.6020    13.9010    10.3560    13.7850    22.7850 
   70.1250     2.3870   -27.7280    74.7480    16.6290    12.6310    18.3690    22.7850 
   70.2500     2.3200   -27.8320    70.3550    18.0070    14.0370    16.6350    22.7850 
   70.3750     2.2260   -27.9680    71.2330    17.5650    14.0430    13.3050    22.7850 
   70.5000     2.1520   -28.1010    72.5100    15.8250    12.9100    10.5820    22.7780 
   70.6250     2.1230   -28.2290    73.5820    13.8740    11.4040     9.2290    22.7560 
   70.7500     2.1210   -28.3570    75.9320    12.4410    10.1610     8.5410    22.7270 
   70.8750     2.1300   -28.4990    78.2540    11.5990     9.3180     8.2890    22.7130 
   71.0000     2.1370   -28.6010    79.9510    11.1840     8.8170     8.0110    22.7020 
   71.1250     2.1380   -28.6850    82.9820    11.0440     8.5860     7.3160    22.6290 
   71.2500     2.1330   -28.7410    87.7190    11.0530     8.5110     6.6260    22.4250 
   71.3750     2.1240   -28.7290    90.4630    11.1710     8.5490     6.5140    22.1160 
   71.5000     2.1120   -28.6800    88.1400    11.3420     8.6530     7.0330    21.8470 
   71.6250     2.1040   -28.6070    83.3350    11.4850     8.7640     7.9360    21.7690 
   71.7500     2.1010   -28.5340    79.0190    11.5520     8.8450     8.6460    21.8270 
   71.8750     2.1030   -28.4240    77.0310    11.5640     8.8970     8.9410    22.0290 
   72.0000     2.1050   -28.3200    77.1220    11.6050     8.9640     8.8720    22.3660 
   72.1250     2.1030   -28.1840    77.9580    11.8040     9.1180     8.7470    22.7170 
   72.2500     2.0990   -28.0430    77.3500    12.1710     9.3670     8.7800    22.9360 
   72.3750     2.1020   -27.9370    74.1980    12.6350     9.6760     8.8400    23.0090 
