~V
VERS. 2.00: Ver 2.00
~W
STRT.M 42.0000:
STOP.M 223.0000:
STEP.M 0.1250:
NULL. -999.2500:
UWI. F10538:
~C
DEPT.M :
DEN.GM/CC :
SP.MV :
GR.API :
RML.OHMM :
RI. :
RXO.OHMM :
CALI.CM :
~A
# ...
  120.7500     2.2620   -27.1240   115.9270     5.0820     4.6320     5.4800    24.7730 
  120.8750     2.2550   -27.0600   111.2750     5.3440     4.7300     5.5820    24.7730 
  121.0000     2.2530   -27.0670   107.4580     5.6960     4.9800     5.7710    24.7720 
  121.1250     2.2590   -27.1190   107.9160     5.9570     5.2150     6.2340    24.7710 
  121.2500     2.2810   -27.1870   112.3900     6.0500     5.3410     6.6570    24.7740 
  121.3750     2.3180   -27.2970   117.4170     5.9840     5.3240     6.6560    24.7800 
  121.5000     2.3490   -27.4380   120.7980     5.8620     5.2310     5.9030    24.7820 
  121.6250     2.3580   -27.6200   121.9920     5.7590     5.1260     5.7130    24.7830 
  121.7500     2.3400   -27.8180   120.3940     5.7270     5.0660     5.9230    24.7860 
  121.8750     2.3020   -28.0360   116.2090     5.8100     5.0990     5.8400    24.7880 
  122.0000     2.2630   -28.2550   112.9660     5.9900     5.2190     5.8790    24.7850 
  122.1250     2.2450   -28.4920   113.2170     6.2700     5.4240     6.0320    24.7780 
  122.2500     2.2530   -28.7290   113.9560     6.6700     5.7300     6.2880    24.7740 
  122.3750     2.2810   -28.9510   106.9540     7.2670     6.2080     7.2730    24.7730 
  122.5000     2.3180   -29.1330    96.9710     8.0230     6.8540     9.6030    24.7730 
  122.6250     2.3670   -29.2650    91.5120     8.7770     7.5740    14.0570    24.7730 
  122.7500     2.4220   -29.3600    91.2510     9.2010     8.1130    18.5310    24.7730 
  122.8750     2.4300   -29.3950    92.6350     8.8350     8.0330    14.0960    24.7730 
  123.0000     2.3690   -29.3880    96.1690     7.8430     7.3510     8.9520    24.7730 
  123.1250     2.2830   -29.3490   100.7850     6.6560     6.3650     6.8890    24.7730 
  123.2500     2.2300   -29.2950   103.5610     5.7130     5.4600     6.2670    24.7730 
  123.3750     2.2240   -29.2310   104.1400     5.2870     4.9240     5.9330    24.7730 
  123.5000     2.2330   -29.1730   104.8210     5.2430     4.7200     5.8190    24.7730 
  123.6250     2.2350   -29.1340   104.4410     5.4390     4.7510     5.8580    24.7730 
  123.7500     2.2270   -29.1010   103.6620     5.7380     4.9090     5.9280    24.7730 
  123.8750     2.2210   -29.0620   105.4660     6.0270     5.1020     6.1100    24.7730 
  124.0000     2.2200   -29.0260   107.1860     6.2130     5.2520     6.3230    24.7730 
  124.1250     2.2250   -28.9850   106.3020     6.2350     5.3090     6.2420    24.7730 
  124.2500     2.2370   -28.9380   102.9500     6.0880     5.2520     6.1280    24.7730 
  124.3750     2.2560   -28.8840   101.8340     5.8310     5.0980     5.9640    24.7730 
  124.5000     2.2760   -28.8260   106.0610     5.5830     4.9230     5.8500    24.7730 
  124.6250     2.2920   -28.7690   112.7710     5.4170     4.7810     5.7960    24.7730 
  124.7500     2.2970   -28.7270   116.9510     5.3670     4.7050     5.7760    24.7730 
  124.8750     2.2940   -28.7090   116.5030     5.4320     4.7130     5.7710    24.7730 
  125.0000     2.2910   -28.7090   114.9030     5.5510     4.7680     5.6910    24.7730 
  125.1250     2.2900   -28.7050   113.4660     5.6780     4.8410     5.6880    24.7730 
  125.2500     2.2860   -28.7160   110.7640     5.7700     4.8990     5.8730    24.7730 
  125.3750     2.2790   -28.7150   106.2070     5.7780     4.9010     5.9110    24.7750 
  125.5000     2.2750   -28.7080   102.3090     5.7040     4.8420     5.7550    24.7800 
  125.6250     2.2800   -28.6920   103.1250     5.5700     4.7340     5.5860    24.7860 
  125.7500     2.2920   -28.6760   108.1520     5.4250     4.6100     5.4760    24.7860 
  125.8750     2.3120   -28.6690   112.5720     5.3540     4.5300     5.3860    24.7730 
  126.0000     2.3330   -28.6710   114.6400     5.4160     4.5430     5.3990    24.7660 
  126.1250     2.3520   -28.7000   113.7920     5.6610     4.6920     5.5870    24.7640 
  126.2500     2.3660   -28.7450   110.5160     6.1120     5.0090     6.3100    24.7640 
  126.3750     2.3820   -28.8260   105.4490     6.7280     5.4940     8.2400    24.7620 
  126.5000     2.4000   -28.9320   101.1610     7.2610     5.9810    10.3560    24.7490 
  126.6250     2.4040   -29.0330    98.0610     7.4290     6.2470     9.8790    24.7190 
  126.7500     2.3780   -29.1190    95.8330     7.0860     6.1230     7.3220    24.6960 
  126.8750     2.3330   -29.2160    97.6430     6.3920     5.6430     6.0670    24.6890 
  127.0000     2.2980   -29.3090   103.7750     5.7910     5.1410     5.8520    24.6890 
  127.1250     2.2780   -29.3980   109.5130     5.4960     4.8220     5.9120    24.6890 
  127.2500     2.2630   -29.4750   110.3310     5.5170     4.7490     6.0350    24.6890 
  127.3750     2.2480   -29.5400   106.7710     5.7270     4.8700     6.3180    24.6890 
  127.5000     2.2350   -29.5550   102.0490     5.9100     5.0190     6.5370    24.6930 
  127.6250     2.2270   -29.5480    97.2560     5.9650     5.1020     6.5700    24.6980 
  127.7500     2.2270   -29.5260    95.1360     5.8700     5.0830     6.2880    24.6940 
  127.8750     2.2380   -29.4940    98.0470     5.6650     4.9660     5.7370    24.6910 
  128.0000     2.2520   -29.4690   101.3400     5.4740     4.8360     5.3980    24.6890 
  128.1250     2.2600   -29.4480   102.0300     5.3970     4.7720     5.5830    24.6890 
  128.2500     2.2560   -29.4360   100.0560     5.4800     4.8290     5.7530    24.6890 
  128.3750     2.2460   -29.4120    98.2280     5.7090     5.0160     5.9440    24.6890 
  128.5000     2.2430   -29.3880    99.2160     5.9490     5.2330     6.1410    24.6890 
  128.6250     2.2550   -29.3690   102.3240     6.0770     5.3770     6.3380    24.6890 
  128.7500     2.2730   -29.3710   102.1910     6.0170     5.3690     6.2140    24.6890 
  128.8750     2.2870   -29.3620    99.7070     5.7760     5.1870     5.9180    24.6880 
  129.0000     2.2930   -29.3570   104.2700     5.4920     4.9330     5.6380    24.6830 
  129.1250     2.2950   -29.3790   114.7440     5.2560     4.6860     5.3280    24.6670 
  129.2500     2.2990   -29.4280   121.1440     5.1210     4.5030     5.0110    24.6360 
  129.3750     2.3030   -29.5640   119.0650     5.1510     4.4470     4.8080    24.6220 
  129.5000     2.3030   -29.8130   115.2360     5.3810     4.5510     4.9610    24.6150 
  129.6250     2.3000   -30.1360   111.3950     5.8800     4.8790     5.5590    24.6140 
  129.7500     2.3000   -30.5100   105.6710     6.6760     5.4740     6.3480    24.6130 
  129.8750     2.3070   -30.9560    97.0080     7.6930     6.3240     6.7590    24.6130 
  130.0000     2.3180   -31.4510    87.1300     8.6260     7.1980     7.1030    24.6130 
  130.1250     2.3270   -31.9550    80.1330     9.2150     7.8570     7.6240    24.6130 
  130.2500     2.3340   -32.4780    79.3010     9.3760     8.1790     8.5950    24.6130 
  130.3750     2.3370   -32.9740    81.1230     9.2040     8.1920    10.1180    24.6160 
  130.5000     2.3210   -33.4430    79.8930     8.9100     8.0620     9.9860    24.6310 
  130.6250     2.2780   -33.8840    77.6600     8.5360     7.8270     8.8130    24.6610 
  130.7500     2.2240   -34.2740    78.5730     8.0960     7.4920     7.8720    24.6820 
  130.8750     2.1910   -34.6180    81.8830     7.6830     7.1240     7.6790    24.6890 
  131.0000     2.1840   -34.9310    84.0060     7.4210     6.8490     7.7820    24.6890 
  131.1250     2.1890   -35.2170    83.7890     7.3550     6.7370     7.9460    24.6890 
  131.2500     2.1940   -35.4540    80.7090     7.4320     6.7710     8.0190    24.6900 
  131.3750     2.1950   -35.6560    77.6890     7.5190     6.8520     8.1240    24.6910 
  131.5000     2.1950   -35.8030    76.5090     7.5340     6.8890     8.2030    24.6910 
  131.6250     2.1970   -35.9220    75.7040     7.4810     6.8750     8.2210    24.6900 
  131.7500     2.2000   -36.0170    74.2970     7.3990     6.8390     8.1520    24.6890 
  131.8750     2.2030   -36.0730    74.5440     7.3300     6.8200     8.1140    24.6890 
