~V
VERS. 2.00: Ver 2.00
~W
STRT.M 47.0000:
STOP.M 236.0000:
STEP.M 0.1250:
NULL. -999.2500:
UWI. F10597:
~C
DEPT.M :
SP.MV :
DEN.GM/CC :
GR.API :
RML.OHMM :
RI. :
RXO.OHMM :
CALI.CM :
~A
# ...
  170.7500    -7.2170     2.3550    85.7220    18.4640    18.2560    18.5600    24.4550 
  170.8750    -7.2510     2.3380    84.0840    16.2860    15.6020    14.3780    24.4600 
  171.0000    -7.2720     2.3200    83.9650    15.6170    14.3450    16.8590    24.4570 
  171.1250    -7.3610     2.3180    82.7700    16.0440    14.2790    22.1890    24.4300 
  171.2500    -7.4360     2.3330    79.1040    17.0970    15.1140    22.4180    24.3720 
  171.3750    -7.4160     2.3530    74.5890    18.2010    16.3790    19.3720    24.3320 
  171.5000    -7.3650     2.3630    75.3290    18.8100    17.4550    18.9170    24.3200 
  171.6250    -7.3090     2.3690    80.0490    19.0120    18.1100    18.2740    24.3200 
  171.7500    -7.1880     2.3770    81.8450    19.1270    18.5170    19.6650    24.3130 
  171.8750    -7.0430     2.3860    78.7120    19.3280    18.8590    22.0010    24.2800 
  172.0000    -6.9200     2.3860    76.9280    19.3150    18.9270    21.6440    24.2060 
  172.1250    -6.7810     2.3770    78.2550    18.7780    18.4580    19.1320    24.1370 
  172.2500    -6.6240     2.3620    78.9720    17.9090    17.5770    17.1880    24.1130 
  172.3750    -6.4880     2.3480    77.5810    17.2120    16.7120    16.6150    24.1120 
  172.5000    -6.3900     2.3440    76.1310    17.2850    16.3930    17.0140    24.1130 
  172.6250    -6.2990     2.3470    77.1470    18.1870    16.7840    18.5380    24.1130 
  172.7500    -6.2300     2.3570    80.2410    19.6610    17.7800    21.5040    24.1130 
  172.8750    -6.2190     2.3700    82.4360    21.1710    18.9710    23.1770    24.1120 
  173.0000    -6.2470     2.3880    78.2480    21.9890    19.7250    22.9580    24.1090 
  173.1250    -6.2990     2.4110    70.9730    21.8930    19.8000    21.0030    24.0920 
  173.2500    -6.3640     2.4360    67.0060    21.0710    19.3330    19.0510    24.0500 
  173.3750    -6.4330     2.4530    68.0870    19.9790    18.6440    18.7400    23.9990 
  173.5000    -6.4650     2.4580    69.9340    19.1270    18.0370    19.4070    23.9760 
  173.6250    -6.4790     2.4590    68.1600    18.6760    17.5870    19.1050    23.9710 
  173.7500    -6.5250     2.4600    64.7520    18.5580    17.2490    18.5220    23.9710 
  173.8750    -6.5860     2.4580    63.3940    18.6420    16.9960    17.9770    23.9710 
  174.0000    -6.5920     2.4560    64.4830    18.8080    16.8870    17.2720    23.9700 
  174.1250    -6.5550     2.4570    65.5780    18.9720    16.9620    17.2550    23.9680 
  174.2500    -6.5000     2.4600    65.8860    19.1310    17.2220    18.6720    23.9690 
  174.3750    -6.4210     2.4630    66.5550    19.2550    17.5690    20.2860    23.9700 
  174.5000    -6.3510     2.4650    65.2890    19.3530    17.8250    18.7650    23.9710 
  174.6250    -6.3050     2.4640    62.2850    19.5340    17.9390    18.2270    23.9790 
  174.7500    -6.2410     2.4620    61.6960    19.7850    17.9390    18.5600    24.0250 
  174.8750    -6.1340     2.4540    65.1090    19.9150    17.8330    19.1340    24.1470 
  175.0000    -6.0230     2.4400    67.5430    19.5710    17.5250    18.9530    24.2950 
  175.1250    -5.9080     2.4230    66.2900    18.7400    16.9320    18.1470    24.3670 
  175.2500    -5.7480     2.4100    64.0490    17.6400    16.0480    16.4110    24.3640 
  175.3750    -5.5790     2.4090    61.7080    16.6070    15.0290    14.6910    24.3460 
  175.5000    -5.4140     2.4240    59.2300    15.9410    14.1700    13.5800    24.3400 
  175.6250    -5.2190     2.4420    58.3210    15.5820    13.6370    12.9950    24.3400 
  175.7500    -5.0000     2.4530    60.4570    15.4380    13.4860    13.0490    24.3400 
  175.8750    -4.8030     2.4560    63.5120    15.4630    13.6830    14.4810    24.3400 
  176.0000    -4.6370     2.4530    63.6660    15.5940    14.0880    16.0520    24.3400 
  176.1250    -4.4920     2.4450    62.2870    15.6840    14.4370    16.4250    24.3400 
  176.2500    -4.4070     2.4360    61.4510    15.6140    14.5690    16.1140    24.3400 
  176.3750    -4.3760     2.4310    61.0680    15.3240    14.4310    15.1380    24.3400 
  176.5000    -4.3610     2.4290    59.2720    14.8550    14.0570    14.6490    24.3400 
  176.6250    -4.3520     2.4270    56.9420    14.3380    13.5950    14.2610    24.3400 
  176.7500    -4.3750     2.4280    55.6330    13.8220    13.1120    14.0850    24.3400 
  176.8750    -4.4430     2.4340    54.3960    13.2860    12.6220    13.9650    24.3390 
  177.0000    -4.5010     2.4430    53.6000    12.7050    12.1210    13.1420    24.3370 
  177.1250    -4.5530     2.4520    55.5920    12.1230    11.6430    12.0510    24.3370 
  177.2500    -4.6280     2.4590    58.5500    11.6180    11.2560    11.3530    24.3370 
  177.3750    -4.7240     2.4600    58.7740    11.3350    11.0350    11.1810    24.3240 
  177.5000    -4.8130     2.4500    57.1920    11.4550    11.0610    11.3170    24.2820 
  177.6250    -4.9440     2.4380    59.1930    11.8350    11.2560    11.6080    24.2270 
  177.7500    -5.1300     2.4330    62.3780    12.2150    11.4960    12.3420    24.1970 
  177.8750    -5.3280     2.4340    62.1030    12.2840    11.6200    12.4820    24.1890 
  178.0000    -5.6120     2.4240    59.7740    11.8290    11.4780    11.7380    24.1890 
  178.1250    -5.9750     2.3980    57.8530    11.1500    11.1670    11.0990    24.1850 
  178.2500    -6.3520     2.3650    55.4200    10.6690    10.8720    10.7410    24.1650 
  178.3750    -6.7020     2.3300    53.1020    10.8330    10.8380    10.5890    24.1150 
  178.5000    -7.0660     2.2950    55.1530    12.1910    11.4720    11.1000    24.0550 
  178.6250    -7.3940     2.2600    61.0170    14.8520    13.0370    12.7680    24.0110 
  178.7500    -7.6400     2.2220    66.9700    18.9390    15.8390    16.1690    23.9910 
  178.8750    -7.8310     2.1840    71.2070    24.2450    20.0040    21.8430    24.0510 
  179.0000    -7.9470     2.1530    73.1300    29.8130    25.1290    27.9540    24.2730 
  179.1250    -7.9860     2.1370    74.5330    33.8820    29.5420    33.1770    24.5880 
  179.2500    -7.9800     2.1360    76.6480    35.1560    31.6900    35.5220    24.7750 
  179.3750    -7.9830     2.1450    76.8670    33.6900    31.1970    35.5280    24.7820 
  179.5000    -8.0060     2.1630    73.2050    30.8610    29.0580    33.8080    24.6120 
  179.6250    -8.0320     2.1820    70.2760    28.4160    26.9020    31.6070    24.3130 
  179.7500    -8.0630     2.1980    70.6320    26.9030    25.2920    29.4680    23.9010 
  179.8750    -8.0930     2.2140    73.6120    26.2250    24.2730    28.9150    23.5790 
  180.0000    -8.0600     2.2410    77.3800    26.0140    23.6970    27.4090    23.4760 
  180.1250    -7.9960     2.2790    80.2690    25.8390    23.3040    25.4980    23.4880 
  180.2500    -7.9730     2.3120    79.8600    25.6710    23.0930    25.7830    23.5560 
  180.3750    -7.9650     2.3200    76.4920    25.7130    23.2020    28.4490    23.6190 
  180.5000    -7.9270     2.3110    74.8630    26.1610    23.7980    29.2040    23.6700 
  180.6250    -7.9010     2.3130    75.1300    26.8210    24.6890    29.8550    23.7990 
  180.7500    -7.8890     2.3280    74.2670    27.3940    25.5890    30.7800    24.0080 
  180.8750    -7.8490     2.3460    71.9640    27.5700    26.1860    31.6420    24.1690 
  181.0000    -7.8550     2.3640    68.2230    27.1590    26.2370    32.5800    24.2350 
  181.1250    -7.9160     2.3950    62.7680    26.3580    25.8320    33.5960    24.2520 
  181.2500    -7.9500     2.4410    59.2260    25.2640    24.9870    33.8790    24.2560 
  181.3750    -7.9350     2.4710    62.3150    23.9270    23.7040    31.7190    24.2580 
  181.5000    -7.9480     2.4290    70.1890    22.4490    22.0990    26.5030    24.2460 
  181.6250    -7.9770     2.3490    75.4910    21.0340    20.5210    23.8500    24.2220 
  181.7500    -7.9930     2.2860    78.1900    19.7910    19.1570    22.5560    24.1980 
  181.8750    -8.0320     2.2580    81.7000    18.8070    18.0390    20.5090    24.1890 
