~V
VERS. 2.00: Ver 2.00
~W
STRT.M 55.0000:
STOP.M 217.0000:
STEP.M 0.1250:
NULL. -999.2500:
UWI. F10537:
~C
DEPT.M :
SP.MV :
DEN.GM/CC :
GR.API :
RML.OHMM :
RI. :
RXO.OHMM :
CALI.CM :
~A
# ...
   77.5000   -20.6070     2.1860    65.4800     9.2430     6.7830     6.9550    23.2870 
   77.6250   -20.4620     2.1910    65.0170     9.2110     6.7560     7.0110    23.3480 
   77.7500   -20.3600     2.2000    63.7490     9.1870     6.7380     6.9870    23.3870 
   77.8750   -20.2940     2.2100    60.8090     9.1770     6.7290     6.9320    23.3270 
   78.0000   -20.2710     2.2140    58.6960     9.1820     6.7270     6.9050    23.2390 
   78.1250   -20.2930     2.2100    59.5270     9.1970     6.7260     6.7600    23.1900 
   78.2500   -20.3480     2.2000    61.6030     9.2100     6.7240     6.4980    23.1550 
   78.3750   -20.4170     2.1880    64.5980     9.2120     6.7200     6.4390    23.0890 
   78.5000   -20.4850     2.1790    65.3710     9.2050     6.7190     6.7480    22.9880 
   78.6250   -20.5450     2.1760    62.2360     9.2060     6.7340     6.9110    22.9140 
   78.7500   -20.5830     2.1790    60.2640     9.2370     6.7720     6.9560    22.9150 
   78.8750   -20.5750     2.1860    62.1510     9.3090     6.8370     6.9910    22.9710 
   79.0000   -20.5530     2.1990    64.5200     9.4130     6.9240     7.0640    23.0170 
   79.1250   -20.4690     2.2140    62.7930     9.5130     7.0110     7.1390    23.0450 
   79.2500   -20.3540     2.2260    58.2890     9.5660     7.0720     7.1990    23.0700 
   79.3750   -20.2030     2.2310    55.3800     9.5550     7.0850     7.2140    23.0850 
   79.5000   -20.0100     2.2260    55.6640     9.4880     7.0480     7.1910    23.0960 
   79.6250   -19.8220     2.2160    58.4790     9.3860     6.9650     7.1840    23.1190 
   79.7500   -19.5730     2.2050    60.7940     9.2660     6.8610     7.1980    23.1450 
   79.8750   -19.3290     2.2000    62.4150     9.1160     6.7390     7.2060    23.1570 
   80.0000   -19.0700     2.2030    64.2510     8.9310     6.5970     7.1320    23.1630 
   80.1250   -18.7680     2.2180    64.1200     8.8030     6.4820     7.0440    23.1660 
   80.2500   -18.4870     2.2370    62.3810     8.8800     6.4840     6.8200    23.1800 
   80.3750   -18.2380     2.2520    63.2650     9.2700     6.6810     6.4100    23.2120 
   80.5000   -18.0140     2.2670    67.4220     9.9950     7.0990     6.3570    23.2380 
   80.6250   -17.8300     2.2930    69.5330    10.9450     7.6980     8.3490    23.2820 
   80.7500   -17.6720     2.3230    66.5710    11.7570     8.2690    13.7100    23.3680 
   80.8750   -17.5340     2.3430    62.3720    12.0600     8.5860    16.1670    23.4820 
   81.0000   -17.4220     2.3370    61.3080    11.6420     8.4770    10.8830    23.6050 
   81.1250   -17.3490     2.3040    63.1170    10.5830     7.9100     7.9800    23.6870 
   81.2500   -17.2850     2.2690    65.5760     9.4110     7.1770     6.9590    23.6480 
   81.3750   -17.2260     2.2500    69.2430     8.4650     6.5000     6.4380    23.5480 
   81.5000   -17.1970     2.2490    73.5840     7.9060     6.0250     5.6920    23.4840 
   81.6250   -17.1690     2.2520    78.4930     7.7680     5.8300     5.2080    23.4040 
   81.7500   -17.1720     2.2480    80.6160     7.8470     5.8120     5.3870    23.2400 
   81.8750   -17.1890     2.2400    77.5270     8.0040     5.8820     5.8760    23.0480 
   82.0000   -17.1970     2.2350    72.3180     8.1120     5.9520     6.2580    22.9630 
   82.1250   -17.2550     2.2410    72.1010     8.0430     5.9360     6.0990    22.9750 
   82.2500   -17.2980     2.2570    76.2630     7.8100     5.8180     5.5870    23.0120 
   82.3750   -17.3720     2.2760    80.3190     7.4940     5.6320     5.2080    23.0580 
   82.5000   -17.4720     2.2930    82.0510     7.2160     5.4420     5.1270    23.1240 
   82.6250   -17.5750     2.2980    82.2780     7.1040     5.3250     5.1290    23.1550 
   82.7500   -17.7400     2.2920    82.7330     7.1720     5.3110     5.1680    23.1650 
   82.8750   -17.9280     2.2800    83.0160     7.4000     5.4020     5.3000    23.1650 
   83.0000   -18.1490     2.2700    81.0920     7.7330     5.5770     5.6670    23.1650 
   83.1250   -18.3830     2.2660    75.2310     8.0860     5.7940     6.0090    23.1650 
   83.2500   -18.6040     2.2630    71.2150     8.3730     5.9920     6.2390    23.1650 
   83.3750   -18.8210     2.2610    71.7880     8.5500     6.1350     6.3510    23.1650 
   83.5000   -19.0040     2.2600    73.7590     8.6090     6.2100     6.3770    23.1650 
   83.6250   -19.1340     2.2600    72.0950     8.5680     6.2180     6.3150    23.1740 
   83.7500   -19.2090     2.2600    67.6660     8.4890     6.1950     6.1920    23.2690 
   83.8750   -19.2240     2.2480    63.2230     8.4080     6.1620     6.1540    23.6300 
   84.0000   -19.2000     2.2100    58.8600     8.3420     6.1400     6.3100    24.4310 
   84.1250   -19.1140     2.1420    53.6140     8.3140     6.1530     6.2980    25.6600 
   84.2500   -18.9650     2.0710    49.5970     8.3380     6.2140     6.0870    26.5290 
   84.3750   -18.7280     2.0220    48.3700     8.4370     6.3390     5.9850    26.4950 
   84.5000   -18.4120     2.0130    50.3710     8.6080     6.5270     6.1690    25.7350 
   84.6250   -18.0170     2.0500    54.8630     8.7870     6.7400     6.3050    25.1530 
   84.7500   -17.5240     2.0980    59.0350     8.8370     6.8810     6.3370    24.8740 
   84.8750   -16.9220     2.1340    61.0110     8.6310     6.8480     6.3340    24.6640 
   85.0000   -16.2280     2.1630    61.7060     8.1110     6.5750     6.2320    24.4360 
   85.1250   -15.4300     2.2100    66.1770     7.3280     6.0580     5.7680    24.3030 
   85.2500   -14.6620     2.2790    76.1250     6.5090     5.4530     4.8800    24.2610 
   85.3750   -13.9170     2.3500    89.4510     5.8100     4.8850     4.1580    24.2540 
   85.5000   -13.2190     2.3980   101.1500     5.3090     4.4340     3.8970    24.2550 
   85.6250   -12.6050     2.4110   105.8470     5.0370     4.1460     3.9050    24.2560 
   85.7500   -12.0620     2.4090   108.5390     4.8980     3.9710     3.8640    24.2570 
   85.8750   -11.6880     2.4050   111.9330     4.8230     3.8660     3.7380    24.2570 
   86.0000   -11.4490     2.4050   113.5970     4.7560     3.7880     3.6490    24.2610 
   86.1250   -11.3470     2.4070   112.0640     4.6800     3.7150     3.6520    24.2790 
   86.2500   -11.3570     2.4040   110.2760     4.6060     3.6480     3.7010    24.3080 
   86.3750   -11.4600     2.3960   109.1570     4.5410     3.5900     3.7020    24.3310 
   86.5000   -11.6500     2.3830   106.9300     4.4890     3.5450     3.6800    24.3490 
   86.6250   -11.9830     2.3730   104.3470     4.4960     3.5430     3.7590    24.3740 
   86.7500   -12.4230     2.3680   103.7690     4.6560     3.6390     3.9150    24.3910 
   86.8750   -12.9490     2.3700   103.2650     5.1260     3.9300     3.9920    24.3650 
   87.0000   -13.5610     2.3800   100.3330     6.1430     4.5570     4.2530    24.2620 
   87.1250   -14.2570     2.4050    92.6530     8.2490     5.8480     5.6360    24.1090 
   87.2500   -14.9950     2.4460    82.6140    11.7400     8.0290     9.2080    24.0240 
   87.3750   -15.7620     2.5000    73.6240    16.8860    11.4080    16.1150    24.0150 
   87.5000   -16.5460     2.5650    67.5020    23.4450    16.0620    23.6850    24.0280 
   87.6250   -17.2750     2.6310    62.9680    29.6470    21.0610    30.2090    24.0330 
   87.7500   -17.9890     2.6850    58.9090    32.4020    23.9390    37.0620    24.0360 
   87.8750   -18.6390     2.7040    56.4890    30.0620    23.0580    40.4280    24.0000 
   88.0000   -19.2070     2.6660    56.1650    24.1690    19.2380    32.3770    23.8890 
   88.1250   -19.7170     2.5640    56.9270    18.0920    14.8450    19.2030    23.7670 
   88.2500   -20.0890     2.4430    57.6560    13.6700    11.4030    11.0030    23.8070 
   88.3750   -20.3650     2.3350    58.5090    10.9720     9.1060     8.0880    23.9050 
   88.5000   -20.5070     2.2600    58.5900     9.5830     7.7580     7.2240    23.9610 
   88.6250   -20.4830     2.2220    58.6360     9.1380     7.1790     7.1740    23.9670 
