~V
VERS. 2.00: Ver 2.00
~W
STRT.M 50.0000:
STOP.M 199.0000:
STEP.M 0.1250:
NULL. -999.2500:
UWI. F10575:
~C
DEPT.M :
DEN.GM/CC :
SP.MV :
GR.API :
RML.OHMM :
RI. :
RXO.OHMM :
CALI.CM :
~A
# ...
  185.0000     2.1590   -16.8150    24.0440     4.6220     3.8690     3.8500    37.6650 
  185.1250     2.1760   -16.7140    23.5950     4.5130     3.8360     3.8430    36.9600 
  185.2500     2.2010   -16.6140    24.0860     4.4080     3.8510     3.7950    36.2640 
  185.3750     2.2360   -16.5270    25.2840     4.3790     3.9240     3.8640    35.5900 
  185.5000     2.2770   -16.4670    26.4860     4.4640     4.0570     4.1710    34.8510 
  185.6250     2.3120   -16.4320    28.2320     4.6550     4.2630     4.5790    33.9110 
  185.7500     2.3330   -16.4250    30.9410     4.8750     4.5160     4.8110    32.8630 
  185.8750     2.3300   -16.4400    33.7770     5.0620     4.7750     5.0390    31.5450 
  186.0000     2.2950   -16.4490    36.1850     5.1790     4.9710     5.1470    30.6050 
  186.1250     2.2300   -16.5220    38.1660     5.2230     5.0110     5.1140    31.6440 
  186.2500     2.1680   -16.6140    39.9750     5.2100     4.9080     4.9430    34.2550 
  186.3750     2.1360   -16.7280    41.3040     5.1280     4.7200     4.6540    36.7750 
  186.5000     2.1350   -16.8520    41.2260     4.9730     4.5280     4.3070    37.9910 
  186.6250     2.1530   -16.9390    39.7780     4.7960     4.4080     4.2300    38.2190 
  186.7500     2.1750   -17.0040    38.8480     4.6820     4.3720     4.3270    38.2190 
  186.8750     2.1960   -17.0650    38.7950     4.6540     4.4120     4.4450    38.2190 
  187.0000     2.2140   -17.1330    38.5420     4.6940     4.5050     4.4540    38.2190 
  187.1250     2.2350   -17.1950    38.1010     4.7660     4.6190     4.4980    38.1900 
  187.2500     2.2620   -17.2640    39.7150     4.8430     4.7150     4.6180    37.8770 
  187.3750     2.2960   -17.3140    42.5920     4.9320     4.7760     4.6690    36.7630 
  187.5000     2.3290   -17.3520    43.0750     5.0440     4.7940     4.6640    34.5660 
  187.6250     2.3500   -17.4240    39.6110     5.1540     4.7690     4.7410    31.6740 
  187.7500     2.3550   -17.5110    37.4800     5.1890     4.7270     4.8000    29.1210 
  187.8750     2.3490   -17.6020    37.3710     5.1130     4.6780     4.6880    27.3550 
  188.0000     2.3460   -17.6880    37.3710     4.9570     4.6200     4.4720    26.3560 
  188.1250     2.3600   -17.7870    37.3710     4.8110     4.5380     4.2460    25.9380 
  188.2500     2.3810   -17.8890    37.3710     4.7410     4.4240     4.1510    26.1620 
  188.3750     2.3990   -18.0100    37.3710     4.7470     4.2840     4.1010    27.1690 
  188.5000     2.4020   -18.1460    37.3710     4.7960     4.1380     4.1130    28.4650 
  188.6250     2.3930   -18.2780    37.3710     4.8370     4.0160     4.1320    28.6000 
  188.7500     2.3900   -18.4170    37.3710     4.8520     3.9440     4.1840    28.0570 
  188.8750     2.4040   -18.5290    37.3710     4.8780     3.9580     4.3530    27.8690 
  189.0000     2.4260   -18.6400    37.3710     5.0030     4.1180     4.6640    27.7020 
  189.1250     2.4320   -18.7450    37.3710     5.3880     4.5520     5.2950    26.9680 
  189.2500     2.4200   -18.8290    37.3710     6.0420     5.2800     6.9820    26.7920 
  189.3750     2.3970   -18.8540    37.3710     6.8590     6.2640    10.2160    26.5580 
  189.5000     2.3590   -18.8110    37.3710     7.5780     7.3140    13.2060    25.3100 
  189.6250     2.3050   -18.6710    37.3710     7.7450     7.9450    13.2570    24.2630 
  189.7500     2.2440   -18.4260    37.3710     7.2700     7.8480    10.6530    24.2210 
  189.8750     2.1920   -18.1410    37.3710     6.3820     7.0780     6.7300    25.6900 
  190.0000     2.1660   -17.8590    37.3710     5.4630     6.0100     4.6210    29.2610 
  190.1250     2.1720   -17.5260    37.3710     4.8160     5.0940     4.1030    33.9530 
  190.2500     2.1800   -17.2000    37.3710     4.4410     4.4970     4.0710    37.0710 
  190.3750     2.1680   -16.9460    37.3710     4.2780     4.2140     4.0710    38.1100 
  190.5000     2.1420   -16.7540    37.3710     4.2610     4.1570     4.0930    38.2190 
  190.6250     2.1320   -16.6790    37.3710     4.3290     4.2170     4.0620    38.2190 
  190.7500     2.1470   -16.7020    37.3710     4.4190     4.2840     3.9860    38.2190 
  190.8750     2.1770   -16.7890    37.3710     4.5130     4.3340     3.9400    38.1480 
  191.0000     2.2040   -16.9010    37.3710     4.5920     4.3820     3.8920    37.3520 
  191.1250     2.2120   -17.0620    37.3710     4.6410     4.4460     3.8830    35.1820 
  191.2500     2.2090   -17.2060    37.3710     4.6570     4.5090     3.9540    32.9680 
  191.3750     2.2120   -17.2710    37.3710     4.6290     4.5390     4.0230    33.1410 
  191.5000     2.2330   -17.2970    37.3710     4.5620     4.5100     4.0420    35.4480 
  191.6250     2.2700   -17.2910    37.3710     4.4790     4.4090     3.9920    37.3270 
  191.7500     2.3060   -17.2580    37.3710     4.4330     4.2700     3.9890    37.6100 
  191.8750     2.3320   -17.2060    37.3710     4.4250     4.1320     4.1160    36.3700 
  192.0000     2.3420   -17.1200    37.3710     4.4210     4.0240     4.4710    34.0350 
  192.1250     2.3300   -17.0120    37.3710     4.3780     3.9620     5.1410    31.1090 
  192.2500     2.2970   -16.9040    37.3710     4.2880     3.9330     5.8080    28.4540 
  192.3750     2.2520   -16.8410    37.3710     4.1820     3.9220     6.0150    27.1720 
  192.5000     2.2120   -16.8150    37.3710     4.0950     3.9190     5.4370    28.2790 
  192.6250     2.2110   -16.7750    37.3710     4.0590     3.9160     4.9920    31.7600 
  192.7500     2.2440   -16.7330    37.3710     4.0610     3.9120     5.0890    34.7400 
  192.8750     2.2830   -16.7170    37.3710     4.0630     3.9110     5.1910    34.9810 
  193.0000     2.2980   -16.7170    37.3710     4.0350     3.9220     5.0890    33.6230 
  193.1250     2.2940   -16.7280    37.3710     3.9620     3.9540     4.9580    32.4720 
  193.2500     2.3050   -16.7540    37.3710     3.8720     3.9950     4.8790    32.2420 
  193.3750     2.3470   -16.7800    37.3710     3.8120     4.0280     4.8820    31.9840 
  193.5000     2.4170   -16.8030    37.3710     3.8040     4.0400     5.1700    30.6640 
  193.6250     2.5000   -16.8530    37.3710     3.8520     4.0300     6.0880    27.6890 
  193.7500     2.5650   -16.9250    37.3710     3.8910     4.0200     7.4760    25.0910 
  193.8750     2.5880   -16.9830    37.3710     3.8910     4.0200     8.3950    23.8100 
  194.0000     2.5590   -16.9920    37.3710     3.8910     4.0200     7.7940    23.5620 
  194.1250     2.5020   -16.9920    37.3710     3.8910     4.0200     6.3960    23.8830 
  194.2500     2.4600  -999.2500    37.3710     3.8910     4.0200     5.6800    24.4840 
  194.3750     2.4440  -999.2500    37.3710     3.8910     4.0200     5.5420    25.1010 
  194.5000     2.4520  -999.2500    37.3710     3.8910     4.0200     5.8370    25.4350 
  194.6250     2.4770  -999.2500    37.3710     3.8910     4.0200     6.2800    25.1490 
  194.7500     2.4940  -999.2500    37.3710     3.8910     4.0200     6.8760    24.4590 
  194.8750     2.4830  -999.2500    37.3710     3.8910     4.0200     7.3380    23.8700 
  195.0000     2.4500  -999.2500    37.3710     3.8910     4.0200     7.6170    23.7140 
  195.1250     2.4230  -999.2500    37.3710     3.8910     4.0200     7.6340    23.8710 
  195.2500     2.4160  -999.2500    37.3710     3.8910     4.0200     7.2260    23.9890 
  195.3750     2.4230  -999.2500    37.3710     3.8910     4.0200     6.9260    23.9950 
  195.5000     2.4310  -999.2500    37.3710     3.8910     4.0200     7.0140    23.8860 
  195.6250     2.4260  -999.2500    37.3710     3.8910     4.0200     7.1640    23.6490 
  195.7500     2.4080  -999.2500    37.3710     3.8910     4.0200     7.3840    23.4570 
  195.8750     2.3770  -999.2500    37.3710     3.8910     4.0200     8.2180    23.2350 
  196.0000     2.3290  -999.2500    37.3710     3.8910     4.0200     9.6540    22.8900 
  196.1250     2.2680  -999.2500    37.3710     3.8910     4.0200    13.0830    22.5710 
