~V
VERS. 2.00: Ver 2.00
~W
STRT.M 47.0000:
STOP.M 254.0000:
STEP.M 0.1250:
NULL. -999.2500:
UWI. F10599:
~C
DEPT.M :
DEN.GM/CC :
SP.MV :
GR.API :
RML.OHMM :
RI. :
RXO.OHMM :
CALI.CM :
~A
# ...
  170.7500     2.4550    -3.5640    73.3910    16.8430    15.0010    19.3730    24.8650 
  170.8750     2.4690    -3.6590    73.1120    17.4150    15.3020    19.4130    24.8260 
  171.0000     2.4810    -3.7720    72.8000    17.8540    15.3620    19.1090    24.7730 
  171.1250     2.4860    -3.8850    69.6830    18.2100    15.1610    18.0680    24.7370 
  171.2500     2.4890    -3.9860    66.5520    18.4850    14.7940    16.8890    24.7250 
  171.3750     2.4930    -4.0500    68.5310    18.6060    14.4450    16.4630    24.7240 
  171.5000     2.4900    -4.0830    71.9680    18.5020    14.2030    15.9870    24.7130 
  171.6250     2.4730    -4.1030    71.3490    18.0060    13.9840    15.4350    24.6890 
  171.7500     2.4440    -4.1140    68.1060    16.9140    13.5730    15.1270    24.6670 
  171.8750     2.4120    -4.1000    67.6710    15.0650    12.6450    13.9020    24.6530 
  172.0000     2.3770    -4.0500    68.5230    12.2480    11.2490    11.8240    24.6340 
  172.1250     2.3310    -3.9860    68.1640     9.7750     9.6220     9.2380    24.5860 
  172.2500     2.2800    -3.9060    66.1100     8.3080     8.0690     7.2940    24.5150 
  172.3750     2.2540    -3.8450    61.9490     7.2580     6.8890     6.4760    24.3840 
  172.5000     2.2650    -3.7840    56.2400     6.6230     6.1280     6.1740    24.2730 
  172.6250     2.3040    -3.7230    50.8600     6.3540     5.7650     6.0690    24.1810 
  172.7500     2.3480    -3.6680    47.1230     6.3550     5.7000     6.0650    24.1390 
  172.8750     2.3750    -3.6410    45.1730     6.5100     5.8070     6.1850    24.1320 
  173.0000     2.3840    -3.6350    44.6270     6.6720     5.9430     6.3320    24.1410 
  173.1250     2.3830    -3.6510    45.3940     6.7820     6.0500     6.5080    24.1880 
  173.2500     2.3770    -3.6930    47.5010     6.8470     6.1010     6.6890    24.3160 
  173.3750     2.3650    -3.7170    51.0270     6.9000     6.1050     6.7550    24.4880 
  173.5000     2.3550    -3.7440    55.0870     6.9490     6.0990     6.8720    24.6560 
  173.6250     2.3570    -3.7670    57.8900     6.9670     6.0980     6.9780    24.7570 
  173.7500     2.3680    -3.7840    57.8030     6.9220     6.0960     7.0170    24.7910 
  173.8750     2.3670    -3.7890    55.8600     6.8070     6.0540     6.8510    24.7910 
  174.0000     2.3400    -3.8060    52.6820     6.6730     5.9410     6.6810    24.8050 
  174.1250     2.2950    -3.8090    49.2520     6.5660     5.7630     6.6140    24.8520 
  174.2500     2.2530    -3.7900    47.3000     6.5120     5.5730     6.6450    24.9460 
  174.3750     2.2410    -3.7660    47.1160     6.4910     5.4410     6.6470    24.9930 
  174.5000     2.2520    -3.7350    46.7590     6.4520     5.3840     6.5360    25.0070 
  174.6250     2.2690    -3.7000    46.9510     6.3780     5.3940     6.4450    25.0070 
  174.7500     2.2800    -3.6440    49.2440     6.2780     5.4380     6.4680    25.0070 
  174.8750     2.2910    -3.5860    51.9550     6.1800     5.4750     6.5280    25.0070 
  175.0000     2.3060    -3.5100    52.4740     6.1140     5.4790     6.5160    25.0070 
  175.1250     2.3190    -3.4330    53.0400     6.0910     5.4430     6.4610    25.0070 
  175.2500     2.3270    -3.3810    56.4800     6.0970     5.3770     6.4300    25.0070 
  175.3750     2.3320    -3.3690    61.2290     6.1100     5.3060     6.4690    25.0070 
  175.5000     2.3390    -3.3780    65.0600     6.1340     5.2760     6.4920    25.0070 
  175.6250     2.3500    -3.4100    68.6440     6.2050     5.3350     6.5800    25.0070 
  175.7500     2.3570    -3.4730    75.1320     6.3650     5.5230     6.8540    25.0080 
  175.8750     2.3490    -3.5520    83.2300     6.6610     5.8820     7.3200    25.0110 
  176.0000     2.3340    -3.6470    88.8900     7.0440     6.3420     8.1010    25.0150 
  176.1250     2.3300    -3.7600    91.6940     7.4270     6.8100     9.0030    25.0170 
  176.2500     2.3470    -3.8760    91.8970     7.7140     7.1650     9.5450    25.0200 
  176.3750     2.3760    -3.9920    90.5390     7.7990     7.2520     9.2330    25.0240 
  176.5000     2.3950    -4.1110    89.8080     7.6950     7.1070     8.6500    25.0260 
  176.6250     2.4010    -4.2250    91.0870     7.4530     6.8310     8.4030    25.0260 
  176.7500     2.4040    -4.3330    92.5760     7.1630     6.5520     8.4300    25.0260 
  176.8750     2.4090    -4.4430    92.2550     6.9230     6.3560     8.3310    25.0270 
  177.0000     2.4140    -4.5380    93.5960     6.7580     6.2050     8.2090    25.0280 
  177.1250     2.4150    -4.6330    96.4580     6.6420     6.0420     8.2370    25.0240 
  177.2500     2.4080    -4.7300    97.2490     6.5390     5.8430     8.2680    25.0120 
  177.3750     2.3930    -4.8370    94.3840     6.4440     5.6670     8.2400    24.9930 
  177.5000     2.3780    -4.9470    92.5710     6.4080     5.5840     8.1270    24.9640 
  177.6250     2.3600    -5.0610    93.1750     6.4800     5.6310     7.9190    24.9410 
  177.7500     2.3390    -5.1880    95.2510     6.6810     5.8230     7.9490    24.9320 
  177.8750     2.3160    -5.3040    96.5510     7.0120     6.1890     8.6230    24.9220 
  178.0000     2.3020    -5.4200    96.4090     7.4330     6.6780     9.9350    24.8990 
  178.1250     2.3040    -5.5270    94.9740     7.9190     7.2150    11.4340    24.8760 
  178.2500     2.3200    -5.6210    92.4480     8.4240     7.7080    12.6060    24.8660 
  178.3750     2.3350    -5.6790    90.7000     8.8990     8.0900    12.9470    24.8660 
  178.5000     2.3460    -5.7130    89.4940     9.3690     8.4310    13.0060    24.8660 
  178.6250     2.3580    -5.7240    88.6450     9.9060     8.8390    12.9340    24.8640 
  178.7500     2.3760    -5.7070    89.8820    10.5540     9.3760    13.6440    24.8610 
  178.8750     2.3930    -5.6760    92.2460    11.2020     9.9580    14.2510    24.8610 
  179.0000     2.4040    -5.6460    93.3220    11.5940    10.3600    15.3070    24.8640 
  179.1250     2.4110    -5.6060    91.2030    11.5410    10.4070    16.0540    24.8640 
  179.2500     2.4090    -5.5660    88.5340    11.0460    10.0820    14.5230    24.8620 
  179.3750     2.3930    -5.5440    90.7360    10.3480     9.5520    11.6300    24.8630 
  179.5000     2.3730    -5.5300    96.8320     9.7790     9.0930    10.9860    24.8610 
  179.6250     2.3610    -5.5340   101.4500     9.4840     8.8240    11.6380    24.8580 
  179.7500     2.3570    -5.5600    99.9580     9.4730     8.7460    12.5390    24.8580 
  179.8750     2.3590    -5.5850    95.8300     9.6550     8.7700    12.9470    24.8590 
  180.0000     2.3640    -5.6120    97.1550     9.8310     8.7700    12.7360    24.8610 
  180.1250     2.3680    -5.6260   101.3830     9.8610     8.7010    12.2720    24.8570 
  180.2500     2.3680    -5.6150   102.1630     9.7080     8.5870    11.7180    24.8410 
  180.3750     2.3650    -5.5680    97.9140     9.4660     8.4970    11.5310    24.8110 
  180.5000     2.3630    -5.4990    95.4560     9.3070     8.4950    11.3310    24.7960 
  180.6250     2.3650    -5.3990    95.5850     9.3480     8.6350    11.5730    24.7910 
  180.7500     2.3710    -5.2730    94.0600     9.6420     8.9660    12.2510    24.7910 
  180.8750     2.3760    -5.1410    88.3250    10.2500     9.5690    13.2720    24.7910 
  181.0000     2.3690    -4.9990    82.7600    11.1120    10.4070    14.5690    24.7910 
  181.1250     2.3490    -4.8710    80.0510    12.1690    11.4280    16.3980    24.7910 
  181.2500     2.3260    -4.7550    78.6550    13.3430    12.5460    18.6820    24.7910 
  181.3750     2.3240    -4.6720    76.6720    14.5680    13.6740    20.7540    24.7910 
  181.5000     2.3440    -4.6110    75.1300    15.8430    14.8020    22.4650    24.7910 
  181.6250     2.3750    -4.5780    75.0080    17.2540    16.0270    22.9870    24.7910 
  181.7500     2.4130    -4.5590    76.5950    18.9200    17.5040    23.3380    24.7910 
  181.8750     2.4650    -4.5460    76.7040    20.9430    19.3910    27.2680    24.7910 
