~V
VERS. 2.00: Ver 2.00
~W
STRT.M 52.0000:
STOP.M 208.0000:
STEP.M 0.1250:
NULL. -999.2500:
UWI. F10572:
~C
DEPT.M :
GR.API :
RML.OHMM :
RI. :
RXO.OHMM :
CALI.CM :
DEN.GM/CC :
SP.MV :
~A
# ...
   85.7500    53.0560    22.1170    18.5520     7.7100    26.3040     2.0110   -11.0870 
   85.8750    51.7660    21.9120    18.2670     7.2000    28.2040     1.9700   -10.8950 
   86.0000    50.4050    22.3370    18.4470     6.3940    29.2280     1.9850   -10.6630 
   86.1250    50.6820    23.5220    19.2520     6.5490    27.8880     2.0460   -10.4570 
   86.2500    51.2970    25.1340    20.4780     7.6120    26.2000     2.0980   -10.2910 
   86.3750    52.0440    26.8220    21.8740     8.6520    25.2270     2.1170   -10.1380 
   86.5000    52.9700    28.2170    23.1290     9.6410    24.9290     2.1090    -9.9730 
   86.6250    54.1530    28.9920    23.8990    12.1620    24.6610     2.0980    -9.7700 
   86.7500    54.1020    29.2740    24.2050    14.9820    24.5230     2.0940    -9.6070 
   86.8750    53.0680    29.2530    24.1790    17.5590    24.4800     2.0970    -9.4990 
   87.0000    53.6070    29.1200    23.9920    19.2590    24.4160     2.1020    -9.3750 
   87.1250    56.9940    29.0080    23.7870    20.0020    24.3110     2.1080    -9.2150 
   87.2500    59.5860    28.9920    23.6530    20.1550    24.2110     2.1130    -9.0700 
   87.3750    59.1090    29.1420    23.6500    20.1640    24.1900     2.1170    -8.9520 
   87.5000    56.9380    29.5360    23.8370    20.6850    24.2110     2.1210    -8.8320 
   87.6250    55.2440    30.2550    24.2930    20.8190    24.1440     2.1230    -8.7680 
   87.7500    54.7730    31.1500    24.9410    19.3590    23.8900     2.1250    -8.7040 
   87.8750    55.3700    32.0200    25.6590    16.6280    23.5260     2.1280    -8.6070 
   88.0000    56.7410    32.6410    26.2810    14.1900    23.1980     2.1340    -8.5510 
   88.1250    58.1100    32.7830    26.5940    13.7520    23.0080     2.1450    -8.5540 
   88.2500    58.1660    32.5170    26.5770    13.8220    22.8580     2.1560    -8.5600 
   88.3750    56.2130    31.9460    26.2660    13.6840    22.7470     2.1640    -8.5480 
   88.5000    53.1670    31.1610    25.7200    13.6390    22.6960     2.1690    -8.5450 
   88.6250    52.5680    30.1600    24.9460    13.8890    22.9180     2.1740    -8.5460 
   88.7500    54.8520    28.9750    23.9980    14.8700    23.3180     2.1800    -8.5690 
   88.8750    57.4170    27.6370    22.9080    15.8760    23.8930     2.1830    -8.6330 
   89.0000    57.7200    26.2260    21.7430    15.6320    24.3670     2.1770    -8.6970 
   89.1250    56.2170    24.9370    20.6550    14.0040    24.5420     2.1600    -8.7010 
   89.2500    56.2060    23.9780    19.8130    12.9650    24.6670     2.1460    -8.6460 
   89.3750    58.9370    23.5010    19.3430    12.4880    24.7660     2.1510    -8.6000 
   89.5000    61.5970    23.5680    19.2960    12.6700    24.7380     2.1760    -8.5820 
   89.6250    60.4160    24.1990    19.7000    13.4670    24.3810     2.2070    -8.4610 
   89.7500    57.9320    25.1340    20.3690    15.1170    23.6990     2.2200    -8.2310 
   89.8750    56.9160    26.1640    21.1580    17.9860    23.0170     2.2090    -7.9500 
   90.0000    55.9770    27.1200    21.9360    17.6840    22.7460     2.1890    -7.6660 
   90.1250    54.7960    27.9120    22.6050    16.8010    22.8920     2.1740    -7.3840 
   90.2500    55.1740    28.5970    23.1630    16.7400    23.1370     2.1620    -7.1080 
   90.3750    55.4460    29.2300    23.6230    18.0790    23.5550     2.1430    -6.8400 
   90.5000    52.8590    29.8220    23.9980    20.2060    24.2250     2.1140    -6.5800 
   90.6250    49.7460    30.2530    24.2370    20.6460    24.9610     2.0890    -6.3690 
   90.7500    48.8620    30.3970    24.2810    19.6910    25.3860     2.0820    -6.2260 
   90.8750    49.3090    30.1870    24.0860    19.4760    25.3710     2.0960    -6.1420 
   91.0000    50.5070    29.6620    23.6750    20.4280    25.1200     2.1220    -6.0790 
   91.1250    52.6590    28.9320    23.1220    20.9290    24.9180     2.1460    -6.0410 
   91.2500    53.0160    28.1820    22.5530    20.9590    24.7830     2.1610    -6.0460 
   91.3750    52.5570    27.5160    22.0400    20.8470    24.6820     2.1690    -6.0820 
   91.5000    53.4350    27.0050    21.6300    20.6940    24.6230     2.1730    -6.1520 
   91.6250    55.1040    26.7310    21.3710    20.4710    24.5900     2.1700    -6.2710 
   91.7500    55.3510    26.6730    21.2510    20.2550    24.5770     2.1620    -6.4030 
   91.8750    55.2090    26.7840    21.2410    20.0390    24.5740     2.1500    -6.5150 
   92.0000    56.0210    26.9340    21.2590    19.7810    24.5420     2.1390    -6.6530 
   92.1250    56.8620    26.8100    21.0950    19.8870    24.4880     2.1340    -6.8820 
   92.2500    57.8260    26.1520    20.5620    20.3700    24.4670     2.1400    -7.1350 
   92.3750    59.1850    24.8830    19.6000    20.6770    24.4460     2.1600    -7.3650 
   92.5000    60.7060    23.2290    18.3520    20.1770    24.4080     2.1880    -7.5990 
   92.6250    62.7530    21.7340    17.1760    18.1110    24.3260     2.2070    -7.8920 
   92.7500    64.5640    20.8670    16.4050    15.5480    24.2400     2.2040    -8.2490 
   92.8750    63.7360    20.8500    16.2200    14.5440    24.2280     2.1830    -8.6430 
   93.0000    59.4760    21.6570    16.6600    16.8680    24.3000     2.1580    -9.0210 
   93.1250    56.4020    23.0330    17.6470    19.5700    24.4420     2.1440    -9.4420 
   93.2500    56.4110    24.3510    18.7590    20.6700    24.5410     2.1450    -9.9640 
   93.3750    56.6740    25.1310    19.6210    20.5080    24.5540     2.1540   -10.5680 
   93.5000    55.6610    25.1240    19.9610    19.9280    24.4810     2.1650   -11.2300 
   93.6250    56.2510    24.3510    19.6800    19.1060    24.3450     2.1750   -12.0010 
   93.7500    58.9530    23.2530    19.0660    17.8330    24.2090     2.1820   -12.8450 
   93.8750    61.2270    22.0250    18.2710    16.2730    24.0880     2.1840   -13.7530 
   94.0000    61.8790    20.7170    17.3460    14.1340    23.8400     2.1800   -14.7700 
   94.1250    61.0090    19.3290    16.2880    12.0320    23.2340     2.1810   -15.8160 
   94.2500    61.2400    17.9250    15.1650    10.6210    22.6380     2.2020   -16.8120 
   94.3750    64.3340    16.5930    14.0530     9.4330    22.2050     2.2450   -17.7540 
   94.5000    68.4840    15.4190    13.0340     8.5180    21.9830     2.2950   -18.6160 
   94.6250    71.7550    14.4900    12.1890     8.2460    21.8110     2.3220   -19.3270 
   94.7500    73.3860    13.7590    11.5020     8.2830    21.5960     2.3210   -19.9160 
   94.8750    73.0340    13.1980    10.9650     8.3570    21.4280     2.3030   -20.3720 
   95.0000    71.4000    12.8050    10.5910     8.6350    21.3320     2.2750   -20.6540 
   95.1250    70.4600    12.7390    10.4870     8.9590    21.2870     2.2300   -20.7990 
   95.2500    69.1820    13.2440    10.7800     8.7290    21.4120     2.1710   -20.9140 
   95.3750    64.9000    14.7830    11.7470     8.4650    21.8150     2.1180   -21.0330 
   95.5000    60.4290    18.0160    13.8680     8.8920    22.4850     2.1090   -21.1610 
   95.6250    59.3400    24.3210    18.4190    11.2080    23.1710     2.2050   -21.3350 
   95.7500    57.0690    33.8150    25.8310    18.2400    23.5340     2.3940   -21.6030 
   95.8750    51.6850    44.8430    35.0600    38.1930    23.6240     2.5970   -21.9820 
   96.0000    46.5120    51.1810    41.5050    73.2620    23.5660     2.7080   -22.4240 
   96.1250    46.2710    43.9130    37.6770    91.3780    23.4490     2.6850   -22.8930 
   96.2500    49.5940    30.5770    27.7340    67.2960    23.2680     2.6050   -23.3700 
   96.3750    57.5540    19.4520    18.2150    30.8110    23.0070     2.4980   -23.8250 
   96.5000    69.4380    12.8770    12.0020    11.5510    22.8340     2.3770   -24.2370 
   96.6250    77.8400    10.3260     9.2570     6.4400    22.8150     2.2590   -24.5740 
   96.7500    78.7970     9.9050     8.3960     5.6490    22.8760     2.1740   -24.8290 
   96.8750    74.8740    10.8920     8.7710     6.5990    22.9980     2.1550   -25.0110 
