~V
VERS. 2.00: Ver 2.00
~W
STRT.M 46.0000:
STOP.M 208.0000:
STEP.M 0.1250:
NULL. -999.2500:
UWI. F10533:
~C
DEPT.M :
GR.API :
RML.OHMM :
RI. :
RXO.OHMM :
CALI.CM :
DEN.GM/CC :
SP.MV :
~A
# ...
  158.5000    62.1520    14.2310    12.0810    15.7110    23.3820     2.2090    -7.0980 
  158.6250    60.6500    16.5560    14.3170    23.3520    23.5910     2.1650    -7.2310 
  158.7500    59.3650    17.6620    15.7010    28.7430    23.8560     2.1360    -7.3910 
  158.8750    61.6530    16.7710    15.3410    23.8080    23.9690     2.1390    -7.5700 
  159.0000    67.8770    14.2430    13.3770    13.8110    23.9270     2.1740    -7.7640 
  159.1250    72.5900    11.3780    10.8790     8.3720    23.6990     2.2210    -7.9540 
  159.2500    74.3000     9.1910     8.8300     7.4420    23.4160     2.2570    -8.1390 
  159.3750    75.0790     7.8310     7.4390     6.2010    23.2120     2.2720    -8.3010 
  159.5000    75.7940     7.1350     6.6390     6.1980    23.1340     2.2730    -8.4410 
  159.6250    75.8190     6.9370     6.3310     6.4520    23.1370     2.2710    -8.5480 
  159.7500    76.7380     6.9500     6.2700     6.9050    23.1720     2.2670    -8.6060 
  159.8750    79.5060     7.0160     6.3090     7.2920    23.2410     2.2630    -8.6270 
  160.0000    81.5060     7.0180     6.3300     7.2170    23.3320     2.2640    -8.6060 
  160.1250    84.8000     6.8930     6.2610     6.7890    23.4720     2.2800    -8.5480 
  160.2500    90.3380     6.6830     6.1160     6.2900    23.6290     2.3110    -8.4590 
  160.3750    95.3720     6.4410     5.9340     5.8620    23.8310     2.3480    -8.3340 
  160.5000    95.8580     6.2260     5.7590     5.6740    23.9820     2.3760    -8.1660 
  160.6250    92.8400     6.0910     5.6380     5.7860    24.0330     2.3820    -7.9670 
  160.7500    90.3620     6.0350     5.5750     6.0200    24.0380     2.3740    -7.7610 
  160.8750    87.7350     6.0510     5.5670     6.1760    24.0380     2.3600    -7.5410 
  161.0000    84.7490     6.1270     5.6110     6.2430    24.0350     2.3520    -7.3300 
  161.1250    83.2270     6.2690     5.7200     6.2640    24.0280     2.3500    -7.1430 
  161.2500    84.1890     6.4770     5.8920     6.3240    24.0120     2.3440    -6.9760 
  161.3750    85.1900     6.7510     6.1300     6.5630    23.9890     2.3310    -6.8470 
  161.5000    83.2060     7.0750     6.4160     7.1270    23.9710     2.3110    -6.7690 
  161.6250    81.0740     7.3900     6.7070     7.8680    23.9680     2.2910    -6.7520 
  161.7500    82.0760     7.6080     6.9310     8.3230    23.9760     2.2760    -6.7750 
  161.8750    84.2520     7.6600     7.0230     8.1610    23.9780     2.2690    -6.8440 
  162.0000    84.1720     7.5300     6.9540     7.9320    23.9760     2.2720    -6.9270 
  162.1250    82.4460     7.2610     6.7310     7.8220    23.9680     2.2860    -7.0270 
  162.2500    84.6030     6.9980     6.4660     7.4630    23.9600     2.3030    -7.1290 
  162.3750    88.6500     6.8720     6.2730     6.8210    23.9540     2.3180    -7.2360 
  162.5000    90.4350     6.9880     6.2590     6.5170    23.9510     2.3190    -7.3300 
  162.6250    88.2370     7.4280     6.5310     6.8920    23.9500     2.3010    -7.3960 
  162.7500    84.7430     8.0790     7.0190     7.4370    23.9500     2.2700    -7.4370 
  162.8750    82.8220     8.7990     7.6180     8.1890    23.9500     2.2340    -7.4550 
  163.0000    81.9460     9.4250     8.1890    10.2890    23.9430     2.2040    -7.4650 
  163.1250    81.4960     9.8660     8.6330    11.1620    23.9230     2.2040    -7.4550 
  163.2500    81.4990    10.2930     9.0490    10.5180    23.8950     2.2440    -7.4310 
  163.3750    81.4210    10.9810     9.6290     9.6710    23.8830     2.3160    -7.3790 
  163.5000    79.4760    12.2300    10.6050    11.0610    23.8800     2.3870    -7.3060 
  163.6250    74.1910    14.3690    12.2860    18.2100    23.8790     2.4130    -7.2390 
  163.7500    70.2850    17.2090    14.6210    26.4700    23.8780     2.3940    -7.1840 
  163.8750    70.2920    20.4070    17.4170    27.6520    23.8800     2.3600    -7.1430 
  164.0000    71.2300    23.4200    20.2400    26.7640    23.8810     2.3520    -7.1170 
  164.1250    69.9750    25.5900    22.4490    26.3620    23.8810     2.4010    -7.1210 
  164.2500    68.2400    26.9180    23.8950    26.6100    23.8810     2.4780    -7.1590 
  164.3750    67.7150    27.6090    24.7080    28.3820    23.8810     2.5410    -7.2390 
  164.5000    67.3850    27.8880    25.0900    29.3150    23.8770     2.5630    -7.3610 
  164.6250    65.8070    27.8670    25.1550    27.2220    23.8630     2.5470    -7.5070 
  164.7500    63.4530    27.7560    25.1010    25.1110    23.8290     2.5290    -7.6630 
  164.8750    61.3170    27.7030    25.0680    24.2650    23.7690     2.5260    -7.8280 
  165.0000    60.6530    27.7670    25.1250    25.6600    23.6600     2.5390    -7.9960 
  165.1250    61.1850    27.9220    25.2710    27.9670    23.6440     2.5550    -8.1370 
  165.2500    62.1150    28.0880    25.4430    29.0600    23.7330     2.5590    -8.2610 
  165.3750    63.3260    28.2770    25.6370    27.4170    23.8380     2.5480    -8.3710 
  165.5000    64.7440    28.5610    25.9080    24.8500    23.8830     2.5260    -8.4530 
  165.6250    66.7990    28.8550    26.2170    25.0560    23.9030     2.4970    -8.4930 
  165.7500    69.2430    28.7960    26.2640    24.8420    23.9520     2.4670    -8.4960 
  165.8750    71.0920    28.0420    25.7350    24.9740    24.0140     2.4340    -8.4630 
  166.0000    70.0050    26.5380    24.5410    25.7610    24.0500     2.4020    -8.3920 
  166.1250    66.9870    24.6630    22.9490    24.9860    24.0600     2.3760    -8.3050 
  166.2500    66.3400    23.1890    21.5960    21.1700    24.0630     2.3580    -8.2000 
  166.3750    67.7800    22.6570    20.9490    17.8520    24.0660     2.3520    -8.0670 
  166.5000    69.6160    23.2810    21.2460    20.8320    24.0680     2.3610    -7.9100 
  166.6250    70.4660    25.0250    22.5610    26.7300    24.0680     2.3830    -7.7470 
  166.7500    70.2310    27.2330    24.4120    31.5140    24.0670     2.4070    -7.6080 
  166.8750    70.7360    29.3440    26.3390    31.3200    24.0670     2.4240    -7.4870 
  167.0000    72.9880    30.8690    27.8640    28.8840    24.0630     2.4290    -7.3970 
  167.1250    73.3900    31.5360    28.6280    27.4860    24.0580     2.4160    -7.3350 
  167.2500    71.0230    31.7470    28.9070    27.9100    24.0450     2.3900    -7.3090 
  167.3750    69.9500    31.8020    28.9670    29.9650    24.0430     2.3630    -7.3240 
  167.5000    72.6730    31.8130    28.9430    30.5320    24.0710     2.3450    -7.3910 
  167.6250    74.4270    31.7710    28.8510    29.3520    24.1460     2.3520    -7.5000 
  167.7500    73.6010    31.6880    28.7210    28.4130    24.2270     2.3860    -7.6260 
  167.8750    73.0260    31.6010    28.5820    27.8290    24.2620     2.4340    -7.7800 
  168.0000    72.1770    31.5710    28.4890    26.9780    24.2700     2.4720    -7.9410 
  168.1250    69.0070    31.6720    28.5250    27.3760    24.2700     2.4770    -8.1130 
  168.2500    65.6020    31.8580    28.6760    28.6760    24.2660     2.4570    -8.2730 
  168.3750    65.2440    32.0350    28.8790    29.6870    24.2650     2.4280    -8.4150 
  168.5000    67.5630    32.0950    29.0340    31.2730    24.2620     2.4090    -8.5140 
  168.6250    69.0430    31.8960    28.9820    29.3550    24.2360     2.4140    -8.5890 
  168.7500    69.6740    31.4060    28.6480    29.5000    24.1800     2.4330    -8.6120 
  168.8750    70.1930    30.6420    28.0160    30.5190    24.1280     2.4560    -8.5850 
  169.0000    69.2640    29.7040    27.1720    31.4260    24.1070     2.4720    -8.5200 
  169.1250    65.9930    28.7340    26.2590    28.6260    24.1070     2.4810    -8.4110 
  169.2500    65.4810    27.8550    25.4250    24.8250    24.1070     2.4890    -8.2790 
  169.3750    70.0880    27.1010    24.7240    21.9010    24.1070     2.4970    -8.1340 
  169.5000    75.3270    26.4100    24.1150    22.1410    24.1070     2.5060    -7.9960 
  169.6250    74.7410    25.6250    23.4530    23.6710    24.1070     2.5130    -7.8410 
