~V
VERS. 2.00: Ver 2.00
~W
STRT.M 50.0000:
STOP.M 222.0000:
STEP.M 0.1250:
NULL. -999.2500:
UWI. F10580:
~C
DEPT.M :
DEN.GM/CC :
SP.MV :
GR.API :
RML.OHMM :
RI. :
RXO.OHMM :
CALI.CM :
~A
# ...
  162.5000     2.2580   -15.5520    73.1170    18.3340    16.3680    17.1180    24.5820 
  162.6250     2.2610   -15.5170    72.6460    19.1940    17.1790    16.1870    24.5820 
  162.7500     2.2660   -15.5060    72.8900    20.4030    18.1990    16.8560    24.5820 
  162.8750     2.2710   -15.5140    72.3390    22.1930    19.6580    19.6230    24.5820 
  163.0000     2.2720   -15.5150    70.6220    24.5920    21.6590    23.4130    24.5820 
  163.1250     2.2540   -15.5300    69.0640    27.4000    24.1230    26.3180    24.5810 
  163.2500     2.2190   -15.5460    69.4390    30.1010    26.5940    26.7720    24.5790 
  163.3750     2.1820   -15.5610    69.7400    32.2740    28.6430    28.1010    24.5630 
  163.5000     2.1630   -15.5820    68.7460    33.5810    29.9120    30.3650    24.5120 
  163.6250     2.1680   -15.6110    66.4860    33.5980    30.0210    30.8990    24.4050 
  163.7500     2.1850   -15.6280    64.1700    32.5070    29.1540    30.1050    24.3320 
  163.8750     2.2000   -15.6360    62.7800    30.6210    27.5830    28.2820    24.2950 
  164.0000     2.2090   -15.6490    63.6610    28.4990    25.7690    24.7860    24.2840 
  164.1250     2.2130   -15.6520    67.6290    26.8480    24.2950    20.4760    24.2830 
  164.2500     2.2150   -15.6650    70.1540    25.9870    23.4620    17.9330    24.2830 
  164.3750     2.2130   -15.6630    69.8800    26.0330    23.4130    20.0270    24.2870 
  164.5000     2.2120   -15.6620    68.8100    27.0240    24.2130    25.0010    24.2980 
  164.6250     2.2340   -15.6590    68.1660    29.1990    26.0720    28.7440    24.3120 
  164.7500     2.2960   -15.6460    67.4960    32.4490    28.8710    29.2840    24.2970 
  164.8750     2.4010   -15.6340    65.8620    36.6520    32.5250    30.2100    24.2750 
  165.0000     2.5210   -15.6070    62.0330    41.3070    36.6600    37.1100    24.2750 
  165.1250     2.5850   -15.5790    56.3090    45.0780    40.2240    50.8350    24.2800 
  165.2500     2.5670   -15.5460    53.3620    46.6630    42.0260    55.1730    24.2830 
  165.3750     2.4930   -15.5400    53.9920    45.4960    41.4160    45.5990    24.2820 
  165.5000     2.3940   -15.5270    55.9480    42.1960    38.7560    34.3710    24.2730 
  165.6250     2.3070   -15.5330    60.0710    38.3420    35.3240    29.6990    24.2480 
  165.7500     2.2590   -15.5610    65.8230    35.4160    32.5460    28.5550    24.2190 
  165.8750     2.2540   -15.5930    69.6200    33.8880    30.9490    28.5050    24.2070 
  166.0000     2.2680   -15.6430    69.0050    33.7070    30.5770    28.2410    24.2050 
  166.1250     2.2670   -15.7010    66.8420    34.7440    31.3760    28.5760    24.2050 
  166.2500     2.2460   -15.7680    66.4140    36.4830    32.8840    29.9940    24.2050 
  166.3750     2.2200   -15.8220    66.9850    38.5770    34.7920    32.7970    24.2050 
  166.5000     2.2050   -15.8750    68.4920    40.5980    36.7190    36.3880    24.2050 
  166.6250     2.2020   -15.9190    70.9000    41.8490    38.0640    40.5170    24.2050 
  166.7500     2.1980   -15.9510    72.3830    41.8710    38.3820    41.3080    24.2050 
  166.8750     2.1870   -15.9700    73.6310    40.4060    37.3880    38.0050    24.2050 
  167.0000     2.1760   -15.9850    75.3640    37.6310    35.1710    33.2480    24.2050 
  167.1250     2.1740   -15.9590    76.2150    34.1220    32.1790    29.7910    24.2050 
  167.2500     2.1840   -15.9210    76.1880    30.7910    29.2390    26.4650    24.2050 
  167.3750     2.2020   -15.8690    76.2580    28.1520    26.8280    23.3230    24.2050 
  167.5000     2.2220   -15.8080    76.1440    26.4240    25.1800    21.5010    24.2050 
  167.6250     2.2410   -15.7290    74.2030    25.6170    24.3720    21.3250    24.2050 
  167.7500     2.2580   -15.6400    71.6280    25.2220    24.0040    21.7800    24.2050 
  167.8750     2.2710   -15.5520    69.4270    24.8550    23.7470    22.1250    24.2050 
  168.0000     2.2740   -15.4600    67.3170    24.2620    23.3450    21.7450    24.2050 
  168.1250     2.2680   -15.3750    68.2150    23.4010    22.6990    20.2660    24.2050 
  168.2500     2.2670   -15.2800    71.3430    22.5490    22.0060    18.2140    24.2050 
  168.3750     2.2780   -15.1900    73.6320    21.9660    21.4890    16.8540    24.2050 
  168.5000     2.2920   -15.1000    72.4650    21.8030    21.3100    16.6280    24.2050 
  168.6250     2.2870   -15.0270    68.8290    22.0200    21.4980    17.6360    24.2050 
  168.7500     2.2560   -14.9690    66.5290    22.2540    21.7620    19.1180    24.2050 
  168.8750     2.2120   -14.9250    66.3460    22.2100    21.8210    21.5300    24.2050 
  169.0000     2.1770   -14.8800    67.0190    21.7480    21.4980    24.2860    24.2050 
  169.1250     2.1590   -14.8830    69.3940    20.9510    20.8080    21.6060    24.2050 
  169.2500     2.1500   -14.9050    73.9670    20.1770    20.0750    18.7490    24.2050 
  169.3750     2.1460   -14.9440    77.2680    19.6790    19.5520    17.4500    24.2050 
  169.5000     2.1490   -15.0020    75.4120    19.5770    19.3880    17.8700    24.2050 
  169.6250     2.1570   -15.0660    71.8110    19.9020    19.6570    19.3760    24.2050 
  169.7500     2.1650   -15.1430    72.5190    20.4840    20.2140    20.2020    24.2050 
  169.8750     2.1690   -15.2140    75.5020    21.2230    20.9570    20.5100    24.2050 
  170.0000     2.1730   -15.3010    76.4670    22.0290    21.7870    20.8360    24.2050 
  170.1250     2.1800   -15.3520    74.1730    22.8060    22.5930    21.3530    24.2050 
  170.2500     2.1870   -15.3930    71.2030    23.4480    23.2740    21.7490    24.2050 
  170.3750     2.1970   -15.4300    68.5440    23.8400    23.7240    22.8490    24.2050 
  170.5000     2.2130   -15.4480    66.4700    23.8860    23.8460    23.8040    24.2050 
  170.6250     2.2350   -15.4590    65.5730    23.5460    23.5650    22.9690    24.2050 
  170.7500     2.2490   -15.4510    67.9410    23.0540    23.0880    21.7280    24.2050 
  170.8750     2.2460   -15.4570    72.4990    22.6450    22.6330    20.9260    24.2050 
  171.0000     2.2250   -15.4540    75.3930    22.5180    22.4030    20.4390    24.2050 
  171.1250     2.1950   -15.4420    74.8510    22.8360    22.5810    21.2110    24.2050 
  171.2500     2.1720   -15.4360    73.8150    23.5000    23.1050    21.9750    24.2050 
  171.3750     2.1620   -15.4340    74.0240    24.3930    23.8750    22.3150    24.2050 
  171.5000     2.1620   -15.4480    74.2190    25.3730    24.7450    21.7830    24.1910 
  171.6250     2.1690   -15.4650    74.1370    26.3330    25.5860    20.1040    24.1230 
  171.7500     2.1770   -15.4850    74.2630    27.2670    26.3790    19.0770    24.0130 
  171.8750     2.1820   -15.4860    73.8960    28.1990    27.1610    21.2010    24.0070 
  172.0000     2.1770   -15.4850    72.6130    29.1420    27.9670    23.9770    24.1920 
  172.1250     2.1620   -15.5070    70.5040    30.0930    28.8210    24.7290    24.5390 
  172.2500     2.1460   -15.5330    68.3570    31.0700    29.7340    25.6740    24.6910 
  172.3750     2.1380   -15.5590    67.4580    32.1450    30.7540    27.4660    24.7270 
  172.5000     2.1390   -15.5880    68.5700    33.4700    31.9970    29.1090    24.7270 
  172.6250     2.1460   -15.6110    70.3910    35.2820    33.6930    31.4040    24.7270 
  172.7500     2.1580   -15.6370    69.8420    37.4510    35.7810    34.7720    24.7250 
  172.8750     2.1780   -15.6680    66.4730    39.6230    38.0000    37.7710    24.6910 
  173.0000     2.2090   -15.6920    62.8830    41.2300    39.8560    41.3070    24.5740 
  173.1250     2.2360   -15.7200    61.7210    41.4150    40.5200    44.0580    24.3450 
  173.2500     2.2430   -15.7350    61.6410    40.0900    39.7480    41.3080    24.1880 
  173.3750     2.2330   -15.7460    60.4160    37.5380    37.6740    33.6520    24.1330 
  173.5000     2.2220   -15.7530    58.6410    34.3660    34.8130    28.0950    24.1280 
  173.6250     2.2230   -15.7610    61.2270    31.2280    31.7820    25.5980    24.1280 
