~V
VERS. 2.00: Ver 2.00
~W
STRT.M 55.0000:
STOP.M 318.0000:
STEP.M 0.1250:
NULL. -999.2500:
UWI. F10558:
~C
DEPT.M :
DEN.GM/CC :
GR.API :
RML.OHMM :
RI. :
RXO.OHMM :
CALI.CM :
SP.MV :
~A
# ...
  268.7500     2.2270    86.4480    38.3930    33.0510    36.4340    24.2170   -12.8360 
  268.8750     2.2270    86.1200    39.7310    33.9460    36.7370    24.2160   -12.9220 
  269.0000     2.2340    86.6700    42.0620    35.3880    38.0730    24.2160   -13.0120 
  269.1250     2.2360    85.9570    45.9980    37.8000    41.1080    24.2180   -13.0990 
  269.2500     2.2320    81.7960    51.3660    41.2790    44.2300    24.2140   -13.1720 
  269.3750     2.2330    76.6260    58.0630    45.9880    51.1730    24.1950   -13.2490 
  269.5000     2.2390    73.8430    65.7180    51.8000    64.3860    24.1500   -13.3080 
  269.6250     2.2340    74.8430    73.1240    57.8710    74.5090    24.0960   -13.3470 
  269.7500     2.2150    77.5410    78.7370    62.8580    65.9470    24.0730   -13.3520 
  269.8750     2.1970    80.2780    81.8180    66.0760    60.6030    24.0690   -13.3440 
  270.0000     2.1910    81.3870    82.6130    67.6680    64.4190    24.0690   -13.2990 
  270.1250     2.1900    79.1630    81.5340    68.0540    75.6630    24.0690   -13.2310 
  270.2500     2.1880    75.1950    79.0270    67.5150    80.4850    24.0650   -13.1290 
  270.3750     2.1920    72.7580    74.7300    65.5340    77.2010    24.0450   -13.0000 
  270.5000     2.2060    73.1350    68.3740    61.5480    77.6340    23.9910   -12.8500 
  270.6250     2.2310    76.0660    60.2580    55.3640    79.5970    23.9270   -12.6770 
  270.7500     2.2580    79.9890    51.6920    48.2280    73.7030    23.8790   -12.4880 
  270.8750     2.2820    82.6490    43.4300    41.1070    55.8730    23.8550   -12.3000 
  271.0000     2.2960    83.6620    36.0790    34.7840    40.7620    23.8490   -12.1270 
  271.1250     2.3020    83.4490    30.4770    29.9900    32.9060    23.8490   -11.9570 
  271.2500     2.3120    83.6430    26.5080    26.5180    31.2880    23.8490   -11.8230 
  271.3750     2.3290    86.1560    23.7530    23.9980    30.6680    23.8490   -11.7130 
  271.5000     2.3420    92.5890    21.5320    21.8850    27.3320    23.8490   -11.6230 
  271.6250     2.3480    99.7680    19.2340    19.6900    20.2110    23.8490   -11.5630 
  271.7500     2.3560   101.1170    16.7690    17.3360    18.2870    23.8500   -11.5460 
  271.8750     2.3700    98.2670    14.3580    14.9760    18.4380    23.8760   -11.5560 
  272.0000     2.3780    98.3330    12.2270    12.7630    16.6570    23.9490   -11.5840 
  272.1250     2.3680   103.5610    10.5900    10.8940    11.4310    24.0760   -11.6390 
  272.2500     2.3510   107.9840     9.5060     9.5240     8.5100    24.1320   -11.7070 
  272.3750     2.3410   108.6870     9.1430     8.8520     8.0640    24.1450   -11.7840 
  272.5000     2.3430   106.7140     9.6230     9.0250     9.4230    24.1450   -11.8620 
  272.6250     2.3540   104.6950    10.9510    10.1630    11.8180    24.1450   -11.9400 
  272.7500     2.3630   102.9820    12.5510    11.8160    12.8670    24.1430   -11.9910 
  272.8750     2.3600   101.2790    13.8350    13.4150    12.4140    24.1400   -12.0150 
  273.0000     2.3480   100.7150    14.3060    14.3480    13.4970    24.1370   -12.0110 
  273.1250     2.3380   103.2200    13.7300    14.2040    14.9080    24.1330   -11.9810 
  273.2500     2.3290   107.1030    12.5440    13.3520    13.4570    24.1180   -11.9210 
  273.3750     2.3090   109.8510    11.0850    12.1210     9.9340    24.0820   -11.8470 
  273.5000     2.2810   111.6630     9.6900    10.8390     8.0260    24.0460   -11.7820 
  273.6250     2.2660   110.6120     8.7330     9.8520     8.3220    24.0080   -11.7330 
  273.7500     2.2600   107.3810     8.2700     9.2650     9.0900    23.9930   -11.7140 
  273.8750     2.2530   107.0450     8.2060     9.0500     8.3840    23.9900   -11.7180 
  274.0000     2.2460   110.7430     8.3730     9.0990     7.2900    23.9900   -11.7610 
  274.1250     2.2570   112.9150     8.7820     9.4190     6.8920    23.9900   -11.8460 
  274.2500     2.2900   109.4250     9.6260    10.1480     7.7520    23.9890   -11.9760 
  274.3750     2.3360   104.3600    11.0960    11.5150    10.1800    24.0040   -12.1250 
  274.5000     2.3750   101.5810    13.0730    13.5450    14.2930    24.0620   -12.2890 
  274.6250     2.3810    98.7420    14.8340    15.6750    15.8760    24.1690   -12.4490 
  274.7500     2.3670    98.0440    15.5360    16.8220    14.6130    24.2540   -12.6050 
  274.8750     2.3560   103.5810    15.0310    16.5270    12.7510    24.2850   -12.7710 
  275.0000     2.3600   113.1820    13.9440    15.3320    12.6420    24.2870   -12.9270 
  275.1250     2.3740   116.8960    13.2700    14.2990    13.1660    24.2610   -13.0590 
  275.2500     2.3830   112.5520    13.4260    13.9780    13.3050    24.2060   -13.1670 
  275.3750     2.3830   106.1270    14.4700    14.4590    12.7130    24.1560   -13.2600 
  275.5000     2.3910   101.2970    16.5060    15.8070    12.5710    24.1360   -13.3270 
  275.6250     2.4200    95.3480    20.0670    18.5330    14.4380    24.1360   -13.3730 
  275.7500     2.4320    88.5410    25.1880    22.8540    19.0980    24.1360   -13.3960 
  275.8750     2.4090    83.4610    31.6170    28.7840    26.0020    24.1360   -13.3990 
  276.0000     2.3910    81.4760    38.3470    35.5620    33.7580    24.1360   -13.3850 
  276.1250     2.4180    78.8740    43.2960    41.1380    41.5800    24.1360   -13.3640 
  276.2500     2.4580    72.8540    45.5100    44.0900    48.4960    24.1360   -13.3250 
  276.3750     2.4810    67.6870    45.5060    44.5980    50.0510    24.1360   -13.2770 
  276.5000     2.4920    67.5390    44.6310    43.8750    51.1450    24.1360   -13.2350 
  276.6250     2.5140    73.2130    43.9080    43.0030    54.9590    24.1360   -13.1900 
  276.7500     2.5400    78.0540    43.4470    42.2980    55.3420    24.1360   -13.1490 
  276.8750     2.5590    78.5270    43.0770    41.6960    49.3830    24.1360   -13.0970 
  277.0000     2.5710    77.0390    42.7410    41.1610    47.6520    24.1360   -13.0490 
  277.1250     2.5780    77.1730    42.5430    40.7190    52.1810    24.1360   -13.0070 
  277.2500     2.5720    78.6930    42.5940    40.4710    59.6800    24.1360   -12.9870 
  277.3750     2.5480    79.2540    42.9980    40.5970    64.5720    24.1360   -12.9850 
  277.5000     2.5150    78.6040    43.6950    41.1370    60.4950    24.1360   -12.9850 
  277.6250     2.4870    78.4770    44.4730    41.8940    53.3350    24.1360   -12.9920 
  277.7500     2.4760    79.4760    45.2000    42.5900    45.5850    24.1360   -13.0020 
  277.8750     2.4780    81.3660    45.9460    43.2360    44.5310    24.1360   -13.0210 
  278.0000     2.4820    82.6560    46.8350    43.9960    50.3510    24.1360   -13.0310 
  278.1250     2.4880    82.5740    47.8630    44.9770    55.8070    24.1360   -13.0200 
  278.2500     2.5010    85.7500    48.6280    45.8440    58.3980    24.1360   -12.9900 
  278.3750     2.5150    92.3480    48.5010    45.9680    62.4250    24.1490   -12.9190 
  278.5000     2.5170    97.4160    46.9010    44.7660    66.2250    24.1850   -12.8210 
  278.6250     2.4930    95.5760    43.7350    42.1210    62.3600    24.2520   -12.6930 
  278.7500     2.4540    90.6870    40.1620    39.0700    58.3470    24.2790   -12.5380 
  278.8750     2.4150    85.8330    37.0700    36.3700    52.0330    24.2690   -12.3520 
  279.0000     2.3940    81.0820    34.9070    34.3830    45.3800    24.2240   -12.1400 
  279.1250     2.4080    74.9150    33.6470    33.1050    43.9860    24.1600   -11.9080 
  279.2500     2.4530    65.9460    32.4970    31.9470    51.5580    24.1190   -11.6540 
  279.3750     2.5190    54.0080    30.6340    30.2260    54.3640    24.0880   -11.4040 
  279.5000     2.5800    41.4510    27.3680    27.2390    39.5290    24.0730   -11.1610 
  279.6250     2.5970    31.8760    22.4700    22.6090    27.3680    24.0630   -10.9280 
  279.7500     2.5570    25.7840    17.0670    17.4180    23.6910    24.0240   -10.7230 
  279.8750     2.4670    24.2250    12.1420    12.6610    15.5360    23.9290   -10.5540 
