~V
VERS. 2.00: Ver 2.00
~W
STRT.M 52.0000:
STOP.M 220.0000:
STEP.M 0.1250:
NULL. -999.2500:
UWI. F10539:
~C
DEPT.M :
SP.MV :
DEN.GM/CC :
GR.API :
RML.OHMM :
RI. :
RXO.OHMM :
CALI.CM :
~A
   52.0000    27.3580     2.0250  -999.2500  -999.2500  -999.2500  -999.2500  -999.2500 
   52.1250    27.2560     2.0250  -999.2500  -999.2500  -999.2500  -999.2500  -999.2500 
   52.2500    27.1820     2.0260  -999.2500  -999.2500  -999.2500  -999.2500  -999.2500 
   52.3750    27.1210     2.0300  -999.2500  -999.2500  -999.2500  -999.2500  -999.2500 
   52.5000    27.0360     2.0340  -999.2500  -999.2500  -999.2500  -999.2500  -999.2500 
   52.6250    26.9130     2.0340    47.0190     7.4260     0.3590     0.0000    25.3050 
   52.7500    26.7950     2.0300    47.0190     7.4260     0.3590     0.0000    25.3050 
   52.8750    26.7240     2.0220    46.0350     7.2840     0.3500     0.0010    25.2890 
   53.0000    26.6950     2.0140    44.9200     7.1570     0.3330     0.0010    25.3020 
   53.1250    26.7060     2.0140    45.9950     7.1630     0.3190     0.0000    25.3010 
   53.2500    26.7840     2.0210    47.2040     7.1890     0.3130     0.0000    25.2960 
   53.3750    26.9220     2.0300    46.4410     7.1670     0.3140     0.0000    25.2940 
   53.5000    27.1230     2.0350    43.6730     7.0720     0.3200     0.0000    25.3010 
   53.6250    27.4230     2.0280    40.4520     6.9150     0.3270     0.0070    25.3010 
   53.7500    27.8260     2.0170    37.3300     6.7430     0.3350     0.0260    25.3000 
   53.8750    28.3300     2.0110    35.0180     6.5920     0.3430     0.0480    25.2970 
   54.0000    28.9430     2.0160    33.6810     6.4970     0.3500     0.0450    25.2980 
   54.1250    29.6410     2.0340    32.9790     6.4740     0.3540     0.0370    25.2980 
   54.2500    30.3780     2.0520    32.1590     6.4510     0.3520     0.0340    25.2950 
   54.3750    31.2070     2.0600    31.7080     6.3210     0.3440     0.0460    25.2960 
   54.5000    32.0820     2.0550    32.4220     5.9880     0.3290     0.0640    25.3020 
   54.6250    32.9760     2.0430    33.6880     5.4280     0.3050     0.0670    25.3090 
   54.7500    33.8150     2.0340    35.5950     4.8210     0.2770     0.0720    25.3110 
   54.8750    34.5630     2.0300    38.9890     4.3280     0.2530     0.1350    25.3090 
   55.0000    35.1650     2.0280    41.0110     4.0350     0.2380     0.3390    25.3100 
   55.1250    35.5400     2.0250    39.7190     3.9310     0.2380     0.7020    25.2670 
   55.2500    35.6110     2.0210    38.6510     3.8790     0.2460     0.7100    25.0520 
   55.3750    35.2830     2.0250    39.6220     3.7950     0.2570     0.6210    24.5710 
   55.5000    34.5070     2.0440    41.3210     3.6430     0.2660     0.6310    24.1050 
   55.6250    33.1550     2.0860    42.2760     3.4420     0.2710     0.6790    23.7950 
   55.7500    31.2820     2.1400    43.0040     3.2350     0.2710     0.7520    23.4820 
   55.8750    28.8720     2.1860    43.2090     3.0170     0.2620     0.8020    23.0950 
   56.0000    25.9510     2.2040    42.1730     2.7340     0.2390     0.8240    22.7560 
   56.1250    22.4890     2.1820    42.0140     2.2890     0.2000     0.8720    22.5450 
   56.2500    18.6540     2.1500    43.2210     1.7190     0.1540     0.9650    22.3710 
   56.3750    14.5360     2.1490    44.4570     1.1410     0.1120     1.0850    22.2600 
   56.5000    10.2660     2.2320    45.0900     0.6930     0.0800     1.2420    22.2470 
   56.6250     5.9900     2.3980    45.3580     0.4640     0.0630     1.5580    22.2690 
   56.7500     1.8950     2.5180    45.9080     0.3800     0.0550     2.2350    22.3010 
   56.8750    -1.8660     2.5290    46.6630     0.4060     0.0620     3.5840    22.5110 
   57.0000    -5.1630     2.4490    48.2510     0.5520     0.1030     4.7700    23.0930 
   57.1250    -7.7980     2.3230    49.5750     0.9460     0.2510     5.1650    24.1000 
   57.2500    -9.8470     2.1980    48.4790     1.7270     0.5940     5.2550    24.8910 
   57.3750   -11.2960     2.1080    46.0380     3.0560     1.2750     5.6590    25.4500 
   57.5000   -12.1990     2.0760    44.4600     4.9810     2.4710     6.0920    25.8300 
   57.6250   -12.5790     2.1290    45.4630     7.3390     4.3480     5.9770    25.5570 
   57.7500   -12.6750     2.2400    48.4310     9.5900     6.5330     5.9040    24.7220 
   57.8750   -12.6100     2.3600    51.4640    11.2980     8.5130     6.2360    23.8620 
   58.0000   -12.5160     2.4250    54.0920    12.2390     9.8270     6.4430    23.1640 
   58.1250   -12.5060     2.3970    57.3370    12.3360    10.1680     6.5080    22.7690 
   58.2500   -12.5820     2.3290    60.6380    11.9510     9.8610     6.5980    22.6500 
   58.3750   -12.7310     2.2660    63.0750    11.3830     9.2400     6.9260    22.6460 
   58.5000   -12.9840     2.2350    64.2580    10.9020     8.6220     7.1240    22.6540 
   58.6250   -13.3960     2.2390    65.1660    10.6870     8.2310     6.9560    22.6670 
   58.7500   -13.8630     2.2510    65.8210    10.6690     8.0600     6.6600    22.6870 
   58.8750   -14.3800     2.2540    65.3680    10.7330     8.0380     6.3510    22.6950 
   59.0000   -14.8750     2.2450    63.4350    10.7630     8.0730     6.0760    22.6480 
   59.1250   -15.2990     2.2260    61.0430    10.6980     8.0900     5.8560    22.5670 
   59.2500   -15.6290     2.2090    61.6590    10.6060     8.0710     6.1300    22.5590 
   59.3750   -15.9030     2.1980    64.4700    10.5550     8.0290     6.4100    22.7190 
   59.5000   -16.0950     2.1960    65.4940    10.5670     7.9810     6.5560    22.9620 
   59.6250   -16.1530     2.2030    64.0960    10.5890     7.9340     6.6110    22.7660 
   59.7500   -16.1500     2.2090    63.9040    10.5390     7.8830     6.5530    22.3650 
   59.8750   -16.0960     2.2060    63.7150    10.4130     7.8340     6.5630    22.1540 
   60.0000   -16.0390     2.1910    61.9540    10.3160     7.8200     6.7150    22.1180 
   60.1250   -16.0190     2.1820    61.0050    10.4270     7.9060     6.8300    22.1610 
   60.2500   -16.0290     2.2000    62.5660    10.7650     8.0980     7.3050    22.2600 
   60.3750   -16.0990     2.2460    64.6740    11.2370     8.3630     8.9400    22.4170 
   60.5000   -16.1790     2.3010    64.8200    11.6460     8.6220    11.9320    22.5620 
   60.6250   -16.2930     2.3320    62.4820    11.7210     8.7430    15.0690    22.7020 
   60.7500   -16.3850     2.3240    60.3880    11.4520     8.6820    12.0740    22.8330 
   60.8750   -16.4550     2.2880    59.0840    10.9740     8.4650     8.7190    22.8940 
   61.0000   -16.4950     2.2480    59.1100    10.4800     8.1750     7.4640    22.9140 
   61.1250   -16.5050     2.2210    59.5150    10.1190     7.9160     7.3830    23.0240 
   61.2500   -16.5460     2.2070    58.8550     9.8920     7.7440     7.1910    23.2860 
   61.3750   -16.5690     2.2000    56.1710     9.7670     7.6650     7.0610    23.4130 
   61.5000   -16.6280     2.2010    51.8570     9.7150     7.6550     6.9030    23.4490 
   61.6250   -16.6810     2.2070    50.1130     9.7260     7.6810     6.6270    23.5330 
   61.7500   -16.7830     2.2150    52.5400     9.7800     7.7140     6.5900    23.5790 
   61.8750   -16.9220     2.2170    55.7500     9.8440     7.7450     6.9660    23.4030 
   62.0000   -17.0850     2.2120    56.4290     9.8770     7.7620     7.1570    23.0300 
   62.1250   -17.2370     2.2000    55.2410     9.8490     7.7450     6.9940    22.7430 
   62.2500   -17.3530     2.1900    54.8620     9.7830     7.6940     6.8630    22.7360 
   62.3750   -17.4460     2.1850    55.9960     9.6950     7.6140     6.9050    22.9490 
   62.5000   -17.4800     2.1850    57.0590     9.5960     7.5290     6.9320    23.1500 
   62.6250   -17.4730     2.1930    57.2860     9.5270     7.4750     6.8510    23.1470 
   62.7500   -17.4100     2.2050    57.1310     9.5160     7.4630     6.7800    22.9810 
   62.8750   -17.2780     2.2180    55.7000     9.5610     7.4830     6.7970    22.7810 
   63.0000   -17.1010     2.2280    52.9760     9.6330     7.5070     6.8040    22.6440 
   63.1250   -16.8890     2.2280    50.5570     9.6860     7.5060     6.8370    22.5980 
