~V
VERS. 2.00: Ver 2.00
~W
STRT.M 47.0000:
STOP.M 254.0000:
STEP.M 0.1250:
NULL. -999.2500:
UWI. F10599:
~C
DEPT.M :
DEN.GM/CC :
SP.MV :
GR.API :
RML.OHMM :
RI. :
RXO.OHMM :
CALI.CM :
~A
# ...
   58.2500     2.6030    63.0430    75.8300     3.1660     0.0190     1.4630    23.6320 
   58.3750     2.5450    54.5000    85.9190     3.4030     0.0790     2.4130    23.4480 
   58.5000     2.4380    45.5140    97.8300     3.9490     0.2430     4.0750    23.2890 
   58.6250     2.3360    36.5690   106.4370     4.8030     0.5810     5.4390    23.2110 
   58.7500     2.2760    28.0520   109.4820     5.7570     1.1440     5.8350    23.1670 
   58.8750     2.2640    20.3410   107.5940     6.3040     1.9020     5.7230    23.1490 
   59.0000     2.2780    13.6410   104.4970     6.3980     2.6440     5.9300    23.1440 
   59.1250     2.3090     8.1910   102.1530     6.3500     3.2640     6.7300    23.1440 
   59.2500     2.3470     4.1260   103.4720     6.4730     3.8190     7.4100    23.1440 
   59.3750     2.3720     1.3890   107.2840     7.0670     4.5070     6.9800    23.1530 
   59.5000     2.3790    -0.6680   107.0100     8.1880     5.5350     7.5840    23.2140 
   59.6250     2.3900    -2.3730   100.1120     9.5720     7.1180    10.0160    23.3680 
   59.7500     2.4190    -3.9180    88.3570    11.8000     9.4020    15.9590    23.5460 
   59.8750     2.4420    -5.3560    78.5880    14.6100    12.1810    23.2450    23.5560 
   60.0000     2.4330    -6.7260    74.6790    16.7400    14.3310    21.3520    23.3570 
   60.1250     2.3870    -8.0410    74.0560    17.0910    14.7600    16.2020    22.9900 
   60.2500     2.3160    -9.2830    73.8800    15.6450    13.4040    12.5700    22.6830 
   60.3750     2.2400   -10.3990    72.9180    13.4800    11.2980    10.4460    22.5750 
   60.5000     2.1820   -11.3800    73.3950    11.6690     9.5290     9.4490    22.5600 
   60.6250     2.1500   -12.2240    75.4980    10.4600     8.3630     9.0990    22.5600 
   60.7500     2.1410   -12.9270    78.9610     9.7980     7.7610     8.9250    22.5600 
   60.8750     2.1390   -13.4480    83.7310     9.5730     7.6210     8.7900    22.5590 
   61.0000     2.1390   -13.8430    84.8370     9.5610     7.6890     8.7630    22.5560 
   61.1250     2.1380   -14.1230    81.9780     9.6540     7.8220     8.8280    22.5540 
   61.2500     2.1390   -14.3550    81.9090     9.7750     7.9240     8.9420    22.5570 
   61.3750     2.1390   -14.5630    88.8050     9.8620     7.9540     9.0320    22.5590 
   61.5000     2.1380   -14.7830    93.2230     9.8870     7.9490     9.0980    22.5600 
   61.6250     2.1340   -15.0160    90.7300     9.8540     7.9380     9.0630    22.5600 
   61.7500     2.1280   -15.2830    86.2020     9.7830     7.9280     8.9930    22.5670 
   61.8750     2.1240   -15.5810    83.1480     9.7040     7.9130     9.0270    22.5860 
   62.0000     2.1210   -15.9150    79.3890     9.6350     7.8820     9.2030    22.6130 
   62.1250     2.1180   -16.2580    76.8690     9.5740     7.8330     9.2070    22.6240 
   62.2500     2.1150   -16.5950    77.9610     9.5010     7.7740     9.1170    22.6260 
   62.3750     2.1170   -16.9220    79.7230     9.3890     7.7050     9.1080    22.6260 
   62.5000     2.1210   -17.2300    80.1880     9.2400     7.6180     9.1650    22.6260 
   62.6250     2.1230   -17.5020    80.2420     9.0730     7.5140     9.2090    22.6260 
   62.7500     2.1200   -17.7490    80.2430     8.9250     7.4130     9.1270    22.6260 
   62.8750     2.1160   -17.9870    80.0150     8.8440     7.3580     8.9630    22.6260 
   63.0000     2.1150   -18.1980    79.3260     8.8250     7.3590     8.9740    22.6260 
   63.1250     2.1150   -18.4040    76.2250     8.8470     7.4120     9.1640    22.6260 
   63.2500     2.1150   -18.5850    72.1040     8.8800     7.4950     9.3060    22.6260 
   63.3750     2.1150   -18.7480    72.7710     8.9030     7.5860     9.3620    22.6260 
   63.5000     2.1160   -18.8960    78.0060     8.9140     7.6680     9.4220    22.6260 
   63.6250     2.1190   -19.0670    82.2250     8.9180     7.7450     9.4590    22.6260 
   63.7500     2.1200   -19.2440    82.5530     8.9200     7.8180     9.4120    22.6260 
   63.8750     2.1140   -19.4210    81.3850     8.9180     7.8700     9.3420    22.6260 
   64.0000     2.1020   -19.6010    81.3560     8.9150     7.8820     9.3320    22.6260 
   64.1250     2.0850   -19.7720    80.3360     8.9070     7.8320     9.4310    22.6260 
   64.2500     2.0710   -19.9280    77.5020     8.8560     7.7140     9.5070    22.6260 
   64.3750     2.0700   -20.0320    76.3740     8.7480     7.5450     9.4600    22.6260 
   64.5000     2.0810   -20.0590    78.4410     8.6160     7.3880     9.3440    22.6260 
   64.6250     2.0960   -19.9680    80.2240     8.5040     7.2910     9.2530    22.6260 
   64.7500     2.1110   -19.7270    79.7390     8.4560     7.2760     9.2880    22.6260 
   64.8750     2.1220   -19.2930    78.5130     8.4940     7.3380     9.5290    22.6260 
   65.0000     2.1270   -18.7560    76.7900     8.5790     7.4460     9.7650    22.6260 
   65.1250     2.1260   -18.1870    74.0780     8.6770     7.5750     9.8320    22.6260 
   65.2500     2.1180   -17.6210    71.6930     8.7600     7.6980     9.7950    22.6260 
   65.3750     2.1000   -17.0790    71.4510     8.8210     7.7910     9.7520    22.6160 
   65.5000     2.0840   -16.5860    72.2050     8.8760     7.8380     9.7540    22.5830 
   65.6250     2.0790   -16.1530    74.0280     8.9230     7.8270     9.7940    22.5290 
   65.7500     2.0870   -15.7900    77.6180     8.9240     7.7540     9.7760    22.4940 
   65.8750     2.1020   -15.5440    81.6100     8.8060     7.5950     9.6430    22.4840 
   66.0000     2.1180   -15.3530    85.2050     8.5690     7.3480     9.3970    22.4830 
   66.1250     2.1360   -15.1580    89.9740     8.2570     7.0410     8.9160    22.4810 
   66.2500     2.1530   -14.9840    94.8120     7.9580     6.7580     8.2440    22.4820 
   66.3750     2.1580   -14.8680    94.6790     7.7980     6.6220     7.9710    22.4590 
   66.5000     2.1520   -14.7890    90.2590     7.8020     6.6560     8.3210    22.4050 
   66.6250     2.1400   -14.7320    84.6500     7.9370     6.8480     8.8240    22.3440 
   66.7500     2.1310   -14.6730    79.9400     8.1280     7.1190     9.2260    22.2920 
   66.8750     2.1280   -14.6240    77.4960     8.2830     7.3400     9.3620    22.2480 
   67.0000     2.1260   -14.6000    77.0460     8.3480     7.4330     9.3640    22.2090 
   67.1250     2.1230   -14.5710    77.8430     8.3180     7.3830     9.2020    22.1950 
   67.2500     2.1190   -14.4900    79.2990     8.2250     7.2190     8.9500    22.1930 
   67.3750     2.1160   -14.3630    80.3470     8.1040     7.0200     8.7150    22.1930 
   67.5000     2.1160   -14.2030    79.8770     7.9980     6.8890     8.6080    22.1930 
   67.6250     2.1140   -14.0330    78.0590     7.9480     6.8740     8.6390    22.1920 
   67.7500     2.1080   -13.9280    76.1470     7.9780     6.9540     8.7660    22.1910 
   67.8750     2.1020   -13.8260    74.7220     8.0590     7.0420     8.8280    22.1900 
   68.0000     2.1040   -13.7180    75.4530     8.0850     7.0200     8.7850    22.1910 
   68.1250     2.1130   -13.6280    78.5170     7.9750     6.8280     8.7350    22.1930 
   68.2500     2.1250   -13.5800    81.8150     7.7090     6.4860     8.7110    22.1930 
   68.3750     2.1410   -13.5280    83.3630     7.3550     6.0990     8.4660    22.1970 
   68.5000     2.1640   -13.5220    83.9440     7.0530     5.8030     8.4020    22.2260 
   68.6250     2.1880   -13.5990    82.7000     6.8890     5.6790     9.0550    22.3270 
   68.7500     2.1930   -13.6720    79.5100     6.8900     5.7540    10.0730    22.5470 
   68.8750     2.1650   -13.7680    77.0590     7.0490     6.0220     8.9670    22.8530 
   69.0000     2.1240   -13.8400    77.4280     7.2790     6.3630     8.3500    23.0830 
   69.1250     2.0970   -13.8930    79.5570     7.5150     6.6810     8.1670    23.1920 
   69.2500     2.0900   -13.9220    80.0750     7.7140     6.9080     8.2200    23.2190 
   69.3750     2.0950   -13.9540    77.7160     7.8530     7.0150     8.2830    23.2190 
