~V
VERS. 2.00: Ver 2.00
~W
STRT.M 50.0000:
STOP.M 214.0000:
STEP.M 0.1250:
NULL. -999.2500:
UWI. F10534:
~C
DEPT.M :
DEN.GM/CC :
SP.MV :
GR.API :
RML.OHMM :
RI. :
RXO.OHMM :
CALI.CM :
~A
# ...
  151.2500     2.2050   -24.0310    94.3840     5.9800     5.4680     6.1350    23.6060 
  151.3750     2.1940   -24.0100    93.6710     6.0060     5.5200     5.9220    23.4740 
  151.5000     2.1930   -24.0190    94.6610     5.9540     5.5160     5.8480    23.3710 
  151.6250     2.2020   -24.0530    94.3050     5.8460     5.4650     5.8760    23.3560 
  151.7500     2.2140   -24.1010    94.1870     5.7290     5.3980     5.8620    23.4360 
  151.8750     2.2240   -24.1590    94.6210     5.6220     5.3290     5.8890    23.6220 
  152.0000     2.2340   -24.2080    93.1600     5.5210     5.2640     5.7810    23.8580 
  152.1250     2.2420   -24.2370    91.9350     5.4370     5.2210     5.7020    23.9500 
  152.2500     2.2480   -24.2540    95.6930     5.4090     5.2310     5.5970    23.9380 
  152.3750     2.2460   -24.2390   102.1340     5.4770     5.3330     5.7340    23.8830 
  152.5000     2.2380   -24.1780   105.2780     5.6420     5.5410     5.9990    23.8350 
  152.6250     2.2260   -24.0720   101.1130     5.8620     5.8350     5.9900    23.6780 
  152.7500     2.2150   -23.9240    95.5040     6.0480     6.1270     6.1070    23.3090 
  152.8750     2.2100   -23.7170    93.8490     6.1240     6.3270     6.4150    22.8920 
  153.0000     2.2150   -23.4820    96.4690     6.0340     6.3450     6.4870    22.8410 
  153.1250     2.2290   -23.2420    98.4380     5.7340     6.0990     5.9140    23.3540 
  153.2500     2.2460   -22.9940    98.0390     5.3140     5.6720     5.1470    24.0530 
  153.3750     2.2590   -22.7770    98.3720     4.8740     5.1750     4.5750    24.6650 
  153.5000     2.2630   -22.6090   100.5090     4.5250     4.7300     4.1340    25.1850 
  153.6250     2.2330   -22.5050   102.0680     4.3860     4.4630     3.9570    25.6310 
  153.7500     2.1710   -22.4780   105.0480     4.4540     4.3850     3.9860    25.9750 
  153.8750     2.1210   -22.5460   109.7030     4.7200     4.4950     4.1690    26.1010 
  154.0000     2.1220   -22.6700   115.2170     5.1930     4.7970     4.4140    26.1590 
  154.1250     2.1730   -22.8390   117.9600     6.0310     5.4000     4.7510    25.9520 
  154.2500     2.2270   -23.0580   113.6080     7.4060     6.4190     5.4720    25.3500 
  154.3750     2.2630   -23.2900   101.2460     9.5690     8.0740     7.0680    24.5350 
  154.5000     2.2860   -23.5120    86.1560    12.7290    10.6200     9.7550    23.9470 
  154.6250     2.3130   -23.7200    78.2490    17.0510    14.4240    13.2130    23.8130 
  154.7500     2.3480   -23.8850    76.0010    21.8830    19.0760    18.4070    23.8070 
  154.8750     2.3830   -24.0080    74.1980    26.1850    23.6870    25.8520    23.6970 
  155.0000     2.3940   -24.1350    71.0140    28.6100    26.8410    34.4700    23.5870 
  155.1250     2.3460   -24.2430    69.8750    27.9000    27.0010    35.0550    23.7330 
  155.2500     2.2720   -24.3180    73.7160    25.1850    24.9800    30.0350    23.9600 
  155.3750     2.2190   -24.3840    79.5810    21.9160    22.0730    21.9170    23.8970 
  155.5000     2.2030   -24.4400    82.6110    19.5260    19.6090    15.8480    23.5980 
  155.6250     2.2070   -24.4740    81.2570    19.3770    18.8620    17.4160    23.5110 
  155.7500     2.2030   -24.5220    77.5680    21.4660    20.0640    22.8390    23.8200 
  155.8750     2.1880   -24.5670    72.1420    25.5440    23.2550    27.4940    24.1180 
  156.0000     2.1720   -24.5800    67.0720    30.8300    28.0270    29.3260    24.1020 
  156.1250     2.1620   -24.5880    66.9170    35.5040    32.9780    29.8400    23.5830 
  156.2500     2.1570   -24.5900    69.9280    37.7920    36.1160    30.1230    23.0070 
  156.3750     2.1560   -24.5730    72.7790    37.2860    36.6300    30.8990    22.8960 
  156.5000     2.1570   -24.5380    74.3530    34.8990    35.0840    31.7670    23.0490 
  156.6250     2.1610   -24.4940    75.0530    31.7680    32.4470    30.0710    23.2560 
  156.7500     2.1680   -24.4160    75.6050    28.7050    29.6080    27.0730    23.5560 
  156.8750     2.1700   -24.3240    75.8780    26.0760    26.9880    24.8590    23.9530 
  157.0000     2.1620   -24.2330    73.9170    24.1230    24.8830    24.2860    24.2240 
  157.1250     2.1470   -24.1230    70.6830    23.0150    23.5250    24.3570    24.2550 
  157.2500     2.1370   -23.9980    69.8640    22.4470    22.7070    24.6090    24.1400 
  157.3750     2.1320   -23.8630    72.3210    22.1250    22.2030    24.6180    24.0030 
  157.5000     2.1270   -23.7380    73.1840    21.7570    21.7550    24.0170    23.9410 
  157.6250     2.1250   -23.6370    73.7640    21.1860    21.1790    21.0540    23.9530 
  157.7500     2.1300   -23.5730    78.0640    20.7150    20.6490    17.8560    23.9870 
  157.8750     2.1390   -23.5370    82.3650    20.8450    20.5740    17.8860    24.0400 
  158.0000     2.1430   -23.5120    80.4180    21.9340    21.3260    24.1800    24.1500 
  158.1250     2.1280   -23.5060    74.4650    23.9900    23.0820    28.2190    24.2910 
  158.2500     2.1090   -23.5060    71.9980    26.1450    25.1850    28.7870    24.3500 
  158.3750     2.1000   -23.5020    71.7870    27.5070    26.8170    26.5040    24.3610 
  158.5000     2.1080   -23.4820    70.2610    27.5500    27.3480    24.0730    24.3390 
  158.6250     2.1280   -23.4410    70.8340    26.4720    26.7620    23.1890    24.2410 
  158.7500     2.1590   -23.3720    74.2480    25.2090    25.8750    24.7170    24.0690 
  158.8750     2.2070   -23.2620    77.0020    24.0590    24.9950    26.0710    23.9240 
  159.0000     2.2580   -23.1340    76.6170    22.8800    24.0060    25.1030    23.9020 
  159.1250     2.2750   -23.0070    75.4190    21.3480    22.5650    23.3480    23.8570 
  159.2500     2.2610   -22.9050    75.1100    19.3980    20.6240    21.1560    23.6750 
  159.3750     2.2470   -22.8390    74.8560    17.0850    18.2600    19.9920    23.4100 
  159.5000     2.2510   -22.8100    75.7470    14.5370    15.6410    19.5700    23.3150 
  159.6250     2.2460   -22.8150    79.2330    11.9390    12.9840    17.1150    23.5070 
  159.7500     2.2220   -22.8500    84.4440     9.5680    10.5390    11.5940    23.6690 
  159.8750     2.1970   -22.9040    91.1830     7.6990     8.5310     7.7030    23.6400 
  160.0000     2.1910   -22.9510    97.8110     6.5110     7.1260     6.3240    23.5380 
  160.1250     2.2050   -22.9940   102.8260     6.1170     6.4740     6.3000    23.4920 
  160.2500     2.2190   -23.0120   105.0310     6.2500     6.3870     6.6320    23.5610 
  160.3750     2.2270   -22.9890   101.7550     6.6920     6.7020     7.2220    23.7330 
  160.5000     2.2320   -22.9330    94.8280     7.1670     7.1870     8.0900    23.8900 
  160.6250     2.2400   -22.8350    92.2650     7.3350     7.5100     8.2360    24.0960 
  160.7500     2.2550   -22.7040    97.1140     7.1380     7.5170     7.4800    24.2590 
  160.8750     2.2780   -22.5540   103.5200     6.7070     7.2570     6.7020    24.1190 
  161.0000     2.3010   -22.4020   106.5580     6.2490     6.9000     6.2310    23.8750 
  161.1250     2.3120   -22.2230   106.5810     5.9440     6.6320     6.1890    23.7240 
  161.2500     2.3100   -22.0410   105.7590     5.7970     6.4990     6.1440    23.6970 
  161.3750     2.3080   -21.8780   105.6030     5.7490     6.4580     5.9030    23.6920 
  161.5000     2.3110   -21.7120   106.5620     5.7390     6.4370     5.6950    23.6920 
  161.6250     2.3150   -21.5620   108.0400     5.7540     6.4030     5.5330    23.6920 
  161.7500     2.3210   -21.4310   110.4420     5.8210     6.3910     5.4670    23.6920 
  161.8750     2.3310   -21.3270   113.4190     5.9630     6.4420     5.4180    23.6920 
  162.0000     2.3390   -21.2420   114.2700     6.1790     6.5700     5.4840    23.6920 
  162.1250     2.3370   -21.1630   110.7040     6.4280     6.7460     5.6360    23.6920 
  162.2500     2.3260   -21.1010   107.2740     6.6330     6.8900     5.8370    23.6920 
  162.3750     2.3150   -21.0450   106.2520     6.7400     6.9440     6.0790    23.6920 
