~V
VERS. 2.00: Ver 2.00
~W
STRT.M 60.0000:
STOP.M 190.0000:
STEP.M 0.1250:
NULL. -999.2500:
UWI. F10561:
~C
DEPT.M :
SP.MV :
GR.API :
RML.OHMM :
RI. :
RXO.OHMM :
CALI.CM :
DEN.GM/CC :
~A
# ...
  172.5000   -15.3820    61.9430     6.7780     6.0190     6.6650    24.7630     2.3950 
  172.6250   -15.0600    60.3900     6.6500     5.7320     5.9140    24.5750     2.4480 
  172.7500   -14.7440    60.1840     6.5740     5.5430     5.7340    24.6150     2.4830 
  172.8750   -14.5010    59.0350     6.4960     5.4310     5.7860    24.7960     2.4950 
  173.0000   -14.2950    56.7410     6.4050     5.3790     5.8770    24.9620     2.4900 
  173.1250   -14.0500    54.2540     6.3060     5.3570     5.9150    25.0950     2.4760 
  173.2500   -13.8560    53.4270     6.2010     5.3160     5.8740    25.1660     2.4650 
  173.3750   -13.7170    53.9370     6.0780     5.2280     5.7470    25.2350     2.4580 
  173.5000   -13.5570    54.3610     5.9330     5.0940     5.6150    25.3930     2.4510 
  173.6250   -13.4060    52.2150     5.7900     4.9490     5.4490    25.4750     2.4340 
  173.7500   -13.2820    47.8930     5.6840     4.8390     5.3000    25.3560     2.4060 
  173.8750   -13.1400    44.1180     5.6310     4.7820     5.1150    25.2570     2.3770 
  174.0000   -13.0560    43.3280     5.6160     4.7680     5.0210    25.3180     2.3630 
  174.1250   -13.0350    46.0730     5.6190     4.7700     5.0560    25.4360     2.3780 
  174.2500   -12.9770    49.5110     5.6380     4.7690     5.1620    25.3520     2.4060 
  174.3750   -12.9050    52.7120     5.6920     4.7720     5.2640    25.2330     2.4220 
  174.5000   -12.8670    56.4660     5.7970     4.8010     5.3020    25.2150     2.4090 
  174.6250   -12.8600    59.4540     5.9420     4.8860     5.2950    25.3240     2.3690 
  174.7500   -12.8610    58.8330     6.0860     5.0250     5.5010    25.4380     2.3290 
  174.8750   -12.8950    54.9680     6.2180     5.2010     5.7420    25.4090     2.3090 
  175.0000   -12.9400    51.9870     6.3630     5.3940     5.7600    25.1890     2.3140 
  175.1250   -12.9720    52.7890     6.5780     5.5920     5.6640    25.0790     2.3450 
  175.2500   -13.0530    54.1520     6.8690     5.8020     6.0220    25.0380     2.3940 
  175.3750   -13.1570    53.3410     7.1980     6.0380     6.7450    25.0160     2.4550 
  175.5000   -13.2760    51.0110     7.4930     6.2880     7.0810    24.9850     2.5170 
  175.6250   -13.3630    49.7770     7.6430     6.4850     7.5690    24.9600     2.5530 
  175.7500   -13.4650    49.6870     7.6100     6.5510     8.4960    24.9420     2.5520 
  175.8750   -13.5450    50.4280     7.3860     6.4390     8.8490    24.9310     2.5200 
  176.0000   -13.6000    52.1610     7.0160     6.1590     7.7290    24.9130     2.4800 
  176.1250   -13.6560    53.7310     6.5940     5.7810     6.5810    24.8680     2.4570 
  176.2500   -13.7090    54.7290     6.2460     5.4290     6.0660    24.8130     2.4500 
  176.3750   -13.8090    55.3090     6.0440     5.1870     5.8010    24.8540     2.4460 
  176.5000   -13.9170    55.9900     6.0090     5.1050     5.5150    25.0550     2.4300 
  176.6250   -14.0860    55.8270     6.1410     5.2150     5.3840    25.3170     2.3990 
  176.7500   -14.3140    55.0830     6.3710     5.4470     5.6090    25.3370     2.3700 
  176.8750   -14.6010    54.9960     6.6660     5.7350     6.2000    25.1990     2.3530 
  177.0000   -14.9000    55.0860     6.9830     6.0050     6.7260    25.0390     2.3530 
  177.1250   -15.2090    54.0720     7.2510     6.1850     7.2320    24.9610     2.3640 
  177.2500   -15.5310    53.2350     7.4160     6.2780     7.5430    24.9260     2.3780 
  177.3750   -15.8350    54.1010     7.4690     6.3150     7.5000    24.9170     2.3900 
  177.5000   -16.1450    56.3060     7.4600     6.3460     7.3090    24.9200     2.3990 
  177.6250   -16.4710    57.8970     7.4840     6.4220     7.3410    24.9290     2.4030 
  177.7500   -16.7830    58.1400     7.6070     6.5530     7.5090    24.9300     2.4040 
  177.8750   -17.0760    58.0920     7.8400     6.7320     7.6300    24.9220     2.4030 
  178.0000   -17.3840    58.1570     8.1600     6.9420     7.7020    24.9160     2.4020 
  178.1250   -17.7760    58.4230     8.5180     7.1600     7.9250    24.8670     2.4050 
  178.2500   -18.1990    57.7740     8.8400     7.3570     8.2470    24.7340     2.4090 
  178.3750   -18.5890    56.9140     9.0590     7.5120     8.9370    24.5510     2.4100 
  178.5000   -19.0010    57.1500     9.1260     7.6120     9.5150    24.4300     2.4050 
  178.6250   -19.4150    58.4670     9.0350     7.6530     8.9560    24.4320     2.3940 
  178.7500   -19.8100    59.7210     8.9040     7.6680     8.2370    24.4960     2.3810 
  178.8750   -20.2190    60.0480     8.8400     7.6860     8.4370    24.5670     2.3680 
  179.0000   -20.6000    59.0450     8.9140     7.7370     9.1320    24.6570     2.3580 
  179.1250   -20.8720    57.3410     9.1640     7.8750     9.4290    24.7590     2.3490 
  179.2500   -21.1130    56.7350     9.5410     8.1250     9.5090    24.8190     2.3410 
  179.3750   -21.3680    57.1460    10.0000     8.4930    10.6340    24.8780     2.3350 
  179.5000   -21.5650    57.7380    10.4670     8.9300    11.1910    24.9450     2.3350 
  179.6250   -21.7000    58.2580    10.7670     9.2910    11.3110    24.9610     2.3400 
  179.7500   -21.7600    59.1380    10.7520     9.4240    13.5100    24.9490     2.3450 
  179.8750   -21.7190    59.5320    10.3630     9.2530    16.1560    24.9330     2.3440 
  180.0000   -21.6440    59.5320     9.7080     8.8160    15.2830    24.9130     2.3320 
  180.1250   -21.5910    59.5320     9.0390     8.2760    10.8280    24.8900     2.3110 
  180.2500   -21.5220    59.5320     8.5900     7.8490     8.6290    24.8570     2.2900 
  180.3750   -21.4070    59.5320     8.4460     7.6470     8.1380    24.8160     2.2770 
  180.5000   -21.2900    59.5320     8.5780     7.6850     8.5390    24.7430     2.2750 
  180.6250   -21.1250    59.5320     8.8470     7.8810     9.0450    24.6910     2.2820 
  180.7500   -20.8990    59.5320     9.0280     8.0410     9.4180    24.6710     2.2920 
  180.8750   -20.6090    59.5320     8.9840     8.0430     9.7040    24.6700     2.3010 
  181.0000   -20.2220    59.5320     8.6750     7.8390    10.3700    24.6730     2.3130 
  181.1250   -19.7150    59.5320     8.1540     7.4510    10.0670    24.6730     2.3280 
  181.2500   -19.1230    59.5320     7.5940     7.0020     8.2900    24.6710     2.3460 
  181.3750   -18.5310    59.5320     7.1080     6.5780     6.8790    24.6710     2.3660 
  181.5000   -17.9450    59.5320     6.7630     6.2410     6.5480    24.6700     2.3860 
  181.6250   -17.4080    59.5320     6.6120     6.0530     6.6140    24.6690     2.4060 
  181.7500   -16.9810    59.5320     6.6110     5.9890     6.7090    24.6690     2.4230 
  181.8750   -16.6680    59.5320     6.7120     6.0120     6.7620    24.6690     2.4350 
  182.0000   -16.4870    59.5320     6.8500     6.0680     6.9440    24.6690     2.4370 
  182.1250   -16.4820    59.5320     6.9540     6.1040     7.4520    24.6690     2.4280 
  182.2500   -16.6120    59.5320     6.9960     6.1020     8.0030    24.6690     2.4120 
  182.3750   -16.8150    59.5320     6.9830     6.0720     7.8150    24.6690     2.3990 
  182.5000   -17.0720    59.5320     6.9510     6.0410     7.3480    24.6620     2.3920 
  182.6250   -17.4130    59.5320     6.9640     6.0540     7.1160    24.6420     2.3960 
  182.7500   -17.8260    59.5320     7.0550     6.1330     7.1050    24.6070     2.4020 
  182.8750   -18.2990    59.5320     7.2330     6.2840     7.0600    24.5720     2.4040 
  183.0000   -18.8730    59.5320     7.4780     6.4920     7.2000    24.5500     2.3960 
  183.1250   -19.5460    59.5320     7.7560     6.7310     7.6590    24.5470     2.3760 
  183.2500   -20.2310    59.5320     8.0250     6.9640     8.3940    24.5670     2.3510 
  183.3750   -20.9210    59.5320     8.2580     7.1690     8.9170    24.5980     2.3240 
  183.5000   -21.5710    59.5320     8.4370     7.3330     8.9680    24.5830     2.3010 
  183.6250   -22.1430    59.5320     8.5410     7.4350     8.7170    24.5220     2.2850 
