~V
VERS. 2.00: Ver 2.00
~W
STRT.M 55.0000:
STOP.M 318.0000:
STEP.M 0.1250:
NULL. -999.2500:
UWI. F10558:
~C
DEPT.M :
DEN.GM/CC :
GR.API :
RML.OHMM :
RI. :
RXO.OHMM :
CALI.CM :
SP.MV :
~A
# ...
  122.5000     2.1070    76.8510     6.8130     6.1130     8.6680    24.4900   -24.8100 
  122.6250     2.1170    79.2000     6.9460     6.2600     8.8400    24.4900   -24.9450 
  122.7500     2.1290    81.6350     7.2620     6.3620     8.9820    24.4900   -25.0350 
  122.8750     2.1420    81.9580     7.5690     6.3970     9.0700    24.4900   -25.0790 
  123.0000     2.1550    81.1950     7.6760     6.3670     8.8650    24.4900   -25.0780 
  123.1250     2.1660    81.3250     7.4930     6.2780     8.3470    24.4720   -25.0250 
  123.2500     2.1710    83.1620     7.1820     6.1540     7.9800    24.3940   -24.9490 
  123.3750     2.1710    83.7920     6.8960     6.0110     7.6850    24.2420   -24.8630 
  123.5000     2.1700    82.3540     6.7450     5.8680     7.1160    24.1020   -24.8080 
  123.6250     2.1640    81.4560     6.7900     5.7780     6.7760    24.0520   -24.7910 
  123.7500     2.1510    82.2710     6.9680     5.7870     7.3070    24.0430   -24.8200 
  123.8750     2.1360    84.0560     7.2270     5.9160     8.1690    24.0550   -24.8900 
  124.0000     2.1240    85.6320     7.5000     6.1490     8.8660    24.1250   -24.9780 
  124.1250     2.1140    85.4380     7.7110     6.4210     9.2580    24.3310   -25.0830 
  124.2500     2.1010    81.0920     7.8260     6.6390     9.5430    24.5760   -25.1760 
  124.3750     2.0890    74.4490     7.8640     6.7580     9.6780    24.6970   -25.2280 
  124.5000     2.0800    69.8390     7.8810     6.7900     9.6510    24.7170   -25.2220 
  124.6250     2.0730    69.1160     7.9160     6.7700     9.5260    24.6920   -25.1360 
  124.7500     2.0670    70.3360     7.9290     6.7250     9.4220    24.6030   -24.9980 
  124.8750     2.0680    71.6620     7.8480     6.6440     9.1880    24.3870   -24.8150 
  125.0000     2.0770    72.8550     7.6410     6.5200     8.8460    24.0570   -24.6100 
  125.1250     2.0900    73.6520     7.3460     6.3590     8.7670    23.7570   -24.3840 
  125.2500     2.1040    73.6070     7.0860     6.1960     8.8540    23.5140   -24.1430 
  125.3750     2.1130    71.6520     6.9410     6.0500     8.9270    23.3670   -23.8930 
  125.5000     2.1150    69.2870     6.9330     5.9330     8.7640    23.3120   -23.6090 
  125.6250     2.1100    70.8160     7.0170     5.8550     8.4280    23.3440   -23.2800 
  125.7500     2.1000    75.7560     7.1110     5.8160     8.2670    23.4930   -22.8730 
  125.8750     2.0850    80.1750     7.1780     5.8260     8.2560    23.7560   -22.3920 
  126.0000     2.0660    79.6090     7.1940     5.8850     8.1540    23.9480   -21.8440 
  126.1250     2.0610    76.1280     7.1470     5.9720     7.9110    23.8940   -21.2260 
  126.2500     2.0760    77.0820     7.0560     6.0390     7.8340    23.7460   -20.5740 
  126.3750     2.1080    84.0230     6.9440     6.0530     8.0940    23.6710   -19.9090 
  126.5000     2.1410    91.9100     6.8260     5.9910     8.2860    23.7540   -19.3040 
  126.6250     2.1610    96.5590     6.7010     5.8310     7.6270    24.0490   -18.8290 
  126.7500     2.1710   100.7140     6.5710     5.6180     6.6510    24.3150   -18.5470 
  126.8750     2.1750   105.2020     6.4770     5.4110     6.1210    24.4540   -18.4700 
  127.0000     2.1700   108.1890     6.5160     5.2780     6.1390    24.4900   -18.6140 
  127.1250     2.1570   106.1970     6.7920     5.2850     6.5340    24.4900   -18.9740 
  127.2500     2.1400   101.6450     7.2600     5.4160     6.8920    24.4900   -19.4860 
  127.3750     2.1260    97.4390     7.8240     5.6460     7.2100    24.4900   -20.1270 
  127.5000     2.1230    93.8340     8.3490     5.9520     7.6190    24.4970   -20.8350 
  127.6250     2.1260    89.4170     8.7380     6.3590     8.3190    24.5300   -21.5180 
  127.7500     2.1300    84.2150     9.0630     6.8760     9.0460    24.5840   -22.1400 
  127.8750     2.1560    80.6520     9.4250     7.4970     9.2650    24.5850   -22.6760 
  128.0000     2.2250    80.2220     9.8510     8.1520     9.2070    24.4730   -23.1100 
  128.1250     2.3310    82.6190    10.1460     8.6390     9.3260    24.1910   -23.4700 
  128.2500     2.4050    85.4170    10.0720     8.7660     9.5450    23.9600   -23.8030 
  128.3750     2.3900    85.5300     9.5340     8.4510     9.5440    23.7520   -24.1030 
  128.5000     2.3050    82.8260     8.6730     7.7980     9.4460    23.5440   -24.3910 
  128.6250     2.2180    80.5730     7.8310     7.0680     9.2730    23.3650   -24.6720 
  128.7500     2.1620    79.1570     7.2380     6.5020     8.9570    23.3130   -24.9220 
  128.8750     2.1320    77.8760     6.9240     6.1820     8.5880    23.4080   -25.1580 
  129.0000     2.1130    78.2930     6.7870     6.0950     8.4390    23.6730   -25.3370 
  129.1250     2.0980    81.3150     6.7240     6.1840     8.5340    23.9870   -25.4480 
  129.2500     2.0860    84.7960     6.7030     6.3330     8.6050    24.1910   -25.4670 
  129.3750     2.0790    86.9910     6.7270     6.4790     8.6580    24.2590   -25.4180 
  129.5000     2.0760    87.3390     6.7570     6.5800     8.6150    24.2680   -25.2810 
  129.6250     2.0800    84.1330     6.7000     6.6080     8.4870    24.2670   -25.0840 
  129.7500     2.0910    78.7070     6.5070     6.5870     8.3100    24.2660   -24.8530 
  129.8750     2.1060    74.1000     6.2270     6.5370     8.1770    24.2680   -24.5770 
  130.0000     2.1150    71.5150     5.9930     6.4710     8.2390    24.2840   -24.2610 
  130.1250     2.1130    69.2460     6.0220     6.4090     8.3350    24.3440   -23.8670 
  130.2500     2.1110    67.8970     6.3460     6.3720     8.3920    24.4250   -23.3970 
  130.3750     2.1180    69.3840     6.9080     6.3890     8.5410    24.4750   -22.8120 
  130.5000     2.1380    73.3510     7.6040     6.5040     8.8600    24.4900   -22.1300 
  130.6250     2.1710    76.1970     8.3190     6.8000     9.7050    24.4900   -21.3270 
  130.7500     2.2120    77.6520     8.9760     7.2690    12.2780    24.4900   -20.4570 
  130.8750     2.2600    78.3340     9.4830     7.8030    18.0440    24.4900   -19.5960 
  131.0000     2.3100    80.0730     9.6150     8.1290    23.4210    24.4900   -18.7900 
  131.1250     2.3260    85.8480     9.0000     7.8040    15.5110    24.4900   -18.0870 
  131.2500     2.2960    93.9440     7.8670     6.9180     8.2890    24.4900   -17.4960 
  131.3750     2.2440   100.9000     6.6770     5.8480     6.3010    24.4900   -17.0750 
  131.5000     2.2050   105.9580     5.8470     4.9870     6.2640    24.4900   -16.7940 
  131.6250     2.1900   109.6370     5.5920     4.5810     6.2300    24.4890   -16.6940 
  131.7500     2.1820   109.5830     5.7050     4.5200     6.0020    24.4790   -16.7020 
  131.8750     2.1670   107.1990     5.9810     4.6880     6.0060    24.4470   -16.7050 
  132.0000     2.1440   108.3740     6.2200     4.9870     6.6600    24.4040   -16.6470 
  132.1250     2.1340   111.3290     6.2810     5.3420     7.1870    24.3880   -16.5300 
  132.2500     2.1540   109.7930     6.1750     5.6430     7.2070    24.4020   -16.3590 
  132.3750     2.1950   104.9000     5.9430     5.7750     6.8550    24.4110   -16.1240 
  132.5000     2.2320   101.3830     5.6730     5.6790     6.6600    24.4130   -15.8580 
  132.6250     2.2460   101.4400     5.4800     5.4080     6.6660    24.4160   -15.5530 
  132.7500     2.2470   102.6750     5.3950     5.1350     6.6080    24.4440   -15.2350 
  132.8750     2.2410   104.3050     5.3670     4.9350     6.4710    24.5330   -14.9770 
  133.0000     2.2320   104.3660     5.3010     4.8130     6.3090    24.6780   -14.8020 
  133.1250     2.2280   104.2420     5.1250     4.7380     6.2520    24.7590   -14.7150 
  133.2500     2.2320   105.5090     4.8910     4.6810     6.2060    24.7840   -14.7040 
  133.3750     2.2380   107.1510     4.6890     4.6430     6.1630    24.7860   -14.7610 
  133.5000     2.2400   106.7270     4.6290     4.6320     6.1460    24.7860   -14.8680 
  133.6250     2.2350   102.5580     4.8190     4.6480     6.2170    24.7860   -15.0270 
