~V
VERS. 2.00: Ver 2.00
~W
STRT.M 55.0000:
STOP.M 211.0000:
STEP.M 0.1250:
NULL. -999.2500:
UWI. F10586:
~C
DEPT.M :
GR.API :
RML.OHMM :
RI. :
RXO.OHMM :
CALI.CM :
DEN.GM/CC :
SP.MV :
~A
# ...
   77.5000    57.9490    22.1370    19.4600    32.4120    26.2220     2.3400   -12.1110 
   77.6250    58.9760    22.6400    19.9830    31.9530    26.2590     2.2900   -11.9870 
   77.7500    63.5360    23.1340    20.4930    25.2380    26.2440     2.2450   -11.9240 
   77.8750    68.2700    23.3650    20.8220    20.6870    26.1570     2.2160   -11.9200 
   78.0000    69.2800    23.0040    20.7120    19.7850    25.9990     2.2020   -11.9850 
   78.1250    68.0610    21.6480    19.7950    19.3510    25.8510     2.1980   -12.1370 
   78.2500    67.5090    19.4850    18.1500    17.8620    25.7900     2.2000   -12.3220 
   78.3750    67.1710    16.8500    16.0060    15.5990    25.7780     2.2070   -12.5260 
   78.5000    67.3360    14.2120    13.7360    13.0430    25.7590     2.2220   -12.7980 
   78.6250    68.9770    12.0890    11.7880    10.5600    25.6970     2.2390   -13.0520 
   78.7500    72.3480    10.5850    10.3130     8.7190    25.5860     2.2550   -13.2990 
   78.8750    77.5860     9.6390     9.3000     7.7870    25.4330     2.2660   -13.5360 
   79.0000    82.6840     9.0850     8.6390     7.3870    25.2410     2.2720   -13.6990 
   79.1250    83.2470     8.7310     8.1850     7.2510    25.0270     2.2750   -13.7750 
   79.2500    81.3940     8.3540     7.7430     7.0170    24.7780     2.2790   -13.7820 
   79.3750    80.3360     7.8560     7.2240     6.5080    24.5280     2.2870   -13.7580 
   79.5000    81.7830     7.2370     6.6160     6.0590    24.3540     2.2970   -13.6530 
   79.6250    85.6220     6.6320     6.0190     5.7680    24.2820     2.3110   -13.5050 
   79.7500    91.5310     6.2820     5.6040     5.4620    24.2350     2.3300   -13.3170 
   79.8750    94.6260     6.4490     5.5570     5.3650    24.1790     2.3550   -13.0590 
   80.0000    91.0280     7.3940     6.0800     6.0140    24.1190     2.3850   -12.7500 
   80.1250    83.3710     9.4720     7.5140     8.5130    24.1700     2.4090   -12.3750 
   80.2500    77.2990    12.4760     9.8270    12.9120    24.4540     2.4140   -11.9490 
   80.3750    74.2090    16.0530    12.8740    18.4310    24.9850     2.3870   -11.4540 
   80.5000    72.4310    19.5920    16.2410    23.9930    25.6430     2.3340   -10.9660 
   80.6250    71.3380    22.1720    19.1230    26.3190    26.2590     2.2730   -10.5030 
   80.7500    69.9600    23.4450    20.9320    25.2220    26.7780     2.2220   -10.0620 
   80.8750    67.1830    23.4760    21.5050    22.8890    27.1770     2.1900    -9.6470 
   81.0000    63.9160    22.6740    21.1000    21.4340    27.4750     2.1760    -9.2670 
   81.1250    62.3610    21.4750    20.0800    20.3260    27.6690     2.1750    -8.9960 
   81.2500    62.8130    20.2080    18.8480    18.5550    27.8070     2.1790    -8.8070 
   81.3750    63.0560    18.9880    17.5710    16.5930    27.8930     2.1860    -8.7110 
   81.5000    62.2560    17.9200    16.3950    15.3470    27.9400     2.1940    -8.6550 
   81.6250    60.5950    17.1950    15.5130    14.6610    27.9590     2.1950    -8.5880 
   81.7500    58.5490    16.8850    15.0020    13.9910    27.9810     2.1820    -8.5240 
   81.8750    59.4180    17.0480    14.9210    13.6520    28.0270     2.1530    -8.4880 
   82.0000    63.4710    17.6920    15.2890    14.2720    28.1030     2.1160    -8.4570 
   82.1250    66.6780    18.8360    16.1560    15.5850    28.2020     2.0860    -8.3850 
   82.2500    68.2540    20.2960    17.3720    16.5690    28.2240     2.0720    -8.2580 
   82.3750    70.2760    21.9280    18.8160    16.8490    28.1820     2.0770    -8.0950 
   82.5000    70.9180    23.5550    20.3270    16.8880    28.1060     2.0950    -7.9040 
   82.6250    66.8590    24.9510    21.6860    17.1730    27.9970     2.1190    -7.6770 
   82.7500    62.1060    26.0230    22.7690    17.8220    27.8530     2.1390    -7.4550 
   82.8750    60.0010    26.7430    23.5210    18.5620    27.6620     2.1510    -7.2180 
   83.0000    59.4300    27.1600    23.9590    19.1040    27.4160     2.1560    -6.9580 
   83.1250    59.0930    27.3390    24.1270    19.4360    27.0730     2.1500    -6.7140 
   83.2500    58.2400    27.3870    24.1470    19.5760    26.7340     2.1380    -6.5030 
   83.3750    57.3320    27.3090    24.0550    19.3990    26.5240     2.1230    -6.2920 
   83.5000    57.4460    27.0690    23.8470    18.6620    26.5260     2.1130    -6.1020 
   83.6250    58.9600    26.6180    23.4960    17.7470    26.6990     2.1090    -5.9580 
   83.7500    60.0270    26.0380    23.0570    17.1530    26.8510     2.1100    -5.8040 
   83.8750    60.1900    25.4240    22.5960    16.7400    26.8650     2.1120    -5.6780 
   84.0000    61.0080    24.8770    22.1860    16.3650    26.8190     2.1150    -5.5830 
   84.1250    61.9870    24.4920    21.9040    16.1470    26.7850     2.1210    -5.4970 
   84.2500    61.1120    24.2610    21.7520    16.0050    26.7420     2.1320    -5.4060 
   84.3750    60.5980    24.1590    21.7190    15.8570    26.6540     2.1440    -5.3470 
   84.5000    62.0370    24.1440    21.7760    15.9140    26.4970     2.1550    -5.3090 
   84.6250    62.4830    24.1830    21.8970    16.1740    26.2900     2.1600    -5.2510 
   84.7500    59.6090    24.2580    22.0530    16.4750    26.1110     2.1580    -5.2120 
   84.8750    56.1190    24.3810    22.2440    16.5830    25.9710     2.1510    -5.1570 
   85.0000    56.3800    24.5660    22.4730    16.5660    25.8540     2.1460    -5.1020 
   85.1250    59.5570    24.7870    22.7140    16.8080    25.6990     2.1470    -5.0740 
   85.2500    61.5800    24.9410    22.8880    17.5060    25.5200     2.1590    -5.0560 
   85.3750    60.4980    24.9110    22.9000    18.4900    25.3620     2.1780    -5.0290 
   85.5000    57.5740    24.6130    22.6750    19.2970    25.2780     2.2000    -5.0060 
   85.6250    59.0040    24.0200    22.1710    19.5200    25.2750     2.2170    -5.0350 
   85.7500    63.7470    23.3150    21.5340    19.1480    25.3110     2.2250    -5.0340 
   85.8750    66.1530    22.6840    20.9210    18.3320    25.3720     2.2270    -5.0340 
   86.0000    64.2760    22.2890    20.4850    17.7250    25.4400     2.2260    -5.0410 
   86.1250    62.3010    22.2810    20.3870    18.2050    25.5030     2.2220    -4.9760 
   86.2500    64.1500    22.6260    20.6210    18.8040    25.5370     2.2150    -4.8710 
   86.3750    67.7120    23.3170    21.1880    19.1930    25.5310     2.2030    -4.6960 
   86.5000    69.1460    24.3250    22.0640    19.1850    25.5180     2.1870    -4.4280 
   86.6250    66.2070    25.5760    23.1970    18.8360    25.5110     2.1730    -4.0590 
   86.7500    61.7630    26.7970    24.3560    19.1850    25.5050     2.1660    -3.6930 
   86.8750    60.5390    27.6570    25.2630    20.0170    25.4870     2.1700    -3.3600 
   87.0000    62.9310    27.8190    25.6100    20.7400    25.4530     2.1850    -3.0450 
   87.1250    65.3280    26.9660    25.0620    20.6060    25.3880     2.2050    -2.7950 
   87.2500    66.5660    25.4280    23.8460    19.6760    25.3060     2.2180    -2.6460 
   87.3750    68.6530    23.6220    22.2950    18.3760    25.2220     2.2180    -2.5820 
   87.5000    72.4190    22.0150    20.8150    17.1370    25.1690     2.2060    -2.5960 
   87.6250    74.8970    21.0610    19.8190    16.5910    25.1340     2.1940    -2.7150 
   87.7500    72.9590    20.7500    19.3600    16.9980    25.0920     2.1910    -2.8570 
   87.8750    68.0460    20.9530    19.3780    17.6360    25.0450     2.1940    -2.9960 
   88.0000    65.0880    21.4520    19.7200    17.8530    25.0200     2.1970    -3.1860 
   88.1250    68.2480    21.9970    20.1970    17.7370    25.0670     2.1900    -3.3850 
   88.2500    70.8570    22.4080    20.6160    17.4420    25.2060     2.1760    -3.5520 
   88.3750    69.8830    22.6430    20.9080    17.0330    25.4840     2.1590    -3.6990 
   88.5000    67.1570    22.7450    21.0800    16.6270    25.8980     2.1450    -3.8410 
   88.6250    64.2700    22.7990    21.1840    16.5660    26.2510     2.1380    -3.9370 
