~V
VERS. 2.00: Ver 2.00
~W
STRT.M 58.0000:
STOP.M 199.0000:
STEP.M 0.1250:
NULL. -999.2500:
UWI. F10565:
~C
DEPT.M :
SP.MV :
GR.API :
RML.OHMM :
RI. :
RXO.OHMM :
CALI.CM :
DEN.GM/CC :
~A
# ...
  159.2500    -8.2870    90.1830     8.1950     7.7090     8.0680    24.1500     2.4170 
  159.3750    -8.5020    99.8350     8.6920     8.3330     8.5080    24.1570     2.4380 
  159.5000    -8.7450   106.2410     9.2530     9.0110     8.9040    24.1780     2.4490 
  159.6250    -9.0030   109.2560     9.6180     9.5650     9.3020    24.2080     2.4540 
  159.7500    -9.2620   113.2800     9.7980     9.8640     9.5060    24.2290     2.4590 
  159.8750    -9.5180   117.7860     9.8820     9.9610     9.3540    24.2330     2.4670 
  160.0000    -9.7660   121.5030     9.9650     9.9140     8.9540    24.2300     2.4750 
  160.1250   -10.0160   124.2490     9.9660     9.7780     8.5290    24.2290     2.4780 
  160.2500   -10.2690   124.9230     9.7600     9.5750     8.8490    24.2320     2.4750 
  160.3750   -10.5350   124.2790     9.4730     9.3220     9.1200    24.2240     2.4690 
  160.5000   -10.8140   122.8180     9.1450     9.0330     9.2260    24.1970     2.4630 
  160.6250   -11.1080   122.2840     8.7600     8.7560     9.1380    24.1600     2.4540 
  160.7500   -11.4140   122.2500     8.7120     8.6310     9.0180    24.1350     2.4400 
  160.8750   -11.7220   120.0150     9.0800     8.8200     8.9690    24.1270     2.4200 
  161.0000   -12.0390   114.9520    10.0440     9.5330     9.3350    24.1300     2.3950 
  161.1250   -12.3350   106.4900    11.8440    11.0430    10.9430    24.1320     2.3700 
  161.2500   -12.5490    93.7520    15.0550    13.9380    15.4900    24.1270     2.3500 
  161.3750   -12.6800    81.6830    19.7980    18.3900    23.4570    24.1180     2.3350 
  161.5000   -12.7610    74.8800    26.0400    24.4270    33.4160    24.1110     2.3250 
  161.6250   -12.7990    73.3120    33.0320    31.3840    43.3140    24.1030     2.3190 
  161.7500   -12.8130    72.1590    38.4570    37.1850    54.7850    24.0750     2.3170 
  161.8750   -12.8080    72.0060    40.1470    39.7040    61.6660    24.0170     2.3200 
  162.0000   -12.7530    75.0370    37.5230    38.0900    57.7630    23.9410     2.3290 
  162.1250   -12.6530    81.0030    32.0780    33.3230    43.0640    23.8710     2.3460 
  162.2500   -12.6010    88.1420    26.4760    27.6950    28.8890    23.8370     2.3690 
  162.3750   -12.6430    92.6760    22.5760    23.3600    20.8070    23.8410     2.3900 
  162.5000   -12.7550    92.5380    20.9490    21.1700    16.0500    23.8630     2.3990 
  162.6250   -12.9150    88.5220    21.7420    21.4630    16.3110    23.8790     2.3940 
  162.7500   -13.0780    82.9830    25.5440    24.9400    24.2600    23.8720     2.3750 
  162.8750   -13.2170    78.2230    32.1400    31.3530    38.5960    23.8530     2.3550 
  163.0000   -13.3560    74.1750    41.4310    40.5300    51.1460    23.8360     2.3410 
  163.1250   -13.5250    71.7250    52.5820    51.6060    60.7100    23.8230     2.3340 
  163.2500   -13.6640    70.2060    63.5000    62.6610    71.6030    23.8060     2.3300 
  163.3750   -13.7270    68.6360    71.8360    71.5290    84.3640    23.7760     2.3240 
  163.5000   -13.7440    67.1170    76.1670    76.7890    98.1650    23.7320     2.3150 
  163.6250   -13.7510    65.8270    75.9360    77.6950   101.0030    23.6840     2.3060 
  163.7500   -13.7620    64.8750    70.8960    73.6240    94.5640    23.6520     2.3010 
  163.8750   -13.7450    64.6550    63.3410    66.4960    79.3420    23.6450     2.3020 
  164.0000   -13.7150    67.0050    55.3610    58.2240    63.0480    23.6550     2.3080 
  164.1250   -13.6900    72.2400    48.8720    50.8610    50.5110    23.6670     2.3170 
  164.2500   -13.7040    77.3010    45.6520    46.5820    42.1850    23.6660     2.3250 
  164.3750   -13.7390    78.9300    45.7370    45.8420    36.5210    23.6460     2.3260 
  164.5000   -13.7510    75.9130    48.9630    48.6270    37.8850    23.6070     2.3180 
  164.6250   -13.7150    69.6590    54.2090    53.8250    57.4930    23.5630     2.3050 
  164.7500   -13.6430    65.2720    57.9900    58.1610    93.2650    23.5310     2.2920 
  164.8750   -13.6050    67.0980    56.5390    57.8770   125.8650    23.4990     2.2850 
  165.0000   -13.5990    75.3220    49.0120    51.5880   118.5650    23.4470     2.2850 
  165.1250   -13.5990    85.5320    38.2250    41.1880    77.5290    23.3800     2.2890 
  165.2500   -13.5800    92.7330    28.5670    30.7440    42.0450    23.3430     2.2930 
  165.3750   -13.5500    96.7030    21.7910    22.9040    23.4140    23.3670     2.2930 
  165.5000   -13.5280    98.7560    17.6380    17.9290    16.6310    23.4450     2.2910 
  165.6250   -13.5380    99.7530    15.3230    15.1260    14.7860    23.5360     2.2900 
  165.7500   -13.5560   100.4400    14.2550    13.8200    13.4060    23.5960     2.2910 
  165.8750   -13.5410   102.4810    13.7500    13.1830    12.8470    23.6240     2.2940 
  166.0000   -13.4700   104.7880    13.5350    12.8880    11.7700    23.6470     2.2970 
  166.1250   -13.3300   105.3350    13.4520    12.7410    11.3870    23.6920     2.3000 
  166.2500   -13.1120   103.5160    13.4320    12.6600    12.0420    23.7690     2.3030 
  166.3750   -12.8050   100.4990    13.4360    12.6180    13.0020    23.8430     2.3090 
  166.5000   -12.3790    97.9570    13.4120    12.5850    13.3790    23.8790     2.3200 
  166.6250   -11.8470    97.5320    13.2600    12.4660    12.5640    23.8570     2.3350 
  166.7500   -11.2320    98.1230    12.7890    12.0620    12.4170    23.7940     2.3500 
  166.8750   -10.5930    96.4550    11.9650    11.3110    13.1580    23.7380     2.3640 
  167.0000    -9.9400    91.7910    10.8550    10.2590    12.7370    23.7150     2.3730 
  167.1250    -9.2830    84.2150     9.5830     9.0660    10.2140    23.7250     2.3810 
  167.2500    -8.6430    72.2580     8.3570     7.9750     7.6550    23.7580     2.3930 
  167.3750    -8.0630    60.7220     7.3640     7.1290     6.8210    23.7960     2.4120 
  167.5000    -7.5740    54.0020     6.7910     6.5620     6.5750    23.8280     2.4360 
  167.6250    -7.1900    51.7210     6.5300     6.2300     6.5450    23.8440     2.4570 
  167.7500    -6.9350    50.7580     6.4190     6.0480     6.5320    23.8340     2.4630 
  167.8750    -6.7410    51.2220     6.3420     5.9000     6.3730    23.8060     2.4480 
  168.0000    -6.5890    54.0490     6.2730     5.7550     6.0080    23.7740     2.4120 
  168.1250    -6.5060    57.2860     6.2290     5.6310     5.6370    23.7520     2.3640 
  168.2500    -6.5150    60.0240     6.2450     5.5730     5.4700    23.7440     2.3200 
  168.3750    -6.5730    63.9090     6.3140     5.5930     5.8210    23.7390     2.2970 
  168.5000    -6.6540    66.6200     6.4150     5.6850     6.7500    23.7240     2.2990 
  168.6250    -6.7020    64.3250     6.5250     5.8200     7.9090    23.6930     2.3240 
  168.7500    -6.6910    58.3900     6.6420     5.9790     7.7770    23.6480     2.3590 
  168.8750    -6.6650    54.9710     6.8080     6.1640     7.5760    23.6020     2.3910 
  169.0000    -6.6210    55.8240     7.0800     6.4080     8.0000    23.5690     2.4190 
  169.1250    -6.5370    59.1490     7.4910     6.7380     8.7660    23.5550     2.4460 
  169.2500    -6.4000    62.9590     7.9980     7.1370    10.2630    23.5620     2.4700 
  169.3750    -6.2290    64.6180     8.4140     7.4770    13.3130    23.5920     2.4830 
  169.5000    -6.0580    62.6370     8.5070     7.6020    15.7670    23.6390     2.4800 
  169.6250    -5.8960    57.2800     8.1200     7.4020    13.8920    23.6720     2.4610 
  169.7500    -5.7460    48.8660     7.2390     6.8560    10.0000    23.6530     2.4400 
  169.8750    -5.6300    40.7460     6.3500     6.1740     6.7200    23.6190     2.4270 
  170.0000    -5.5880    36.4520     5.6300     5.5250     5.5220    23.6270     2.4210 
  170.1250    -5.6150    36.6990     5.1670     5.0310     5.2040    23.6900     2.4140 
  170.2500    -5.6990    38.7910     5.0100     4.7760     5.1220    23.7660     2.4010 
  170.3750    -5.8230    41.3450     5.0620     4.7060     5.0800    23.8140     2.3900 
