~V
VERS. 2.00: Ver 2.00
~W
STRT.M 50.0000:
STOP.M 236.0000:
STEP.M 0.1250:
NULL. -999.2500:
UWI. F10596:
~C
DEPT.M :
DEN.GM/CC :
SP.MV :
GR.API :
RML.OHMM :
RI. :
RXO.OHMM :
CALI.CM :
~A
# ...
  173.7500     2.4280   -10.8520    57.6580    19.3960    18.5820    22.6230    24.3600 
  173.8750     2.4240   -10.8470    56.6160    18.3990    17.9380    21.9890    24.3850 
  174.0000     2.4240   -10.8280    57.2830    17.2510    16.9600    20.8960    24.3860 
  174.1250     2.4280   -10.7970    57.0140    16.3410    15.9980    19.5160    24.3890 
  174.2500     2.4360   -10.7640    55.3190    15.7410    15.2140    17.9790    24.4090 
  174.3750     2.4440   -10.7160    53.5480    15.4040    14.6280    17.2660    24.4650 
  174.5000     2.4480   -10.6630    53.7280    15.2700    14.2480    17.4560    24.5540 
  174.6250     2.4520   -10.5990    54.4970    15.2830    14.1200    18.3760    24.6400 
  174.7500     2.4590   -10.5530    53.7490    15.2910    14.1440    18.5530    24.6790 
  174.8750     2.4650   -10.5070    52.5120    15.1800    14.1900    17.6870    24.7050 
  175.0000     2.4660   -10.4680    53.6600    14.8790    14.1180    17.2080    24.7360 
  175.1250     2.4610   -10.4430    56.3330    14.3700    13.7980    16.6080    24.7490 
  175.2500     2.4520   -10.4130    57.8360    13.7720    13.3020    15.8960    24.7500 
  175.3750     2.4440   -10.3770    58.6030    13.1820    12.7410    15.5380    24.7470 
  175.5000     2.4360   -10.3520    59.2430    12.6530    12.2080    15.4620    24.7450 
  175.6250     2.4290   -10.3520    58.1380    12.1630    11.7410    14.9450    24.7460 
  175.7500     2.4260   -10.3550    56.5250    11.6950    11.3170    14.0150    24.7480 
  175.8750     2.4260   -10.3620    56.1750    11.3030    10.9440    13.1210    24.7500 
  176.0000     2.4280   -10.3760    56.1360    11.0750    10.6590    12.7610    24.7530 
  176.1250     2.4300   -10.3870    54.3810    11.1090    10.5370    12.7120    24.7540 
  176.2500     2.4340   -10.4130    52.5800    11.3240    10.5620    12.8890    24.7530 
  176.3750     2.4380   -10.4610    51.0110    11.6060    10.6890    13.1130    24.7500 
  176.5000     2.4360   -10.5160    48.4990    11.8550    10.8560    13.5360    24.7490 
  176.6250     2.4270   -10.5610    48.2220    12.0340    11.0230    14.2330    24.7520 
  176.7500     2.4180   -10.5960    52.4550    12.1920    11.1840    14.5890    24.7530 
  176.8750     2.4120   -10.6220    57.5720    12.3170    11.3220    14.9000    24.7510 
  177.0000     2.4080   -10.6450    60.1510    12.3330    11.3890    14.7430    24.7500 
  177.1250     2.4040   -10.6660    59.7510    12.1270    11.3000    13.8290    24.7470 
  177.2500     2.4030   -10.6810    58.4550    11.7790    11.0840    13.2590    24.7460 
  177.3750     2.4070   -10.6780    58.3730    11.4550    10.8250    13.1440    24.7450 
  177.5000     2.4100   -10.6630    60.2590    11.3340    10.6340    13.1380    24.7450 
  177.6250     2.4130   -10.6370    61.9900    11.5580    10.6340    13.2030    24.7450 
  177.7500     2.4220   -10.6320    61.5300    12.0350    10.8250    13.4770    24.7450 
  177.8750     2.4320   -10.6410    60.4000    12.6650    11.1900    13.7860    24.7450 
  178.0000     2.4390   -10.6630    60.1590    13.3750    11.6990    14.2920    24.7460 
  178.1250     2.4460   -10.6950    60.5400    14.1340    12.3400    15.3600    24.7480 
  178.2500     2.4560   -10.7390    61.6520    14.8810    13.0380    16.8350    24.7480 
  178.3750     2.4670   -10.8110    62.0460    15.5130    13.7030    17.8240    24.7460 
  178.5000     2.4730   -10.8950    62.0420    15.9090    14.2220    18.6880    24.7440 
  178.6250     2.4710   -11.0000    63.8950    15.9360    14.4510    19.1040    24.7330 
  178.7500     2.4650   -11.1020    64.3200    15.6840    14.4170    18.6940    24.7090 
  178.8750     2.4620   -11.1910    60.8790    15.2890    14.1950    17.8590    24.6880 
  179.0000     2.4620   -11.2550    58.9600    14.9080    13.9030    17.4530    24.6790 
  179.1250     2.4650   -11.3080    62.4250    14.6570    13.6430    17.5650    24.6790 
  179.2500     2.4660   -11.3560    63.5750    14.4700    13.4140    17.9090    24.6790 
  179.3750     2.4600   -11.3710    58.1150    14.2220    13.1350    17.1670    24.6790 
  179.5000     2.4420   -11.3710    51.8290    13.8050    12.7300    15.2970    24.6790 
  179.6250     2.4110   -11.3480    51.8000    13.2010    12.2050    13.7250    24.6790 
  179.7500     2.3860   -11.3190    54.4550    12.5760    11.7140    12.9810    24.6790 
  179.8750     2.3780   -11.2900    56.7660    12.0920    11.3890    12.8880    24.6790 
  180.0000     2.3850   -11.2670    57.4620    11.8330    11.2850    13.0300    24.6790 
  180.1250     2.3930   -11.2330    56.9060    11.7970    11.3840    13.2180    24.6790 
  180.2500     2.3920   -11.1880    57.0780    11.8310    11.5350    13.6720    24.6790 
  180.3750     2.3840   -11.1510    57.3240    11.7960    11.6270    14.2260    24.6790 
  180.5000     2.3790   -11.1080    58.0460    11.5940    11.5850    13.9300    24.6780 
  180.6250     2.3840   -11.0690    58.4560    11.2350    11.3730    13.1060    24.6760 
  180.7500     2.3940   -11.0230    57.0520    10.8730    11.0760    12.6830    24.6750 
  180.8750     2.4000   -10.9630    55.0800    10.6250    10.7920    12.4000    24.6750 
  181.0000     2.4010   -10.8950    56.3790    10.5540    10.6190    12.2560    24.6760 
  181.1250     2.4040   -10.8310    61.0820    10.7220    10.6660    12.2590    24.6760 
  181.2500     2.4070   -10.7880    61.5420    11.0890    10.9170    12.2860    24.6740 
  181.3750     2.4070   -10.7540    57.6110    11.6150    11.3380    12.4290    24.6720 
  181.5000     2.4040   -10.7420    55.6800    12.2340    11.8670    12.8410    24.6640 
  181.6250     2.4080   -10.7640    58.4010    12.7900    12.4140    14.0990    24.6430 
  181.7500     2.4140   -10.8180    60.6200    13.1120    12.8590    15.3330    24.6120 
  181.8750     2.4130   -10.9100    58.0470    13.1120    13.0790    15.7350    24.5830 
  182.0000     2.4000   -11.0350    52.5590    12.8210    12.9890    14.3740    24.5420 
  182.1250     2.3850   -11.2040    51.0010    12.4050    12.5990    13.0560    24.4860 
  182.2500     2.3810   -11.3860    54.5490    12.1160    12.1510    12.5530    24.4030 
  182.3750     2.3830   -11.5720    59.7690    12.1270    11.8510    12.6340    24.3340 
  182.5000     2.3790   -11.7550    63.4100    12.5320    11.8570    12.7750    24.3180 
  182.6250     2.3630   -11.9170    64.4200    13.4570    12.3460    13.0080    24.3670 
  182.7500     2.3440   -12.0450    64.0420    14.9950    13.4010    13.7300    24.4610 
  182.8750     2.3190   -12.1460    63.7750    17.3800    15.2430    16.1350    24.5670 
  183.0000     2.2820   -12.2310    65.6510    20.7650    18.0710    21.5220    24.6990 
  183.1250     2.2420   -12.2570    67.7990    24.9920    21.8940    27.2200    24.7790 
  183.2500     2.2170   -12.2560    67.5030    28.9530    25.7450    30.5570    24.8080 
  183.3750     2.2090   -12.2410    66.9530    31.4240    28.4890    31.6710    24.8110 
  183.5000     2.2080   -12.2250    69.4310    31.7690    29.4690    31.9160    24.8110 
  183.6250     2.2100   -12.2010    72.3860    30.4490    28.9590    32.3540    24.8110 
  183.7500     2.2130   -12.1730    73.0210    28.8860    28.1120    32.8020    24.8080 
  183.8750     2.2180   -12.1510    73.1940    27.5980    27.3250    32.8890    24.7950 
  184.0000     2.2260   -12.1150    75.0570    26.6270    26.5690    32.4790    24.7630 
  184.1250     2.2360   -12.1250    75.3010    25.8010    25.6640    31.6940    24.7320 
  184.2500     2.2480   -12.1400    73.4860    24.8650    24.5770    30.5260    24.6890 
  184.3750     2.2550   -12.1550    72.8810    23.7360    23.3720    28.3610    24.6390 
  184.5000     2.2570   -12.1700    74.2450    22.5440    22.1890    25.3750    24.6090 
  184.6250     2.2610   -12.1900    74.3940    21.6570    21.2800    23.5300    24.6000 
  184.7500     2.2680   -12.2340    73.0010    21.2380    20.7640    24.3310    24.5980 
  184.8750     2.2740   -12.3020    71.7860    21.2230    20.6360    25.4580    24.6000 
