~V
VERS. 2.00: Ver 2.00
~W
STRT.M 55.0000:
STOP.M 211.0000:
STEP.M 0.1250:
NULL. -999.2500:
UWI. F10586:
~C
DEPT.M :
GR.API :
RML.OHMM :
RI. :
RXO.OHMM :
CALI.CM :
DEN.GM/CC :
SP.MV :
~A
# ...
  178.7500    54.1460   143.6750   136.9090   129.7600    23.6590     2.2290   -16.2040 
  178.8750    53.4720   144.3500   140.0400   130.9850    23.6620     2.2460   -16.2510 
  179.0000    55.5490   133.5260   132.5210   138.2500    23.6420     2.2790   -16.2980 
  179.1250    60.1850   114.3250   115.9580   139.3430    23.6310     2.3160   -16.3090 
  179.2500    64.1950    93.8250    96.4670   122.7380    23.6280     2.3450   -16.2860 
  179.3750    67.0430    76.6660    78.6800    92.4620    23.6290     2.3610   -16.2670 
  179.5000    68.6050    65.6860    66.1100    62.6720    23.6330     2.3690   -16.2860 
  179.6250    66.9720    63.0200    61.6350    49.1870    23.6520     2.3710   -16.2220 
  179.7500    63.0300    66.9770    63.9820    50.9950    23.6630     2.3650   -16.1130 
  179.8750    59.7740    76.1130    71.8730    66.0680    23.6470     2.3450   -15.9930 
  180.0000    58.6630    87.9640    83.0500    87.7580    23.6020     2.3120   -15.7770 
  180.1250    59.9620    98.4860    93.9110   106.5290    23.5560     2.2770   -15.5320 
  180.2500    60.8830   104.1720   100.9430   109.1040    23.5070     2.2500   -15.2840 
  180.3750    59.9330   103.5560   102.3510    98.0610    23.4300     2.2360   -14.9820 
  180.5000    57.8720    97.4130    98.1530    83.7360    23.3190     2.2290   -14.5910 
  180.6250    57.8290    87.0500    88.8090    78.9680    23.2620     2.2350   -14.1550 
  180.7500    59.8550    74.0180    75.9380    81.3870    23.3090     2.2590   -13.7010 
  180.8750    61.2990    58.7810    60.2520    81.5190    23.3780     2.3020   -13.1970 
  181.0000    62.1640    42.7490    43.5070    71.2230    23.3750     2.3540   -12.7100 
  181.1250    63.9340    28.8010    29.0510    49.6630    23.2560     2.3920   -12.2060 
  181.2500    64.2260    18.4410    18.4860    30.7790    23.0790     2.4050   -11.6550 
  181.3750    61.0180    11.7420    11.6830    17.1290    22.9510     2.3970   -11.0970 
  181.5000    55.5110     7.9370     7.7040     8.2280    22.9000     2.3860   -10.6020 
  181.6250    50.3570     6.2730     5.7740     5.1620    22.8800     2.3830   -10.1500 
  181.7500    46.9560     5.6110     4.8570     4.5110    22.8470     2.3840    -9.7370 
  181.8750    45.6950     5.4820     4.5510     4.5210    22.7930     2.3810    -9.4040 
  182.0000    46.0580     5.5920     4.5880     4.6100    22.7160     2.3720    -9.1150 
  182.1250    45.2840     5.7660     4.7960     4.5840    22.6560     2.3590    -8.9280 
  182.2500    42.6070     5.9260     5.0380     4.5480    22.6930     2.3500    -8.8470 
  182.3750    40.2560     6.0650     5.2730     4.5260    22.7420     2.3500    -8.8120 
  182.5000    40.6070     6.1810     5.4780     4.5870    22.7660     2.3580    -8.8010 
  182.6250    45.7130     6.2460     5.6100     4.8360    22.7800     2.3640    -8.8140 
  182.7500    51.6070     6.2400     5.6370     5.1590    22.8060     2.3650    -8.8070 
  182.8750    54.6980     6.1390     5.5340     5.3690    22.8300     2.3590    -8.8030 
  183.0000    52.2510     5.9540     5.3100     5.2680    22.8450     2.3490    -8.7980 
  183.1250    45.6530     5.6770     5.0080     5.0070    22.9200     2.3400    -8.7360 
  183.2500    41.3290     5.3880     4.7160     4.7510    22.9930     2.3370    -8.6920 
  183.3750    42.5300     5.1060     4.4860     4.5410    23.0240     2.3410    -8.6680 
  183.5000    47.9970     4.8580     4.3470     4.4550    23.0280     2.3540    -8.6110 
  183.6250    51.2730     4.8400     4.3100     4.5210    23.0290     2.3740    -8.6260 
  183.7500    50.3220     4.9210     4.3400     4.6300    23.0310     2.3960    -8.7040 
  183.8750    47.8710     5.0440     4.4150     4.7040    23.0360     2.4140    -8.8020 
  184.0000    46.0180     5.1800     4.5210     4.7730    23.0420     2.4240    -8.9430 
  184.1250    46.4710     5.3470     4.6680     4.9040    23.0320     2.4220    -9.0730 
  184.2500    49.1080     5.5730     4.8660     5.0860    22.9880     2.4140    -9.1480 
  184.3750    52.0650     5.8720     5.1260     5.2820    22.9030     2.4050    -9.1850 
  184.5000    54.7250     6.2210     5.4330     5.4840    22.7470     2.4010    -9.2100 
  184.6250    57.8870     6.5210     5.7080     5.8640    22.5190     2.4020    -9.1410 
  184.7500    60.6260     6.6580     5.8490     6.4570    22.3530     2.4030    -8.9640 
  184.8750    60.7010     6.5520     5.7780     7.0980    22.3570     2.4030    -8.7430 
  185.0000    56.5980     6.1960     5.4770     7.5040    22.5050     2.3980    -8.5090 
  185.1250    49.5490     5.6680     5.0020     7.0580    22.7470     2.3930    -8.2540 
  185.2500    41.6380     5.1600     4.5200     5.6850    23.0010     2.3890    -7.9970 
  185.3750    35.9340     4.8070     4.1480     4.6660    23.1600     2.3880    -7.7520 
  185.5000    34.0610     4.6900     3.9650     4.3460    23.2160     2.3940    -7.4970 
  185.6250    34.7250     4.8660     4.0440     4.3480    23.2210     2.4120    -7.2630 
  185.7500    34.5630     5.2350     4.3220     4.3680    23.2210     2.4430    -7.1190 
  185.8750    32.5470     5.6810     4.7190     4.5790    23.2210     2.4800    -7.0000 
  186.0000    29.7970     6.0570     5.1090     5.1880    23.2210     2.5120    -6.8890 
  186.1250    27.2450     6.1720     5.3110     6.0860    23.2210     2.5220    -6.8680 
  186.2500    25.8280     6.0040     5.2610     6.9790    23.2210     2.5140    -6.8580 
  186.3750    25.4970     5.6240     4.9850     7.4260    23.2210     2.4970    -6.8620 
  186.5000    26.1870     5.1920     4.6030     6.6780    23.2210     2.4820    -6.9300 
  186.6250    27.4730     4.9240     4.2980     5.1460    23.2210     2.4740    -7.0500 
  186.7500    30.5350     4.8880     4.1660     4.3980    23.2200     2.4660    -7.2330 
  186.8750    35.6310     5.0590     4.2100     4.4850    23.2180     2.4560    -7.4740 
  187.0000    39.8570     5.3390     4.3710     4.9710    23.2120     2.4430    -7.7390 
  187.1250    39.4940     5.5850     4.5490     5.5270    23.1970     2.4340    -8.0610 
  187.2500    36.6540     5.6970     4.6510     5.7880    23.1720     2.4310    -8.4600 
  187.3750    33.2900     5.6640     4.6500     5.4900    23.1400     2.4320    -8.9020 
  187.5000    30.8000     5.5510     4.5810     5.0360    23.1030     2.4370    -9.4110 
  187.6250    31.3480     5.5040     4.5440     5.0500    23.0430     2.4480   -10.0310 
  187.7500    34.5850     5.6460     4.6380     5.3070    22.9630     2.4620   -10.6880 
  187.8750    39.9520     6.0420     4.9280     5.6380    22.8470     2.4730   -11.3990 
  188.0000    46.6530     6.6850     5.4320     6.2570    22.7400     2.4740   -12.1050 
  188.1250    54.2840     7.4940     6.1210     7.3760    22.8470     2.4560   -12.6860 
  188.2500    62.3760     8.2770     6.8500     8.7460    23.0880     2.4270   -13.2050 
  188.3750    70.8900     8.8880     7.4900    10.1050    23.3130     2.3950   -13.6250 
  188.5000    78.2400     9.2330     7.9320    10.9070    23.4470     2.3660   -13.8770 
  188.6250    79.8730     9.2650     8.0830    10.9790    23.4840     2.3450   -13.9420 
  188.7500    76.9480     9.0990     8.0120    11.1090    23.4920     2.3340   -13.8100 
  188.8750    74.9550     8.7930     7.7690    10.7560    23.4920     2.3350   -13.4800 
  189.0000    76.5080     8.3770     7.3910    10.0970    23.4920     2.3500   -13.0390 
  189.1250    75.4030     7.8530     6.9020     9.3370    23.4920     2.3720   -12.5650 
  189.2500    67.9720     7.2900     6.3730     8.6720    23.4920     2.3900   -12.0590 
  189.3750    58.5670     6.7750     5.8790     7.9280    23.4920     2.3970   -11.5680 
  189.5000    53.6900     6.4040     5.4990     6.9340    23.4920     2.3920   -11.1530 
  189.6250    53.9660     6.2850     5.3260     6.2200    23.4920     2.3830   -10.8020 
  189.7500    54.9220     6.3870     5.3480     6.0640    23.4920     2.3770   -10.5040 
  189.8750    55.4610     6.6600     5.5360     6.1970    23.4920     2.3790   -10.2790 
