~V
VERS. 2.00: Ver 2.00
~W
STRT.M 50.0000:
STOP.M 222.0000:
STEP.M 0.1250:
NULL. -999.2500:
UWI. F10580:
~C
DEPT.M :
DEN.GM/CC :
SP.MV :
GR.API :
RML.OHMM :
RI. :
RXO.OHMM :
CALI.CM :
~A
# ...
  117.5000     2.2640   -14.9600   107.6200     8.2950     6.7620     6.2550    22.1770 
  117.6250     2.2650   -14.8880   105.0190     8.1070     6.6000     6.1450    22.1770 
  117.7500     2.2690   -14.8650   105.9380     7.8980     6.4100     6.0680    22.1760 
  117.8750     2.2710   -14.8280   109.2050     7.8060     6.2910     5.9430    22.1820 
  118.0000     2.2640   -14.8130   112.2450     7.9910     6.3670     6.0070    22.2120 
  118.1250     2.2360   -14.8010   111.3720     8.6880     6.8300     6.6560    22.2810 
  118.2500     2.1970   -14.8160   106.4730     9.9320     7.7330     8.3610    22.3640 
  118.3750     2.1640   -14.8320    99.1540    11.7380     9.1300    11.7830    22.5180 
  118.5000     2.1510   -14.8440    92.0670    14.0120    10.9970    15.6020    22.8170 
  118.6250     2.1630   -14.8620    89.1370    16.5940    13.2420    16.2040    23.3830 
  118.7500     2.1920   -14.8350    89.0570    19.3260    15.6340    16.0370    24.0760 
  118.8750     2.2290   -14.8210    88.8910    22.3380    18.1780    17.6520    24.5690 
  119.0000     2.2480   -14.8010    85.3420    25.9120    21.0640    21.9960    24.7860 
  119.1250     2.2180   -14.8070    79.6670    30.3510    24.6130    27.7630    24.8970 
  119.2500     2.1610   -14.7950    75.0260    35.2530    28.6430    33.3050    25.0000 
  119.3750     2.1130   -14.7830    71.8140    39.8930    32.6260    36.7680    25.0410 
  119.5000     2.0900   -14.7770    71.3370    43.4200    35.8060    40.9830    25.0460 
  119.6250     2.0880   -14.7630    74.4050    45.2410    37.5460    39.6220    25.0460 
  119.7500     2.0910   -14.7860    78.3860    46.1940    38.4450    36.4560    25.0460 
  119.8750     2.0910   -14.8090    81.0670    47.1770    39.2350    33.9100    25.0460 
  120.0000     2.0880   -14.8560    80.2540    48.9200    40.5570    34.4180    25.0700 
  120.1250     2.0850   -14.8940    75.4400    52.0460    43.0250    39.7860    25.1380 
  120.2500     2.0850   -14.9470    69.9620    56.3310    46.5580    47.8530    25.2250 
  120.3750     2.0850   -15.0190    66.5080    61.3790    50.8730    52.8640    25.2620 
  120.5000     2.0850   -15.1000    65.8360    66.5640    55.4450    54.5560    25.2680 
  120.6250     2.0850   -15.1790    67.2290    70.9480    59.4650    56.1650    25.2680 
  120.7500     2.0850   -15.2040    69.2590    73.8550    62.3260    60.2040    25.2680 
  120.8750     2.0820   -15.2140    70.9210    74.8000    63.6080    63.1730    25.2680 
  121.0000     2.0740   -15.1920    72.5420    73.6240    63.1470    62.6410    25.2680 
  121.1250     2.0660   -15.1840    74.6380    70.2120    60.7680    58.1720    25.2680 
  121.2500     2.0650   -15.1670    74.9600    65.4500    57.1430    51.2430    25.2680 
  121.3750     2.0690   -15.1500    72.9770    60.2140    52.9690    45.4080    25.2680 
  121.5000     2.0740   -15.1120    70.5050    55.5370    49.1230    43.6650    25.2680 
  121.6250     2.0770   -15.0630    70.4290    52.6470    46.6520    42.3790    25.2680 
  121.7500     2.0800   -15.0630    73.0890    51.8950    45.8980    38.5670    25.2720 
  121.8750     2.0810   -15.0630    75.2170    53.5000    47.1080    37.2280    25.3000 
  122.0000     2.0770   -15.0630    74.1880    57.3690    50.3030    43.2700    25.3720 
  122.1250     2.0680   -15.0210    70.9760    63.0810    55.2710    52.6030    25.4570 
  122.2500     2.0600   -14.9870    67.6370    68.9980    60.6370    57.7100    25.4920 
  122.3750     2.0550   -14.9120    66.1250    73.5210    64.9870    59.8670    25.5000 
  122.5000     2.0540   -14.8320    68.3230    75.3920    67.1040    60.9010    25.5000 
  122.6250     2.0540   -14.7520    73.2200    74.1660    66.3690    58.3020    25.5000 
  122.7500     2.0540   -14.6300    74.4200    71.5820    64.2030    53.4890    25.5000 
  122.8750     2.0520   -14.4990    70.1630    68.8890    61.7560    49.1660    25.4980 
  123.0000     2.0490   -14.3800    66.0230    66.7470    59.7510    47.3750    25.4560 
  123.1250     2.0460   -14.3050    65.0050    65.3730    58.5100    46.4290    25.2370 
  123.2500     2.0440   -14.2060    65.8310    64.5350    57.8440    42.1020    24.7530 
  123.3750     2.0460   -14.1430    68.2800    64.1460    57.6430    36.0900    24.1200 
  123.5000     2.0520   -14.1050    72.1190    64.0990    57.7820    31.1950    23.5490 
  123.6250     2.0610   -14.0690    76.8230    64.0800    58.0080    29.4240    23.1560 
  123.7500     2.0760   -14.0260    78.6500    63.4640    57.8530    32.7200    22.8710 
  123.8750     2.0980   -13.9830    76.2480    61.5810    56.8100    38.1210    22.6940 
  124.0000     2.1280   -13.9530    71.9500    58.0250    54.4990    39.6750    22.5990 
  124.1250     2.1640   -13.9080    69.8710    52.9950    50.8990    37.4500    22.5630 
  124.2500     2.1970   -13.9160    69.7440    47.8520    47.0100    33.6680    22.5550 
  124.3750     2.2170   -13.9370    70.2940    43.5420    43.6350    29.9850    22.5540 
  124.5000     2.2210   -13.9650    72.0580    40.5090    41.2330    27.3510    22.5540 
  124.6250     2.2160   -14.0270    73.2800    38.9660    40.0590    26.6390    22.5540 
  124.7500     2.2110   -14.1080    71.5750    38.4800    39.7850    26.6600    22.5610 
  124.8750     2.1980   -14.2170    69.0890    38.6670    40.0770    25.6180    22.6060 
  125.0000     2.1780   -14.3310    68.0870    38.7780    40.2410    23.4530    22.7690 
  125.1250     2.1700   -14.4560    68.0230    37.3510    38.8500    22.3170    23.1520 
  125.2500     2.1910   -14.5480    67.3900    33.6290    35.1510    24.5820    23.7140 
  125.3750     2.2340   -14.6160    68.5510    27.8490    29.3970    27.4130    24.1900 
  125.5000     2.2870   -14.6790    75.2040    21.4020    23.0000    22.3650    24.3390 
  125.6250     2.3390   -14.7030    84.6790    16.2250    17.8320    15.2210    24.2020 
  125.7500     2.3820   -14.7340    90.1240    12.9310    14.4380    10.1750    24.0570 
  125.8750     2.4120   -14.7370    89.9350    11.4980    12.7820     8.9550    23.9580 
  126.0000     2.4310   -14.7160    86.1180    11.7610    12.7320    10.0970    23.9150 
  126.1250     2.4520   -14.7050    80.3130    13.7910    14.4810    16.2770    23.9070 
  126.2500     2.4800   -14.7310    74.2980    16.9780    17.6270    23.0870    23.9060 
  126.3750     2.5100   -14.7840    69.7150    20.6570    21.6590    25.2990    23.9060 
  126.5000     2.5290   -14.8320    66.3740    23.7950    25.4670    26.7180    23.9060 
  126.6250     2.5330   -14.8940    64.3350    24.9550    27.1760    28.2390    23.9060 
  126.7500     2.5280   -14.9660    63.1160    24.1510    26.5240    27.4830    23.9060 
  126.8750     2.5130   -15.0650    63.5100    22.1550    24.3910    23.7400    23.9060 
  127.0000     2.4870   -15.1860    67.4710    20.0320    22.0140    23.0290    23.9060 
  127.1250     2.4570   -15.2830    72.5140    18.7730    20.3940    19.6840    23.9150 
  127.2500     2.4400   -15.3590    72.4980    18.7190    19.8520    17.5020    23.9390 
  127.3750     2.4430   -15.4170    68.7220    19.9920    20.5340    18.1400    23.9670 
  127.5000     2.4660   -15.4780    67.1410    22.4400    22.3960    20.7940    23.9810 
  127.6250     2.4950   -15.5410    67.2040    25.6640    25.2120    23.8510    23.9950 
  127.7500     2.5120   -15.6160    65.2540    28.8200    28.1670    27.8260    24.0250 
  127.8750     2.5130   -15.6910    63.6830    31.2680    30.5480    30.2240    24.0650 
  128.0000     2.4950   -15.7530    63.5820    32.5880    31.8370    31.0060    24.1070 
  128.1250     2.4660   -15.8190    63.1130    32.5030    31.7400    32.4130    24.1290 
  128.2500     2.4420   -15.8750    63.0380    31.4330    30.7260    29.9990    24.1370 
  128.3750     2.4350   -15.9270    64.8150    29.7130    29.1280    28.3560    24.1380 
  128.5000     2.4440   -15.9730    65.6280    27.8180    27.3520    27.4200    24.1380 
  128.6250     2.4600   -16.0260    63.3370    26.4620    25.9650    25.6640    24.1380 
