~V
VERS. 2.00: Ver 2.00
~W
STRT.M 52.0000:
STOP.M 224.0000:
STEP.M 0.1250:
NULL. -999.2500:
UWI. F10595:
~C
DEPT.M :
GR.API :
RML.OHMM :
RI. :
RXO.OHMM :
CALI.CM :
DEN.GM/CC :
SP.MV :
~A
# ...
  108.2500    60.8590    17.8370    15.3210    15.1380    21.7830     2.1410   -10.1010 
  108.3750    60.4130    18.4430    15.7050    15.2260    21.7180     2.1520    -9.8610 
  108.5000    59.5860    18.9710    15.9930    15.6190    21.6890     2.1770    -9.6260 
  108.6250    59.2070    19.3610    16.1870    16.2930    21.7080     2.2010    -9.4070 
  108.7500    59.0450    19.5410    16.2750    16.8030    21.6810     2.2110    -9.2170 
  108.8750    60.2830    19.5470    16.2720    16.7010    21.6090     2.2100    -9.0610 
  109.0000    62.5770    19.4150    16.1770    16.4210    21.5400     2.2040    -8.9400 
  109.1250    63.1700    19.1910    15.9970    16.0450    21.4970     2.1980    -8.8560 
  109.2500    61.9360    18.9340    15.7630    15.2230    21.4660     2.1860    -8.8130 
  109.3750    60.1840    18.7180    15.5440    13.8660    21.4580     2.1660    -8.7980 
  109.5000    57.7780    18.5990    15.3930    12.9980    21.4730     2.1410    -8.8060 
  109.6250    54.3870    18.6150    15.3410    13.1340    21.5060     2.1180    -8.8300 
  109.7500    51.8330    18.7670    15.3810    13.2980    21.5300     2.1090    -8.8630 
  109.8750    52.3870    18.9090    15.4240    13.2920    21.5410     2.1170    -8.8920 
  110.0000    55.6450    18.8290    15.3510    13.4200    21.5720     2.1360    -8.9090 
  110.1250    59.9700    18.3460    15.0520    13.7610    21.6630     2.1550    -8.9040 
  110.2500    61.5670    17.5780    14.5650    13.9830    21.8120     2.1670    -8.8700 
  110.3750    59.2830    17.1560    14.2350    14.6160    21.9110     2.1800    -8.8060 
  110.5000    55.0060    17.8070    14.4740    14.8180    21.9250     2.2090    -8.7110 
  110.6250    52.3490    20.2220    15.7440    14.1620    21.8490     2.2690    -8.5850 
  110.7500    53.7350    25.1210    18.7830    14.9670    21.7080     2.3720    -8.4290 
  110.8750    57.1090    31.4590    23.3140    20.3550    21.6110     2.4860    -8.2550 
  111.0000    60.1600    36.8710    27.9850    31.4300    21.5850     2.5650    -8.0720 
  111.1250    60.4930    37.6800    29.9040    42.4590    21.5860     2.5760    -7.8860 
  111.2500    61.1020    31.5030    26.3910    37.3420    21.5830     2.5190    -7.7060 
  111.3750    65.8020    23.2140    20.5940    23.7440    21.5750     2.4440    -7.5380 
  111.5000    71.7940    16.5880    15.4410    14.0750    21.5750     2.3890    -7.3870 
  111.6250    74.5810    12.7530    12.0600    10.7980    21.5760     2.3770    -7.2560 
  111.7500    72.6810    11.3600    10.4880    10.7570    21.5870     2.4240    -7.1500 
  111.8750    70.4340    11.0470     9.8850    11.8280    21.6250     2.4900    -7.0650 
  112.0000    69.0160    11.0700     9.7600    13.9460    21.6470     2.5330    -7.0020 
  112.1250    68.8960    10.8390     9.6320    15.0130    21.6450     2.5270    -6.9640 
  112.2500    73.5800     9.9960     9.0860    11.7880    21.6700     2.4750    -6.9570 
  112.3750    80.8740     8.8710     8.2340     8.6380    21.7250     2.4160    -6.9760 
  112.5000    86.2750     7.8380     7.3540     7.3910    21.7510     2.3700    -7.0220 
  112.6250    87.7210     7.1160     6.6620     7.2570    21.7540     2.3430    -7.0910 
  112.7500    88.6640     6.7800     6.2730     7.2650    21.7510     2.3330    -7.1800 
  112.8750    91.4390     6.6760     6.1020     7.2190    21.7490     2.3300    -7.2770 
  113.0000    92.1920     6.6840     6.0620     7.3500    21.7430     2.3310    -7.3750 
  113.1250    91.1080     6.7060     6.0700     7.6110    21.7240     2.3330    -7.4620 
  113.2500    91.4430     6.6980     6.0800     7.6540    21.6870     2.3340    -7.5290 
  113.3750    91.8640     6.6900     6.0960     7.4240    21.6700     2.3320    -7.5680 
  113.5000    91.3020     6.7180     6.1420     7.4990    21.6600     2.3290    -7.5760 
  113.6250    91.3400     6.8070     6.2390     7.6340    21.6480     2.3240    -7.5530 
  113.7500    91.0790     6.9690     6.4020     7.8340    21.6270     2.3180    -7.5000 
  113.8750    86.9110     7.1640     6.5980     8.0740    21.6140     2.3140    -7.4280 
  114.0000    82.5950     7.3530     6.7900     8.3310    21.5970     2.3120    -7.3470 
  114.1250    82.7330     7.5050     6.9460     8.5340    21.5800     2.3110    -7.2660 
  114.2500    83.6260     7.6260     7.0560     8.6170    21.5500     2.3090    -7.1970 
  114.3750    82.1410     7.7580     7.1510     8.7320    21.5030     2.3020    -7.1500 
  114.5000    80.2100     7.9230     7.2530     9.0490    21.4770     2.2900    -7.1300 
  114.6250    80.1690     8.1270     7.3750     9.3230    21.4960     2.2740    -7.1420 
  114.7500    81.4750     8.3490     7.5010     9.6680    21.5380     2.2620    -7.1950 
  114.8750    82.5090     8.5260     7.5840     9.8900    21.6000     2.2590    -7.2860 
  115.0000    82.2940     8.5930     7.5750     9.7910    21.6490     2.2680    -7.4110 
  115.1250    82.1840     8.5180     7.4500     9.6410    21.6720     2.2860    -7.5700 
  115.2500    85.4930     8.3300     7.2340     9.3670    21.6630     2.3030    -7.7630 
  115.3750    88.6960     8.2010     7.0480     9.0670    21.6160     2.3050    -7.9800 
  115.5000    87.3890     8.3450     7.0340     8.7180    21.5300     2.2920    -8.2180 
  115.6250    82.6400     9.0350     7.3630     9.0780    21.4460     2.2660    -8.4660 
  115.7500    78.2290    10.8000     8.3680    10.3960    21.4120     2.2390    -8.7150 
  115.8750    74.0880    13.8500    10.2430    12.7970    21.4260     2.2130    -8.9520 
  116.0000    69.4130    18.2750    13.2100    17.3570    21.4510     2.1880    -9.1700 
  116.1250    65.2930    23.6520    17.2420    24.2990    21.5060     2.1660    -9.3620 
  116.2500    63.1060    28.5410    21.6110    30.3930    21.5930     2.1550    -9.5150 
  116.3750    61.7400    31.4570    24.9110    32.2460    21.6360     2.1610    -9.6280 
  116.5000    60.5570    32.1800    26.4990    29.1550    21.6010     2.1790    -9.7020 
  116.6250    59.5720    31.8790    26.8660    23.7310    21.6150     2.2010    -9.7380 
  116.7500    59.9250    32.4790    27.2980    22.7750    21.8020     2.2100    -9.7370 
  116.8750    60.1750    34.9820    28.8450    26.7570    22.1360     2.1990    -9.7100 
  117.0000    59.3750    39.7440    32.0540    34.0940    22.5800     2.1710    -9.6670 
  117.1250    57.6900    46.7840    37.2070    43.2660    23.1090     2.1350    -9.6110 
  117.2500    56.3440    55.9850    44.4980    54.3490    23.7370     2.1050    -9.5550 
  117.3750    56.7710    66.0210    52.8820    67.7120    24.3030     2.0900    -9.5050 
  117.5000    58.4820    75.5320    61.2260    75.3760    24.6450     2.0890    -9.4680 
  117.6250    58.8990    82.8600    68.1720    77.9310    24.7240     2.0920    -9.4500 
  117.7500    55.4040    85.3520    71.5890    81.3140    24.7180     2.0950    -9.4610 
  117.8750    52.9640    82.7690    70.9420    86.6600    24.7130     2.1010    -9.5010 
  118.0000    54.6010    76.3700    66.7770    86.4980    24.6330     2.1130    -9.5720 
  118.1250    58.8930    68.8310    60.9350    79.1210    24.4340     2.1290    -9.6760 
  118.2500    61.4690    63.2630    55.8870    66.9310    24.1730     2.1420    -9.8120 
  118.3750    61.0000    61.0130    53.1570    59.0710    24.1080     2.1420    -9.9690 
  118.5000    58.6110    62.4660    53.3730    59.6360    24.2050     2.1310   -10.1410 
  118.6250    56.9880    67.2310    56.4980    63.5820    24.3600     2.1120   -10.3190 
  118.7500    58.0470    74.1250    61.9010    68.8220    24.5100     2.0950   -10.4930 
  118.8750    59.1370    80.2830    67.3060    77.5150    24.5970     2.0850   -10.6500 
  119.0000    57.9340    83.3580    70.7040    86.1280    24.5220     2.0870   -10.7810 
  119.1250    57.0320    82.5440    71.0770    86.9240    24.1160     2.1000   -10.8760 
  119.2500    58.9830    79.1850    68.9880    74.2280    23.3150     2.1180   -10.9230 
  119.3750    60.5310    76.1120    66.6490    62.1080    22.7200     2.1290   -10.9250 
