~V
VERS. 2.00: Ver 2.00
~W
STRT.M 42.0000:
STOP.M 223.0000:
STEP.M 0.1250:
NULL. -999.2500:
UWI. F10538:
~C
DEPT.M :
DEN.GM/CC :
SP.MV :
GR.API :
RML.OHMM :
RI. :
RXO.OHMM :
CALI.CM :
~A
# ...
  132.0000     2.2070   -36.0700    77.1730     7.2970     6.8360     8.0390    24.6890 
  132.1250     2.2090   -36.0360    77.9660     7.3120     6.8910     8.0220    24.6890 
  132.2500     2.2070   -35.9520    76.6560     7.3720     6.9740     8.2200    24.6890 
  132.3750     2.2020   -35.7860    76.9810     7.4510     7.0580     8.4300    24.6890 
  132.5000     2.2020   -35.5500    77.1870     7.5000     7.1000     8.4950    24.6890 
  132.6250     2.2080   -35.2500    76.3170     7.4680     7.0590     8.3830    24.6890 
  132.7500     2.2160   -34.9230    76.3530     7.3180     6.9030     8.0200    24.6890 
  132.8750     2.2310   -34.5830    79.6430     7.0230     6.6040     7.3460    24.6860 
  133.0000     2.2550   -34.2740    83.0100     6.6540     6.2230     6.7390    24.6710 
  133.1250     2.2780   -33.9960    85.1190     6.3030     5.8370     6.5070    24.6410 
  133.2500     2.2860   -33.7950    86.8510     6.0740     5.5400     6.5480    24.6200 
  133.3750     2.2780   -33.6710    86.8220     6.1020     5.4580     6.6900    24.6130 
  133.5000     2.2760   -33.6290    85.7660     6.4280     5.6310     6.8520    24.6130 
  133.6250     2.2930   -33.6690    83.9760     7.1530     6.1280     7.3780    24.6130 
  133.7500     2.3280   -33.7850    80.6450     8.4620     7.0670     8.9260    24.6130 
  133.8750     2.3880   -33.9630    77.6620    10.7400     8.7850    13.6480    24.6130 
  134.0000     2.4670   -34.1890    74.6360    13.8040    11.3010    24.9690    24.6130 
  134.1250     2.5450   -34.4380    70.6100    16.9390    14.2370    41.2570    24.6060 
  134.2500     2.5820   -34.7030    67.3940    18.6660    16.3930    48.1120    24.5800 
  134.3750     2.5380   -35.0050    68.3100    17.1120    15.8250    35.3110    24.5220 
  134.5000     2.4430   -35.3350    70.5190    13.5700    13.2290    21.3430    24.4620 
  134.6250     2.3350   -35.6750    71.1130    10.0150    10.2270    12.8620    24.4190 
  134.7500     2.2480   -35.9990    71.4810     7.6260     7.9350     9.2920    24.4010 
  134.8750     2.2060   -36.2970    74.3730     6.6560     6.7450     8.2690    24.3970 
  135.0000     2.1940   -36.5610    79.7520     6.4840     6.2730     8.1230    24.3960 
  135.1250     2.1970   -36.7980    86.4100     6.7690     6.2740     8.4350    24.3950 
  135.2500     2.2060   -36.9830    91.8830     7.2510     6.5370     8.7220    24.3930 
  135.3750     2.2180   -37.1130    91.1980     7.6720     6.8500     8.7950    24.3950 
  135.5000     2.2270   -37.2160    85.2470     7.8670     7.0430     8.6690    24.3960 
  135.6250     2.2220   -37.3050    78.8790     7.8100     7.0590     8.4360    24.3970 
  135.7500     2.2060   -37.3820    75.6850     7.5800     6.9280     8.1480    24.3970 
  135.8750     2.1900   -37.4510    77.0140     7.3160     6.7340     8.0960    24.3970 
  136.0000     2.1820   -37.4930    79.3610     7.1260     6.5710     8.0900    24.3970 
  136.1250     2.1830   -37.5250    80.4810     7.0280     6.4670     8.1450    24.4000 
  136.2500     2.1850   -37.5550    79.6840     6.9930     6.4120     8.1320    24.4140 
  136.3750     2.1840   -37.5840    78.5670     6.9850     6.3910     8.1000    24.4420 
  136.5000     2.1770   -37.5740    79.4470     6.9810     6.3850     8.0050    24.4590 
  136.6250     2.1680   -37.5360    81.3160     6.9860     6.3940     8.0050    24.4640 
  136.7500     2.1610   -37.4770    81.8930     7.0040     6.4120     8.0750    24.4650 
  136.8750     2.1600   -37.4140    80.3180     7.0240     6.4230     8.1350    24.4670 
  137.0000     2.1650   -37.3410    78.4520     7.0210     6.4100     8.1050    24.4690 
  137.1250     2.1730   -37.2450    78.2510     6.9860     6.3690     7.9500    24.4770 
  137.2500     2.1830   -37.1380    80.8940     6.9330     6.3160     7.7940    24.4960 
  137.3750     2.1890   -37.0220    82.2810     6.8980     6.2810     7.8980    24.5250 
  137.5000     2.1900   -36.9070    78.5990     6.8990     6.2820     8.0000    24.5500 
  137.6250     2.1870   -36.7680    71.9490     6.9320     6.3160     7.9770    24.5830 
  137.7500     2.1830   -36.5900    69.2160     6.9810     6.3750     7.9160    24.6060 
  137.8750     2.1840   -36.3630    73.4650     7.0320     6.4520     7.8680    24.6130 
  138.0000     2.1920   -36.1000    77.4880     7.0980     6.5540     7.8260    24.6130 
  138.1250     2.2090   -35.7910    78.4310     7.2070     6.7000     7.8550    24.6130 
  138.2500     2.2340   -35.4320    78.5660     7.3750     6.9010     8.1530    24.6130 
  138.3750     2.2610   -34.9840    80.6670     7.5570     7.1220     9.0240    24.6130 
  138.5000     2.2910   -34.5060    82.1180     7.6250     7.2600    10.0120    24.6130 
  138.6250     2.3260   -34.0130    82.6390     7.4330     7.1920    10.4260    24.6130 
  138.7500     2.3530   -33.5550    84.0650     6.9000     6.8300     8.8020    24.6130 
  138.8750     2.3460   -33.1420    86.9710     6.1100     6.1890     6.6470    24.6130 
  139.0000     2.3130   -32.7770    90.5560     5.3690     5.5060     5.8620    24.6130 
  139.1250     2.2870   -32.4630    94.5730     4.8580     4.9550     5.6650    24.6130 
  139.2500     2.2860   -32.1830    99.2560     4.6250     4.6190     5.5860    24.6130 
  139.3750     2.3040   -32.0050   102.8000     4.6350     4.5200     5.5140    24.6130 
  139.5000     2.3220   -31.9000   103.4590     4.7420     4.5460     5.5910    24.6130 
  139.6250     2.3330   -31.8640    99.6700     4.8660     4.6240     5.6230    24.6130 
  139.7500     2.3370   -31.8620    94.7950     4.9760     4.7120     5.6150    24.6130 
  139.8750     2.3360   -31.8900    96.5650     5.0790     4.7980     5.6260    24.6130 
  140.0000     2.3350   -31.9600   102.2390     5.1960     4.8930     5.6360    24.6130 
  140.1250     2.3320   -32.1040   104.2280     5.3530     5.0150     5.7280    24.6130 
  140.2500     2.3260   -32.3340   100.3940     5.5910     5.1970     5.7970    24.6130 
  140.3750     2.3160   -32.6440    96.5960     5.9870     5.5070     5.8730    24.6130 
  140.5000     2.3040   -32.9970    95.8680     6.5750     5.9750     6.1280    24.6130 
  140.6250     2.2920   -33.3960    94.8380     7.3890     6.6350     6.7920    24.6130 
  140.7500     2.2810   -33.8250    90.6600     8.4140     7.4980     8.2170    24.6130 
  140.8750     2.2770   -34.2620    82.7970     9.5110     8.5010     9.8040    24.6130 
  141.0000     2.2760   -34.6740    75.3670    10.4040     9.4170    10.4120    24.6170 
  141.1250     2.2710   -35.0680    71.3380    10.8780    10.0300     9.9360    24.6320 
  141.2500     2.2600   -35.4200    70.6740    10.8870    10.2380     9.6620    24.6660 
  141.3750     2.2500   -35.7040    71.8880    10.5180    10.0550    10.0040    24.6830 
  141.5000     2.2410   -35.9460    73.0020    10.0040     9.6760    10.1970    24.6890 
  141.6250     2.2280   -36.1190    73.0800     9.4830     9.2200     9.9320    24.6940 
  141.7500     2.2150   -36.2520    72.2270     9.1080     8.8240     9.5980    24.7190 
  141.8750     2.2130   -36.3470    72.2430     9.1400     8.7240     9.5280    24.7750 
  142.0000     2.2200   -36.4600    72.6560     9.6770     9.0570     9.7100    24.8180 
  142.1250     2.2230   -36.5370    73.3770    10.6870     9.8710    10.4830    24.8010 
  142.2500     2.2220   -36.5960    72.6830    11.9030    11.0140    12.6040    24.7070 
  142.3750     2.2320   -36.6650    69.6460    12.6760    11.9620    15.3900    24.5370 
  142.5000     2.2460   -36.7130    67.8630    12.5330    12.1500    15.8410    24.4430 
  142.6250     2.2400   -36.7700    69.7990    11.4900    11.4450    12.4980    24.4020 
  142.7500     2.2090   -36.8170    73.7410    10.0540    10.2210    10.3320    24.3890 
  142.8750     2.1850   -36.8640    74.5150     8.9300     9.1010     9.9560    24.3880 
  143.0000     2.1850   -36.8730    74.7610     8.3820     8.4240     9.9090    24.3840 
  143.1250     2.1940   -36.8830    77.2250     8.3570     8.2200     9.8690    24.3710 
