~V
VERS. 2.00: Ver 2.00
~W
STRT.M 58.0000:
STOP.M 197.0000:
STEP.M 0.1250:
NULL. -999.2500:
UWI. F10573:
~C
DEPT.M :
SP.MV :
GR.API :
RML.OHMM :
RI. :
RXO.OHMM :
CALI.CM :
DEN.GM/CC :
~A
# ...
  170.5000   -21.3880    68.2700    40.8620    37.4370    47.8160    24.5010     2.3000 
  170.6250   -21.2930    61.1110    44.7300    42.9300    63.6650    24.5290     2.3050 
  170.7500   -21.2290    59.9200    49.6610    48.4290    69.2720    24.5300     2.3110 
  170.8750   -21.1930    60.8650    53.6120    53.2780    59.9220    24.4850     2.3090 
  171.0000   -21.1740    58.7400    57.4370    57.4160    59.3030    24.4520     2.3000 
  171.1250   -21.1700    56.0630    61.8120    61.5810    73.5110    24.4630     2.2900 
  171.2500   -21.1350    56.5610    67.0050    66.5400    87.2450    24.4810     2.2870 
  171.3750   -21.0670    57.7200    72.7960    72.2500    96.2080    24.4650     2.2890 
  171.5000   -20.9790    55.7310    77.8290    77.6300   102.8020    24.4620     2.2960 
  171.6250   -20.8770    52.7530    78.3590    79.3700   122.9740    24.4610     2.3160 
  171.7500   -20.7560    51.7840    71.8850    74.5430   155.9680    24.3960     2.3550 
  171.8750   -20.6220    52.7990    58.8290    62.5950   132.7340    24.2480     2.4090 
  172.0000   -20.4850    53.6300    43.2070    46.9290    79.7010    24.1420     2.4550 
  172.1250   -20.3210    54.7370    30.0490    32.8990    45.5900    24.1670     2.4620 
  172.2500   -20.1460    59.7710    20.6940    22.6430    25.5240    24.2720     2.4360 
  172.3750   -19.9660    69.5110    14.6530    15.9110    14.8340    24.2300     2.3970 
  172.5000   -19.7770    79.3390    10.9200    11.7050    11.5260    23.8660     2.3590 
  172.6250   -19.5890    84.4550     8.7710     9.2310     8.8500    23.2620     2.3300 
  172.7500   -19.4260    86.3400     7.4650     7.6650     6.4540    23.1050     2.3070 
  172.8750   -19.3030    88.2070     6.7990     6.7970     5.3950    23.4840     2.2860 
  173.0000   -19.2270    91.1020     6.6490     6.5000     5.8310    24.0490     2.2700 
  173.1250   -19.2320    92.4870     6.9750     6.7400     7.4670    24.2880     2.2600 
  173.2500   -19.3070    93.0840     7.6110     7.3370     9.8630    24.3490     2.2580 
  173.3750   -19.4410    93.7240     8.4410     8.1810    11.2240    24.3480     2.2650 
  173.5000   -19.6120    92.4220     9.3110     9.1220    11.7550    24.3440     2.2830 
  173.6250   -19.7750    87.9940    10.0030     9.9310    12.0270    24.3320     2.3170 
  173.7500   -19.9020    84.6220    10.3850    10.4290    12.7420    24.3200     2.3540 
  173.8750   -19.9550    84.9620    10.3860    10.5040    13.8440    24.3050     2.3810 
  174.0000   -19.9170    85.9820    10.0170    10.1440    14.8120    24.3020     2.3840 
  174.1250   -19.7610    84.9440     9.3510     9.4110    12.7850    24.2520     2.3600 
  174.2500   -19.4990    83.7930     8.6010     8.5500     9.9490    24.1350     2.3250 
  174.3750   -19.1540    82.7260     7.9050     7.7160     8.0820    23.9750     2.2930 
  174.5000   -18.7880    80.9800     7.3400     7.0100     7.2910    23.9890     2.2750 
  174.6250   -18.4520    79.1300     6.9310     6.4860     7.9190    24.1750     2.2780 
  174.7500   -18.1130    76.5680     6.6100     6.0890     7.6150    24.3200     2.2930 
  174.8750   -17.7930    74.0830     6.3340     5.7770     6.9460    24.3230     2.3120 
  175.0000   -17.4880    71.2940     6.0850     5.5180     6.1850    24.2110     2.3280 
  175.1250   -17.2160    66.6800     5.8870     5.3130     5.4760    23.9570     2.3420 
  175.2500   -17.0020    60.5530     5.7670     5.1720     5.1250    23.7310     2.3580 
  175.3750   -16.8440    54.7130     5.7420     5.1140     5.0620    23.6860     2.3760 
  175.5000   -16.7060    50.4790     5.8080     5.1380     5.3600    23.8410     2.3910 
  175.6250   -16.5680    47.4670     5.9390     5.2300     5.6260    24.0380     2.3970 
  175.7500   -16.4710    45.7400     6.0770     5.3350     6.0310    24.1600     2.3930 
  175.8750   -16.4170    45.5990     6.1850     5.4160     6.1420    24.2060     2.3850 
  176.0000   -16.4260    46.1180     6.2480     5.4530     5.9230    24.2580     2.3800 
  176.1250   -16.4930    46.0680     6.2870     5.4500     5.8160    24.2920     2.3850 
  176.2500   -16.5660    46.2410     6.3410     5.4440     5.9530    24.3030     2.4010 
  176.3750   -16.6620    46.7860     6.4070     5.4460     6.1560    24.2990     2.4200 
  176.5000   -16.7550    47.0610     6.4400     5.4360     6.3540    24.2910     2.4340 
  176.6250   -16.8610    47.3630     6.3590     5.3650     6.5200    24.2560     2.4360 
  176.7500   -16.9570    45.9660     6.1590     5.2180     6.3520    24.2010     2.4340 
  176.8750   -17.0530    42.7360     5.9060     5.0220     5.7940    24.1820     2.4310 
  177.0000   -17.1090    39.5300     5.7330     4.8570     5.4710    24.2360     2.4290 
  177.1250   -17.1430    40.1230     5.8390     4.8670     5.7160    24.2780     2.4310 
  177.2500   -17.2100    42.2340     6.2670     5.1150     6.2730    24.2970     2.4440 
  177.3750   -17.2310    43.2430     6.9730     5.6010     7.0970    24.2910     2.4710 
  177.5000   -17.2440    44.1390     7.7870     6.2290     8.7130    24.2580     2.5040 
  177.6250   -17.2360    47.4400     8.3360     6.7430    10.5520    24.2120     2.5150 
  177.7500   -17.1860    51.5620     8.3560     6.9030    10.2990    24.1630     2.4940 
  177.8750   -17.1120    53.3360     7.8430     6.6410     7.8520    24.1120     2.4460 
  178.0000   -17.0420    52.2810     7.0490     6.0910     6.0190    24.1240     2.3950 
  178.1250   -16.9280    51.7490     6.3160     5.4880     5.5310    24.0960     2.3700 
  178.2500   -16.7800    53.3380     5.8040     5.0070     5.6660    24.0890     2.3730 
  178.3750   -16.6410    54.8090     5.5160     4.6910     5.6530    24.0850     2.3940 
  178.5000   -16.5050    52.4660     5.3880     4.5140     5.4890    24.1000     2.4170 
  178.6250   -16.3460    46.9380     5.3410     4.4310     5.2620    24.1410     2.4290 
  178.7500   -16.2300    41.3310     5.3000     4.3740     5.0650    24.1890     2.4310 
  178.8750   -16.1140    37.1430     5.2420     4.3180     4.9270    24.1900     2.4300 
  179.0000   -15.9980    34.9250     5.1680     4.2590     4.8810    24.1370     2.4310 
  179.1250   -15.8890    34.4540     5.0770     4.1940     5.0030    24.0780     2.4350 
  179.2500   -15.8030    33.5740     4.9700     4.1280     5.0750    24.0840     2.4350 
  179.3750   -15.7220    31.4780     4.8500     4.0590     4.8800    24.0570     2.4290 
  179.5000   -15.6510    29.4550     4.7270     3.9880     4.6480    23.9140     2.4170 
  179.6250   -15.5910    30.1100     4.6270     3.9200     4.4950    23.8010     2.3990 
  179.7500   -15.5190    32.6150     4.5650     3.8580     4.4200    23.9230     2.3790 
  179.8750   -15.4750    34.6780     4.5470     3.8120     4.3480    24.0870     2.3630 
  180.0000   -15.4190    34.8970     4.5680     3.7850     4.2460    24.1240     2.3590 
  180.1250   -15.3960    33.3790     4.6130     3.7830     4.1880    24.0690     2.3820 
  180.2500   -15.3670    32.0020     4.6640     3.7990     4.1970    24.1050     2.4130 
  180.3750   -15.3190    31.5930     4.7100     3.8260     4.1010    24.2060     2.4200 
  180.5000   -15.2540    31.9830     4.7390     3.8540     3.8740    24.2820     2.3810 
  180.6250   -15.2170    31.6730     4.7420     3.8680     3.5910    24.3110     2.2980 
  180.7500   -15.1710    31.1790     4.7260     3.8640     3.5360    24.3320     2.2120 
  180.8750   -15.0980    32.0780     4.6990     3.8450     3.8070    24.3800     2.1600 
  181.0000   -15.0590    34.4190     4.6710     3.8180     4.2280    24.4470     2.1740 
  181.1250   -15.0070    35.4770     4.6520     3.7980     4.4430    24.8110     2.2500 
  181.2500   -14.9430    34.7940     4.6460     3.7910     4.4590    25.6460     2.3080 
  181.3750   -14.9060    33.6010     4.6570     3.7990     4.2590    26.7260     2.3130 
  181.5000   -14.8570    32.4830     4.6810     3.8180     3.8530    27.3160     2.2810 
  181.6250   -14.7790    32.8710     4.7120     3.8430     3.3620    27.3610     2.2600 
