~V
VERS. 2.00: Ver 2.00
~W
STRT.M 58.0000:
STOP.M 203.0000:
STEP.M 0.1250:
NULL. -999.2500:
UWI. F10566:
~C
DEPT.M :
GR.API :
RML.OHMM :
RI. :
RXO.OHMM :
CALI.CM :
SP.MV :
DEN.GM/CC :
~A
# ...
  148.0000    58.6620    51.0000    47.9810    39.5590    25.1970   -16.0670     2.1730 
  148.1250    61.3630    50.0480    47.0920    37.9190    25.1960   -16.0260     2.1700 
  148.2500    63.0250    49.3190    46.4060    37.4270    25.1950   -16.0900     2.1680 
  148.3750    61.7090    48.7590    45.9140    36.8690    25.1910   -16.1060     2.1670 
  148.5000    61.2450    48.3180    45.5630    36.2200    25.1920   -16.1130     2.1710 
  148.6250    64.3080    47.9720    45.2860    37.1300    25.1900   -16.1180     2.1810 
  148.7500    66.7350    47.7070    45.0280    37.8660    25.1880   -16.0490     2.1950 
  148.8750    65.7340    47.5720    44.8210    37.3240    25.1840   -16.0150     2.2060 
  149.0000    63.0240    47.6480    44.7620    34.8300    25.1790   -15.8840     2.2080 
  149.1250    62.8860    48.0770    45.0490    32.3960    25.1660   -15.9940     2.2000 
  149.2500    64.0550    48.8410    45.7330    33.6000    25.1430   -15.9990     2.1890 
  149.3750    63.8970    49.8550    46.7920    37.8320    25.1210   -15.9280     2.1810 
  149.5000    61.7410    50.9280    48.0700    41.2790    25.0870   -15.9940     2.1790 
  149.6250    60.1490    51.7230    49.2410    41.0160    25.0570   -16.0420     2.1790 
  149.7500    60.2650    52.0010    49.9610    40.6950    25.0320   -16.0630     2.1770 
  149.8750    60.1320    51.6080    49.9680    41.1710    25.0340   -16.1110     2.1720 
  150.0000    58.0350    50.5010    49.1400    41.8450    25.0750   -16.1220     2.1690 
  150.1250    54.7590    48.6490    47.4200    40.6340    25.1350   -15.9940     2.1710 
  150.2500    53.8100    46.3460    45.1880    38.6000    25.1730   -16.0350     2.1760 
  150.3750    55.9190    43.8330    42.7570    35.3040    25.1820   -16.0770     2.1820 
  150.5000    58.4340    41.4030    40.4550    31.3380    25.1870   -16.0310     2.1840 
  150.6250    59.4370    39.4720    38.6820    30.0700    25.2230   -16.0130     2.1830 
  150.7500    58.4780    38.2630    37.5970    29.3520    25.2900   -16.0130     2.1850 
  150.8750    56.5970    37.9520    37.3210    29.5120    25.3620   -15.9920     2.1900 
  151.0000    55.0960    38.6180    37.9050    29.6320    25.3930   -15.9760     2.1960 
  151.1250    56.0280    40.3650    39.4520    30.7150    25.4020   -16.0100     2.1940 
  151.2500    58.9090    42.8370    41.6870    33.7080    25.4640   -16.0450     2.1820 
  151.3750    60.6750    45.7160    44.3780    38.8830    25.5900   -16.0860     2.1660 
  151.5000    59.6620    48.5610    47.1920    40.8790    25.7150   -16.1130     2.1540 
  151.6250    56.2770    50.6530    49.5660    40.1840    25.7070   -16.1130     2.1520 
  151.7500    54.6460    51.5010    50.9990    41.0860    25.5290   -16.1680     2.1600 
  151.8750    57.4040    50.7710    51.0700    43.7170    25.3010   -16.1890     2.1740 
  152.0000    63.0690    48.4850    49.6020    45.6030    25.1460   -16.2690     2.1880 
  152.1250    66.1010    45.0270    46.6830    42.8020    25.0720   -16.4790     2.2000 
  152.2500    64.2540    41.4330    43.2440    36.0820    25.0210   -16.4660     2.2080 
  152.3750    61.9800    38.4200    40.0300    28.8170    24.9990   -16.4520     2.2120 
  152.5000    63.5720    36.4630    37.6400    24.8130    24.9840   -16.5070     2.2100 
  152.6250    65.4650    35.9230    36.6030    24.0200    24.9550   -16.5500     2.2010 
  152.7500    64.2140    36.4440    36.7180    24.0890    24.9180   -16.6030     2.1890 
  152.8750    61.9910    37.7310    37.7660    24.9910    24.9350   -16.6490     2.1800 
  153.0000    62.1490    39.4560    39.4270    25.5060    24.9900   -16.7630     2.1730 
  153.1250    62.8470    41.3440    41.3850    24.9710    24.9970   -16.7340     2.1670 
  153.2500    61.5100    43.2310    43.3570    26.4640    25.0350   -16.7590     2.1560 
  153.3750    60.3790    45.1240    45.2740    31.0090    25.1450   -16.8800     2.1420 
  153.5000    59.6060    47.0690    47.1410    35.8300    25.2380   -16.9460     2.1290 
  153.6250    58.5600    49.0380    48.9340    36.5180    25.2300   -17.0610     2.1280 
  153.7500    58.3780    50.8780    50.5770    37.1140    25.1560   -17.1750     2.1390 
  153.8750    60.1570    52.3900    51.9520    39.6630    25.0180   -17.3030     2.1540 
  154.0000    62.1520    53.3600    52.9250    44.4210    24.8960   -17.4500     2.1650 
  154.1250    61.4050    53.4570    53.2370    45.3850    24.7560   -17.5410     2.1670 
  154.2500    60.0740    52.7170    52.8550    45.2190    24.7140   -17.7470     2.1620 
  154.3750    59.9880    51.2210    51.7570    46.3720    24.5960   -17.9190     2.1590 
  154.5000    61.6830    49.1700    50.0260    42.2430    24.3780   -18.0720     2.1630 
  154.6250    66.0560    46.8210    47.8080    35.6580    24.1640   -18.2510     2.1760 
  154.7500    70.8910    44.5240    45.4690    30.6230    24.0700   -18.3840     2.1950 
  154.8750    73.5730    42.5300    43.3160    29.9880    24.0450   -18.5370     2.2140 
  155.0000    73.3960    41.0640    41.6560    31.2190    24.0340   -18.5300     2.2250 
  155.1250    70.9960    40.4350    40.8920    31.2920    24.0250   -18.7020     2.2170 
  155.2500    67.6290    40.6200    41.0300    29.3330    24.0830   -18.8780     2.1960 
  155.3750    64.2050    41.5970    42.0290    29.0550    24.2800   -18.9310     2.1700 
  155.5000    63.0090    43.2340    43.7130    31.9810    24.5810   -18.9970     2.1490 
  155.6250    63.5970    45.2940    45.7930    36.6860    24.8280   -19.0180     2.1380 
  155.7500    63.1570    47.3130    47.7850    38.6730    24.8780   -18.9930     2.1340 
  155.8750    62.3140    48.9360    49.3460    36.7180    24.7980   -18.9670     2.1320 
  156.0000    62.7760    49.9330    50.2650    31.7770    24.6920   -19.0250     2.1340 
  156.1250    64.0760    50.1700    50.4300    26.9790    24.6360   -18.9060     2.1410 
  156.2500    63.2240    49.9050    50.1250    24.5940    24.5590   -18.7770     2.1560 
  156.3750    61.8210    49.3500    49.5770    23.8470    24.5380   -18.6490     2.1740 
  156.5000    62.5130    48.7400    49.0200    25.2300    24.6310   -18.4840     2.1950 
  156.6250    64.7870    48.3340    48.6960    30.8610    24.7620   -18.2620     2.2140 
  156.7500    64.8070    48.1250    48.5900    36.8290    24.8900   -18.0310     2.2340 
  156.8750    62.4090    47.8180    48.4210    39.2450    24.9940   -17.7730     2.2520 
  157.0000    60.7090    46.8830    47.6660    38.5750    25.0500   -17.4320     2.2650 
  157.1250    60.5670    44.6050    45.5720    37.1330    25.0460   -17.1640     2.2710 
  157.2500    60.2780    41.1850    42.2570    36.7260    25.0200   -16.8640     2.2710 
  157.3750    60.8150    37.1800    38.2320    33.9740    25.0910   -16.6330     2.2650 
  157.5000    64.9070    33.3600    34.2920    26.9840    25.2030   -16.4430     2.2540 
  157.6250    71.0210    30.5930    31.3800    22.5870    25.3100   -16.3190     2.2390 
  157.7500    73.6660    29.1080    29.7670    20.9360    25.3370   -16.2870     2.2270 
  157.8750    72.6070    28.9530    29.4840    21.9260    25.3220   -16.3170     2.2240 
  158.0000    71.0110    29.9810    30.3410    24.0320    25.2760   -16.3600     2.2310 
  158.1250    70.9000    31.9450    32.0440    27.0930    25.2010   -16.4890     2.2430 
  158.2500    70.6120    34.1990    33.9530    28.3040    25.1160   -16.5850     2.2500 
  158.3750    69.2700    36.3340    35.6730    29.4050    25.0520   -16.7630     2.2500 
  158.5000    68.1050    38.1480    37.0230    30.5710    25.0390   -16.9560     2.2430 
  158.6250    67.9280    39.7490    38.1330    31.9140    25.0430   -17.1500     2.2370 
  158.7500    68.3850    41.5920    39.4770    31.7420    25.0450   -17.3490     2.2330 
  158.8750    67.3740    44.1450    41.5210    31.3070    25.0400   -17.5140     2.2300 
  159.0000    63.4220    47.8400    44.6670    33.4680    25.0330   -17.7430     2.2260 
  159.1250    59.8290    53.2020    49.3490    41.5870    25.0450   -17.8940     2.2190 
