~V
VERS. 2.00: Ver 2.00
~W
STRT.M 58.0000:
STOP.M 203.0000:
STEP.M 0.1250:
NULL. -999.2500:
UWI. F10566:
~C
DEPT.M :
GR.API :
RML.OHMM :
RI. :
RXO.OHMM :
CALI.CM :
SP.MV :
DEN.GM/CC :
~A
# ...
  125.5000    52.7960    17.1490    16.6530    15.3330    25.0310    -8.8710     2.3240 
  125.6250    53.1560    17.9210    17.3340    16.9090    24.9540    -8.8850     2.3190 
  125.7500    53.1440    18.8500    18.2380    17.7830    24.9450    -8.8810     2.3150 
  125.8750    53.2660    19.7640    19.2010    18.1810    25.1960    -8.8970     2.3200 
  126.0000    52.8580    20.4160    19.9740    18.7090    25.4930    -8.8900     2.3380 
  126.1250    50.5450    20.4100    20.1470    19.7810    25.5530    -8.8070     2.3620 
  126.2500    49.5920    19.6730    19.5950    20.6230    25.5100    -8.7340     2.3780 
  126.3750    50.9440    18.3020    18.3600    20.3050    25.4410    -8.6880     2.3820 
  126.5000    52.1790    16.6010    16.7060    18.6070    25.3900    -8.6060     2.3740 
  126.6250    52.2940    15.0390    15.0680    14.7540    25.3690    -8.5720     2.3620 
  126.7500    52.8110    13.9600    13.8280    12.4350    25.3920    -8.5420     2.3550 
  126.8750    53.4330    13.5310    13.1760    11.7560    25.3810    -8.4910     2.3550 
  127.0000    53.1210    13.7940    13.1790    12.2360    25.2200    -8.4780     2.3660 
  127.1250    52.3910    14.7610    13.8730    13.2560    24.8920    -8.5140     2.3880 
  127.2500    52.5530    16.1010    14.9630    14.8880    24.6400    -8.4500     2.4120 
  127.3750    55.0100    17.4740    16.1470    16.9040    24.5440    -8.4210     2.4290 
  127.5000    59.3380    18.4770    17.0630    18.7210    24.5280    -8.3590     2.4320 
  127.6250    62.0250    18.6440    17.2960    19.4430    24.5590    -8.3430     2.4210 
  127.7500    61.6750    18.0630    16.8940    20.0060    24.6480    -8.2670     2.4080 
  127.8750    60.4680    16.9980    16.0630    18.7650    24.7700    -8.2260     2.3980 
  128.0000    60.1170    15.8270    15.1110    16.1590    24.8430    -8.1660     2.3950 
  128.1250    58.4080    14.9260    14.3510    14.1710    24.8640    -8.1300     2.3980 
  128.2500    55.6560    14.3920    13.8800    13.6630    24.8570    -8.1210     2.4040 
  128.3750    53.8640    14.1830    13.6750    14.3480    24.8190    -8.0910     2.4100 
  128.5000    52.9760    14.1780    13.6420    15.3400    24.7280    -8.1210     2.4120 
  128.6250    52.9880    14.2400    13.6670    15.1990    24.6490    -8.0430     2.4080 
  128.7500    52.9010    14.2790    13.6600    14.1300    24.6500    -8.0200     2.4010 
  128.8750    52.6300    14.3010    13.6100    13.2280    24.6810    -7.9830     2.3960 
  129.0000    51.7850    14.3460    13.5450    13.1080    24.7130    -7.9470     2.3970 
  129.1250    50.5620    14.4520    13.4980    13.9790    24.7340    -7.9240     2.3990 
  129.2500    49.9980    14.5970    13.4730    14.5150    24.7550    -7.9100     2.3960 
  129.3750    49.1550    14.7620    13.4770    14.2310    24.7700    -7.8760     2.3880 
  129.5000    49.1190    14.9560    13.5320    13.7680    24.7990    -7.8460     2.3780 
  129.6250    51.7110    15.2600    13.7120    13.4410    24.8230    -7.8530     2.3750 
  129.7500    54.0980    15.7390    14.0670    13.5750    24.8040    -7.8320     2.3780 
  129.8750    54.4930    16.4220    14.6260    14.6730    24.7630    -7.8190     2.3830 
  130.0000    53.3490    17.2630    15.3590    16.4960    24.7670    -7.7910     2.3850 
  130.1250    53.6370    18.1310    16.1720    18.4250    24.8040    -7.7060     2.3830 
  130.2500    56.4540    18.8800    16.9320    19.2660    24.8370    -7.6810     2.3830 
  130.3750    59.3440    19.4540    17.5700    18.8100    24.8560    -7.6770     2.3890 
  130.5000    59.7560    19.8880    18.0870    18.6840    24.8630    -7.6810     2.3990 
  130.6250    57.7270    20.2710    18.5290    18.8820    24.8700    -7.6400     2.4100 
  130.7500    57.4370    20.6480    18.9280    19.0570    24.8860    -7.6310     2.4170 
  130.8750    59.8350    20.9260    19.2150    20.1230    24.9060    -7.6420     2.4180 
  131.0000    61.2800    20.9210    19.2410    21.9190    24.9160    -7.6630     2.4150 
  131.1250    60.7730    20.3660    18.7760    22.0790    24.9180    -7.7360     2.4110 
  131.2500    59.4150    19.3360    17.8640    20.5220    24.9180    -7.7270     2.4080 
  131.3750    57.9760    18.0270    16.6500    18.1320    24.9140    -7.7380     2.4070 
  131.5000    57.0130    16.7250    15.3810    15.1110    24.8970    -7.7360     2.4070 
  131.6250    56.7370    15.7560    14.3660    13.4430    24.8290    -7.7730     2.4060 
  131.7500    57.6810    15.1920    13.7190    12.4100    24.7260    -7.7770     2.4050 
  131.8750    59.2690    14.9990    13.4360    12.0190    24.6310    -7.7680     2.4020 
  132.0000    58.9740    15.0480    13.4220    12.7190    24.6320    -7.7450     2.4020 
  132.1250    55.5640    15.1650    13.5400    13.6550    24.8000    -7.6720     2.4050 
  132.2500    52.8330    15.2070    13.6490    13.7090    25.0440    -7.6680     2.4070 
  132.3750    52.2510    15.1540    13.7160    13.6410    25.1790    -7.6420     2.4050 
  132.5000    51.5050    15.0750    13.7720    13.4270    25.1200    -7.5990     2.3990 
  132.6250    50.5130    15.0950    13.8920    13.2450    24.8620    -7.5760     2.3930 
  132.7500    52.1940    15.2560    14.0970    13.2280    24.5760    -7.5760     2.3920 
  132.8750    56.5890    15.5310    14.3620    14.0300    24.3640    -7.5420     2.3980 
  133.0000    59.5670    15.8460    14.6320    14.9050    24.2770    -7.5260     2.4070 
  133.1250    58.9070    16.1290    14.8420    15.0350    24.2630    -7.5070     2.4100 
  133.2500    57.4130    16.3910    14.9950    14.6400    24.2640    -7.4710     2.4040 
  133.3750    56.4670    16.7040    15.1350    14.2280    24.2640    -7.4200     2.3930 
  133.5000    56.0430    17.1480    15.3230    14.4580    24.2640    -7.3610     2.3830 
  133.6250    56.4260    17.7630    15.6090    15.5360    24.2620    -7.3290     2.3800 
  133.7500    57.7850    18.4210    15.9480    16.4540    24.2590    -7.2370     2.3870 
  133.8750    57.8710    18.9450    16.2560    16.8910    24.2580    -7.2420     2.4010 
  134.0000    57.6590    19.1560    16.4210    17.3820    24.2580    -7.2230     2.4160 
  134.1250    59.9930    18.9000    16.3240    17.5030    24.2580    -7.2280     2.4220 
  134.2500    61.3970    18.3270    16.0210    17.0590    24.2690    -7.1960     2.4180 
  134.3750    58.6760    17.6190    15.6090    15.9150    24.3000    -7.1910     2.4090 
  134.5000    54.8310    16.9660    15.2030    14.2920    24.3490    -7.1960     2.4010 
  134.6250    54.8820    16.5410    14.9240    13.5140    24.3600    -7.1960     2.3980 
  134.7500    55.8040    16.3410    14.7910    13.7440    24.3210    -7.2460     2.3980 
  134.8750    55.5250    16.3160    14.7790    14.5510    24.2330    -7.1940     2.3970 
  135.0000    55.4680    16.3830    14.8350    15.3040    24.1280    -7.1500     2.3910 
  135.1250    56.1610    16.4560    14.8970    15.3230    24.0850    -7.1270     2.3800 
  135.2500    55.4300    16.4940    14.9290    15.2370    24.0740    -7.1370     2.3710 
  135.3750    54.1450    16.5160    14.9290    14.9660    24.0740    -7.1250     2.3690 
  135.5000    53.4440    16.5710    14.9190    15.0160    24.0740    -7.1320     2.3740 
  135.6250    53.1530    16.7110    14.9250    15.2190    24.0680    -7.1370     2.3830 
  135.7500    53.4840    16.9140    14.9370    15.1070    24.0430    -7.1180     2.3880 
  135.8750    54.9770    17.1330    14.9320    14.8140    23.9980    -7.1750     2.3870 
  136.0000    56.1840    17.3180    14.8930    14.8780    23.9640    -7.2230     2.3800 
  136.1250    56.9220    17.4270    14.8190    15.1800    23.9520    -7.2900     2.3700 
  136.2500    59.0270    17.4730    14.7360    15.2300    23.9510    -7.3200     2.3620 
  136.3750    62.5220    17.4730    14.6630    14.9980    23.9510    -7.3360     2.3550 
  136.5000    64.2960    17.4560    14.6170    14.5690    23.9510    -7.3240     2.3520 
  136.6250    62.5630    17.4650    14.6220    14.6540    23.9520    -7.3100     2.3560 
