~V
VERS. 2.00: Ver 2.00
~W
STRT.M 52.0000:
STOP.M 220.0000:
STEP.M 0.1250:
NULL. -999.2500:
UWI. F10539:
~C
DEPT.M :
SP.MV :
DEN.GM/CC :
GR.API :
RML.OHMM :
RI. :
RXO.OHMM :
CALI.CM :
~A
# ...
  198.2500   -12.9790     2.2970    57.3600    66.1930    56.1830    72.9340    23.6860 
  198.3750   -12.9020     2.2800    55.0260    66.8890    58.2930    70.6940    23.6660 
  198.5000   -12.8140     2.2730    53.7580    61.9380    55.1620    69.2530    23.6330 
  198.6250   -12.7280     2.2750    54.7200    54.8280    49.3280    57.1670    23.5650 
  198.7500   -12.6730     2.2890    59.4360    49.5290    44.4970    43.7700    23.4750 
  198.8750   -12.6450     2.3110    63.4440    47.3300    42.0120    38.1090    23.4220 
  199.0000   -12.6780     2.3300    62.9110    48.4190    42.2030    38.0390    23.4090 
  199.1250   -12.7220     2.3310    60.5970    52.9540    45.4140    45.7350    23.4190 
  199.2500   -12.8090     2.3180    59.9420    59.5920    50.7180    57.8480    23.4480 
  199.3750   -12.9410     2.3030    60.9030    66.9500    57.0660    71.8230    23.4880 
  199.5000   -13.1290     2.2950    60.9290    73.2400    62.8980    80.0420    23.5240 
  199.6250   -13.3390     2.2990    59.0550    76.3830    66.2520    80.1290    23.5150 
  199.7500   -13.5740     2.3060    55.6310    76.4960    66.9460    75.0960    23.4980 
  199.8750   -13.7950     2.3100    52.7690    74.3400    65.4900    71.5810    23.4400 
  200.0000   -14.0010     2.3070    53.6880    70.9690    62.7560    70.9590    23.3680 
  200.1250   -14.1870     2.3010    56.9400    67.2370    59.5240    68.1560    23.3530 
  200.2500   -14.3240     2.2980    58.7570    63.6270    56.3280    64.9890    23.5180 
  200.3750   -14.4330     2.3010    58.5720    60.3010    53.3550    63.2550    23.6910 
  200.5000   -14.4940     2.3070    57.2190    57.4270    50.7650    58.9710    23.7220 
  200.6250   -14.5300     2.3150    56.1820    55.3390    48.8570    54.3580    23.6810 
  200.7500   -14.4870     2.3240    56.8170    54.1190    47.7100    52.7520    23.6890 
  200.8750   -14.4210     2.3310    59.6450    53.9180    47.4590    52.1810    23.7370 
  201.0000   -14.3040     2.3360    61.1520    54.8310    48.1990    53.5990    23.8240 
  201.1250   -14.1460     2.3380    59.2170    56.8570    49.9690    54.7650    23.9570 
  201.2500   -13.9890     2.3320    57.6110    59.3160    52.1950    58.9030    24.0450 
  201.3750   -13.8090     2.3200    58.1780    61.5770    54.3260    62.3890    24.0280 
  201.5000   -13.6560     2.3040    57.8210    63.1260    55.8890    66.1760    23.9270 
  201.6250   -13.5210     2.2930    55.2660    63.7090    56.5830    66.0160    23.8580 
  201.7500   -13.4110     2.2910    54.7380    63.8300    56.7760    62.8340    23.8370 
  201.8750   -13.3510     2.2960    56.3980    63.9070    56.8230    61.6010    23.8550 
  202.0000   -13.3680     2.3040    57.4850    64.0380    56.8790    63.0030    23.8740 
  202.1250   -13.4320     2.3060    56.7610    63.7200    56.6290    67.6520    23.8750 
  202.2500   -13.5350     2.3020    55.9660    62.5090    55.7000    70.0240    23.8700 
  202.3750   -13.7030     2.2980    55.3380    60.5330    54.1200    69.7220    23.8660 
  202.5000   -13.8610     2.2970    54.1860    58.6190    52.4850    65.8580    23.8690 
  202.6250   -14.0640     2.3050    54.1220    58.2450    51.9750    61.7620    23.8660 
  202.7500   -14.3060     2.3140    53.5920    60.0280    53.2260    58.2850    23.8600 
  202.8750   -14.5030     2.3170    51.7640    63.9380    56.3990    65.0000    23.8730 
  203.0000   -14.6720     2.3110    50.0660    69.1030    60.9710    86.5040    23.9040 
  203.1250   -14.8640     2.2990    50.7350    73.4590    65.3860   109.9460    23.9050 
  203.2500   -15.0070     2.2870    51.3830    75.0530    67.7660   100.8260    23.7790 
  203.3750   -15.1180     2.2810    50.3210    73.1270    67.1450    81.9670    23.6110 
  203.5000   -15.2380     2.2830    48.7650    68.3950    63.8240    74.8470    23.4960 
  203.6250   -15.2930     2.2890    50.0600    62.5810    59.0840    71.2210    23.4440 
  203.7500   -15.2930     2.2950    52.9430    57.4960    54.6740    62.8970    23.4160 
  203.8750   -15.2880     2.3010    55.8340    53.7520    51.3040    58.7350    23.4030 
  204.0000   -15.2250     2.3060    58.3720    51.2540    49.0160    55.7070    23.4010 
  204.1250   -15.1360     2.3100    59.8410    49.5560    47.4680    52.3190    23.4000 
  204.2500   -15.0450     2.3120    59.3080    47.9370    46.0070    51.0360    23.3960 
  204.3750   -14.9070     2.3130    56.2550    46.0540    44.2950    53.5800    23.3970 
  204.5000   -14.7720     2.3150    53.1470    43.8780    42.2670    53.2230    23.3990 
  204.6250   -14.6840     2.3180    53.9460    41.8060    40.2480    44.0590    23.4000 
  204.7500   -14.6100     2.3230    57.1750    40.3430    38.7320    38.3030    23.4080 
  204.8750   -14.5690     2.3310    59.6980    39.7990    38.0420    37.9660    23.4110 
  205.0000   -14.5760     2.3400    60.8530    40.3180    38.3550    41.0890    23.4110 
  205.1250   -14.5700     2.3480    60.9810    42.1640    39.9710    48.2210    23.4080 
  205.2500   -14.6000     2.3530    60.5950    45.2050    42.7850    55.4180    23.4060 
  205.3750   -14.6850     2.3510    60.2400    49.5180    46.8430    57.4300    23.4030 
  205.5000   -14.7520     2.3390    60.1050    55.2380    52.2190    57.8230    23.4020 
  205.6250   -14.7780     2.3180    58.3240    62.7140    59.2190    65.3740    23.4190 
  205.7500   -14.7820     2.2970    54.2050    71.2870    67.2870    87.9090    23.4660 
  205.8750   -14.7770     2.2840    50.9380    79.6660    75.3040   110.4990    23.5170 
  206.0000   -14.7630     2.2800    50.2970    85.4790    81.1520   112.4380    23.5420 
  206.1250   -14.7320     2.2860    51.0860    84.4560    80.8690   115.4330    23.5620 
  206.2500   -14.6770     2.2950    52.7220    76.1410    73.6880   124.0850    23.5840 
  206.3750   -14.5720     2.3050    56.1570    62.8070    61.4420   115.6910    23.5670 
  206.5000   -14.4630     2.3210    61.8750    48.6980    48.1260    82.3620    23.5060 
  206.6250   -14.3470     2.3500    67.3670    38.0550    37.8800    53.2590    23.4750 
  206.7500   -14.2610     2.3870    70.2460    31.7710    31.5650    33.1490    23.4700 
  206.8750   -14.1800     2.4180    71.2430    29.8420    29.0700    23.7050    23.4720 
  207.0000   -14.1140     2.4260    71.4240    32.0920    30.2220    22.6550    23.4760 
  207.1250   -14.0770     2.4020    70.8600    39.1460    35.8570    33.1550    23.4900 
  207.2500   -14.0710     2.3640    70.0520    50.0200    45.5630    60.7590    23.5110 
  207.3750   -14.1240     2.3250    70.5110    63.3910    58.5070   101.3330    23.5200 
  207.5000   -14.1990     2.2940    72.0990    76.2530    71.8280   121.3690    23.5140 
  207.6250   -14.2850     2.2740    72.4890    83.2830    79.8070   120.2590    23.4800 
  207.7500   -14.3870     2.2630    71.8480    83.2220    80.5080   114.4490    23.4630 
  207.8750   -14.4980     2.2600    71.1670    78.1050    75.6840   107.2590    23.4560 
  208.0000   -14.6550     2.2660    69.6900    71.6230    68.9570    95.4540    23.4470 
  208.1250   -14.8560     2.2800    68.3810    67.2900    63.8160    82.3170    23.4300 
  208.2500   -15.0640     2.2940    68.6430    66.2680    61.5900    71.9430    23.4090 
  208.3750   -15.2570     2.3000    70.4540    68.6880    62.5340    71.5390    23.4090 
  208.5000   -15.4900     2.2930    71.6500    73.8110    66.1400    85.2950    23.4290 
  208.6250   -15.7500     2.2740    69.9720    79.9200    71.1130   110.9990    23.4360 
  208.7500   -16.0120     2.2560    68.4420    84.6690    75.3510   132.1710    23.4440 
  208.8750   -16.2560     2.2480    69.3910    87.0210    77.7830   134.1160    23.4650 
  209.0000   -16.4170     2.2530    72.5550    87.4810    78.5600   109.5210    23.4690 
  209.1250   -16.5370     2.2670    74.3820    87.8130    78.9500    84.7300    23.4500 
  209.2500   -16.6390     2.2790    74.3820    89.3600    80.2240    81.8410    23.4350 
  209.3750   -16.7090     2.2800    74.3820    91.8880    82.3860   108.8630    23.4980 
