~V
VERS. 2.00: Ver 2.00
~W
STRT.M 50.0000:
STOP.M 236.0000:
STEP.M 0.1250:
NULL. -999.2500:
UWI. F10596:
~C
DEPT.M :
DEN.GM/CC :
SP.MV :
GR.API :
RML.OHMM :
RI. :
RXO.OHMM :
CALI.CM :
~A
# ...
  230.0000     1.6650   -16.5530    46.6230     6.2680     6.0810     6.9450    17.9540 
  230.1250     1.6660   -16.4990    46.6230     6.2680     6.0810     6.9450    17.9530 
  230.2500     1.6660   -16.4400    46.6230     6.2680     6.0810     6.9450    17.9530 
  230.3750     1.6660   -16.3760    46.6230     6.2680     6.0810     6.9460    17.9530 
  230.5000     1.6660   -16.3390    46.6230     6.2680     6.0810     6.9460    17.9530 
  230.6250     1.6670   -16.2960    46.6230     6.2680     6.0810     6.9450    17.9480 
  230.7500     1.6700   -16.2440    46.6230     6.2680     6.0810     6.9440    17.9460 
  230.8750     1.6720   -16.1930    46.6230     6.2680     6.0810     6.9430    17.9460 
  231.0000     1.6710   -16.1070    46.6230     6.2680     6.0810     6.9410    17.9460 
  231.1250     1.6690   -16.0190    46.6230     6.2680     6.0810     6.9420    17.9460 
  231.2500     1.6670   -15.9150    46.6230     6.2680     6.0810     6.9430    17.9460 
  231.3750     1.6650   -15.8290    46.6230     6.2680     6.0810     6.9440    17.9460 
  231.5000     1.6650   -15.7350    46.6230     6.2680     6.0810     6.9430    17.9460 
  231.6250     1.6650   -15.6200    46.6230     6.2680     6.0810     6.9430    17.9460 
  231.7500     1.6640   -15.4940    46.6230     6.2680     6.0810     6.9430    17.9460 
  231.8750     1.6630   -15.3350    46.6230     6.2680     6.0810     6.9430    17.9460 
  232.0000     1.6620   -15.1610    46.6230     6.2680     6.0810     6.9420    17.9460 
  232.1250     1.6620   -14.9780    46.6230     6.2680     6.0810     6.9410    17.9440 
  232.2500     1.6610   -14.7830    46.6230     6.2680     6.0810     6.9400    17.9400 
  232.3750     1.6600   -14.5510    46.6230     6.2680     6.0810     6.9390    17.9330 
  232.5000     1.6610   -14.3130    46.6230     6.2680     6.0810     6.9360    17.9230 
  232.6250     1.6630   -14.0950    46.6230     6.2680     6.0810     6.9360    17.9190 
  232.7500     1.6670   -13.8920    46.6230     6.2680     6.0810     6.9360    17.9180 
  232.8750     1.6710   -13.7070    46.6230     6.2680     6.0810     6.9380    17.9180 
  233.0000     1.6720   -13.5500  -999.2500  -999.2500  -999.2500  -999.2500  -999.2500 
  233.1250     1.6720   -13.4320  -999.2500  -999.2500  -999.2500  -999.2500  -999.2500 
  233.2500     1.6680   -13.3820  -999.2500  -999.2500  -999.2500  -999.2500  -999.2500 
  233.3750  -999.2500   -13.3730  -999.2500  -999.2500  -999.2500  -999.2500  -999.2500 
  233.5000  -999.2500   -13.3970  -999.2500  -999.2500  -999.2500  -999.2500  -999.2500 
  233.6250  -999.2500   -13.4290  -999.2500  -999.2500  -999.2500  -999.2500  -999.2500 
  233.7500  -999.2500   -13.4770  -999.2500  -999.2500  -999.2500  -999.2500  -999.2500 
  233.8750  -999.2500   -13.5470  -999.2500  -999.2500  -999.2500  -999.2500  -999.2500 
  234.0000  -999.2500   -13.6230  -999.2500  -999.2500  -999.2500  -999.2500  -999.2500 
  234.1250  -999.2500   -13.6730  -999.2500  -999.2500  -999.2500  -999.2500  -999.2500 
  234.2500  -999.2500   -13.7050  -999.2500  -999.2500  -999.2500  -999.2500  -999.2500 
  234.3750  -999.2500   -13.7240  -999.2500  -999.2500  -999.2500  -999.2500  -999.2500 
  234.5000  -999.2500   -13.7270  -999.2500  -999.2500  -999.2500  -999.2500  -999.2500 
  234.6250  -999.2500   -13.7470  -999.2500  -999.2500  -999.2500  -999.2500  -999.2500 
  234.7500  -999.2500   -13.7880  -999.2500  -999.2500  -999.2500  -999.2500  -999.2500 
  234.8750  -999.2500   -13.8340  -999.2500  -999.2500  -999.2500  -999.2500  -999.2500 
  235.0000  -999.2500   -13.8610  -999.2500  -999.2500  -999.2500  -999.2500  -999.2500 
  235.1250  -999.2500   -13.8980  -999.2500  -999.2500  -999.2500  -999.2500  -999.2500 
  235.2500  -999.2500   -13.9280  -999.2500  -999.2500  -999.2500  -999.2500  -999.2500 
  235.3750  -999.2500   -13.9770  -999.2500  -999.2500  -999.2500  -999.2500  -999.2500 
  235.5000  -999.2500   -14.0380  -999.2500  -999.2500  -999.2500  -999.2500  -999.2500 
  235.6250  -999.2500   -14.0790  -999.2500  -999.2500  -999.2500  -999.2500  -999.2500 
  235.7500  -999.2500   -14.0930  -999.2500  -999.2500  -999.2500  -999.2500  -999.2500 
  235.8750  -999.2500   -14.0990  -999.2500  -999.2500  -999.2500  -999.2500  -999.2500 
  236.0000  -999.2500   -14.0990  -999.2500  -999.2500  -999.2500  -999.2500  -999.2500 
