~V
VERS. 2.00: Ver 2.00
~W
STRT.M 58.0000:
STOP.M 193.0000:
STEP.M 0.1250:
NULL. -999.2500:
UWI. F10563:
~C
DEPT.M :
GR.API :
RML.OHMM :
RI. :
RXO.OHMM :
CALI.CM :
DEN.GM/CC :
SP.MV :
~A
# ...
  148.0000    67.1700    67.5950    66.5360    65.1120    24.4320     2.2480   -11.7740 
  148.1250    66.9750    64.8000    63.5770    57.8970    24.3360     2.2770   -11.8470 
  148.2500    65.5020    62.2180    60.8210    48.2000    24.2540     2.2930   -11.7460 
  148.3750    65.0740    60.2780    58.6700    44.4610    24.2230     2.2900   -11.6320 
  148.5000    66.0070    59.3050    57.4220    45.7820    24.2190     2.2740   -11.7070 
  148.6250    66.1490    59.5990    57.3470    47.9120    24.2190     2.2510   -11.9020 
  148.7500    64.9540    60.8270    58.1330    49.0420    24.2200     2.2320   -11.9020 
  148.8750    64.2160    62.6660    59.4960    51.0870    24.2210     2.2220   -11.8380 
  149.0000    65.8550    64.7320    61.1100    54.5430    24.2240     2.2210   -11.9020 
  149.1250    69.0650    66.6390    62.6610    58.8020    24.2280     2.2270   -12.1760 
  149.2500    71.3700    68.2300    63.9880    61.8640    24.2410     2.2310   -12.4760 
  149.3750    70.4070    69.5120    65.0680    64.5060    24.2680     2.2300   -12.6190 
  149.5000    66.7880    70.5660    65.9500    64.6550    24.2870     2.2250   -12.6400 
  149.6250    64.6200    71.4950    66.7220    62.6430    24.2990     2.2210   -12.7590 
  149.7500    65.5220    72.3870    67.4770    62.2090    24.3170     2.2220   -13.1040 
  149.8750    67.0800    73.1220    68.1240    63.0500    24.3450     2.2290   -13.4350 
  150.0000    66.1920    73.2820    68.3070    63.0020    24.3490     2.2380   -13.5250 
  150.1250    64.5230    71.9370    67.2030    63.2550    24.2830     2.2450   -13.5120 
  150.2500    65.7400    68.8960    64.5620    66.7570    24.1630     2.2510   -13.6290 
  150.3750    68.7430    64.5200    60.5900    70.9200    24.0800     2.2570   -13.9250 
  150.5000    69.3640    59.7540    56.0430    62.9370    24.0480     2.2710   -14.2700 
  150.6250    67.6270    56.0050    52.1740    46.3790    24.0340     2.3000   -14.4060 
  150.7500    67.5890    54.0360    49.8410    36.3870    24.0140     2.3390   -14.3490 
  150.8750    68.8330    54.0950    49.4030    35.1610    24.0050     2.3850   -14.3570 
  151.0000    69.8110    55.8550    50.6620    55.0020    23.9920     2.4300   -14.5930 
  151.1250    70.8410    58.2940    52.8310    63.9480    23.9500     2.4680   -14.7800 
  151.2500    71.3460    59.7190    54.4310    61.1200    23.8710     2.4940   -14.7770 
  151.3750    69.4650    58.9580    54.4140    58.1920    23.7850     2.5040   -14.7280 
  151.5000    67.2430    55.7390    52.3720    57.2240    23.7690     2.4960   -14.7520 
  151.6250    70.3160    50.7880    48.6040    51.6230    23.9490     2.4750   -14.7770 
  151.7500    75.8020    45.8100    44.4390    42.3390    24.2960     2.4560   -14.8410 
  151.8750    77.8320    41.7190    40.7000    35.0690    24.5670     2.4470   -14.9460 
  152.0000    75.9140    38.7990    37.7950    34.5100    24.6530     2.4470   -14.9660 
  152.1250    73.8020    36.7440    35.6840    33.8560    24.6330     2.4560   -14.9410 
  152.2500    72.5270    34.4850    33.5460    34.2890    24.6260     2.4720   -14.9510 
  152.3750    72.4520    31.2140    30.5920    36.0150    24.6180     2.4990   -14.9510 
  152.5000    73.6180    26.6690    26.4080    35.1440    24.5730     2.5350   -14.9410 
  152.6250    75.1310    21.3550    21.2670    29.5800    24.4480     2.5640   -15.0970 
  152.7500    75.9050    16.3920    16.2680    19.9510    24.3440     2.5670   -15.2890 
  152.8750    75.3640    12.4170    12.1220    11.6300    24.3040     2.5380   -15.3400 
  153.0000    73.4690     9.6370     9.1220     7.7150    24.2990     2.4810   -15.3080 
  153.1250    71.6990     8.1130     7.3710     6.5950    24.3020     2.4180   -15.4240 
  153.2500    73.2220     7.4340     6.4800     5.7710    24.3090     2.3670   -15.7500 
  153.3750    76.3250     7.4220     6.2810     5.5750    24.3200     2.3410   -16.0900 
  153.5000    76.8320     7.9200     6.6410     6.7140    24.3260     2.3370   -16.2660 
  153.6250    76.1250     8.7740     7.4670     8.5500    24.3270     2.3520   -16.4280 
  153.7500    78.5050     9.6810     8.4690    10.0180    24.3170     2.3730   -16.7330 
  153.8750    83.3520    10.4160     9.4060    10.1620    24.2870     2.3950   -17.1290 
  154.0000    89.5140    10.8360    10.0600     9.7220    24.2350     2.4140   -17.5290 
  154.1250    97.5390    10.8960    10.2760     9.3950    24.1510     2.4290   -17.8760 
  154.2500   105.6520    10.7870    10.2020     9.3370    24.0760     2.4380   -18.1610 
  154.3750   111.6580    10.6500     9.9870     9.3470    24.0230     2.4410   -18.4920 
  154.5000   118.0370    10.5820     9.7600     9.3560    23.9970     2.4360   -18.9390 
  154.6250   126.8420    10.6560     9.6240     9.3230    23.9780     2.4250   -19.2760 
  154.7500   130.6140    10.8790     9.6230     9.3290    23.9590     2.4130   -19.4430 
  154.8750   125.4310    11.2790     9.7930     9.5210    23.9500     2.4030   -19.6460 
  155.0000   113.6180    11.7960    10.1740    10.2170    23.9490     2.3950   -20.0070 
  155.1250   102.0490    12.4400    10.8760    11.2870    23.9490     2.3910   -20.3700 
  155.2500    93.8830    13.3410    11.9300    12.6860    23.9490     2.3870   -20.5720 
  155.3750    87.8480    14.8990    13.3960    13.6420    23.9490     2.3830   -20.6500 
  155.5000    83.9320    17.0160    15.2830    15.0080    23.9490     2.3770   -20.7210 
  155.6250    81.2650    19.4220    17.5100    20.1300    23.9490     2.3690   -20.9470 
  155.7500    79.7540    21.7350    19.7530    23.9960    23.9490     2.3610   -21.2310 
  155.8750    79.5030    23.6770    21.7400    24.3390    23.9520     2.3520   -21.3640 
  156.0000    79.7690    25.1300    23.3100    24.2390    23.9710     2.3440   -21.2830 
  156.1250    79.9040    26.1930    24.4600    25.4870    24.0180     2.3370   -21.2480 
  156.2500    78.6900    27.2700    25.4980    27.0780    24.0640     2.3310   -21.3870 
  156.3750    76.5430    28.6580    26.7010    29.2180    24.0900     2.3260   -21.5300 
  156.5000    73.1140    30.5090    28.2670    32.4210    24.0990     2.3230   -21.5270 
  156.6250    69.1030    32.8520    30.3150    37.0030    24.1000     2.3200   -21.4050 
  156.7500    67.5380    35.4600    32.6810    39.1780    24.1030     2.3180   -21.3160 
  156.8750    68.0720    38.1950    35.2380    39.2370    24.1090     2.3170   -21.3470 
  157.0000    68.7930    40.9550    37.8830    41.5010    24.1190     2.3180   -21.4720 
  157.1250    69.2450    43.6540    40.5490    44.4330    24.1350     2.3190   -21.4580 
  157.2500    69.4270    46.2650    43.2020    47.1410    24.1620     2.3190   -21.2830 
  157.3750    68.5020    48.7600    45.8120    49.7820    24.1900     2.3200   -21.1850 
  157.5000    67.1090    51.0360    48.2730    52.2630    24.2060     2.3200   -21.2280 
  157.6250    67.3700    52.7100    50.2200    53.8580    24.2150     2.3200   -21.1610 
  157.7500    67.0110    53.4980    51.3540    55.4740    24.2270     2.3210   -21.0750 
  157.8750    65.6580    53.2400    51.4710    59.6730    24.2400     2.3210   -20.9080 
  158.0000    65.4800    52.0450    50.6030    66.2310    24.2580     2.3190   -20.5990 
  158.1250    67.7780    50.1780    48.9280    59.4140    24.2760     2.3150   -20.3600 
  158.2500    70.3910    48.1310    46.9650    49.1440    24.3000     2.3100   -20.2000 
  158.3750    72.1740    46.1510    45.0110    47.9200    24.3180     2.3070   -19.9980 
  158.5000    73.2860    44.3870    43.2520    57.2590    24.3250     2.3100   -19.7690 
  158.6250    74.0100    43.0600    41.8880    55.4650    24.3240     2.3190   -19.6650 
  158.7500    73.1430    42.2720    40.9890    44.1270    24.3240     2.3320   -19.4820 
  158.8750    71.2510    42.0280    40.5750    37.0930    24.3240     2.3400   -19.1990 
  159.0000    67.9750    42.0390    40.4240    39.6290    24.3240     2.3390   -18.9330 
  159.1250    64.5250    41.5430    39.9110    48.2720    24.3240     2.3250   -18.7610 
