~V
VERS. 2.00: Ver 2.00
~W
STRT.M 50.0000:
STOP.M 215.0000:
STEP.M 0.1250:
NULL. -999.2500:
UWI. F10588:
~C
DEPT.M :
DEN.GM/CC :
GR.API :
RML.OHMM :
RI. :
RXO.OHMM :
CALI.CM :
SP.MV :
~A
# ...
   95.0000     2.2560    73.0490    12.3010     9.9270    12.6450    24.0720   -26.7620 
   95.1250     2.2710    77.1020    11.6830     9.2960    10.7930    23.8330   -26.4490 
   95.2500     2.2600    73.6200    11.5040     8.9750     9.2750    23.4870   -26.1610 
   95.3750     2.2240    64.8600    11.8590     9.0460     9.6030    23.2900   -25.9130 
   95.5000     2.1800    56.0990    12.9250     9.6200    11.8330    23.4560   -25.7000 
   95.6250     2.1600    52.1890    15.3520    11.0760    14.0260    23.8210   -25.5070 
   95.7500     2.1780    52.0170    19.7700    13.8230    16.2310    24.0830   -25.3300 
   95.8750     2.2400    52.3110    27.1780    18.7360    20.8540    24.1370   -25.1760 
   96.0000     2.3440    52.3410    38.4020    26.8120    34.4020    23.9890   -25.0330 
   96.1250     2.4700    54.7410    52.7810    38.3060    77.4950    23.7720   -24.8940 
   96.2500     2.5740    57.7140    63.5280    48.3430   129.4190    23.6720   -24.7610 
   96.3750     2.6210    57.4030    62.0690    49.8110   130.2700    23.6640   -24.6290 
   96.5000     2.6000    56.1950    47.9270    40.7190   101.6940    23.6740   -24.5200 
   96.6250     2.5310    62.1010    31.6390    28.1310    55.0710    23.6820   -24.4220 
   96.7500     2.4570    71.9900    20.4340    18.7210    25.0220    23.7290   -24.3980 
   96.8750     2.3960    78.3090    14.1460    13.0380    12.7570    23.8420   -24.4140 
   97.0000     2.3500    78.9170    11.1040    10.0030     8.8620    23.9390   -24.4890 
   97.1250     2.3140    77.3760    10.0980     8.7380     8.0670    23.9460   -24.6110 
   97.2500     2.2790    75.6770     9.8970     8.3020     8.9130    23.9010   -24.7750 
   97.3750     2.2510    74.1490     9.9290     8.2570    10.5980    23.8850   -24.9950 
   97.5000     2.2380    75.9010     9.7900     8.2330     9.7330    23.9710   -25.2270 
   97.6250     2.2470    81.6260     9.2820     7.9700     8.1310    24.0720   -25.5360 
   97.7500     2.2670    86.1340     8.5860     7.5180     6.9700    24.1130   -25.8430 
   97.8750     2.2890    86.3520     7.8780     6.9970     6.5110    24.1140   -26.1670 
   98.0000     2.3040    85.5350     7.2740     6.5060     6.3900    24.1010   -26.4830 
   98.1250     2.3130    86.9720     6.8650     6.1310     6.2900    24.1070   -26.7800 
   98.2500     2.3200    88.0750     6.6590     5.8950     5.9860    24.1060   -27.0230 
   98.3750     2.3290    87.6520     6.6870     5.8330     5.5410    24.0830   -27.1970 
   98.5000     2.3360    86.4050     6.9740     5.9750     5.4330    24.0570   -27.3370 
   98.6250     2.3340    85.1510     7.5340     6.3530     6.0260    24.0370   -27.3990 
   98.7500     2.3250    83.6070     8.2130     6.8620     7.5610    24.0200   -27.3940 
   98.8750     2.3120    82.2410     8.8320     7.3710     9.1810    24.0200   -27.3210 
   99.0000     2.2990    81.6880     9.2010     7.7210     9.2440    24.0300   -27.1830 
   99.1250     2.2850    81.6250     9.1400     7.7380     8.4010    24.0500   -26.9850 
   99.2500     2.2730    81.9890     8.7690     7.4790     7.6480    24.0750   -26.7560 
   99.3750     2.2690    82.2740     8.2700     7.0740     7.2300    24.0880   -26.4760 
   99.5000     2.2770    82.0890     7.8660     6.7040     7.1710    24.0690   -26.1330 
   99.6250     2.2900    84.4470     7.8070     6.5790     6.9300    24.0490   -25.6290 
   99.7500     2.2910    87.7650     8.1730     6.7700     6.5870    24.0380   -25.0100 
   99.8750     2.2710    87.8140     9.0510     7.3410     6.6700    24.0240   -24.2300 
  100.0000     2.2330    83.4800    10.4660     8.3280     8.0080    23.9330   -23.2880 
  100.1250     2.1920    77.5440    12.2650     9.7050    10.9560    23.6950   -22.1450 
  100.2500     2.1640    72.1780    13.8270    11.0620    13.7040    23.4090   -20.8520 
  100.3750     2.1560    68.3790    14.4990    11.8680    13.4800    23.1860   -19.5460 
  100.5000     2.1730    69.5940    13.8980    11.6930    13.1270    22.9060   -18.2950 
  100.6250     2.2160    75.2310    12.1960    10.5000    11.7850    22.6790   -17.2490 
  100.7500     2.2660    80.1670    10.3590     9.0260     9.0650    22.4990   -16.3560 
  100.8750     2.3070    84.1420     8.9220     7.7330     7.0080    22.3780   -15.6420 
  101.0000     2.3240    86.7230     8.0580     6.8240     6.0310    22.2550   -15.1020 
  101.1250     2.3140    85.7150     7.8810     6.4310     6.0780    22.0250   -14.8050 
  101.2500     2.2880    82.1530     8.3620     6.5360     6.5810    21.8480   -14.6800 
  101.3750     2.2550    79.8720     9.6560     7.2280     7.2840    21.8280   -14.6100 
  101.5000     2.2160    78.1670    12.0050     8.6510     8.1600    22.1140   -14.5150 
  101.6250     2.1700    74.9310    15.9590    11.2230    10.4940    22.5150   -14.3520 
  101.7500     2.1330    71.2950    21.4260    15.0280    16.5730    22.7820   -14.1540 
  101.8750     2.1300    68.0280    27.9900    19.9970    26.8950    22.9770   -13.9570 
  102.0000     2.1790    65.1920    34.5160    25.4630    32.7720    23.0890   -13.7570 
  102.1250     2.2600    65.3790    39.0540    29.8790    30.8620    23.0550   -13.5540 
  102.2500     2.3100    68.6500    41.1150    32.3610    29.3160    22.8180   -13.3690 
  102.3750     2.2960    71.6990    41.3780    33.0790    28.7160    22.3470   -13.1850 
  102.5000     2.2270    70.0700    41.1720    32.9310    25.5900    21.6410   -13.0430 
  102.6250     2.1520    62.9560    41.9050    33.0330    19.9950    20.5440   -12.8940 
  102.7500     2.1050    57.6910    44.1140    34.0420    14.9030    19.1010   -12.7830 
  102.8750     2.0860    57.8770    47.9370    36.2330    12.1430    17.4860   -12.6670 
  103.0000     2.0830    60.2140    53.1250    39.6110    10.9830    16.0910   -12.5900 
  103.1250     2.0790    59.8490    58.8020    43.8260    10.7800    15.2690   -12.5230 
  103.2500     2.0700    57.3310    63.3060    47.7620    10.7850    15.0120   -12.4740 
  103.3750     2.0610    55.9230    65.2190    50.3280    11.0600    15.0280   -12.4710 
  103.5000     2.0580    55.5130    63.9590    50.7670    11.5390    15.1590   -12.4610 
  103.6250     2.0660    55.9520    59.9820    48.8520    12.3170    15.3990   -12.5250 
  103.7500     2.0800    57.9070    55.2550    45.8290    13.0200    15.7240   -12.5800 
  103.8750     2.0930    59.5600    50.8270    42.5780    12.8240    16.0820   -12.6530 
  104.0000     2.1010    59.1700    47.1310    39.6460    12.1490    16.4610   -12.7110 
  104.1250     2.1020    58.8060    44.2180    37.2680    12.3480    17.0510   -12.7780 
  104.2500     2.1040    59.5280    41.7300    35.2590    13.3820    17.9180   -12.8320 
  104.3750     2.1120    58.8120    39.5790    33.5400    14.4980    18.8210   -12.8640 
  104.5000     2.1270    56.8450    37.8320    32.1270    15.4080    19.5630   -12.8810 
  104.6250     2.1460    56.8930    36.8080    31.2110    15.9480    20.0130   -12.8410 
  104.7500     2.1600    59.5690    36.7390    30.9380    16.9760    20.3880   -12.7740 
  104.8750     2.1660    61.1130    37.9500    31.5720    20.6840    20.8530   -12.7020 
  105.0000     2.1630    60.2340    40.6920    33.3750    27.4660    21.4390   -12.6180 
  105.1250     2.1510    58.2460    45.3370    36.7800    32.5700    21.8910   -12.5110 
  105.2500     2.1340    55.3040    51.3840    41.5090    35.6980    22.1250   -12.4130 
  105.3750     2.1180    53.1570    58.1590    47.1040    43.1700    22.2190   -12.3100 
  105.5000     2.1050    54.2490    64.5220    52.6590    54.0860    22.2840   -12.2510 
  105.6250     2.0980    56.7080    68.7570    56.7570    60.1900    22.4500   -12.1960 
  105.7500     2.0940    56.3720    70.4280    58.8620    59.5760    22.7090   -12.1980 
  105.8750     2.0920    53.8410    69.8410    59.0560    58.1850    22.9790   -12.2100 
  106.0000     2.0890    53.0230    67.9200    57.9660    57.1840    23.2750   -12.2380 
  106.1250     2.0870    53.4840    65.6890    56.3830    58.1650    23.4730   -12.3170 
