~V
VERS. 2.00: Ver 2.00
~W
STRT.M 47.0000:
STOP.M 254.0000:
STEP.M 0.1250:
NULL. -999.2500:
UWI. F10599:
~C
DEPT.M :
DEN.GM/CC :
SP.MV :
GR.API :
RML.OHMM :
RI. :
RXO.OHMM :
CALI.CM :
~A
# ...
  148.2500     2.5310    -3.9860    66.4910    29.5990    29.7130    28.9090    24.4040 
  148.3750     2.5090    -4.0660    69.9650    28.1180    27.9050    25.7030    24.3500 
  148.5000     2.4830    -4.1260    70.2220    27.3990    26.5540    25.7210    24.3090 
  148.6250     2.4660    -4.1530    68.7660    27.2990    25.7900    27.3880    24.2940 
  148.7500     2.4640    -4.1690    66.6450    27.6100    25.6380    28.4060    24.2920 
  148.8750     2.4750    -4.1820    63.3990    28.2690    26.1090    28.3180    24.2910 
  149.0000     2.4970    -4.1870    61.4290    29.1610    26.9410    28.4850    24.2890 
  149.1250     2.5340    -4.1870    61.8720    30.1480    27.9100    29.5840    24.2890 
  149.2500     2.5810    -4.1870    62.5100    30.9550    28.7800    29.7920    24.2830 
  149.3750     2.6160    -4.2020    63.2110    31.1550    29.3250    29.2130    24.2610 
  149.5000     2.6290    -4.2240    65.2200    30.8400    29.5520    27.7190    24.2290 
  149.6250     2.6230    -4.2500    67.5190    30.4170    29.5650    26.6920    24.1960 
  149.7500     2.6120    -4.2660    66.7170    30.4170    29.5440    26.9460    24.1430 
  149.8750     2.5990    -4.2740    63.6540    31.2690    29.6840    28.3890    24.0840 
  150.0000     2.5830    -4.2820    63.3890    32.6500    29.9960    30.1220    24.0390 
  150.1250     2.5650    -4.2890    66.6380    34.1160    30.3570    30.6550    24.0240 
  150.2500     2.5460    -4.2910    68.4320    35.2130    30.6060    29.0560    24.0500 
  150.3750     2.5320    -4.2770    66.0710    35.5670    30.6570    27.4690    24.1090 
  150.5000     2.5240    -4.2660    64.3830    35.4030    30.6210    26.6840    24.1350 
  150.6250     2.5190    -4.2560    65.1570    34.9720    30.6100    26.4170    24.1470 
  150.7500     2.5130    -4.2480    66.6000    34.4720    30.7170    26.6220    24.1850 
  150.8750     2.5040    -4.2400    64.5660    34.1490    30.9880    29.9570    24.3560 
  151.0000     2.5000    -4.2330    60.4950    34.0580    31.3520    34.3810    24.6340 
  151.1250     2.5060    -4.2250    57.4990    34.1580    31.7300    37.0260    24.8600 
  151.2500     2.5210    -4.2240    57.8950    34.3970    32.0310    37.8100    24.9480 
  151.3750     2.5390    -4.2250    60.8220    34.6090    32.1360    36.5560    24.9480 
  151.5000     2.5520    -4.2330    61.8800    34.5080    31.9920    36.1020    24.9260 
  151.6250     2.5560    -4.2450    61.6000    33.8510    31.5770    35.2630    24.8710 
  151.7500     2.5530    -4.2600    63.1930    32.5780    30.9130    34.0430    24.7960 
  151.8750     2.5410    -4.2760    65.6410    30.9710    30.0290    33.2440    24.7470 
  152.0000     2.5260    -4.2940    66.8800    29.6120    29.0790    30.8140    24.7280 
  152.1250     2.5110    -4.3170    67.3820    28.7730    28.2110    28.7570    24.7120 
  152.2500     2.5010    -4.3400    68.9320    28.4310    27.5340    28.0510    24.6540 
  152.3750     2.4980    -4.3330    69.3290    28.3460    27.1190    28.5430    24.4910 
  152.5000     2.4960    -4.3000    66.0300    28.1890    26.8730    29.7200    24.2590 
  152.6250     2.4910    -4.2530    62.2330    27.8710    26.7200    29.1250    23.9710 
  152.7500     2.4830    -4.1690    62.9120    27.5090    26.6060    28.0830    23.6410 
  152.8750     2.4780    -4.0440    68.3240    27.3460    26.4960    27.7570    23.4740 
  153.0000     2.4770    -3.9000    71.2350    27.3480    26.3840    27.8240    23.5600 
  153.1250     2.4820    -3.7430    68.8490    27.3890    26.2710    27.7890    23.8290 
  153.2500     2.5010    -3.5770    65.3200    27.4390    26.1350    28.7160    24.2680 
  153.3750     2.5430    -3.4350    65.5220    27.4450    25.9430    28.6550    24.7200 
  153.5000     2.5890    -3.3110    67.9240    27.4000    25.7150    29.2020    24.9380 
  153.6250     2.6170    -3.2100    69.7680    27.4020    25.5170    29.1070    24.9710 
  153.7500     2.6140    -3.1560    70.4210    27.5530    25.4390    28.4260    24.9520 
  153.8750     2.5880    -3.1630    68.0250    27.9940    25.6020    26.6980    24.9460 
  154.0000     2.5630    -3.2070    62.5360    28.7220    26.0250    26.7960    24.9490 
  154.1250     2.5550    -3.2750    57.1220    29.5850    26.6960    28.8420    24.9490 
  154.2500     2.5650    -3.3630    55.9220    30.2940    27.5140    29.4890    24.9470 
  154.3750     2.5780    -3.4620    57.8450    30.6000    28.2910    28.6710    24.9480 
  154.5000     2.5850    -3.5580    55.9810    30.6500    28.8110    28.9430    24.9480 
  154.6250     2.5950    -3.6540    50.3880    30.6060    28.9200    30.2050    24.9480 
  154.7500     2.6170    -3.7480    46.4120    30.5110    28.5600    30.5830    24.9420 
  154.8750     2.6420    -3.8270    46.6180    30.2420    27.7330    31.0340    24.9200 
  155.0000     2.6550    -3.8850    48.1810    29.7540    26.6700    31.3680    24.8920 
  155.1250     2.6510    -3.9340    50.9330    29.1330    25.5680    30.2670    24.8780 
  155.2500     2.6380    -3.9670    54.8280    28.5570    24.6610    28.9810    24.8740 
  155.3750     2.6240    -3.9990    55.8760    28.2160    24.2550    27.7220    24.8720 
  155.5000     2.6180    -4.0370    53.9300    28.1360    24.3460    27.5380    24.8740 
  155.6250     2.6180    -4.0620    53.9700    28.2520    24.8080    28.2850    24.8750 
  155.7500     2.6190    -4.0890    58.4030    28.3090    25.3650    28.5960    24.8760 
  155.8750     2.6150    -4.1120    62.3660    27.9370    25.5660    30.0770    24.8740 
  156.0000     2.6110    -4.1380    61.5040    27.0820    25.1980    31.1320    24.8570 
  156.1250     2.6100    -4.1640    58.5690    25.8590    24.2990    28.9980    24.8120 
  156.2500     2.6010    -4.1930    59.3630    24.6480    23.1600    23.6720    24.7400 
  156.3750     2.5670    -4.2250    66.7710    24.0130    22.2760    20.6540    24.6630 
  156.5000     2.5180    -4.2660    72.8570    24.0350    21.9630    20.3220    24.5670 
  156.6250     2.4730    -4.3170    72.3220    24.5270    22.2840    22.4530    24.4270 
  156.7500     2.4480    -4.3520    67.0660    25.0900    23.0180    25.8540    24.2120 
  156.8750     2.4440    -4.3760    63.8620    25.1320    23.6350    27.6530    24.0880 
  157.0000     2.4510    -4.4070    64.6290    24.5210    23.7150    25.9240    24.1550 
  157.1250     2.4630    -4.4370    65.1890    23.6290    23.2630    22.3930    24.3730 
  157.2500     2.4750    -4.4800    64.0000    23.1470    22.6270    20.3830    24.5290 
  157.3750     2.4830    -4.4980    62.9090    23.5890    22.2580    21.5640    24.5790 
  157.5000     2.4890    -4.4890    63.4570    24.5320    22.2570    23.7810    24.6010 
  157.6250     2.4990    -4.4570    64.1270    25.3430    22.4750    26.7060    24.6700 
  157.7500     2.5050    -4.4130    63.9010    25.4630    22.6170    27.3420    24.8090 
  157.8750     2.4980    -4.3640    65.8750    24.7610    22.3730    24.2560    24.9350 
  158.0000     2.4820    -4.3000    69.3450    23.9900    21.8600    22.4730    25.0260 
  158.1250     2.4660    -4.2360    71.5330    23.5980    21.3730    21.8980    25.0660 
  158.2500     2.4530    -4.1630    70.4320    23.3910    21.2000    21.9410    25.0430 
  158.3750     2.4490    -4.1030    66.3650    23.4000    21.5220    22.2410    24.9120 
  158.5000     2.4560    -4.0590    64.2670    23.6130    22.1220    23.4560    24.7160 
  158.6250     2.4750    -4.0470    65.2750    23.9920    22.7360    24.5700    24.5340 
  158.7500     2.5020    -4.0650    65.5070    24.4790    23.1430    24.2970    24.4470 
  158.8750     2.5310    -4.0890    61.5260    25.0640    23.2400    24.1690    24.4330 
  159.0000     2.5590    -4.1200    58.1550    25.7910    23.1860    23.1210    24.4360 
  159.1250     2.5800    -4.1460    57.8260    26.8080    23.1060    22.1700    24.4610 
  159.2500     2.5920    -4.1750    58.6190    27.5530    23.0540    22.7290    24.5250 
  159.3750     2.5940    -4.2080    59.3420    27.5400    22.9590    23.8810    24.6070 
