~V
VERS. 2.00: Ver 2.00
~W
STRT.M 55.0000:
STOP.M 211.0000:
STEP.M 0.1250:
NULL. -999.2500:
UWI. F10586:
~C
DEPT.M :
GR.API :
RML.OHMM :
RI. :
RXO.OHMM :
CALI.CM :
DEN.GM/CC :
SP.MV :
~A
# ...
  133.7500    50.9590    20.7000    19.5830    18.4980    24.0870     2.5560    -7.6730 
  133.8750    49.7210    20.2140    19.1290    18.0970    24.0770     2.5390    -7.7740 
  134.0000    48.3350    19.6170    18.6390    16.9820    24.0710     2.5090    -7.8560 
  134.1250    48.7810    18.9710    18.1290    15.8600    24.0580     2.4820    -7.9550 
  134.2500    50.7120    18.3900    17.6400    15.4950    24.0250     2.4730    -8.0590 
  134.3750    52.7870    17.9710    17.2300    15.5380    23.9590     2.4860    -8.1370 
  134.5000    55.1400    17.7630    16.9560    15.4230    23.8210     2.5150    -8.2060 
  134.6250    58.1260    17.7610    16.8520    15.2050    23.6410     2.5450    -8.2570 
  134.7500    61.2820    17.8120    16.8360    14.9570    23.5660     2.5620    -8.2830 
  134.8750    63.5590    17.7840    16.8150    15.1280    23.6140     2.5620    -8.3220 
  135.0000    63.6610    17.5810    16.6980    15.7600    23.6370     2.5490    -8.3900 
  135.1250    62.0200    17.1900    16.4400    16.1940    23.5970     2.5310    -8.4430 
  135.2500    61.0310    16.7890    16.1430    15.3450    23.5460     2.5140    -8.4880 
  135.3750    60.8890    16.5600    15.9490    13.9330    23.4550     2.5000    -8.5640 
  135.5000    60.0040    16.6240    15.9720    13.2710    23.2860     2.4890    -8.6620 
  135.6250    58.4230    16.9800    16.2550    13.7120    23.0140     2.4800    -8.7590 
  135.7500    59.2500    17.3690    16.6130    14.4670    22.7920     2.4710    -8.8660 
  135.8750    61.9710    17.5470    16.8380    15.1020    22.6780     2.4640    -8.9680 
  136.0000    64.0980    17.3590    16.7640    15.3590    22.6450     2.4610    -9.0430 
  136.1250    61.8120    16.8130    16.3320    14.9190    22.6340     2.4630    -9.1150 
  136.2500    57.5430    16.2190    15.7820    14.1320    22.6110     2.4700    -9.1890 
  136.3750    55.2030    15.8420    15.3460    13.6220    22.5740     2.4810    -9.2250 
  136.5000    55.8710    15.8260    15.1810    13.6690    22.5410     2.4940    -9.2490 
  136.6250    56.7430    16.1560    15.3280    14.3070    22.5500     2.5060    -9.2470 
  136.7500    54.2840    16.5330    15.5770    15.2070    22.6060     2.5150    -9.2300 
  136.8750    50.7320    16.7090    15.7220    15.8840    22.7330     2.5170    -9.2280 
  137.0000    49.6260    16.5370    15.6100    16.0370    22.9450     2.5130    -9.1990 
  137.1250    52.1760    16.0460    15.2080    15.2870    23.1550     2.5060    -9.1610 
  137.2500    56.4100    15.5870    14.7750    14.1120    23.2170     2.5010    -9.1320 
  137.3750    60.8310    15.5030    14.5980    13.1170    23.2100     2.5030    -9.1160 
  137.5000    64.4060    16.0270    14.9030    13.1730    23.1800     2.5110    -9.0890 
  137.6250    65.4050    17.2220    15.8180    14.3790    23.1340     2.5210    -9.0630 
  137.7500    63.5070    18.6270    17.0180    16.3240    23.1050     2.5240    -9.0660 
  137.8750    61.4770    19.7460    18.1060    18.3980    23.0900     2.5170    -9.0420 
  138.0000    62.2130    20.1460    18.6640    19.8380    23.0690     2.5010    -9.0250 
  138.1250    65.5320    19.5580    18.3470    19.3720    23.0430     2.4820    -8.9740 
  138.2500    67.2530    18.4610    17.4840    17.0820    23.0030     2.4690    -8.8710 
  138.3750    65.6060    17.3680    16.5070    14.8770    22.9420     2.4640    -8.7540 
  138.5000    61.3960    16.6940    15.8030    13.3890    22.8660     2.4690    -8.6430 
  138.6250    57.9240    16.6540    15.6210    13.3040    22.8710     2.4800    -8.5400 
  138.7500    56.9210    16.9650    15.7900    14.1330    22.9280     2.4890    -8.4080 
  138.8750    58.2970    17.3420    16.1040    15.0670    22.9890     2.4920    -8.2870 
  139.0000    61.5200    17.5620    16.3630    15.6070    23.0370     2.4900    -8.1460 
  139.1250    64.6690    17.5230    16.4350    15.6020    23.1110     2.4850    -8.0410 
  139.2500    64.2540    17.3830    16.3960    15.3480    23.2590     2.4800    -7.9860 
  139.3750    59.8270    17.2940    16.3610    15.1110    23.4600     2.4770    -7.9280 
  139.5000    56.2600    17.3290    16.4040    15.4770    23.5660     2.4760    -7.8340 
  139.6250    56.7330    17.4300    16.5030    16.2990    23.5470     2.4780    -7.7220 
  139.7500    55.7520    17.4380    16.5330    17.0820    23.6260     2.4790    -7.5980 
  139.8750    52.2710    17.2480    16.3960    17.4630    23.9410     2.4790    -7.4700 
  140.0000    49.5040    16.8420    16.0560    17.0550    24.4330     2.4760    -7.3790 
  140.1250    50.0150    16.2980    15.5510    15.9440    24.8820     2.4670    -7.2800 
  140.2500    51.8620    15.7730    15.0210    14.8750    25.1610     2.4530    -7.1540 
  140.3750    54.0850    15.3470    14.5510    14.3900    25.2630     2.4370    -7.0300 
  140.5000    57.1570    15.0430    14.1760    14.3160    25.2660     2.4240    -6.9770 
  140.6250    60.5400    14.8620    13.9170    14.3080    25.2080     2.4170    -6.9850 
  140.7500    62.0590    14.7880    13.7640    14.1730    25.0940     2.4170    -7.0170 
  140.8750    62.4640    14.8680    13.7510    13.5870    24.9010     2.4210    -7.0690 
  141.0000    62.6750    15.1700    13.9290    13.0230    24.6340     2.4270    -7.1160 
  141.1250    61.3520    15.7660    14.3620    13.1120    24.4190     2.4310    -7.1760 
  141.2500    58.0770    16.5370    14.9620    13.8570    24.3400     2.4320    -7.2670 
  141.3750    55.3950    17.3320    15.6120    14.9470    24.3250     2.4330    -7.3760 
  141.5000    56.1950    17.9850    16.1710    16.2660    24.2390     2.4360    -7.4430 
  141.6250    59.2510    18.3660    16.5080    16.5830    24.0190     2.4470    -7.5060 
  141.7500    61.7150    18.5840    16.6780    16.0760    23.7570     2.4640    -7.5770 
  141.8750    63.4300    18.8110    16.8080    15.2540    23.5750     2.4790    -7.6270 
  142.0000    64.4170    19.2070    17.0410    14.9770    23.4720     2.4840    -7.6790 
  142.1250    63.2750    19.8540    17.4780    15.7200    23.4620     2.4660    -7.7160 
  142.2500    60.2640    20.5880    18.0310    16.8660    23.5110     2.4330    -7.7210 
  142.3750    58.6060    21.2100    18.5540    17.8490    23.6250     2.3930    -7.7100 
  142.5000    61.1840    21.5400    18.8960    18.1290    23.7920     2.3580    -7.7570 
  142.6250    64.1160    21.4430    18.9160    17.5270    23.9140     2.3400    -7.8150 
  142.7500    62.7040    21.0480    18.6850    16.4670    23.9350     2.3390    -7.8920 
  142.8750    58.9640    20.4850    18.2950    15.5350    23.8990     2.3520    -8.0450 
  143.0000    57.4660    19.8960    17.8570    14.8500    23.8690     2.3740    -8.2170 
  143.1250    59.3340    19.4510    17.5070    14.4830    23.8630     2.4020    -8.4660 
  143.2500    61.3520    19.2510    17.3340    14.2330    23.8690     2.4290    -8.8180 
  143.3750    62.8150    19.3480    17.3900    14.0470    23.8850     2.4520    -9.2460 
  143.5000    63.3760    19.6910    17.6490    14.0370    23.9140     2.4690    -9.7210 
  143.6250    62.8500    20.0550    17.9510    14.7230    23.9700     2.4770   -10.3020 
  143.7500    61.2510    20.0900    18.0080    15.8600    24.0520     2.4740   -10.9830 
  143.8750    60.9110    19.5250    17.5720    16.7580    24.1740     2.4610   -11.7180 
  144.0000    63.0340    18.2710    16.5300    16.6380    24.2960     2.4390   -12.5650 
  144.1250    67.0400    16.4700    14.9510    14.9620    24.3720     2.4180   -13.4670 
  144.2500    70.4970    14.6330    13.2730    12.7580    24.3920     2.4070   -14.3470 
  144.3750    72.1990    13.1470    11.8350    10.7870    24.3890     2.4100   -15.1740 
  144.5000    73.6120    12.2760    10.8720     9.5130    24.3690     2.4240   -15.9080 
  144.6250    76.4060    12.2790    10.6190     9.2890    24.3220     2.4360   -16.4870 
  144.7500    78.7220    13.0720    11.0350     9.9860    24.2460     2.4380   -16.8890 
  144.8750    79.0940    14.6470    12.1550    11.4990    24.1480     2.4270   -17.1520 
