~V
VERS. 2.00: Ver 2.00
~W
STRT.M 58.0000:
STOP.M 193.0000:
STEP.M 0.1250:
NULL. -999.2500:
UWI. F10563:
~C
DEPT.M :
GR.API :
RML.OHMM :
RI. :
RXO.OHMM :
CALI.CM :
DEN.GM/CC :
SP.MV :
~A
# ...
  125.5000    59.8860    12.3640    12.2880     9.9330    23.9450     2.4210   -10.1810 
  125.6250    56.3020    12.1850    11.8880    10.4800    23.9250     2.4280   -10.1490 
  125.7500    55.8510    12.4660    11.9350    11.4470    23.9130     2.4410   -10.1130 
  125.8750    59.3510    12.9980    12.2840    12.4380    23.9070     2.4570   -10.0880 
  126.0000    63.6220    13.5690    12.7490    12.6160    23.9060     2.4720   -10.1070 
  126.1250    64.7670    13.9740    13.1290    12.0510    23.9060     2.4760   -10.2080 
  126.2500    62.3330    14.1560    13.3190    12.2450    23.9030     2.4680   -10.3030 
  126.3750    58.4100    14.1330    13.3090    12.9840    23.8840     2.4510   -10.3520 
  126.5000    56.8150    13.9890    13.1600    12.8200    23.8340     2.4320   -10.3450 
  126.6250    58.2100    13.8730    12.9940    12.2100    23.7700     2.4180   -10.2800 
  126.7500    59.4240    13.9240    12.9380    12.0820    23.7400     2.4090   -10.1900 
  126.8750    61.0250    14.2370    13.0740    12.4490    23.7350     2.4020   -10.1090 
  127.0000    64.5930    14.8590    13.4450    13.5370    23.7530     2.3950   -10.0950 
  127.1250    68.2330    15.7930    14.0700    15.5000    23.8580     2.3860   -10.1390 
  127.2500    69.0160    16.8470    14.8210    16.7790    24.0770     2.3790   -10.2290 
  127.3750    67.2320    17.8210    15.5620    17.3150    24.3110     2.3770   -10.3650 
  127.5000    64.6700    18.5230    16.1490    18.0870    24.4550     2.3820   -10.4860 
  127.6250    63.3020    18.7640    16.4280    18.5060    24.4980     2.3930   -10.5190 
  127.7500    63.7600    18.6380    16.4270    17.7350    24.5220     2.4070   -10.5220 
  127.8750    65.2180    18.2740    16.2090    16.7400    24.5460     2.4200   -10.5710 
  128.0000    66.5430    17.8240    15.8650    15.7740    24.5600     2.4320   -10.5410 
  128.1250    66.1140    17.4290    15.4950    15.4370    24.5640     2.4390   -10.3700 
  128.2500    64.4470    17.1460    15.1780    15.4590    24.5640     2.4400   -10.1470 
  128.3750    63.3860    16.9760    14.9480    15.1880    24.5640     2.4330    -9.9330 
  128.5000    63.8460    16.8920    14.8110    14.8810    24.5640     2.4200    -9.8080 
  128.6250    63.8520    16.8680    14.7620    14.7620    24.5640     2.4090    -9.8220 
  128.7500    62.9740    16.8550    14.7490    15.1110    24.5370     2.4020    -9.8690 
  128.8750    63.8260    16.7600    14.6860    14.7950    24.4350     2.3960    -9.8390 
  129.0000    67.0470    16.4070    14.4290    13.7970    24.2430     2.3860    -9.8140 
  129.1250    70.7930    15.4980    13.7320    13.0810    24.0110     2.3680    -9.8690 
  129.2500    75.3790    14.0470    12.5950    13.0820    23.8490     2.3480    -9.9060 
  129.3750    79.0500    12.2280    11.1390    13.4680    23.7870     2.3330    -9.8510 
  129.5000    78.5920    10.3600     9.6030    10.4190    23.8420     2.3290    -9.7110 
  129.6250    71.0790     8.8290     8.2870     7.3180    24.0130     2.3390    -9.5460 
  129.7500    61.1740     7.7630     7.3060     6.1650    24.1520     2.3520    -9.4020 
  129.8750    54.4380     7.1570     6.6690     6.1410    24.2010     2.3670    -9.2770 
  130.0000    54.0040     6.9200     6.3140     6.3270    24.2070     2.3790    -9.1310 
  130.1250    56.6680     6.9430     6.1780     6.3470    24.2030     2.3890    -8.9610 
  130.2500    55.2460     7.0480     6.1500     6.3200    24.2020     2.3980    -8.8380 
  130.3750    50.0200     7.1570     6.1880     6.3320    24.2050     2.4040    -8.7780 
  130.5000    45.8400     7.2380     6.2650     6.3230    24.2190     2.4070    -8.7280 
  130.6250    45.1620     7.2870     6.3600     6.3150    24.2530     2.4070    -8.6170 
  130.7500    44.8550     7.3130     6.4420     6.3700    24.2760     2.4050    -8.4320 
  130.8750    45.1380     7.3120     6.4850     6.4540    24.2730     2.4010    -8.2240 
  131.0000    45.8510     7.2830     6.4730     6.4450    24.2440     2.3940    -8.1120 
  131.1250    45.1520     7.2320     6.3910     6.3620    24.2080     2.3870    -8.0920 
  131.2500    44.1240     7.1820     6.2680     6.2820    24.1740     2.3830    -8.0290 
  131.3750    44.8430     7.1530     6.1410     6.2520    24.1400     2.3840    -7.8980 
  131.5000    46.8870     7.1520     6.0540     6.2900    24.0970     2.3910    -7.7700 
  131.6250    47.3870     7.1760     6.0370     6.3420    24.0760     2.4020    -7.7100 
  131.7500    47.6100     7.2000     6.0570     6.2920    24.0700     2.4130    -7.7090 
  131.8750    48.5980     7.2070     6.0680     6.2150    24.0710     2.4190    -7.7300 
  132.0000    49.0340     7.1870     6.0430     6.1100    24.0720     2.4160    -7.7090 
  132.1250    47.7630     7.1330     5.9790     6.0260    24.0720     2.4020    -7.6580 
  132.2500    46.0610     7.0550     5.9080     5.9920    24.0720     2.3840    -7.7000 
  132.3750    45.2320     6.9590     5.8500     5.9230    24.0720     2.3670    -7.8640 
  132.5000    45.8220     6.8620     5.8090     5.8420    24.0710     2.3560    -8.0510 
  132.6250    47.5110     6.7940     5.7940     5.7560    24.0700     2.3540    -8.1710 
  132.7500    48.6140     6.7770     5.8080     5.7400    24.0700     2.3580    -8.1850 
  132.8750    50.3680     6.8250     5.8530     5.7840    24.0710     2.3670    -8.1440 
  133.0000    57.4150     6.9340     5.9200     5.9290    24.0740     2.3790    -8.1360 
  133.1250    69.6610     7.0830     5.9900     6.0720    24.1100     2.3910    -8.1830 
  133.2500    79.4120     7.2220     6.0540     6.1890    24.2020     2.4010    -8.2730 
  133.3750    84.2900     7.3170     6.1120     6.3280    24.3170     2.4080    -8.3540 
  133.5000    86.4680     7.3460     6.1630     6.4980    24.3840     2.4120    -8.3800 
  133.6250    88.1180     7.3070     6.1870     6.6350    24.3970     2.4110    -8.3710 
  133.7500    88.1640     7.2330     6.1660     6.6030    24.3980     2.4080    -8.5080 
  133.8750    87.5230     7.1530     6.1010     6.5190    24.3980     2.4030    -8.7190 
  134.0000    87.2990     7.1000     6.0230     6.5630    24.3960     2.4000    -8.8010 
  134.1250    86.0020     7.1200     5.9980     6.9510    24.3850     2.4020    -8.7940 
  134.2500    83.8250     7.2300     6.0660     7.2560    24.3650     2.4060    -8.8290 
  134.3750    81.1710     7.4330     6.2290     7.1570    24.3500     2.4070    -8.8640 
  134.5000    79.4160     7.6960     6.4580     6.9140    24.3470     2.4000    -8.8740 
  134.6250    79.8480     7.9600     6.7080     6.8060    24.3500     2.3810    -8.9160 
  134.7500    80.5330     8.1640     6.9290     7.1090    24.3600     2.3560    -8.9290 
  134.8750    79.7130     8.2870     7.0980     7.6870    24.3820     2.3300    -8.9750 
  135.0000    78.3760     8.3520     7.2130     8.5820    24.4090     2.3100    -9.1250 
  135.1250    80.4830     8.4280     7.3130     9.0830    24.4290     2.3050    -9.2500 
  135.2500    83.2370     8.5870     7.4680     9.1100    24.4280     2.3130    -9.1800 
  135.3750    82.6350     8.8640     7.7260     9.0030    24.4180     2.3330    -9.0820 
  135.5000    80.5310     9.2430     8.0870     9.1970    24.4050     2.3590    -9.1740 
  135.6250    81.1470     9.6400     8.4840     9.4120    24.3960     2.3860    -9.3440 
  135.7500    82.9190     9.9260     8.8030     9.8010    24.3920     2.4050    -9.3440 
  135.8750    83.3610    10.0080     8.9760    10.5030    24.3920     2.4140    -9.2350 
  136.0000    84.3940     9.8580     8.9850    10.1370    24.3920     2.4110    -9.1670 
  136.1250    89.4560     9.5150     8.8520     9.5160    24.3920     2.4000    -9.1750 
  136.2500    94.0690     9.1430     8.6690     8.7340    24.3920     2.3920    -9.2100 
  136.3750    94.4390     8.8670     8.5110     8.2650    24.3920     2.3920    -9.1630 
  136.5000    91.4170     8.7820     8.4470     7.9840    24.3920     2.4010    -8.9660 
  136.6250    90.3240     8.9630     8.5540     7.7970    24.3920     2.4100    -8.7860 
