~V
VERS. 2.00: Ver 2.00
~W
STRT.M 60.0000:
STOP.M 207.0000:
STEP.M 0.1250:
NULL. -999.2500:
UWI. F10577:
~C
DEPT.M :
DEN.GM/CC :
SP.MV :
GR.API :
RML.OHMM :
RI. :
RXO.OHMM :
CALI.CM :
~A
   60.0000     1.4920    13.9340    50.5800     0.1210     0.3710     4.8120    30.3630 
   60.1250     1.4100     8.7880    53.7000     0.2840     0.5350     6.3360    34.9020 
   60.2500     1.3930     3.7870    55.8750     0.6320     0.8550     6.2100    37.4140 
   60.3750     1.4170    -0.9060    56.1060     1.2670     1.4450     5.0760    38.1220 
   60.5000     1.4700    -5.1090    55.6180     2.2030     2.3910     3.8850    37.8620 
   60.6250     1.5780    -8.5390    57.5050     3.3190     3.7130     3.7650    36.0530 
   60.7500     1.7450   -11.1880    61.9620     4.4550     5.2200     4.4990    32.3240 
   60.8750     1.9530   -13.1960    66.8600     5.5930     6.7630     5.9100    28.2640 
   61.0000     2.1530   -14.7890    71.4940     6.6550     8.1170     8.2700    25.3480 
   61.1250     2.2720   -16.1000    78.3910     7.2460     8.7720    10.6180    24.2690 
   61.2500     2.3130   -17.2240    88.4530     7.1350     8.5380     8.7510    23.8400 
   61.3750     2.3190   -18.1930    99.8290     6.4920     7.6180     6.2000    23.7160 
   61.5000     2.3200   -19.0370   110.4910     5.7390     6.5020     4.8060    23.7600 
   61.6250     2.3160   -19.7450   117.9360     5.2490     5.6650     4.4510    23.7980 
   61.7500     2.3030   -20.3550   118.7430     5.0770     5.2180     4.5620    23.8090 
   61.8750     2.2850   -20.8740   111.1800     5.1740     5.1170     4.9430    23.8090 
   62.0000     2.2700   -21.3320   100.1250     5.4380     5.2450     5.3940    23.8300 
   62.1250     2.2550   -21.7450    94.1910     5.7410     5.4490     5.5230    23.8970 
   62.2500     2.2310   -22.1340    92.1500     5.9830     5.5960     5.1990    23.9680 
   62.3750     2.1970   -22.5100    90.3850     6.1370     5.6510     4.8220    23.9690 
   62.5000     2.1670   -22.8520    88.6240     6.2200     5.6420     4.9020    23.9260 
   62.6250     2.1580   -23.1750    88.9510     6.2650     5.6320     5.4340    23.8720 
   62.7500     2.1710   -23.4650    89.0470     6.3120     5.6630     5.9110    23.7760 
   62.8750     2.1970   -23.7180    88.7150     6.3650     5.7310     6.1020    23.6000 
   63.0000     2.2210   -23.9320    88.6770     6.4130     5.8030     5.9880    23.4420 
   63.1250     2.2280   -24.1010    89.7730     6.4460     5.8450     5.8440    23.3300 
   63.2500     2.2240   -24.2640    91.1420     6.4790     5.8710     5.6510    23.2150 
   63.3750     2.2160   -24.3960    92.8400     6.5380     5.9130     5.4550    23.1030 
   63.5000     2.2060   -24.4930    94.1580     6.6610     6.0060     5.2850    23.0110 
   63.6250     2.1960   -24.5420    93.2650     6.8830     6.1820     5.4260    22.9770 
   63.7500     2.1880   -24.6060    91.0150     7.1490     6.4070     5.6340    22.9950 
   63.8750     2.1900   -24.6610    87.2690     7.3730     6.6210     5.7480    23.0720 
   64.0000     2.1980   -24.6950    83.2240     7.4580     6.7470     5.6570    23.2080 
   64.1250     2.2060   -24.6860    83.3390     7.2890     6.6800     5.9400    23.5130 
   64.2500     2.2150   -24.6400    86.1130     6.9190     6.4260     5.7720    23.8900 
   64.3750     2.2310   -24.5990    90.2370     6.4560     6.0410     5.4990    24.1380 
   64.5000     2.2550   -24.5670    94.4830     6.0440     5.6300     5.0920    24.2210 
   64.6250     2.2740   -24.5390    99.4970     5.8270     5.3240     5.0660    24.2240 
   64.7500     2.2770   -24.5060   101.8240     5.8170     5.1800     4.8660    24.2240 
   64.8750     2.2680   -24.5180    98.7960     5.9850     5.2040     4.8530    24.2200 
   65.0000     2.2550   -24.5480    92.2300     6.2380     5.3480     5.2180    24.2030 
   65.1250     2.2490   -24.6090    86.9600     6.4260     5.5100     5.5600    24.1750 
   65.2500     2.2540   -24.7040    85.2600     6.4690     5.5870     5.6060    24.1630 
   65.3750     2.2670   -24.8030    87.7220     6.3860     5.5460     5.3180    24.1590 
   65.5000     2.2810   -24.9270    92.1630     6.2690     5.4230     4.8370    24.1580 
   65.6250     2.2770   -25.1160    94.7330     6.2470     5.3140     4.7040    24.1640 
   65.7500     2.2570   -25.3260    92.4410     6.3820     5.3110     5.0050    24.1860 
   65.8750     2.2270   -25.5230    88.1760     6.6830     5.4540     5.4220    24.2120 
   66.0000     2.2000   -25.7380    84.8280     7.1120     5.7320     5.8520    24.2290 
   66.1250     2.1900   -25.9870    81.1600     7.5540     6.0750     6.2710    24.2260 
   66.2500     2.1940   -26.2210    77.4780     7.8680     6.3580     6.7430    24.2230 
   66.3750     2.2090   -26.4540    78.6910     8.0140     6.5200     7.2030    24.2200 
   66.5000     2.2260   -26.6850    85.8400     8.0880     6.6040     7.4680    24.2220 
   66.6250     2.2410   -26.8630    91.0970     8.3250     6.7660     7.2820    24.2230 
   66.7500     2.2570   -27.0170    90.0490     8.8920     7.1510     7.3030    24.2420 
   66.8750     2.2660   -27.1480    84.0950     9.8430     7.8220     8.6720    24.3360 
   67.0000     2.2460   -27.2640    75.4340    11.0610     8.7300    12.0660    24.5760 
   67.1250     2.1840   -27.3640    67.3480    12.1430     9.6400    16.0420    24.8310 
   67.2500     2.1230   -27.4600    64.1870    12.6860    10.2260    13.8510    25.0040 
   67.3750     2.0930   -27.5370    66.5890    12.5990    10.3260    10.9640    25.0950 
   67.5000     2.0920   -27.5880    69.5410    12.1110    10.0160     9.7820    25.1300 
   67.6250     2.1070   -27.6380    69.5520    11.5940     9.5530     9.7410    25.1160 
   67.7500     2.1250   -27.6700    68.9760    11.2820     9.1950     9.9290    25.0680 
   67.8750     2.1380   -27.6980    69.5030    11.1760     9.0050    10.0310    25.0180 
   68.0000     2.1440   -27.7100    70.7080    11.1740     8.9290     9.6270    24.9950 
   68.1250     2.1470   -27.6990    71.3130    11.1620     8.8690     9.3410    24.9970 
   68.2500     2.1420   -27.6730    72.9890    11.0890     8.7720     9.1510    25.0380 
   68.3750     2.1200   -27.6430    76.1660    10.9500     8.6470     8.8680    25.1540 
   68.5000     2.0800   -27.6000    78.8330    10.7740     8.5240     8.4970    25.3220 
   68.6250     2.0510   -27.5020    78.8750    10.6330     8.4440     8.3580    25.3690 
   68.7500     2.0560   -27.4170    77.0460    10.5870     8.4260     8.6100    25.2190 
   68.8750     2.0950   -27.3220    75.6890    10.6440     8.4770     9.0950    24.8440 
   69.0000     2.1420   -27.1910    74.4980    10.7810     8.5920     9.5490    24.5030 
   69.1250     2.1630   -27.0540    72.9320    10.9600     8.7440    10.0850    24.3760 
   69.2500     2.1640   -26.9160    73.2210    11.1200     8.8860    10.7000    24.3570 
   69.3750     2.1550   -26.7750    76.8090    11.2210     8.9790    10.9860    24.3550 
   69.5000     2.1420   -26.6170    80.9830    11.2240     8.9960     9.9090    24.3530 
   69.6250     2.1290   -26.4880    78.0650    11.0860     8.9110     9.3150    24.3550 
   69.7500     2.1180   -26.3490    69.6840    10.8520     8.7510     9.1140    24.3510 
   69.8750     2.1150   -26.2010    64.1920    10.5930     8.5500     9.4140    24.3380 
   70.0000     2.1160   -26.0740    65.8750    10.4210     8.3650     9.8280    24.3090 
   70.1250     2.1180   -25.9520    69.1090    10.5030     8.3200    10.0080    24.2980 
   70.2500     2.1230   -25.8270    68.1650    10.9110     8.5150     9.6650    24.2950 
   70.3750     2.1510   -25.6930    66.3060    11.6870     9.0150     9.5990    24.2950 
   70.5000     2.2200   -25.5610    68.3050    12.7770     9.8070    10.1730    24.2630 
   70.6250     2.3170   -25.4260    72.4940    13.9530    10.7530    11.9220    24.1420 
   70.7500     2.3740   -25.2680    73.9880    14.8300    11.5440    14.7510    23.9570 
   70.8750     2.3450   -25.1300    72.2720    15.1500    11.9340    15.6590    23.8360 
   71.0000     2.2590   -25.0180    69.8710    14.9210    11.8630    13.3810    23.7980 
   71.1250     2.1810   -24.9110    69.9350    14.4420    11.5060    11.7150    23.7970 
