~V
VERS. 2.00: Ver 2.00
~W
STRT.M 55.0000:
STOP.M 217.0000:
STEP.M 0.1250:
NULL. -999.2500:
UWI. F10537:
~C
DEPT.M :
SP.MV :
DEN.GM/CC :
GR.API :
RML.OHMM :
RI. :
RXO.OHMM :
CALI.CM :
~A
# ...
  201.2500   -25.3870     2.2580    59.2000    49.6910    46.7320    44.8960    26.2190 
  201.3750   -25.3520     2.2550    58.8390    44.5940    42.1190    42.3500    26.0930 
  201.5000   -25.3970     2.2520    59.4690    39.1390    37.0680    37.5060    25.8030 
  201.6250   -25.5280     2.2570    63.8950    34.7470    32.8680    30.1420    25.5980 
  201.7500   -25.6740     2.2710    68.7830    32.2080    30.2300    23.3770    25.4160 
  201.8750   -25.8620     2.2900    69.9240    31.7900    29.3990    20.8550    25.2530 
  202.0000   -26.0930     2.3090    65.8870    33.3100    30.2800    24.9560    25.2570 
  202.1250   -26.3190     2.3130    59.6380    36.3590    32.6650    33.8400    25.4750 
  202.2500   -26.5470     2.3030    56.6730    39.8250    35.6510    39.8980    25.7960 
  202.3750   -26.8080     2.2820    58.7880    42.9040    38.5030    39.3080    26.0070 
  202.5000   -27.0510     2.2620    63.3380    45.1020    40.6550    38.0290    26.0760 
  202.6250   -27.2400     2.2530    64.7170    46.3750    41.8940    37.6200    25.9940 
  202.7500   -27.3930     2.2560    62.2200    47.3460    42.7230    38.4430    25.8530 
  202.8750   -27.5550     2.2660    59.2010    48.3500    43.4720    40.3140    25.7300 
  203.0000   -27.6740     2.2720    59.0670    49.4690    44.2690    43.5700    25.7090 
  203.1250   -27.7120     2.2670    61.4420    50.6870    45.1240    46.2860    25.7970 
  203.2500   -27.7320     2.2530    61.3060    52.0320    46.0710    44.8200    25.8970 
  203.3750   -27.6880     2.2390    58.3790    53.6250    47.2240    43.1520    25.8990 
  203.5000   -27.6130     2.2320    55.3750    55.5880    48.7090    44.0490    25.8760 
  203.6250   -27.5080     2.2310    54.1190    57.9910    50.6450    46.6550    25.8740 
  203.7500   -27.3690     2.2290    54.0230    60.4380    52.7570    49.3430    25.9630 
  203.8750   -27.2030     2.2210    54.5610    62.1750    54.4420    53.3040    26.0780 
  204.0000   -27.0150     2.2040    55.5710    62.1850    54.7850    55.0050    26.1560 
  204.1250   -26.8630     2.1880    56.7550    59.2930    52.6320    54.9050    26.0660 
  204.2500   -26.7500     2.1830    57.3010    54.2920    48.5340    53.2720    25.8060 
  204.3750   -26.6830     2.1960    56.8120    48.4440    43.5460    49.1150    25.5330 
  204.5000   -26.6610     2.2260    56.6190    43.1780    38.9050    40.3400    25.3290 
  204.6250   -26.6720     2.2580    58.7560    39.7940    35.7580    32.0010    25.4010 
  204.7500   -26.7680     2.2750    61.5230    38.2420    34.1500    28.8330    25.5390 
  204.8750   -26.8730     2.2710    61.4780    38.1710    33.8620    30.4060    25.6980 
  205.0000   -26.9850     2.2530    57.4350    38.9690    34.4510    34.7810    25.8070 
  205.1250   -27.0780     2.2340    53.4990    39.8770    35.3370    37.7480    25.7900 
  205.2500   -27.0950     2.2260    53.2140    40.3010    35.9400    37.0560    25.6540 
  205.3750   -27.0610     2.2310    54.5480    40.0960    36.0470    33.8840    25.5080 
  205.5000   -26.9610     2.2440    54.6580    39.4380    35.7190    31.7840    25.4720 
  205.6250   -26.7970     2.2560    54.1310    38.6620    35.1770    32.7700    25.4960 
  205.7500   -26.5760     2.2590    54.9170    38.0300    34.6590    34.5160    25.5220 
  205.8750   -26.3180     2.2560    55.3990    37.5800    34.2090    34.4030    25.5710 
  206.0000   -26.0640     2.2520    55.3990    37.2330    33.7740    32.6090    25.6700 
  206.1250   -25.8120     2.2540    55.3990    36.8180    33.2090    30.8550    25.7620 
  206.2500   -25.5820     2.2670    55.3990    36.1810    32.4150    30.5590    25.8200 
  206.3750   -25.3880     2.2900    55.3990    35.2850    31.3770    31.6220    25.9610 
  206.5000   -25.2150     2.3180    55.3990    34.2750    30.2400    31.0580    26.2100 
  206.6250   -25.0660     2.3320    55.3990    33.6060    29.4010    26.0010    26.8080 
  206.7500   -24.8980     2.3140    55.3990    33.7780    29.2570    21.7650    27.6790 
  206.8750   -24.7350     2.2570    55.3990    35.3140    30.1980    20.7960    28.4340 
  207.0000   -24.5990     2.1780    55.3990    38.7440    32.6420    22.1510    28.6760 
  207.1250   -24.4800     2.1050    55.3990    45.0200    37.4370    24.8810    28.1120 
  207.2500   -24.3250     2.0800    55.3990    53.9590    44.5850    27.4000    26.9220 
  207.3750   -24.1510     2.1370    55.3990    64.8040    53.6400    31.3250    25.5070 
  207.5000   -23.9950     2.2810    55.3990    74.8700    62.5620    45.0980    24.5700 
  207.6250   -23.8410     2.4610    55.3990    77.7630    66.2220    59.2410    24.2230 
  207.7500   -23.6750     2.5910    55.3990    71.4200    62.3680    66.8150    24.0760 
  207.8750   -23.4900     2.6390    55.3990    58.9220    52.8180    54.1580    24.0180 
  208.0000   -23.2510     2.6190    55.3990    45.6470    41.7660    32.6820    24.0930 
  208.1250   -23.0220     2.5440    55.3990    35.5650    32.8600    18.5120    24.6140 
  208.2500   -22.8140     2.4510    55.3990    28.6910    26.6290    14.3580    25.6650 
  208.3750   -22.5610     2.3620    55.3990    24.3010    22.6050    14.7620    26.7470 
  208.5000   -22.2440     2.2940    55.3990    21.6480    20.1610    14.3910    27.2620 
  208.6250   -21.8850     2.2600    55.3990    20.5920    19.1290    13.2040    27.0100 
  208.7500   -21.5120     2.2560    55.3990    21.0900    19.3680    13.3320    26.5890 
  208.8750   -21.0870     2.2830    55.3990    23.7410    21.3310    15.0590    25.9540 
  209.0000   -20.6140     2.3390    55.3990    29.2000    25.7210    19.2010    25.1100 
  209.1250   -20.0380     2.4250    55.3990    37.4710    33.0070    31.3570    24.5720 
  209.2500   -19.3750     2.5320    55.3990    44.7460    40.0480    70.9760    24.3370 
  209.3750   -18.6950     2.6490    55.3990    45.4840    41.4490   154.6790    24.3060 
  209.5000   -17.9900     2.7460    55.3990    37.6090    34.7310   141.9020    24.3210 
  209.6250   -17.2710     2.7680    55.3990    26.6300    24.9160    39.2490    24.3440 
  209.7500   -16.5680     2.7290    55.3990    18.6640    17.7200    12.6150    24.4250 
  209.8750   -15.9240     2.6550    55.3990    14.3970    13.7900     5.4700    24.5560 
  210.0000   -15.3350     2.5790    55.3990    12.6950    12.1730     4.0750    24.6150 
  210.1250   -14.8790     2.5360    55.3990    12.3220    11.7980     4.1840    24.5020 
  210.2500   -14.5540     2.5260    55.3990    12.2590    11.7360     4.2410    24.2990 
  210.3750   -14.3480     2.5300    55.3990    12.2540    11.7360     4.2990    24.0820 
  210.5000   -14.3040     2.5250    55.3990    12.2520    11.7390     4.3020    24.0700 
  210.6250   -14.4430     2.4950    55.3990    12.2530    11.7420     4.2500    24.3780 
  210.7500   -14.6550     2.4510    55.3990    12.2540    11.7460     4.1090    24.5440 
  210.8750   -14.9130     2.4050    55.3990    12.2550    11.7520     3.9720    24.5990 
  211.0000   -15.2560     2.3680    55.3990    12.2560    11.7600     3.9600    24.5980 
  211.1250   -15.5400     2.3440    55.3990    12.2570    11.7650     3.9720    24.4960 
  211.2500   -15.7110     2.3370    55.3990    12.2560    11.7660     4.1060    24.3230 
  211.3750   -15.8230     2.3460    55.3990    12.2540    11.7620     4.3850    24.1800 
  211.5000   -15.8850     2.3680    55.3990    12.2520    11.7570     4.6740    24.1750 
  211.6250   -15.9220     2.3980    55.3990    12.2500    11.7550     5.0140    24.2550 
  211.7500   -15.9770     2.4280    55.3990    12.2510    11.7550     5.2740    24.3170 
  211.8750   -15.9680     2.4510    55.3990    12.2510    11.7550     5.4120    24.3410 
  212.0000   -15.8060     2.4640    55.3990    12.2510    11.7550     5.8110    24.3460 
  212.1250   -15.5850     2.4650    55.3990    12.2510    11.7550     6.1390    24.3500 
  212.2500   -15.4980     2.4600    55.3990    12.2510    11.7550     6.2790    24.3570 
  212.3750   -15.4980     2.4580    55.3990    12.2510    11.7550     6.3170    24.3600 
