~V
VERS. 2.00: Ver 2.00
~W
STRT.M 52.0000:
STOP.M 220.0000:
STEP.M 0.1250:
NULL. -999.2500:
UWI. F10539:
~C
DEPT.M :
SP.MV :
DEN.GM/CC :
GR.API :
RML.OHMM :
RI. :
RXO.OHMM :
CALI.CM :
~A
# ...
  142.0000   -17.7470     2.2660    63.7320     7.3410     6.2730     7.5700    23.2480 
  142.1250   -17.5870     2.2400    62.9680     7.6120     6.4750     8.0870    23.1550 
  142.2500   -17.3960     2.2140    60.2110     7.8120     6.6330     8.2000    23.1030 
  142.3750   -17.1910     2.1970    56.5310     7.9090     6.7230     8.2010    23.0630 
  142.5000   -16.9470     2.1920    55.0830     7.9320     6.7550     8.2870    23.0200 
  142.6250   -16.7020     2.2010    57.5010     7.9690     6.7770     8.3010    22.9830 
  142.7500   -16.4640     2.2140    60.1070     8.0830     6.8380     8.3280    22.9940 
  142.8750   -16.2720     2.2260    59.9080     8.2540     6.9360     8.3440    23.0110 
  143.0000   -16.1160     2.2310    56.6620     8.4040     7.0230     8.3210    22.9830 
  143.1250   -16.0450     2.2280    53.0550     8.4160     7.0160     8.4160    22.8630 
  143.2500   -16.0390     2.2270    52.2360     8.2770     6.9040     8.3680    22.7250 
  143.3750   -16.0920     2.2340    54.7240     8.0510     6.7250     7.6860    22.6820 
  143.5000   -16.2060     2.2470    58.4200     7.8470     6.5560     6.1790    22.7490 
  143.6250   -16.3450     2.2600    59.6160     7.7980     6.4940     5.4070    22.8460 
  143.7500   -16.5170     2.2600    58.3040     7.9170     6.5570     6.1070    22.8430 
  143.8750   -16.6840     2.2480    57.9120     8.1770     6.7290     7.5030    22.7550 
  144.0000   -16.8520     2.2320    59.5270     8.5080     6.9590     8.5720    22.7300 
  144.1250   -16.9780     2.2260    59.5660     8.7930     7.1690     8.9160    22.8060 
  144.2500   -17.0680     2.2350    57.8940     8.9090     7.2770     8.8540    22.9470 
  144.3750   -17.0890     2.2540    57.3490     8.7730     7.2220     8.7300    23.0550 
  144.5000   -17.0710     2.2740    59.0360     8.3590     6.9780     8.5770    23.1010 
  144.6250   -16.9940     2.2900    61.4920     7.7180     6.5520     8.4120    23.1170 
  144.7500   -16.8810     2.3040    63.5490     7.0570     6.0690     7.8270    23.1450 
  144.8750   -16.7400     2.3200    65.1440     6.5450     5.6440     6.9180    23.2060 
  145.0000   -16.5630     2.3320    66.6260     6.3010     5.3840     6.0260    23.3440 
  145.1250   -16.3660     2.3280    67.3750     6.4440     5.4000     5.4740    23.3360 
  145.2500   -16.1380     2.3070    66.3110     6.8880     5.6590     6.0790    23.0580 
  145.3750   -15.8880     2.2720    63.6700     7.5140     6.1030     7.5440    22.7500 
  145.5000   -15.5980     2.2340    61.7470     8.1250     6.6100     8.6060    22.8270 
  145.6250   -15.2910     2.2050    62.5010     8.4360     6.9640     8.8160    23.0880 
  145.7500   -14.9720     2.1940    65.0190     8.3610     7.0350     8.9180    23.2550 
  145.8750   -14.6620     2.2030    67.6100     7.9590     6.8130     8.7790    23.3990 
  146.0000   -14.3940     2.2320    69.8170     7.4020     6.4020     7.9680    23.5820 
  146.1250   -14.1640     2.2720    72.8640     6.8870     5.9590     6.6300    23.7790 
  146.2500   -14.0060     2.3070    76.4720     6.4960     5.5950     5.9490    23.8740 
  146.3750   -13.9040     2.3310    78.0930     6.2300     5.3360     5.8990    23.8870 
  146.5000   -13.9050     2.3470    77.3440     6.0630     5.1750     6.2260    23.8560 
  146.6250   -13.9760     2.3640    77.0660     5.9900     5.1090     6.4570    23.7850 
  146.7500   -14.1150     2.3790    76.9190     6.0230     5.1250     6.1730    23.6690 
  146.8750   -14.2810     2.3840    75.7470     6.1920     5.2320     5.6980    23.5500 
  147.0000   -14.4530     2.3700    72.8500     6.4820     5.4240     5.6860    23.4000 
  147.1250   -14.5870     2.3380    68.5320     6.8060     5.6610     6.3130    23.2240 
  147.2500   -14.6720     2.3020    65.7610     7.0350     5.8630     7.1200    23.0670 
  147.3750   -14.7210     2.2750    65.9480     7.0880     5.9610     7.4370    22.9840 
  147.5000   -14.6960     2.2620    69.0840     6.9540     5.9190     6.9480    22.9710 
  147.6250   -14.6170     2.2660    72.1420     6.6760     5.7380     6.2100    23.0340 
  147.7500   -14.4700     2.2770    74.9980     6.3710     5.5010     5.8910    23.0530 
  147.8750   -14.2870     2.2920    77.4580     6.1030     5.2680     5.7700    22.9510 
  148.0000   -14.0850     2.3080    78.5950     5.9160     5.0840     5.5580    22.8270 
  148.1250   -13.8920     2.3200    78.1460     5.8510     4.9890     5.3890    22.9850 
  148.2500   -13.7300     2.3280    76.3530     5.8790     4.9680     5.1690    23.2400 
  148.3750   -13.5910     2.3290    74.6200     5.9630     5.0040     4.9070    23.2590 
  148.5000   -13.5040     2.3210    74.8780     6.0650     5.0800     4.8090    22.9410 
  148.6250   -13.4640     2.3090    76.3210     6.1460     5.1710     5.0240    22.4500 
  148.7500   -13.4790     2.3050    76.8880     6.1840     5.2440     5.2480    22.0770 
  148.8750   -13.5440     2.3180    76.0710     6.1600     5.2650     5.4580    22.0720 
  149.0000   -13.6430     2.3440    75.7750     6.0600     5.2100     5.7970    22.4230 
  149.1250   -13.8170     2.3700    78.4590     5.8520     5.0510     6.4430    23.0210 
  149.2500   -14.0030     2.3830    82.0920     5.5640     4.8150     5.9520    23.3080 
  149.3750   -14.2350     2.3810    83.7010     5.2360     4.5310     5.3410    23.3920 
  149.5000   -14.4540     2.3720    83.1150     4.9070     4.2340     4.9780    23.4490 
  149.6250   -14.6950     2.3680    83.3040     4.6390     3.9780     4.8680    23.7500 
  149.7500   -14.9080     2.3720    83.9200     4.5190     3.8380     4.7520    23.8770 
  149.8750   -15.1080     2.3780    82.2290     4.6510     3.8940     4.7340    23.9160 
  150.0000   -15.2770     2.3870    78.2430     5.1170     4.2030     4.8880    23.9350 
  150.1250   -15.3870     2.4170    73.9710     5.9870     4.8190     5.7790    23.9630 
  150.2500   -15.4500     2.4660    69.6430     7.0650     5.6270     9.1120    23.9850 
  150.3750   -15.4550     2.5130    65.8280     8.0630     6.4600    15.3290    23.9780 
  150.5000   -15.4160     2.5220    63.5450     8.6600     7.0940    16.0900    23.9010 
  150.6250   -15.3110     2.4670    64.0520     8.6760     7.3240    10.5010    23.7550 
  150.7500   -15.1660     2.3820    68.2580     8.4550     7.2910     8.3430    23.5580 
  150.8750   -14.9790     2.3020    72.2190     8.3160     7.1950     8.0500    23.4150 
  151.0000   -14.7620     2.2500    70.9920     8.4650     7.2110     8.0100    23.3400 
  151.1250   -14.5450     2.2320    66.0450     8.9190     7.4330     8.2400    23.3100 
  151.2500   -14.3470     2.2230    62.7170     9.3650     7.7100     8.8620    23.2010 
  151.3750   -14.1620     2.2090    61.6320     9.4840     7.8260     9.3010    23.1270 
  151.5000   -14.0230     2.1880    61.0890     9.1220     7.6310     9.0660    23.2380 
  151.6250   -13.9310     2.1730    63.9890     8.4310     7.1630     8.2340    23.4700 
  151.7500   -13.9150     2.1750    69.9670     7.8690     6.7190     6.9780    23.7390 
  151.8750   -13.9410     2.2040    74.9820     7.7070     6.5080     5.7550    23.8430 
  152.0000   -14.0400     2.2630    75.9160     8.0060     6.6200     5.5350    23.8470 
  152.1250   -14.1590     2.3550    72.3610     8.6260     7.0280     7.2750    23.8350 
  152.2500   -14.3200     2.4530    68.3630     9.1620     7.4660    10.7670    23.8530 
  152.3750   -14.5040     2.5220    67.6890     9.3140     7.6920    13.3490    23.8590 
  152.5000   -14.6920     2.5320    70.9460     8.9980     7.5680    10.3120    23.8490 
  152.6250   -14.8950     2.4770    73.0270     8.4080     7.1400     7.4910    23.8320 
  152.7500   -15.0580     2.3980    72.0900     7.8820     6.6740     6.4900    23.7600 
  152.8750   -15.1980     2.3260    71.0110     7.5360     6.3080     6.5500    23.6550 
  153.0000   -15.2770     2.2740    71.9650     7.3290     6.0690     6.9710    23.5990 
  153.1250   -15.3330     2.2500    73.0080     7.1350     5.9030     7.4290    23.6400 
