~V
VERS. 2.00: Ver 2.00
~W
STRT.M 52.0000:
STOP.M 220.0000:
STEP.M 0.1250:
NULL. -999.2500:
UWI. F10539:
~C
DEPT.M :
SP.MV :
DEN.GM/CC :
GR.API :
RML.OHMM :
RI. :
RXO.OHMM :
CALI.CM :
~A
# ...
  108.2500   -17.7690     2.2070    57.1390     9.9850     7.7590     8.8590    22.6140 
  108.3750   -17.9320     2.2140    54.7690    10.1170     7.7910     8.9250    22.6350 
  108.5000   -18.0620     2.2240    52.3130    10.1070     7.7990     8.9220    22.6600 
  108.6250   -18.1990     2.2350    52.5870     9.8820     7.7180     8.9480    22.7670 
  108.7500   -18.3020     2.2420    55.3880     9.5750     7.5810     8.9150    22.8570 
  108.8750   -18.4010     2.2390    57.6700     9.3190     7.4410     8.6950    22.8420 
  109.0000   -18.4510     2.2280    56.5660     9.1940     7.3480     8.2500    22.7190 
  109.1250   -18.4680     2.2180    53.7400     9.2240     7.3470     7.8420    22.6810 
  109.2500   -18.4420     2.2160    53.6180     9.3240     7.4200     7.8880    22.7870 
  109.3750   -18.3790     2.2210    55.7810     9.4280     7.5340     8.2870    22.8760 
  109.5000   -18.3100     2.2280    56.7230     9.4830     7.6420     8.6800    22.8520 
  109.6250   -18.2100     2.2370    56.1290     9.4460     7.6930     8.9550    22.9180 
  109.7500   -18.1110     2.2490    56.9830     9.3500     7.6800     9.1750    22.9690 
  109.8750   -17.9980     2.2650    59.1290     9.2500     7.6260     9.1620    22.9270 
  110.0000   -17.9000     2.2810    61.2440     9.2040     7.5720     8.7580    22.7610 
  110.1250   -17.8230     2.2850    62.2270     9.2510     7.5580     8.3190    22.5850 
  110.2500   -17.7530     2.2730    60.8530     9.3560     7.5870     8.1430    22.4460 
  110.3750   -17.7100     2.2490    57.0160     9.4830     7.6460     8.1320    22.3590 
  110.5000   -17.6670     2.2240    53.9870     9.6020     7.7180     8.0750    22.3680 
  110.6250   -17.6450     2.2110    53.9120     9.6960     7.7950     8.0210    22.4440 
  110.7500   -17.6210     2.2150    54.3400     9.7770     7.8770     8.1760    22.5180 
  110.8750   -17.6140     2.2340    55.3930     9.8810     7.9840     8.4480    22.4730 
  111.0000   -17.6170     2.2600    58.1700    10.0640     8.1500     8.6290    22.3230 
  111.1250   -17.6180     2.2800    59.8270    10.4030     8.4220     8.6820    22.2080 
  111.2500   -17.6440     2.2860    57.9690    10.8550     8.7700     8.5260    22.1570 
  111.3750   -17.6560     2.2780    55.8190    11.3050     9.1250     8.3910    22.1810 
  111.5000   -17.6950     2.2610    55.6070    11.5950     9.3790     8.3010    22.2400 
  111.6250   -17.7060     2.2420    54.5490    11.5410     9.3870     8.3040    22.3620 
  111.7500   -17.7280     2.2260    51.1920    11.2010     9.1590     8.3660    22.4640 
  111.8750   -17.7330     2.2110    49.4230    10.7000     8.7700     8.4170    22.4810 
  112.0000   -17.7310     2.1980    53.1640    10.1830     8.3290     8.3560    22.4210 
  112.1250   -17.7210     2.1870    58.8820     9.7590     7.9430     8.2220    22.4560 
  112.2500   -17.7060     2.1810    59.4290     9.4410     7.6520     8.1240    22.5680 
  112.3750   -17.6810     2.1830    55.6090     9.2170     7.4610     8.0370    22.6840 
  112.5000   -17.6320     2.1910    53.2790     9.0630     7.3460     7.8940    22.8170 
  112.6250   -17.5770     2.2030    56.5430     8.9660     7.2870     7.7510    22.8920 
  112.7500   -17.5100     2.2150    61.0720     8.9140     7.2550     7.6720    22.8320 
  112.8750   -17.4280     2.2270    62.1010     8.9010     7.2400     7.7650    22.7130 
  113.0000   -17.3560     2.2370    58.2630     8.9160     7.2370     7.9560    22.6920 
  113.1250   -17.2810     2.2460    54.5450     8.9380     7.2400     8.1700    22.8580 
  113.2500   -17.2280     2.2510    54.8730     8.9400     7.2390     8.2100    23.0770 
  113.3750   -17.1920     2.2520    57.7350     8.9110     7.2280     8.2520    23.1900 
  113.5000   -17.1970     2.2520    59.5200     8.8560     7.2040     8.3900    23.1640 
  113.6250   -17.2530     2.2520    58.3060     8.7970     7.1700     8.4370    23.0460 
  113.7500   -17.3550     2.2540    56.6780     8.7500     7.1350     8.3900    22.9390 
  113.8750   -17.5210     2.2600    56.7360     8.7180     7.1080     8.3350    22.8770 
  114.0000   -17.7020     2.2690    58.3690     8.6980     7.0900     8.2580    22.8600 
  114.1250   -17.9350     2.2740    58.7830     8.6810     7.0830     8.2940    22.9510 
  114.2500   -18.1590     2.2730    58.2120     8.6560     7.0730     8.3860    23.0420 
  114.3750   -18.4060     2.2710    58.1280     8.6080     7.0480     8.3360    23.1310 
  114.5000   -18.6110     2.2710    58.4030     8.5210     6.9950     8.1190    23.2020 
  114.6250   -18.7890     2.2780    57.3840     8.3680     6.8980     8.1830    23.1720 
  114.7500   -18.9180     2.2850    57.1400     8.1500     6.7550     8.0250    23.0710 
  114.8750   -18.9970     2.2860    58.7550     7.8890     6.5660     7.8580    23.0170 
  115.0000   -19.0310     2.2790    61.2400     7.6350     6.3510     7.5660    23.0260 
  115.1250   -18.9940     2.2700    62.9000     7.4700     6.1630     7.4020    23.1300 
  115.2500   -18.9140     2.2650    62.9270     7.4450     6.0630     7.2360    23.2790 
  115.3750   -18.7750     2.2620    62.4530     7.5750     6.0830     7.1190    23.3800 
  115.5000   -18.6080     2.2580    61.5660     7.8090     6.1990     7.2410    23.3240 
  115.6250   -18.4170     2.2500    58.9300     8.0000     6.3170     7.8290    23.1590 
  115.7500   -18.2020     2.2460    56.6740     8.0080     6.3250     8.1290    23.0560 
  115.8750   -17.9960     2.2540    56.9980     7.8060     6.1850     7.8560    23.0830 
  116.0000   -17.7900     2.2750    60.4700     7.4810     5.9380     7.0820    23.2770 
  116.1250   -17.6230     2.2930    64.1090     7.2270     5.6960     6.0780    23.4810 
  116.2500   -17.5020     2.2940    64.6890     7.1720     5.5690     5.7570    23.5930 
  116.3750   -17.4360     2.2770    62.9060     7.3300     5.6100     6.3630    23.6370 
  116.5000   -17.4280     2.2560    60.2150     7.6470     5.8180     6.6290    23.7070 
  116.6250   -17.4570     2.2480    58.1260     8.0370     6.1610     6.6890    23.6770 
  116.7500   -17.5380     2.2520    56.2480     8.3940     6.5330     7.2980    23.4640 
  116.8750   -17.6180     2.2560    54.6050     8.6680     6.8550     8.2650    23.1430 
  117.0000   -17.7330     2.2490    53.2640     8.8470     7.0780     8.7720    22.9420 
  117.1250   -17.7980     2.2280    52.2390     8.9450     7.1820     8.6870    22.8810 
  117.2500   -17.8480     2.2070    52.8500     8.9860     7.2050     8.5430    22.9220 
  117.3750   -17.8520     2.1920    54.8850     8.9660     7.1660     8.4730    22.9720 
  117.5000   -17.8230     2.1900    56.0450     8.8860     7.0900     8.4840    22.9710 
  117.6250   -17.7180     2.2040    55.5760     8.7640     7.0040     8.4650    22.9280 
  117.7500   -17.5480     2.2280    56.5220     8.6510     6.9300     8.1800    22.8540 
  117.8750   -17.3230     2.2530    58.9680     8.6100     6.8920     7.8320    22.7930 
  118.0000   -17.0350     2.2660    60.7680     8.7070     6.9400     8.1310    22.7460 
  118.1250   -16.7050     2.2630    60.7940     8.9780     7.1190     8.5060    22.6990 
  118.2500   -16.3170     2.2570    60.4260     9.2950     7.3550     8.6330    22.7320 
  118.3750   -15.8790     2.2720    60.0940     9.4910     7.5210     9.4070    22.8660 
  118.5000   -15.4160     2.3190    61.3550     9.3940     7.4860    12.2500    23.0940 
  118.6250   -14.9520     2.3840    66.8180     8.8770     7.1460    15.4330    23.4650 
  118.7500   -14.5030     2.4250    73.5870     8.1200     6.6230    12.4650    23.7750 
  118.8750   -14.0770     2.4280    77.2810     7.3330     6.0570     7.7860    23.9520 
  119.0000   -13.6820     2.4080    78.2120     6.6890     5.5640     6.5630    24.0340 
  119.1250   -13.3410     2.3940    79.6770     6.2890     5.2180     6.8690    24.0160 
  119.2500   -13.0430     2.3920    80.5860     6.0600     4.9950     6.6300    23.9610 
  119.3750   -12.8190     2.3880    80.0580     5.9320     4.8680     5.7720    23.9080 
