~V
VERS. 2.00: Ver 2.00
~W
STRT.M 50.0000:
STOP.M 199.0000:
STEP.M 0.1250:
NULL. -999.2500:
UWI. F10575:
~C
DEPT.M :
DEN.GM/CC :
SP.MV :
GR.API :
RML.OHMM :
RI. :
RXO.OHMM :
CALI.CM :
~A
# ...
  128.7500     2.4020   -18.3930    49.1910    17.6930    16.4400    16.0920    25.0100 
  128.8750     2.4000   -18.2950    45.2780    18.4180    17.1720    16.9980    25.4200 
  129.0000     2.3940   -18.2560    45.4690    19.1210    17.8080    17.6820    25.6340 
  129.1250     2.3880   -18.2620    46.4870    19.5950    18.1670    18.1560    25.7370 
  129.2500     2.3890   -18.2490    45.1670    19.6530    18.1600    19.0140    25.8240 
  129.3750     2.3920   -18.2280    44.4420    19.1970    17.7310    19.2240    25.8590 
  129.5000     2.3910   -18.2310    47.9910    18.2890    16.9270    17.4980    25.8460 
  129.6250     2.3840   -18.2310    53.4310    17.1490    15.8980    15.4360    25.7660 
  129.7500     2.3760   -18.1760    54.8980    16.1420    14.9330    13.7850    25.6170 
  129.8750     2.3740   -18.0530    53.6240    15.4970    14.2480    13.1340    25.4430 
  130.0000     2.3860   -17.8950    52.8320    15.3420    13.9910    13.4110    25.2850 
  130.1250     2.4050   -17.7290    54.0830    15.7700    14.2600    14.0650    25.2150 
  130.2500     2.4190   -17.5780    55.2870    16.6140    14.8620    15.3040    25.2080 
  130.3750     2.4220   -17.4360    55.9660    17.7180    15.6000    16.4550    25.2320 
  130.5000     2.4140   -17.3030    57.2290    18.8160    16.2540    17.2470    25.2400 
  130.6250     2.3940   -17.2040    56.2560    19.4990    16.5920    18.1020    25.2110 
  130.7500     2.3760   -17.1540    52.0550    19.5880    16.6160    18.1450    25.1950 
  130.8750     2.3690   -17.1360    48.1810    19.1120    16.3980    17.2240    25.2050 
  131.0000     2.3750   -17.1140    48.1570    18.3490    16.0450    16.4680    25.2460 
  131.1250     2.3910   -17.0760    50.7650    17.7370    15.6960    16.5140    25.3460 
  131.2500     2.4030   -17.0380    51.5560    17.5460    15.4800    16.9690    25.4640 
  131.3750     2.4060   -16.9860    49.8530    17.8490    15.4690    16.9090    25.5780 
  131.5000     2.3990   -16.8940    48.8160    18.5890    15.6910    17.0170    25.6430 
  131.6250     2.3890   -16.7590    51.0460    19.6680    16.1780    17.9690    25.6160 
  131.7500     2.3840   -16.5890    54.1170    20.7900    16.8270    19.3640    25.5170 
  131.8750     2.3870   -16.4110    55.6330    21.6900    17.5170    20.2780    25.2170 
  132.0000     2.4010   -16.2600    54.7100    22.1650    18.1110    21.2430    24.7590 
  132.1250     2.4230   -16.1130    52.3610    22.0900    18.4380    21.4610    24.4710 
  132.2500     2.4380   -15.9640    51.2100    21.6810    18.4430    21.3300    24.3760 
  132.3750     2.4440   -15.8190    52.4330    21.1240    18.1260    20.3770    24.3660 
  132.5000     2.4460   -15.6740    55.1590    20.5690    17.5750    19.0280    24.3680 
  132.6250     2.4430   -15.5430    55.7370    20.1060    16.9350    18.1980    24.3690 
  132.7500     2.4360   -15.4390    55.1780    19.7290    16.3760    17.9060    24.3850 
  132.8750     2.4290   -15.3490    54.6510    19.4540    15.9960    18.0850    24.4300 
  133.0000     2.4270   -15.2710    54.1510    19.3110    15.8160    18.1830    24.5110 
  133.1250     2.4290   -15.2080    52.3910    19.2900    15.7800    18.4630    24.6650 
  133.2500     2.4300   -15.1310    49.2040    19.2810    15.7660    18.9470    24.9100 
  133.3750     2.4290   -15.0530    47.2210    19.1950    15.7130    19.0730    25.1280 
  133.5000     2.4260   -14.9900    49.0540    18.9680    15.6010    18.0320    25.2010 
  133.6250     2.4220   -14.9140    51.4770    18.5720    15.4400    17.3210    25.1550 
  133.7500     2.4130   -14.8380    49.7960    18.0990    15.2700    17.3330    25.1440 
  133.8750     2.4030   -14.7430    46.2060    17.6420    15.1250    17.1820    25.1740 
  134.0000     2.3980   -14.6300    45.0840    17.2880    15.0460    16.8340    25.2120 
  134.1250     2.3990   -14.5290    46.7630    17.1350    15.0840    16.7830    25.2400 
  134.2500     2.3970   -14.4650    47.2830    17.1690    15.2030    16.8880    25.2410 
  134.3750     2.3900   -14.4150    46.9980    17.2000    15.2550    16.6440    25.2540 
  134.5000     2.3830   -14.3550    47.4770    16.8570    14.9730    16.6170    25.2830 
  134.6250     2.3830   -14.3370    48.7350    15.6690    14.0020    16.1420    25.3600 
  134.7500     2.3790   -14.3400    51.7160    13.8180    12.4990    14.7090    25.4920 
  134.8750     2.3590   -14.3520    57.1710    11.7350    10.8000    11.7390    25.6780 
  135.0000     2.3150   -14.3490    62.9720     9.9190     9.2690     8.3100    25.8220 
  135.1250     2.2730   -14.3110    66.2940     8.7940     8.2060     6.3450    25.5900 
  135.2500     2.2650   -14.2300    68.7100     8.2610     7.5790     6.1890    25.0710 
  135.3750     2.2920   -14.1220    71.4110     8.1350     7.2980     6.7650    24.5190 
  135.5000     2.3330   -14.0080    73.3580     8.1990     7.2310     7.1100    24.2470 
  135.6250     2.3610   -13.8490    75.1570     8.2290     7.2380     7.1670    24.0750 
  135.7500     2.3770   -13.6690    79.4610     8.1090     7.1870     7.1080    23.8530 
  135.8750     2.3880   -13.4980    83.8080     7.8280     7.0380     6.9690    23.7180 
  136.0000     2.3920   -13.3420    84.4880     7.4600     6.8220     6.7520    23.6810 
  136.1250     2.3830   -13.2060    82.0150     7.1440     6.6200     6.6430    23.6810 
  136.2500     2.3680   -13.1290    80.7410     6.9770     6.4870     6.6980    23.6810 
  136.3750     2.3500   -13.1010    82.0390     7.0160     6.4460     6.9400    23.6750 
  136.5000     2.3310   -13.1160    84.3870     7.2610     6.4990     7.3260    23.6500 
  136.6250     2.3190   -13.2290    86.9080     7.6530     6.6440     7.8670    23.5750 
  136.7500     2.3190   -13.4150    88.5640     8.0380     6.8320     8.3740    23.4840 
  136.8750     2.3250   -13.6660    88.8330     8.3180     7.0240     8.3970    23.4090 
  137.0000     2.3270   -13.9770    86.6130     8.4850     7.1790     8.0330    23.3640 
  137.1250     2.3210   -14.3170    81.8850     8.6000     7.2840     7.9900    23.3300 
  137.2500     2.3200   -14.6360    79.3360     8.7570     7.3860     8.5010    23.3200 
  137.3750     2.3310   -14.9410    80.8770     9.0110     7.5410     9.1080    23.3300 
  137.5000     2.3540   -15.2340    85.3380     9.4090     7.7880     9.5060    23.3610 
  137.6250     2.3790   -15.4680    88.1980    10.0120     8.1730    10.1770    23.3860 
  137.7500     2.4020   -15.6370    87.1650    10.7700     8.6720    11.2050    23.4150 
  137.8750     2.4200   -15.7330    83.4180    11.5470     9.2490    12.4700    23.4410 
  138.0000     2.4300   -15.7470    79.7660    12.1060     9.8140    13.3900    23.4550 
  138.1250     2.4260   -15.7390    79.3530    12.1960    10.1830    14.5030    23.4570 
  138.2500     2.4150   -15.7200    79.7840    11.9260    10.2490    15.0880    23.4570 
  138.3750     2.4010   -15.6720    81.4100    11.5070    10.0330    13.6170    23.4510 
  138.5000     2.3860   -15.6370    85.5110    11.1910     9.7080    11.4350    23.4370 
  138.6250     2.3710   -15.6160    88.8380    11.2410     9.5630    10.7790    23.4070 
  138.7500     2.3660   -15.5670    87.2960    11.7130     9.7660    11.7540    23.3890 
  138.8750     2.3750   -15.5320    82.1880    12.6330    10.3850    13.4330    23.3850 
  139.0000     2.3930   -15.5150    78.5360    13.9460    11.3930    14.3920    23.3830 
  139.1250     2.4040   -15.4690    79.3040    15.4850    12.6720    15.6860    23.3950 
  139.2500     2.3940   -15.4240    81.3310    16.9080    13.9380    17.0570    23.4590 
  139.3750     2.3600   -15.3730    81.9320    18.0410    14.9980    18.1800    23.6020 
  139.5000     2.3100   -15.3080    79.2930    18.8610    15.7720    18.9160    23.7710 
  139.6250     2.2630   -15.2510    75.5830    19.4060    16.2850    19.6120    23.8710 
  139.7500     2.2350   -15.2650    75.1990    19.7600    16.6810    20.4370    23.9040 
  139.8750     2.2270   -15.3240    77.6680    19.8700    16.9720    21.3900    23.9100 
