~V
VERS. 2.00: Ver 2.00
~W
STRT.M 60.0000:
STOP.M 207.0000:
STEP.M 0.1250:
NULL. -999.2500:
UWI. F10577:
~C
DEPT.M :
DEN.GM/CC :
SP.MV :
GR.API :
RML.OHMM :
RI. :
RXO.OHMM :
CALI.CM :
~A
# ...
  195.0000     2.3850   -12.1030    39.6290     7.0940     5.2770     6.4760    23.0370 
  195.1250     2.3850   -12.2360    38.2530     6.9690     5.2230     6.0340    23.0370 
  195.2500     2.3810   -12.3350    39.6820     6.7560     5.0870     5.5880    23.0370 
  195.3750     2.3750   -12.4020    42.9790     6.5370     4.9170     5.2400    23.0370 
  195.5000     2.3720   -12.4820    45.3620     6.3970     4.7760     4.8640    23.0370 
  195.6250     2.3750   -12.5870    44.8260     6.4190     4.7400     4.9900    23.0370 
  195.7500     2.3790   -12.7350    43.2710     6.5860     4.8200     5.4360    23.0370 
  195.8750     2.3800   -12.9150    41.7040     6.8560     4.9990     5.7820    23.0370 
  196.0000     2.3830   -13.1160    41.4850     7.1580     5.2330     5.8990    23.0370 
  196.1250     2.3890   -13.3760    42.9900     7.3900     5.4670     6.0910    23.0730 
  196.2500     2.3900   -13.6720    43.5990     7.5100     5.6540     6.5590    23.2050 
  196.3750     2.3820   -13.9590    42.0200     7.5130     5.7660     6.9740    23.4360 
  196.5000     2.3650   -14.1910    39.9160     7.4280     5.7920     7.1990    23.6460 
  196.6250     2.3460   -14.3280    39.9160     7.3270     5.7570     7.2370    23.7200 
  196.7500     2.3320   -14.3890    39.9160     7.2860     5.7330     7.0040    23.7340 
  196.8750     2.3200   -14.4270    39.9160     7.3340     5.7640     6.6340    23.7340 
  197.0000     2.3040   -14.4530    39.9160     7.4540     5.8530     6.6840    23.7340 
  197.1250     2.2910   -14.3630    39.9160     7.5620     5.9420     7.8930    23.7340 
  197.2500     2.2890   -14.1390    39.9160     7.5490     5.9400     9.1550    23.7390 
  197.3750     2.2990   -13.7820    39.9160     7.3420     5.7800     7.9500    23.7660 
  197.5000     2.3200   -13.3610    39.9160     6.9640     5.4690     5.6690    23.8440 
  197.6250     2.3440   -12.9410    39.9160     6.5360     5.0870     4.7620    23.9540 
  197.7500     2.3570   -12.5580    39.9160     6.2020     4.7510     4.6090    24.0380 
  197.8750     2.3570   -12.1700    39.9160     6.0170     4.5200     4.7550    24.0600 
  198.0000     2.3580   -11.7860    39.9160     5.9720     4.4060     5.4470    24.0070 
  198.1250     2.3730   -11.4870    39.9160     5.9840     4.3800     6.4380    23.8670 
  198.2500     2.3820   -11.2980    39.9160     5.9350     4.3610     6.3640    23.7700 
  198.3750     2.3680   -11.2730    39.9160     5.7900     4.3130     5.4340    23.7180 
  198.5000     2.3360   -11.3710    39.9160     5.5990     4.2510     4.9100    23.6630 
  198.6250     2.3060   -11.5870    39.9160     5.5000     4.2500     5.0650    23.5690 
  198.7500     2.2850   -11.8650    39.9160     5.6090     4.3930     5.7080    23.5120 
  198.8750     2.2750   -12.2210    39.9160     5.9960     4.7430     7.3900    23.4500 
  199.0000     2.2740   -12.6530    39.9160     6.6410     5.3000    10.3600    23.3620 
  199.1250     2.2820   -13.1150    39.9160     7.4320     5.9800    12.6600    23.3210 
  199.2500     2.2890   -13.5800    39.9160     8.1660     6.5960    13.7010    23.3050 
  199.3750     2.2870   -14.0000    39.9160     8.7090     7.0220    13.1070    23.2920 
  199.5000     2.2810   -14.3800    39.9160     9.0140     7.2300     9.5490    23.2610 
  199.6250     2.2800   -14.6740    39.9160     9.1080     7.2730     6.3480    23.2320 
  199.7500     2.2840   -14.9050    39.9160     9.1200     7.2760     5.1940    23.2040 
  199.8750     2.2840   -15.0530    39.9160     9.0970     7.2790     4.8250    23.1870 
  200.0000     2.2740   -15.0940    39.9160     9.0470     7.2860     4.6150    23.1800 
  200.1250     2.2580   -15.0480    39.9160     8.9880     7.2970     4.7200    23.1780 
  200.2500     2.2420   -14.9750    39.9160     8.9460     7.3080     5.2670    23.1760 
  200.3750     2.2260   -14.9200    39.9160     8.9390     7.3140     6.3090    23.1770 
  200.5000     2.2110   -14.8680    39.9160     8.9690     7.3140     7.8650    23.1760 
  200.6250     2.2030   -14.8250    39.9160     9.0150     7.3100     8.6270    23.1770 
  200.7500     2.2040   -14.7950    39.9160     9.0330     7.3090     9.0970    23.1760 
  200.8750     2.2160   -14.7640    39.9160     8.9970     7.3110     9.4060    23.1830 
  201.0000     2.2360   -14.7460    39.9160     8.9230     7.3130     9.0280    23.1930 
  201.1250     2.2580   -14.7460    39.9160     8.8700     7.3080     7.2250    23.2000 
  201.2500     2.2780   -14.7570    39.9160     8.8770     7.3020     5.3740    23.1840 
  201.3750     2.2950   -14.7800    39.9160     8.9380     7.2980     4.6100    23.1760 
  201.5000     2.3130   -14.7980    39.9160     9.0180     7.2980     4.5230    23.1770 
  201.6250     2.3300   -14.8070    39.9160     9.0770     7.3040     5.0170    23.1800 
  201.7500     2.3410   -14.8060    39.9160     9.1190     7.3130     6.0640    23.1740 
  201.8750     2.3430   -14.8010    39.9160     9.1530     7.3210     7.1630    23.1660 
  202.0000     2.3430   -14.7960    39.9160     9.1770     7.3270     7.3950    23.1550 
  202.1250     2.3480   -14.7830    39.9160     9.1580     7.3300     6.8220    23.1330 
  202.2500     2.3550   -14.7640    39.9160     9.0790     7.3330     6.3610    23.1070 
  202.3750     2.3650   -14.7340    39.9160     8.9670     7.3370     6.1410    23.0950 
  202.5000     2.3760   -14.7030    39.9160     8.9440     7.3380     6.0900    23.0930 
  202.6250     2.3910   -14.6790    39.9160     8.9440     7.3380     6.3000    23.0940 
  202.7500     2.4050   -14.6790    39.9160     8.9440     7.3380     6.7180    23.0900 
  202.8750     2.4200   -14.6790    39.9160     8.9440     7.3380     7.2900    23.0630 
  203.0000     2.4380   -14.6790    39.9160     8.9440     7.3380     8.3300    22.9750 
  203.1250     2.4460  -999.2500    39.9160     8.9440     7.3380     9.9640    22.8330 
  203.2500     2.4180  -999.2500    39.9160     8.9440     7.3380    10.4460    22.7200 
  203.3750     2.3350  -999.2500    39.9160     8.9440     7.3380     8.9500    22.6750 
  203.5000     2.2000  -999.2500    39.9160     8.9440     7.3380     7.5380    22.6470 
  203.6250     2.0220  -999.2500    39.9160     8.9440     7.3380     7.1080    22.5510 
  203.7500     1.8110  -999.2500    39.9160     8.9440     7.3380     6.6810    22.2130 
  203.8750     1.6040  -999.2500    39.9160     8.9440     7.3380     5.8800    20.9770 
  204.0000     1.4570  -999.2500    39.9160     8.9440     7.3380     4.6390    18.3240 
  204.1250     1.3920  -999.2500    39.9160     8.9440     7.3380     3.7680    14.9830 
  204.2500     1.3710  -999.2500    39.9160     8.9440     7.3380     3.4630    13.4540 
  204.3750     1.3690  -999.2500    39.9160     8.9440     7.3380     3.4180    13.0680 
  204.5000     1.3690  -999.2500    39.9160     8.9440     7.3380     3.4190    13.0470 
  204.6250     1.3690  -999.2500    39.9160     8.9440     7.3380     3.4180    13.0470 
  204.7500     1.3700  -999.2500    39.9160     8.9440     7.3380     3.4180    13.0470 
  204.8750     1.3710  -999.2500    39.9160     8.9440     7.3380     3.4160    13.0470 
  205.0000     1.3710  -999.2500    39.9160     8.9440     7.3380     3.4160    13.0460 
  205.1250     1.3710  -999.2500    39.9160     8.9440     7.3380     3.4160    13.0450 
  205.2500     1.3710  -999.2500    39.9160     8.9440     7.3380     3.4150    13.0420 
  205.3750     1.3700  -999.2500    39.9160     8.9440     7.3380     3.4160    13.0420 
  205.5000     1.3690  -999.2500    39.9160     8.9440     7.3380     3.4160    13.0400 
  205.6250     1.3680  -999.2500    39.9160     8.9440     7.3380     3.4160    13.0420 
  205.7500     1.3680  -999.2500    39.9160     8.9440     7.3380     3.4150    13.0410 
  205.8750     1.3690  -999.2500    39.9160     8.9440     7.3380     3.4150    13.0410 
  206.0000     1.3690  -999.2500    39.9160     8.9440     7.3380     3.4150    13.0390 
  206.1250     1.3660  -999.2500    39.9160     8.9440     7.3380     3.4160    13.0380 
