~V
VERS. 2.00: Ver 2.00
~W
STRT.M 42.0000:
STOP.M 223.0000:
STEP.M 0.1250:
NULL. -999.2500:
UWI. F10538:
~C
DEPT.M :
DEN.GM/CC :
SP.MV :
GR.API :
RML.OHMM :
RI. :
RXO.OHMM :
CALI.CM :
~A
# ...
   75.7500     2.1460   -34.2840    92.6010     7.6200     6.1590     6.8000    24.6320 
   75.8750     2.1570   -34.1940    94.0860     7.5460     6.1130     6.4210    24.6410 
   76.0000     2.1710   -34.1630    93.9060     7.6160     6.1440     6.2490    24.6740 
   76.1250     2.1820   -34.1540    90.2930     7.8520     6.2820     6.6620    24.7320 
   76.2500     2.1830   -34.1700    86.7520     8.2110     6.5150     7.1390    24.7710 
   76.3750     2.1750   -34.2530    86.1680     8.5810     6.7790     7.3810    24.7830 
   76.5000     2.1690   -34.3750    85.0110     8.8290     6.9710     7.4120    24.7830 
   76.6250     2.1670   -34.5300    81.2570     8.8910     7.0330     7.2880    24.7830 
   76.7500     2.1660   -34.7150    76.4350     8.8020     6.9710     7.0990    24.7840 
   76.8750     2.1570   -34.8970    74.4820     8.6970     6.8660     7.1110    24.7850 
   77.0000     2.1380   -35.0460    76.5140     8.7090     6.8320     7.5070    24.7840 
   77.1250     2.1130   -35.1990    81.0560     8.8940     6.9190     7.9560    24.7810 
   77.2500     2.0940   -35.3150    84.4770     9.2760     7.1550     8.2160    24.7800 
   77.3750     2.0980   -35.3640    82.4190     9.9440     7.6030     8.2160    24.7550 
   77.5000     2.1330   -35.3890    78.4450    10.9360     8.2930     8.7930    24.6570 
   77.6250     2.2040   -35.3730    77.0500    12.2650     9.2640    10.7380    24.4760 
   77.7500     2.3070   -35.3600    78.2410    13.7280    10.4410    14.9700    24.3240 
   77.8750     2.4060   -35.3790    79.9440    14.6110    11.3840    20.2110    24.2620 
   78.0000     2.4380   -35.3820    80.7320    14.2660    11.5160    17.1890    24.2320 
   78.1250     2.3830   -35.3860    80.4360    12.6550    10.6430    11.4580    24.2090 
   78.2500     2.2920   -35.4110    79.2350    10.5250     9.1830     8.9290    24.1990 
   78.3750     2.2280   -35.4860    77.9190     8.9410     7.8900     8.5690    24.2030 
   78.5000     2.2010   -35.5980    75.6520     8.2070     7.1290     8.5070    24.2270 
   78.6250     2.1930   -35.7230    72.3950     8.1720     6.8900     8.4470    24.2840 
   78.7500     2.1890   -35.8400    71.7930     8.5110     6.9910     8.3330    24.3260 
   78.8750     2.1800   -35.9380    78.6950     8.8920     7.2100     8.2530    24.3400 
   79.0000     2.1680   -36.0300    86.1590     9.1410     7.3840     8.2450    24.3400 
   79.1250     2.1540   -36.1130    87.3660     9.2650     7.4910     8.2750    24.3400 
   79.2500     2.1430   -36.1840    80.6060     9.3170     7.5530     8.3500    24.3400 
   79.3750     2.1400   -36.2040    72.5030     9.3210     7.5780     8.4470    24.3400 
   79.5000     2.1430   -36.2210    68.7750     9.2820     7.5600     8.4490    24.3400 
   79.6250     2.1440   -36.2250    69.1980     9.1980     7.4930     8.3210    24.3400 
   79.7500     2.1440   -36.1920    72.2960     9.0800     7.3800     8.1490    24.3480 
   79.8750     2.1460   -36.1540    75.8780     8.9460     7.2370     8.0130    24.3700 
   80.0000     2.1470   -36.1190    77.0260     8.8290     7.0970     7.8910    24.4010 
   80.1250     2.1460   -36.0850    76.7450     8.7520     6.9850     7.8640    24.4140 
   80.2500     2.1420   -36.0720    78.4150     8.7320     6.9200     7.9400    24.4160 
   80.3750     2.1380   -36.0770    82.3290     8.7770     6.9130     8.0370    24.4160 
   80.5000     2.1370   -36.0790    83.9770     8.8530     6.9410     8.0880    24.4160 
   80.6250     2.1360   -36.0990    83.1760     8.9320     6.9850     8.1460    24.4160 
   80.7500     2.1340   -36.1410    81.8940     8.9900     7.0240     8.2020    24.4140 
   80.8750     2.1320   -36.1900    80.6170     9.0100     7.0450     8.2350    24.4110 
   81.0000     2.1340   -36.2180    80.2540     9.0000     7.0490     8.2540    24.4100 
   81.1250     2.1380   -36.2180    80.6720     8.9660     7.0370     8.2450    24.4130 
   81.2500     2.1410   -36.2220    79.4280     8.9150     7.0090     8.1800    24.4160 
   81.3750     2.1430   -36.2190    76.7000     8.8590     6.9700     8.0970    24.4140 
   81.5000     2.1470   -36.1710    75.9100     8.8160     6.9350     8.0270    24.4130 
   81.6250     2.1550   -36.1090    78.0910     8.8050     6.9210     8.0080    24.4130 
   81.7500     2.1660   -36.0100    80.5100     8.8330     6.9400     8.0570    24.4150 
   81.8750     2.1750   -35.8310    80.1890     8.9010     6.9980     8.1400    24.4140 
   82.0000     2.1800   -35.6360    80.4280     8.9810     7.0760     8.2220    24.4130 
   82.1250     2.1810   -35.4040    82.1420     9.0460     7.1530     8.3080    24.4130 
   82.2500     2.1790   -35.1030    83.1290     9.0690     7.2090     8.4040    24.4150 
   82.3750     2.1680   -34.7310    79.2850     9.0190     7.2100     8.5040    24.4110 
   82.5000     2.1530   -34.2800    73.6230     8.8940     7.1440     8.5710    24.3950 
   82.6250     2.1450   -33.7510    71.0770     8.6900     6.9960     8.5350    24.3660 
   82.7500     2.1490   -33.1580    72.1750     8.4140     6.7690     8.4680    24.3460 
   82.8750     2.1690   -32.5110    78.4140     8.0660     6.4640     8.4000    24.3400 
   83.0000     2.1960   -31.8980    89.9280     7.6790     6.1190     8.1000    24.3400 
   83.1250     2.2280   -31.3630   104.0720     7.2890     5.7660     7.4140    24.3400 
   83.2500     2.2570   -30.9320   114.9540     6.9600     5.4500     6.5860    24.3400 
   83.3750     2.2630   -30.6650   116.8100     6.8260     5.2600     5.9970    24.3400 
   83.5000     2.2490   -30.5850   113.5360     6.9440     5.2420     6.0430    24.3400 
   83.6250     2.2250   -30.6740   110.9660     7.3100     5.4130     6.3840    24.3400 
   83.7500     2.2040   -30.9640   109.0760     7.8410     5.7310     6.4930    24.3390 
   83.8750     2.1860   -31.4470   104.1640     8.3820     6.1150     6.7220    24.3380 
   84.0000     2.1680   -31.9850    97.3530     8.7890     6.4590     7.3000    24.3370 
   84.1250     2.1530   -32.5360    91.7190     9.0130     6.7130     7.7450    24.3390 
   84.2500     2.1460   -33.0540    88.5170     9.0820     6.8650     7.9190    24.3400 
   84.3750     2.1520   -33.5070    87.6560     9.0420     6.9080     7.9600    24.3400 
   84.5000     2.1630   -33.8510    88.6070     8.9450     6.8680     7.8990    24.3400 
   84.6250     2.1720   -34.0940    89.2430     8.8070     6.7590     7.6750    24.3400 
   84.7500     2.1800   -34.2460    87.6740     8.6520     6.6130     7.5040    24.3400 
   84.8750     2.1870   -34.3170    86.7390     8.5060     6.4680     7.5450    24.3400 
   85.0000     2.1960   -34.3140    88.1100     8.3880     6.3450     7.5610    24.3400 
   85.1250     2.2010   -34.2790    91.2390     8.3130     6.2550     7.4390    24.3400 
   85.2500     2.2010   -34.2230    94.4000     8.2800     6.1970     7.3110    24.3400 
   85.3750     2.1990   -34.1170    94.2380     8.2740     6.1700     7.2730    24.3400 
   85.5000     2.1990   -34.0630    90.9700     8.2720     6.1570     7.2590    24.3400 
   85.6250     2.2010   -34.0270    87.9240     8.2670     6.1550     7.2820    24.3400 
   85.7500     2.2000   -33.9940    88.1930     8.2640     6.1630     7.3620    24.3400 
   85.8750     2.1950   -33.9740    89.7400     8.2610     6.1840     7.5060    24.3400 
   86.0000     2.1860   -33.9400    89.3550     8.2400     6.2120     7.5540    24.3400 
   86.1250     2.1770   -33.9000    87.5110     8.1930     6.2360     7.4620    24.3400 
   86.2500     2.1720   -33.8610    86.5330     8.1270     6.2540     7.4030    24.3400 
   86.3750     2.1720   -33.8100    86.9380     8.0850     6.2870     7.4210    24.3400 
   86.5000     2.1710   -33.7310    84.9680     8.0900     6.3520     7.5710    24.3410 
   86.6250     2.1680   -33.5970    79.9410     8.1190     6.4400     7.6500    24.3480 
   86.7500     2.1610   -33.3570    76.0490     8.1070     6.5160     7.6580    24.3670 
   86.8750     2.1540   -32.9910    78.0510     7.9470     6.5000     7.6730    24.3970 
