~V
VERS. 2.00: Ver 2.00
~W
STRT.M 52.0000:
STOP.M 208.0000:
STEP.M 0.1250:
NULL. -999.2500:
UWI. F10572:
~C
DEPT.M :
GR.API :
RML.OHMM :
RI. :
RXO.OHMM :
CALI.CM :
DEN.GM/CC :
SP.MV :
~A
# ...
  164.5000    65.0420     6.9710     6.7600     7.3810    24.2420     2.4260   -18.7740 
  164.6250    65.3460     7.8180     7.6850     7.7790    24.2350     2.4410   -19.1970 
  164.7500    65.9730     8.3930     8.3870     7.5170    24.1890     2.4420   -19.6260 
  164.8750    68.3220     8.6210     8.7420     7.6180    24.1320     2.4370   -20.0360 
  165.0000    73.6340     8.5700     8.7640     7.9560    24.1000     2.4310   -20.4160 
  165.1250    78.6390     8.4010     8.5650     7.9270    24.0710     2.4260   -20.7530 
  165.2500    81.3620     8.2770     8.3230     7.5810    24.0010     2.4180   -21.0540 
  165.3750    84.3130     8.2440     8.1060     7.5070    23.8850     2.4030   -21.3320 
  165.5000    90.6890     8.2890     7.9380     7.5770    23.7530     2.3840   -21.6120 
  165.6250    98.6920     8.4280     7.8510     7.8030    23.7900     2.3700   -21.8830 
  165.7500   103.3840     8.7120     7.8940     8.1400    23.9440     2.3670   -22.1250 
  165.8750   105.1900     9.2580     8.1450     8.6960    24.0580     2.3720   -22.3310 
  166.0000   103.5040    10.2110     8.7030     8.9170    24.0530     2.3780   -22.5040 
  166.1250    94.9140    11.8060     9.7600     9.2180    23.9340     2.3780   -22.6610 
  166.2500    83.1370    13.9790    11.3180    11.4950    23.7920     2.3710   -22.7900 
  166.3750    76.3990    16.5820    13.3240    16.5440    23.7570     2.3610   -22.8610 
  166.5000    76.8600    19.2880    15.5690    21.1460    23.8120     2.3490   -22.8700 
  166.6250    77.3810    21.5680    17.6240    23.1280    23.8450     2.3350   -22.8450 
  166.7500    74.8110    23.1980    19.1730    23.3430    23.8150     2.3200   -22.8180 
  166.8750    71.2660    24.3430    20.2370    23.0040    23.7380     2.3090   -22.8040 
  167.0000    68.4830    25.4630    21.1370    23.9810    23.6410     2.3020   -22.8090 
  167.1250    66.2110    27.1650    22.3710    26.1410    23.4840     2.2990   -22.8180 
  167.2500    64.4400    29.6480    24.1890    27.6870    23.3320     2.2960   -22.8480 
  167.3750    64.3020    32.9000    26.6660    29.6160    23.2230     2.2890   -22.9250 
  167.5000    65.0430    36.6310    29.6550    36.7040    23.1890     2.2730   -23.0410 
  167.6250    63.2310    40.1340    32.6690    41.4230    23.2850     2.2500   -23.1890 
  167.7500    58.4790    42.6300    35.0380    42.8410    23.5980     2.2330   -23.3490 
  167.8750    54.4280    43.6050    36.2840    42.7920    23.8530     2.2320   -23.5090 
  168.0000    54.2980    42.9720    36.2430    42.5430    23.9530     2.2520   -23.6630 
  168.1250    57.3330    41.1430    35.1250    39.8740    23.9350     2.2820   -23.7900 
  168.2500    60.1720    39.2650    33.8240    36.7570    23.8850     2.2990   -23.9010 
  168.3750    62.7520    38.1440    32.9970    34.5810    23.8980     2.2970   -24.0080 
  168.5000    65.1050    38.3910    33.1610    32.2120    23.9480     2.2870   -24.1030 
  168.6250    66.0730    40.7330    34.9840    31.4390    23.9760     2.2950   -24.1680 
  168.7500    65.3190    44.9060    38.4070    35.4010    24.0140     2.3270   -24.2130 
  168.8750    62.3450    50.3770    43.1210    46.9980    24.0330     2.3740   -24.2250 
  169.0000    57.6270    55.9080    48.1600    64.0520    23.9860     2.4190   -24.2060 
  169.1250    53.2080    59.1800    51.5790    70.6500    23.9690     2.4440   -24.1840 
  169.2500    51.1630    59.2770    52.3680    63.6900    24.0030     2.4440   -24.1520 
  169.3750    51.7810    56.8680    50.7900    57.6670    24.0410     2.4190   -24.0920 
  169.5000    54.2850    53.6480    48.1180    52.1100    24.0280     2.3730   -24.0170 
  169.6250    56.7750    51.3520    45.9260    47.4270    24.0090     2.3160   -23.9430 
  169.7500    58.3200    50.4570    44.9290    46.7600    24.0430     2.2640   -23.8830 
  169.8750    58.3060    50.8010    45.1160    49.2290    24.0810     2.2260   -23.8460 
  170.0000    57.2650    51.9510    46.1300    51.9690    24.0960     2.2060   -23.8160 
  170.1250    56.6470    53.5010    47.5770    52.4860    24.0890     2.2090   -23.7730 
  170.2500    57.7460    55.0870    49.1110    54.0750    24.0590     2.2260   -23.7030 
  170.3750    58.0040    56.4310    50.5300    54.7250    23.9820     2.2480   -23.6050 
  170.5000    56.4790    57.0330    51.4620    52.5710    23.8400     2.2650   -23.4620 
  170.6250    57.1740    55.8170    51.0270    46.2110    23.5910     2.2670   -23.2540 
  170.7500    60.5600    52.5300    48.8390    42.0830    23.2590     2.2570   -22.9950 
  170.8750    64.0080    47.6490    45.0410    39.5870    22.9380     2.2410   -22.7170 
  171.0000    65.2940    42.4390    40.5460    35.4970    22.6480     2.2250   -22.4670 
  171.1250    66.2720    38.3480    36.6790    27.0440    22.4140     2.2110   -22.2630 
  171.2500    66.7710    35.5860    33.9360    23.3780    22.4730     2.2010   -22.1100 
  171.3750    64.5520    33.7680    32.1340    23.4170    22.9280     2.1960   -21.9890 
  171.5000    62.2640    32.2300    30.7420    26.9790    23.4190     2.2000   -21.8930 
  171.6250    63.3520    30.2360    29.0880    34.8210    23.7870     2.2120   -21.8290 
  171.7500    67.8140    27.6960    26.9370    35.8080    24.0070     2.2270   -21.7860 
  171.8750    73.8700    25.0220    24.5380    25.9950    24.0900     2.2380   -21.7350 
  172.0000    78.6390    22.8120    22.4030    20.2990    24.1040     2.2430   -21.6670 
  172.1250    77.1690    21.7390    21.1840    18.2690    24.1130     2.2420   -21.5850 
  172.2500    71.2780    21.8700    21.0580    18.0340    24.1120     2.2380   -21.4690 
  172.3750    66.8420    23.2160    22.0980    18.7390    24.0990     2.2320   -21.3350 
  172.5000    66.1320    25.6100    24.1930    20.0500    24.0550     2.2260   -21.2160 
  172.6250    65.0020    28.5350    26.9180    23.8790    23.9970     2.2210   -21.1440 
  172.7500    62.9690    30.8610    29.2090    32.0220    23.9980     2.2200   -21.0970 
  172.8750    62.6610    31.6240    30.1430    37.5530    24.0130     2.2240   -21.0680 
  173.0000    64.5980    30.5230    29.3420    35.3170    23.9750     2.2310   -21.0330 
  173.1250    66.3800    28.2180    27.2410    26.8610    23.9410     2.2490   -20.9810 
  173.2500    68.2410    26.1490    25.1430    20.7530    23.8870     2.2840   -20.9410 
  173.3750    70.5860    25.1470    23.8510    18.7850    23.7710     2.3290   -20.9240 
  173.5000    71.1080    25.6400    23.8340    20.4480    23.6300     2.3710   -20.9230 
  173.6250    66.5400    27.7800    25.3240    25.6200    23.4590     2.3980   -20.9140 
  173.7500    61.4970    30.5040    27.4610    35.7900    23.4410     2.4120   -20.9010 
  173.8750    61.0990    32.3120    29.0330    54.0810    23.6140     2.4210   -20.9030 
  174.0000    66.7280    31.5460    28.6520    67.7620    23.8260     2.4270   -20.9290 
  174.1250    74.4050    27.3560    25.3980    63.4070    23.8450     2.4270   -20.9730 
  174.2500    81.6610    21.8530    20.7880    36.9680    23.8860     2.4110   -21.0020 
  174.3750    86.6690    16.7220    16.2330    19.7290    23.9230     2.3840   -20.9990 
  174.5000    88.0670    12.7900    12.5640    15.1850    23.9650     2.3540   -20.9530 
  174.6250    86.9100    10.3600    10.1370    13.4460    23.9870     2.3290   -20.8560 
  174.7500    86.9570     8.9980     8.6300    10.4460    23.9760     2.3090   -20.7180 
  174.8750    88.9830     8.4360     7.8430     7.4730    23.9930     2.3000   -20.5310 
  175.0000    91.1440     8.3770     7.5540     6.5900    24.0160     2.3060   -20.2880 
  175.1250    91.1930     8.5050     7.5440     7.4970    24.0030     2.3240   -19.9720 
  175.2500    90.8220     8.4940     7.5320     8.8460    23.9620     2.3410   -19.5890 
  175.3750    91.1230     8.1780     7.3590     9.2510    23.9470     2.3510   -19.1380 
  175.5000    90.9440     7.5470     6.9600     8.1400    23.9640     2.3560   -18.6520 
  175.6250    86.2300     6.7930     6.3930     6.5910    24.0030     2.3580   -18.1660 
