~V
VERS. 2.00: Ver 2.00
~W
STRT.M 54.0000:
STOP.M 217.0000:
STEP.M 0.1250:
NULL. -999.2500:
UWI. F10593:
~C
DEPT.M :
SP.MV :
GR.API :
RML.OHMM :
RI. :
RXO.OHMM :
CALI.CM :
DEN.GM/CC :
~A
# ...
  211.5000   -12.4330    51.7700     6.4440     5.8530     7.2690    22.8210     2.4100 
  211.6250   -12.3790    51.7700     6.4180     5.8240     7.1960    22.8210     2.4070 
  211.7500   -12.3420    51.7700     6.4170     5.7570     7.3510    22.8210     2.4100 
  211.8750   -12.3310    51.7700     6.4430     5.6850     7.6760    22.8210     2.4190 
  212.0000   -12.3450    51.7700     6.4840     5.6360     8.6940    22.8210     2.4310 
  212.1250   -12.3440    51.7700     6.5240     5.6140    10.3680    22.8250     2.4440 
  212.2500   -12.3420    51.7700     6.5510     5.6120    11.9030    22.8360     2.4580 
  212.3750   -12.3750    51.7700     6.5590     5.6130    13.0220    22.8560     2.4710 
  212.5000   -12.4440    51.7700     6.5600     5.6140    15.2660    22.8730     2.4840 
  212.6250   -12.5120    51.7700     6.5600     5.6140    17.5210    22.8910     2.4970 
  212.7500   -12.5380    51.7700     6.5600     5.6140    19.1530    22.9070     2.5080 
  212.8750   -12.5280    51.7700     6.5600     5.6140    20.9240    22.9160     2.5090 
  213.0000   -12.5280    51.7700     6.5600     5.6140    23.9370    22.9050     2.4950 
  213.1250   -12.5650    51.7700     6.5600     5.6140    24.9830    22.8950     2.4680 
  213.2500   -12.6020    51.7700     6.5600     5.6140    20.3560    22.8890     2.4350 
  213.3750   -12.6380    51.7700     6.5600     5.6140    12.0350    22.8830     2.4090 
  213.5000   -12.6790    51.7700     6.5600     5.6140     7.0840    22.8740     2.3920 
  213.6250   -12.6880    51.7700     6.5600     5.6140     5.5710    22.8610     2.3840 
  213.7500   -12.6930    51.7700     6.5600     5.6140     5.3860    22.8450     2.3800 
  213.8750   -12.7380    51.7700     6.5600     5.6140     5.3750    22.7940     2.3820 
  214.0000   -12.7810    51.7700     6.5600     5.6140     5.4570    22.6920     2.3910 
  214.1250   -12.8020    51.7700     6.5600     5.6140     5.7140    22.5850     2.4060 
  214.2500   -12.8050    51.7700     6.5600     5.6140     6.0390    22.5040     2.4180 
  214.3750   -12.7650    51.7700     6.5600     5.6140     6.2790    22.3780     2.4090 
  214.5000   -12.7030    51.7700     6.5600     5.6140     6.3540    22.1720     2.3660 
  214.6250   -12.6790    51.7700     6.5600     5.6140     6.2440    21.8810     2.2880 
  214.7500   -12.6790    51.7700     6.5600     5.6140     6.0140    21.2830     2.1850 
  214.8750   -12.6960    51.7700     6.5600     5.6140     5.8650    20.0160     2.0810 
  215.0000   -12.7490    51.7700     6.5600     5.6140     5.7800    18.6230     1.9970 
  215.1250   -12.7960    51.7700     6.5600     5.6140     5.7390    17.9170     1.9440 
  215.2500   -12.8330    51.7700     6.5600     5.6140     5.7250    17.7540     1.9180 
  215.3750   -12.9160    51.7700     6.5600     5.6140     5.7250    17.7540     1.9090 
  215.5000   -13.0720    51.7700     6.5600     5.6140     5.7250    17.7540     1.9020 
  215.6250   -13.2810    51.7700     6.5600     5.6140     5.7250    17.7540     1.8980 
  215.7500   -13.5210    51.7700     6.5600     5.6140     5.7250    17.7540     1.8960 
  215.8750   -13.8580    51.7700     6.5600     5.6140     5.7250    17.7540     1.8960 
  216.0000   -14.2370    51.7700     6.5600     5.6140     5.7250    17.7540     1.8960 
  216.1250   -14.5900    51.7700     6.5600     5.6140     5.7250    17.7540     1.8970 
  216.2500   -14.9810    51.7700     6.5600     5.6140     5.7250    17.7540     1.8990 
  216.3750   -15.3580    51.7700     6.5600     5.6140     5.7240    17.7540     1.9010 
  216.5000   -15.6480    51.7700     6.5600     5.6140     5.7230    17.7540     1.9020 
  216.6250   -15.8790    51.7700     6.5600     5.6140     5.7210    17.7540     1.9030 
  216.7500   -16.0480    51.7700     6.5600     5.6140     5.7180    17.7530     1.9040 
  216.8750   -16.0480    51.7700     6.5600     5.6140     5.7180    17.7510     1.9040 
  217.0000   -16.0480    51.7700     6.5600     5.6140     5.7180    17.7500     1.9020 
