~V
VERS. 2.00: Ver 2.00
~W
STRT.M 47.0000:
STOP.M 236.0000:
STEP.M 0.1250:
NULL. -999.2500:
UWI. F10597:
~C
DEPT.M :
SP.MV :
DEN.GM/CC :
GR.API :
RML.OHMM :
RI. :
RXO.OHMM :
CALI.CM :
~A
# ...
  227.0000   -11.6000     2.3640    68.2450     6.7320     5.9900     7.8180    24.1070 
  227.1250   -11.7640     2.3650    68.2450     6.6830     6.0240     7.3800    24.0880 
  227.2500   -11.9430     2.3650    68.2450     6.6940     5.9840     7.0450    24.0850 
  227.3750   -12.1830     2.3650    68.2450     6.7490     5.8430     6.8510    24.0850 
  227.5000   -12.4110     2.3650    68.2450     6.7620     5.6110     6.7690    24.0850 
  227.6250   -12.5520     2.3610    68.2450     6.6840     5.3610     6.4460    24.0850 
  227.7500   -12.6460     2.3470    68.2450     6.5100     5.1320     5.9340    24.0850 
  227.8750   -12.7500     2.3240    68.2450     6.2570     4.9360     5.5830    24.0850 
  228.0000   -12.8280     2.3060    68.2450     5.9480     4.7850     5.7480    24.0840 
  228.1250   -12.8780     2.3050    68.2450     5.6310     4.6770     6.1430    24.0780 
  228.2500   -12.8920     2.3190    68.2450     5.4060     4.6100     6.5570    24.0530 
  228.3750   -12.8230     2.3400    68.2450     5.3990     4.5800     7.0620    24.0050 
  228.5000   -12.7780     2.3600    68.2450     5.6980     4.5800     7.6760    23.9570 
  228.6250   -12.8110     2.3750    68.2450     6.1050     4.5920     8.0600    23.9370 
  228.7500   -12.9000     2.3830    68.2450     6.4270     4.6080     8.2000    23.9280 
  228.8750   -13.0430     2.3840    68.2450     6.5470     4.6220     8.4070    23.9110 
  229.0000   -13.2550     2.3790    68.2450     6.3830     4.6330     8.4110    23.8770 
  229.1250   -13.5380     2.3730    68.2450     6.0550     4.6380     8.2380    23.8620 
  229.2500   -13.8520     2.3670    68.2450     5.7020     4.6340     8.0900    23.8580 
  229.3750   -14.1850     2.3640    68.2450     5.4280     4.6220     8.0250    23.8580 
  229.5000   -14.4940     2.3590    68.2450     5.2900     4.6040     7.5610    23.8580 
  229.6250   -14.7340     2.3530    68.2450     5.2380     4.5890     7.1010    23.8580 
  229.7500   -14.8960     2.3490    68.2450     5.2210     4.5790     6.9280    23.8580 
  229.8750   -14.9840     2.3520    68.2450     5.2200     4.5750     6.9820    23.8580 
  230.0000   -14.9580     2.3610    68.2450     5.2200     4.5750     7.3330    23.8580 
  230.1250   -14.8380     2.3670    68.2450     5.2200     4.5750     8.1180    23.8580 
  230.2500   -14.6850     2.3700    68.2450     5.2200     4.5750     9.1080    23.8580 
  230.3750   -14.5390     2.3700    68.2450     5.2200     4.5750     9.5050    23.8580 
  230.5000   -14.3890     2.3670    68.2450     5.2200     4.5750     8.0280    23.8560 
  230.6250   -14.2640     2.3650    68.2450     5.2200     4.5750     7.1220    23.8420 
  230.7500   -14.1570     2.3670    68.2450     5.2200     4.5750     6.8860    23.8050 
  230.8750   -14.0010     2.3730    68.2450     5.2200     4.5750     6.9820    23.7560 
  231.0000   -13.8080     2.3800    68.2450     5.2200     4.5750     7.0920    23.6940 
  231.1250   -13.6410     2.3810    68.2450     5.2200     4.5750     7.1630    23.6500 
  231.2500   -13.5440     2.3750    68.2450     5.2200     4.5750     7.1260    23.6330 
  231.3750   -13.5740     2.3620    68.2450     5.2200     4.5750     6.7020    23.6310 
  231.5000   -13.6690     2.3460    68.2450     5.2200     4.5750     6.0410    23.6200 
  231.6250   -13.7330     2.3330    68.2450     5.2200     4.5750     5.4860    23.5940 
  231.7500   -13.9530     2.3200    68.2450     5.2200     4.5750     5.1690    23.5610 
  231.8750   -14.1690     2.3010    68.2450     5.2200     4.5750     5.0570    23.5330 
  232.0000   -14.4320     2.2650    68.2450     5.2200     4.5750     5.1200    23.4870 
  232.1250   -14.6800     2.2080    68.2450     5.2200     4.5750     5.3490    23.4160 
  232.2500   -14.7280     2.1210    68.2450     5.2200     4.5750     5.7030    23.2980 
  232.3750   -14.7280     1.9960    68.2450     5.2200     4.5750     5.9180    23.2050 
  232.5000  -999.2500     1.8340    68.2450     5.2200     4.5750     5.7390    22.8740 
  232.6250  -999.2500     1.6610    68.2450     5.2200     4.5750     5.2600    21.4980 
  232.7500  -999.2500     1.5150    68.2450     5.2200     4.5750     4.8270    18.7480 
  232.8750  -999.2500     1.4220    68.2450     5.2200     4.5750     4.6320    16.4910 
  233.0000  -999.2500     1.3900    68.2450     5.2200     4.5750     4.6040    15.7100 
  233.1250  -999.2500     1.3870    68.2450     5.2200     4.5750     4.6030    15.6330 
  233.2500  -999.2500     1.3890    68.2450     5.2200     4.5750     4.6040    15.6330 
  233.3750  -999.2500     1.3880    68.2450     5.2200     4.5750     4.6040    15.6330 
  233.5000  -999.2500     1.3870    68.2450     5.2200     4.5750     4.6040    15.6330 
  233.6250  -999.2500     1.3860    68.2450     5.2200     4.5750     4.6040    15.6330 
  233.7500  -999.2500     1.3880    68.2450     5.2200     4.5750     4.6030    15.6330 
  233.8750  -999.2500     1.3920    68.2450     5.2200     4.5750     4.6040    15.6320 
  234.0000  -999.2500     1.3950    68.2450     5.2200     4.5750     4.6040    15.6300 
  234.1250  -999.2500     1.3970    68.2450     5.2200     4.5750     4.6030    15.6290 
  234.2500  -999.2500     1.3960    68.2450     5.2200     4.5750     4.6030    15.6270 
  234.3750  -999.2500     1.3950    68.2450     5.2200     4.5750     4.6020    15.6200 
  234.5000  -999.2500     1.3960    68.2450     5.2200     4.5750     4.6010    15.6150 
  234.6250  -999.2500     1.3970    68.2450     5.2200     4.5750     4.6020    15.6140 
  234.7500  -999.2500     1.4000    68.2450     5.2200     4.5750     4.6030    15.6160 
  234.8750  -999.2500     1.4010    68.2450     5.2200     4.5750     4.6030    15.6160 
  235.0000  -999.2500     1.4000  -999.2500  -999.2500  -999.2500  -999.2500  -999.2500 
  235.1250  -999.2500     1.3980  -999.2500  -999.2500  -999.2500  -999.2500  -999.2500 
  235.2500  -999.2500     1.3950  -999.2500  -999.2500  -999.2500  -999.2500  -999.2500 
  235.3750  -999.2500     1.3920  -999.2500  -999.2500  -999.2500  -999.2500  -999.2500 
  235.5000  -999.2500     1.3900  -999.2500  -999.2500  -999.2500  -999.2500  -999.2500 
  235.6250  -999.2500     1.3890  -999.2500  -999.2500  -999.2500  -999.2500  -999.2500 
  235.7500  -999.2500     1.3900  -999.2500  -999.2500  -999.2500  -999.2500  -999.2500 
  235.8750  -999.2500     1.3910  -999.2500  -999.2500  -999.2500  -999.2500  -999.2500 
  236.0000  -999.2500  -999.2500  -999.2500  -999.2500  -999.2500  -999.2500  -999.2500 
