~V
VERS. 2.00: Ver 2.00
~W
STRT.M 47.0000:
STOP.M 236.0000:
STEP.M 0.1250:
NULL. -999.2500:
UWI. F10597:
~C
DEPT.M :
SP.MV :
DEN.GM/CC :
GR.API :
RML.OHMM :
RI. :
RXO.OHMM :
CALI.CM :
~A
# ...
   92.0000   -24.9100     2.1100    73.0110    11.7590     8.0640     9.3610    24.1020 
   92.1250   -24.9020     2.1010    74.6360    11.9600     8.1260     9.3450    24.0200 
   92.2500   -24.8530     2.0920    73.3370    11.9160     8.1010     9.2730    23.9310 
   92.3750   -24.7990     2.0890    71.5160    11.6100     8.0080     9.3180    23.9230 
   92.5000   -24.7660     2.0960    73.5090    11.1660     7.8710     9.3640    24.0100 
   92.6250   -24.7770     2.1040    75.2660    10.7770     7.7290     9.4200    24.0520 
   92.7500   -24.8380     2.1090    74.8930    10.4820     7.6080     9.3800    24.0630 
   92.8750   -24.9510     2.1110    75.4480    10.2080     7.5320     9.3870    24.0650 
   93.0000   -25.1390     2.1130    78.6360     9.9330     7.5220     9.3780    24.0660 
   93.1250   -25.3390     2.1150    79.2590     9.8140     7.5600     9.4010    24.0660 
   93.2500   -25.5160     2.1140    76.6450     9.9640     7.6270     9.4460    24.0660 
   93.3750   -25.6590     2.1100    72.7980    10.3130     7.7000     9.6620    24.0660 
   93.5000   -25.7610     2.1120    70.3690    10.6870     7.7620     9.8840    24.0790 
   93.6250   -25.8390     2.1160    70.1250    10.9780     7.8130     9.8580    24.1290 
   93.7500   -25.9030     2.1130    71.1070    11.1880     7.8610     9.7460    24.2240 
   93.8750   -25.9640     2.0970    73.0760    11.3720     7.9160     9.6320    24.3410 
   94.0000   -26.0160     2.0700    74.9600    11.6000     7.9970     9.6450    24.4000 
   94.1250   -26.0650     2.0430    75.4360    11.8590     8.1170     9.8970    24.4120 
   94.2500   -26.1410     2.0270    73.1750    12.0970     8.2720    10.0840    24.4130 
   94.3750   -26.2760     2.0300    68.8500    12.2760     8.4360    10.1230    24.4520 
   94.5000   -26.4530     2.0480    66.6930    12.3570     8.5670    10.2470    24.4850 
   94.6250   -26.6330     2.0670    66.2450    12.3940     8.6510    10.4440    24.4990 
   94.7500   -26.7900     2.0770    66.3290    12.4800     8.6780    10.5190    24.5000 
   94.8750   -26.8800     2.0770    66.2450    12.6660     8.6500    10.4940    24.5000 
   95.0000   -26.8750     2.0710    66.2420    12.8480     8.5820    10.4760    24.5000 
   95.1250   -26.8550     2.0650    67.3580    12.8380     8.5210    10.4840    24.5000 
   95.2500   -26.8130     2.0570    70.0950    12.5550     8.5100    10.5840    24.5000 
   95.3750   -26.6850     2.0480    73.4280    12.1150     8.5730    10.6230    24.4800 
   95.5000   -26.4720     2.0460    72.5520    11.7790     8.6940    10.4680    24.3850 
   95.6250   -26.2270     2.0570    68.0140    11.7220     8.8030    10.3590    24.2220 
   95.7500   -25.9630     2.0780    65.4310    11.9410     8.8540    10.4360    24.1030 
   95.8750   -25.7450     2.0980    68.8830    12.2770     8.8470    10.5860    24.0630 
   96.0000   -25.6180     2.1060    73.7340    12.5050     8.8230    10.6630    24.0610 
   96.1250   -25.5000     2.1060    74.9170    12.5420     8.8290    10.7350    24.0590 
   96.2500   -25.3880     2.1030    75.1330    12.4270     8.8930    10.8360    24.0580 
   96.3750   -25.2930     2.0990    77.1220    12.2510     9.0120    11.0680    24.0600 
   96.5000   -25.2140     2.0930    77.4750    12.0960     9.1520    11.2030    24.0490 
   96.6250   -25.1620     2.0880    75.3420    11.9930     9.2510    11.1290    24.0270 
   96.7500   -25.1190     2.0890    74.0100    11.9490     9.2650    10.9710    24.0020 
   96.8750   -25.0180     2.0940    74.5460    11.9570     9.1960    10.7470    23.9820 
   97.0000   -24.8260     2.0990    74.6190    11.9970     9.0990    10.6100    23.9570 
   97.1250   -24.5730     2.1030    75.0460    12.0010     9.0470    10.6270    23.9280 
   97.2500   -24.2550     2.1090    77.1170    11.9090     9.0750    10.7640    23.9160 
   97.3750   -23.8950     2.1170    79.0120    11.7010     9.1690    11.0470    23.9150 
   97.5000   -23.4570     2.1240    79.0220    11.4000     9.2640    11.1800    23.9150 
   97.6250   -22.9160     2.1290    79.6490    11.0920     9.2890    11.0060    23.9150 
   97.7500   -22.3010     2.1330    80.4880    10.8090     9.2150    10.6060    23.9140 
   97.8750   -21.6490     2.1370    79.6090    10.5300     9.0390    10.2090    23.9120 
   98.0000   -20.9690     2.1370    78.2220    10.2030     8.7510     9.8650    23.8980 
   98.1250   -20.2880     2.1310    78.5620     9.7930     8.3640     9.5980    23.8630 
   98.2500   -19.6260     2.1260    80.2290     9.2760     7.8720     9.2230    23.7920 
   98.3750   -18.9940     2.1340    82.9220     8.6240     7.2720     8.3650    23.6690 
   98.5000   -18.4620     2.1680    88.3210     7.8800     6.5960     7.3390    23.5780 
   98.6250   -18.0720     2.2180    96.2590     7.2320     5.9520     6.5030    23.5560 
   98.7500   -17.8390     2.2640   104.3390     6.7980     5.4310     6.1970    23.6160 
   98.8750   -17.7980     2.2910   111.7740     6.5950     5.0920     6.1720    23.7700 
   99.0000   -17.9610     2.3030   118.3660     6.6260     4.9930     5.6960    23.9200 
   99.1250   -18.2710     2.3110   120.7340     6.8710     5.1150     5.4690    24.0060 
   99.2500   -18.7000     2.3180   115.3140     7.4510     5.4840     5.6130    24.0690 
   99.3750   -19.2260     2.3240   104.2750     8.5470     6.1620     6.3100    24.0910 
   99.5000   -19.7910     2.3320    95.1410    10.3780     7.3210     8.3210    24.0710 
   99.6250   -20.3060     2.3250    89.8470    12.5810     8.8690    11.2070    24.0550 
   99.7500   -20.7400     2.2820    85.8140    14.5770    10.5040    12.1900    24.0490 
   99.8750   -21.0200     2.2110    83.6870    15.6980    11.6600    11.3150    24.0480 
  100.0000   -21.1200     2.1500    85.3930    15.4310    11.7290    10.4630    24.0470 
  100.1250   -21.0850     2.1180    87.1140    14.3850    11.0870    10.2520    24.0490 
  100.2500   -20.9120     2.1030    85.9830    13.1620    10.2450    10.2930    24.0520 
  100.3750   -20.5870     2.0940    83.0030    12.1230     9.5390    10.4300    24.0530 
  100.5000   -20.1250     2.0860    82.0630    11.3250     9.0370    11.2950    24.0470 
  100.6250   -19.6070     2.0870    83.9840    10.5750     8.5700    12.4760    24.0180 
  100.7500   -19.1040     2.1080    88.8040     9.7710     8.0410    12.0370    23.9320 
  100.8750   -18.6770     2.1510    94.3780     8.9190     7.4450     9.6260    23.7960 
  101.0000   -18.3390     2.2010    94.4320     8.1760     6.8630     7.9600    23.7050 
  101.1250   -18.0420     2.2360    91.2310     7.6570     6.3790     7.9880    23.6530 
  101.2500   -17.8130     2.2470    90.2890     7.3370     6.0130     8.6600    23.6220 
  101.3750   -17.6820     2.2440    94.3490     7.0890     5.7440     9.0370    23.5930 
  101.5000   -17.6820     2.2360    98.6470     6.8580     5.5550     7.1730    23.5460 
  101.6250   -17.8040     2.2330   101.7280     6.8310     5.4500     6.1180    23.4950 
  101.7500   -17.9810     2.2370   106.0360     7.2500     5.4990     5.8500    23.4730 
  101.8750   -18.1520     2.2430   108.4360     8.2320     5.7860     6.1150    23.4680 
  102.0000   -18.3230     2.2450   106.2640     9.6860     6.3520     6.7380    23.4650 
  102.1250   -18.5580     2.2480   101.2760    11.0670     6.9980     7.3720    23.4830 
  102.2500   -18.8290     2.2570    96.0250    11.8600     7.4750     7.7620    23.5730 
  102.3750   -19.0860     2.2610    91.5050    11.7750     7.5830     7.7950    23.7630 
  102.5000   -19.2810     2.2460    89.9020    10.8420     7.2680     7.8390    24.0070 
  102.6250   -19.4060     2.2260    93.7070     9.6360     6.7950     7.4080    24.1070 
  102.7500   -19.4630     2.2210   100.9930     8.5500     6.3580     6.7410    24.1270 
  102.8750   -19.4820     2.2290   107.1370     7.8500     6.0830     6.4440    24.1260 
  103.0000   -19.4300     2.2310   107.8280     7.7360     6.0580     6.8040    24.1280 
  103.1250   -19.2500     2.2190   104.0470     8.0650     6.2240     7.2220    24.1290 
