~V
VERS. 2.00: Ver 2.00
~W
STRT.M 60.0000:
STOP.M 207.0000:
STEP.M 0.1250:
NULL. -999.2500:
UWI. F10577:
~C
DEPT.M :
DEN.GM/CC :
SP.MV :
GR.API :
RML.OHMM :
RI. :
RXO.OHMM :
CALI.CM :
~A
# ...
  161.2500     2.2290   -19.4820    74.9570    30.6390    30.2970    26.4780    23.6700 
  161.3750     2.2370   -19.4370    73.7210    32.6490    32.2340    27.8950    23.6360 
  161.5000     2.2400   -19.4090    72.7450    35.5840    34.4650    28.9100    23.5920 
  161.6250     2.2560   -19.3970    73.2830    39.2380    37.4820    27.9960    23.4470 
  161.7500     2.2820   -19.3910    73.7160    43.3240    41.0260    27.6840    23.2130 
  161.8750     2.2980   -19.3940    72.9700    47.5140    44.7080    29.9830    23.1060 
  162.0000     2.2900   -19.4210    70.8250    51.3360    48.0250    35.0320    23.2240 
  162.1250     2.2670   -19.4880    68.8630    54.1900    50.3750    41.5210    23.5090 
  162.2500     2.2480   -19.5770    67.1960    56.0870    51.7840    43.7430    23.6620 
  162.3750     2.2390   -19.6750    65.9770    57.2730    52.5000    43.2190    23.6950 
  162.5000     2.2390   -19.7940    65.3440    58.1840    52.9300    43.4110    23.6900 
  162.6250     2.2360   -19.9220    64.4660    59.3500    53.5240    46.8540    23.6940 
  162.7500     2.2170   -20.0590    64.3920    61.1170    54.5830    50.9610    23.7280 
  162.8750     2.1920   -20.2190    64.8410    63.6990    56.3210    52.0390    23.8140 
  163.0000     2.1840   -20.3800    65.8190    67.1690    58.8820    51.7870    23.9260 
  163.1250     2.2090   -20.5170    66.5650    71.3840    62.2790    56.7280    23.9670 
  163.2500     2.2430   -20.6270    66.7270    75.5300    65.8580    64.8830    23.9730 
  163.3750     2.2570   -20.7370    65.8710    78.7210    68.8590    72.4810    23.9760 
  163.5000     2.2350   -20.8310    64.8630    80.2070    70.5800    75.9640    23.9920 
  163.6250     2.1910   -20.8830    67.1630    79.5010    70.4960    72.4770    24.0190 
  163.7500     2.1560   -20.9170    71.7870    77.5240    69.2810    65.2900    24.0360 
  163.8750     2.1370   -20.9230    76.1730    75.0070    67.5580    61.5920    24.0360 
  164.0000     2.1310   -20.9040    77.4040    72.2870    65.6880    61.0070    24.0130 
  164.1250     2.1310   -20.8370    74.8000    69.0910    63.5500    62.1410    23.9490 
  164.2500     2.1400   -20.7340    71.2870    65.2830    60.9980    61.9720    23.8700 
  164.3750     2.1690   -20.5890    69.6880    61.2660    58.2650    57.0530    23.7850 
  164.5000     2.2190   -20.3920    71.2460    57.9880    56.0220    49.0340    23.6800 
  164.6250     2.2640   -20.1720    74.1290    56.9130    55.4280    45.2950    23.6360 
  164.7500     2.2880   -19.9160    76.4370    58.1320    56.7210    50.4770    23.6210 
  164.8750     2.3060   -19.6180    75.4640    60.5620    59.1660    63.4280    23.6190 
  165.0000     2.3340   -19.2870    70.9300    61.2950    60.2380    79.6780    23.6170 
  165.1250     2.3650   -18.9710    66.4780    55.1990    54.8940    82.6850    23.6170 
  165.2500     2.3690   -18.6770    65.4950    42.8520    43.3860    70.5590    23.6130 
  165.3750     2.3410   -18.4010    68.0210    28.7060    30.0110    44.1850    23.6000 
  165.5000     2.3050   -18.1520    71.1180    17.3270    19.0930    18.1820    23.5940 
  165.6250     2.2960   -17.9660    71.3160    10.8670    12.5430     9.2720    23.6520 
  165.7500     2.3050   -17.8500    68.0380     7.5080     8.8250     6.3570    23.7440 
  165.8750     2.3190   -17.7980    64.5150     5.9850     6.9050     5.5740    23.8400 
  166.0000     2.3320   -17.8280    64.8010     5.4980     6.1010     5.1560    23.8930 
  166.1250     2.3520   -17.9370    69.4980     5.7280     6.1570     5.4260    23.9060 
  166.2500     2.3740   -18.0970    76.0100     6.3520     6.7210     6.3910    23.9060 
  166.3750     2.3880   -18.3070    84.6790     7.1780     7.6030     7.3570    23.9060 
  166.5000     2.3830   -18.5730    94.6190     7.9900     8.5880     7.9090    23.9070 
  166.6250     2.3600   -18.8510   103.4370     8.5420     9.4170     8.1670    23.9230 
  166.7500     2.3290   -19.1440   114.9580     8.8070     9.9650     8.4860    23.9630 
  166.8750     2.3030   -19.4590   130.4310     8.8670    10.2290     8.8540    24.0120 
  167.0000     2.2920   -19.7810   141.6700     8.8430    10.2920     9.1570    24.0380 
  167.1250     2.2990   -20.0760   138.0550     8.8270    10.2310     9.3260    24.0420 
  167.2500     2.3110   -20.3580   125.9590     8.8440    10.1050     9.4530    24.0420 
  167.3750     2.3190   -20.6270   115.5470     8.8820     9.9210     9.5630    24.0420 
  167.5000     2.3220   -20.8500   113.4440     8.9230     9.6840     9.6230    24.0420 
  167.6250     2.3250   -21.0390   119.8260     8.9250     9.3900     9.7290    24.0420 
  167.7500     2.3350   -21.1820   123.3980     8.8660     9.0560     9.6720    24.0420 
  167.8750     2.3510   -21.2940   120.6050     8.7870     8.7350     9.5930    24.0420 
  168.0000     2.3630   -21.3680   119.2180     8.8370     8.5420     9.4640    24.0420 
  168.1250     2.3590   -21.4540   124.1540     9.3790     8.7330     9.8070    24.0420 
  168.2500     2.3460   -21.5480   125.2940    10.6980     9.4970    10.7900    24.0420 
  168.3750     2.3270   -21.6480   117.3580    13.1490    11.1030    13.4480    24.0420 
  168.5000     2.3080   -21.7710   104.6180    17.0390    13.8730    19.5530    24.0420 
  168.6250     2.2930   -21.9210    92.8900    22.7540    18.3740    29.3750    24.0420 
  168.7500     2.2840   -22.0980    85.3650    29.7490    24.3570    37.2790    24.0420 
  168.8750     2.2770   -22.2880    81.3910    37.3430    31.2760    42.6970    24.0420 
  169.0000     2.2700   -22.4790    78.3530    44.6410    38.1300    47.7730    24.0420 
  169.1250     2.2610   -22.6440    76.0320    50.7090    43.7740    51.6420    24.0420 
  169.2500     2.2500   -22.7870    73.8570    55.5440    48.1960    54.5550    24.0420 
  169.3750     2.2390   -22.9130    70.4610    59.3090    51.6650    59.8460    24.0420 
  169.5000     2.2310   -23.0100    66.3800    62.0710    54.2970    64.9440    24.0420 
  169.6250     2.2260   -23.0990    67.7150    63.6570    55.8760    62.7320    24.0490 
  169.7500     2.2160   -23.1690    71.9940    64.4670    56.6890    58.9420    24.0680 
  169.8750     2.1960   -23.2160    73.7420    64.9530    57.1390    58.0060    24.0950 
  170.0000     2.1670   -23.2300    71.8080    65.6550    57.7310    57.4330    24.1110 
  170.1250     2.1400   -23.2440    68.4070    67.1550    59.0260    55.8350    24.1150 
  170.2500     2.1240   -23.2420    66.5740    69.3820    61.0390    56.5580    24.1150 
  170.3750     2.1210   -23.2130    67.6200    72.0260    63.5360    60.9860    24.1150 
  170.5000     2.1280   -23.1810    69.5320    74.7260    66.1870    67.9060    24.1150 
  170.6250     2.1450   -23.1230    68.6380    77.3370    68.8040    72.8880    24.1150 
  170.7500     2.1670   -23.0350    67.2630    80.1070    71.5200    70.0700    24.1150 
  170.8750     2.1800   -22.9320    67.5900    83.3570    74.6070    66.1570    24.1150 
  171.0000     2.1760   -22.8390    66.9500    87.1120    78.1760    70.6370    24.1150 
  171.1250     2.1670   -22.7290    64.2840    90.6640    81.7970    82.0020    24.1150 
  171.2500     2.1660   -22.6070    63.6920    92.8860    84.5210    88.2960    24.1170 
  171.3750     2.1700   -22.4900    65.6250    93.0130    85.5910    86.7010    24.1200 
  171.5000     2.1700   -22.3630    67.5890    91.1160    84.8920    79.4220    24.1220 
  171.6250     2.1620   -22.2260    68.7160    88.2290    83.2010    73.8130    24.1200 
  171.7500     2.1560   -22.1040    70.4000    85.7910    81.9680    71.3870    24.1150 
  171.8750     2.1560   -22.0000    71.3770    84.0050    81.6570    72.2820    24.1100 
  172.0000     2.1620   -21.8930    70.3750    82.1130    81.7050    74.9710    24.1080 
  172.1250     2.1700   -21.7700    68.7640    80.8390    78.9610    80.4370    24.1100 
  172.2500     2.1790   -21.6370    69.0530    78.7750    74.8260    83.3750    24.1110 
  172.3750     2.1900   -21.4860    72.9000    76.0640    70.6250    76.8450    24.1110 
