~V
VERS. 2.00: Ver 2.00
~W
STRT.M 50.0000:
STOP.M 199.0000:
STEP.M 0.1250:
NULL. -999.2500:
UWI. F10575:
~C
DEPT.M :
DEN.GM/CC :
SP.MV :
GR.API :
RML.OHMM :
RI. :
RXO.OHMM :
CALI.CM :
~A
   50.0000  -999.2500   162.8410    31.0000    15.9580     0.3670     2.7980    25.3160 
   50.1250  -999.2500   164.0100    32.2960    19.7350     0.3820  1468.8420    25.3160 
   50.2500  -999.2500   165.5510    33.1610    23.1050     0.3920  1468.8420    25.3160 
   50.3750  -999.2500   167.4540    33.7910    24.0420     0.4090  1468.8420    25.3160 
   50.5000     0.0000   169.6410    33.7610    21.7610     0.4360  1468.8420    25.3160 
   50.6250     0.0000   171.8780    32.0980    17.8310     0.4630  1468.8420    25.3160 
   50.7500     0.0000   173.9530    31.7140    14.6980     0.4750  1468.8420    25.3160 
   50.8750     0.0000   175.7670    33.1190    12.7670     0.4630  1468.8420    25.3160 
   51.0000     0.0000   177.2580    32.8760    11.7220     0.4330     0.3190    25.3160 
   51.1250     2.0710   178.3810    29.2680    10.8390     0.4070     0.1110    25.3140 
   51.2500     2.0710   179.2570    27.3110     9.7130     0.3960     0.0230    25.3110 
   51.3750     2.0750   179.9540    29.7460     8.5400     0.3940     0.0080    25.3070 
   51.5000     2.0830   180.5170    33.3520     7.6460     0.3940     0.0070    25.3060 
   51.6250     2.0910   180.9430    33.7330     7.6130     0.3980     0.0200    25.3090 
   51.7500     2.0970   181.2950    32.8840     8.4520     0.4120     0.0490    25.3140 
   51.8750     2.1020   181.6480    33.0530     9.8170     0.4440     0.0450    25.3150 
   52.0000     2.1050   182.0190    33.2670    10.9730     0.4910     0.0370    25.3130 
   52.1250     2.1060   182.4520    31.6610    11.1010     0.5270     0.0920    25.3090 
   52.2500     2.1040   182.8970    29.7840    10.5380     0.5280     0.0870    25.3120 
   52.3750     2.1060   183.2650    29.7260     9.6930     0.4900     0.0450    25.3120 
   52.5000     2.1140   183.5140    31.0040     8.9370     0.4350     0.0300    25.3080 
   52.6250     2.1290   183.6620    31.8260     8.4510     0.3950     0.0150    25.3060 
   52.7500     2.1420   183.7340    32.1960     8.1680     0.3740     0.0350    25.3070 
   52.8750     2.1500   183.7320    32.0810     8.3300     0.3650     0.1460    25.3070 
   53.0000     2.1590   183.6790    31.4200     9.1780     0.3640     0.3300    25.3060 
   53.1250     2.1670   183.5520    30.5690    10.5590     0.3710     0.0730    25.3060 
   53.2500     2.1670   183.4070    29.7610    11.5620     0.3860     0.0110    25.3060 
   53.3750     2.1600   183.2670    28.8610    11.6360     0.4070     0.0090    25.3080 
   53.5000     2.1550   183.1360    28.2440    11.0900     0.4270     0.0440    25.3100 
   53.6250     2.1540   183.0360    28.6930    10.3850     0.4290     0.0400    25.3080 
   53.7500     2.1500   182.9650    29.5150     9.8390     0.4140     0.0300    25.3060 
   53.8750     2.1390   182.8970    30.0630     9.4420     0.3940     0.0480    25.3060 
   54.0000     2.1210   182.8610    30.4880     8.9060     0.3860     0.0830    25.3050 
   54.1250     2.1000   182.8350    31.2140     8.0540     0.3850     0.3490    25.3040 
   54.2500     2.0790   182.7880    31.7400     7.0370     0.3770     0.4350    25.3060 
   54.3750     2.0630   182.7360    32.3390     6.1650     0.3540     0.2620    25.3190 
   54.5000     2.0590   182.7020    32.6540     5.7270     0.3170     0.4440    25.3430 
   54.6250     2.0670   182.6410    31.4340     5.8960     0.2870     1.7250    25.3700 
   54.7500     2.0810   182.5470    29.5040     6.4590     0.2760     2.7830    25.3810 
   54.8750     2.0940   182.4470    27.9330     7.0890     0.2810     0.9190    25.3830 
   55.0000     2.0970   182.3420    28.0050     7.4040     0.2840     0.2860    25.3830 
   55.1250     2.0920   182.2180    30.9130     7.1820     0.2680     0.1640    25.3830 
   55.2500     2.0900   182.0890    35.2090     6.7370     0.2350     0.3160    25.3830 
   55.3750     2.0940   181.9640    38.3740     6.3750     0.1960     0.3810    25.3830 
   55.5000     2.0990   181.8600    40.2270     6.1950     0.1640     0.7050    25.3830 
   55.6250     2.1010   181.7520    42.8070     6.1240     0.1490     0.8950    25.3840 
   55.7500     2.1040   181.6430    44.8250     6.0280     0.1450     0.7510    25.3860 
   55.8750     2.1100   181.5300    44.6550     5.8900     0.1440     0.2060    25.3900 
   56.0000     2.1200   181.3660    43.6400     5.7480     0.1410     0.0570    25.3870 
   56.1250     2.1290   181.1850    44.3190     5.6150     0.1360     0.0420    25.3850 
   56.2500     2.1340   181.0240    45.0400     5.4790     0.1330     0.0290    25.3830 
   56.3750     2.1340   180.8530    45.0250     5.3200     0.1330     0.0650    25.3830 
   56.5000     2.1280   180.6390    44.2760     5.1270     0.1390     0.0960    25.3830 
   56.6250     2.1120   180.4710    42.3810     4.9260     0.1490     0.0570    25.3830 
   56.7500     2.0900   180.3310    39.7410     4.7580     0.1580     0.0900    25.3830 
   56.8750     2.0680   180.1680    37.7590     4.6320     0.1620     0.1090    25.3830 
   57.0000     2.0550   179.9860    37.5450     4.5250     0.1600     0.2260    25.3830 
   57.1250     2.0530   179.7920    37.8190     4.4080     0.1550     0.2150    25.3830 
   57.2500     2.0530   179.5380    37.2720     4.2760     0.1490     0.1290    25.3830 
   57.3750     2.0540   179.2460    36.0500     4.1440     0.1470     0.0360    25.3830 
   57.5000     2.0560   178.9240    36.3660     4.0460     0.1460     0.0250    25.3830 
   57.6250     2.0670   178.5330    37.6670     4.0000     0.1480     0.1420    25.3830 
   57.7500     2.0830   178.0970    37.9570     3.9750     0.1510     0.6110    25.3830 
   57.8750     2.0980   177.6380    37.5320     3.9470     0.1560     1.5710    25.3820 
   58.0000     2.1120   177.1600    38.0310     3.9240     0.1640     3.4660    25.3780 
   58.1250     2.1300   176.6660    39.5800     3.9150     0.1730     0.9470    25.3790 
   58.2500     2.1490   176.1810    39.9660     3.8880     0.1800     0.2480    25.3790 
   58.3750     2.1550   175.7050    39.7820     3.8100     0.1820     0.0620    25.3800 
   58.5000     2.1390   175.2380    39.3630     3.6660     0.1790     0.0180    25.3780 
   58.6250     2.1150   174.6960    38.3840     3.4850     0.1730     0.0240    25.3790 
   58.7500     2.1050   174.0660    37.6920     3.3380     0.1690     0.1130    25.3780 
   58.8750     2.1120   173.3350    38.6330     3.2760     0.1660     0.2580    25.3770 
   59.0000     2.1270   172.4540    40.5280     3.3110     0.1630     0.2610    25.3770 
   59.1250     2.1390   171.2280    40.9940     3.3990     0.1530     0.1550    25.3790 
   59.2500     2.1500   169.4910    40.6970     3.4300     0.1320     0.0940    25.3780 
   59.3750     2.1640   167.0090    40.3690     3.2420     0.1020     0.0580    25.3770 
   59.5000     2.1850   163.4520    39.8960     2.6540     0.0730     0.1450    25.3810 
   59.6250     2.2260   158.1140    38.6900     1.7180     0.0570     0.5860    25.3950 
   59.7500     2.2910   150.6190    36.9280     0.9200     0.0580     1.2370    25.4240 
   59.8750     2.3740   140.3000    34.8970     0.4390     0.0710     1.0320    25.4620 
   60.0000     2.4640   126.7640    32.8340     0.2290     0.0940     1.3080    25.5160 
   60.1250     2.5200   110.1640    32.3520     0.2560     0.1370     2.3180    25.5990 
   60.2500     2.5030    92.0800    34.2600     0.5090     0.2340     3.1630    25.7540 
   60.3750     2.4180    73.3790    36.4720     1.0990     0.4620     4.7420    25.9690 
   60.5000     2.3120    54.9190    37.3470     2.1890     0.9420     6.3300    26.2320 
   60.6250     2.2410    37.8650    37.9460     3.8550     1.8820     7.5650    26.5850 
   60.7500     2.2120    22.9580    39.2790     5.4990     3.1700     7.6400    27.0910 
   60.8750     2.2090    10.9590    40.0460     6.5400     4.5070     7.6190    27.8480 
   61.0000     2.2140     2.2580    39.6410     6.9370     5.6150     7.0870    28.7700 
   61.1250     2.2270    -3.2200    41.5490     7.1270     6.4270     7.2280    29.4360 
