~V
VERS. 2.00: Ver 2.00
~W
STRT.M 42.0000:
STOP.M 195.0000:
STEP.M 0.1250:
NULL. -999.2500:
UWI. F10590:
~C
DEPT.M :
GR.API :
RML.OHMM :
RI. :
RXO.OHMM :
CALI.CM :
DEN.GM/CC :
SP.MV :
~A
# ...
   98.2500   101.7090     7.1060     6.6170     6.1360    22.4940     2.3120   -14.3130 
   98.3750    99.9240     7.3530     6.7670     6.0270    22.8410     2.3070   -14.3050 
   98.5000    93.3400     8.1860     7.3450     6.1040    23.0570     2.2970   -14.3210 
   98.6250    86.4760    10.0110     8.7100     7.0300    23.1980     2.2690   -14.3640 
   98.7500    81.6120    12.7300    10.8880     9.8250    23.2900     2.2290   -14.4080 
   98.8750    76.9360    15.9570    13.6950    15.5140    23.3240     2.1850   -14.4510 
   99.0000    73.2640    18.8270    16.4920    22.0220    23.3290     2.1510   -14.4950 
   99.1250    73.5950    19.9910    18.0540    21.8760    23.3280     2.1400   -14.5380 
   99.2500    76.4160    19.4070    18.0400    17.7890    23.3600     2.1490   -14.5940 
   99.3750    78.2860    17.8840    16.9500    14.1250    23.4380     2.1700   -14.6820 
   99.5000    76.8220    16.6660    15.7860    12.3840    23.4880     2.1950   -14.8030 
   99.6250    72.7010    17.1620    15.7630    11.2980    23.4990     2.2100   -14.9660 
   99.7500    69.3260    19.8630    17.4830    12.1960    23.5530     2.2110   -15.1560 
   99.8750    66.2470    25.1810    21.4860    18.5390    23.6950     2.1990   -15.3690 
  100.0000    62.9470    33.2790    28.1340    33.1310    23.8790     2.1790   -15.6000 
  100.1250    60.8160    43.9100    37.5120    48.1720    24.0750     2.1580   -15.8450 
  100.2500    59.8480    54.9130    47.7790    52.1850    24.1530     2.1380   -16.1050 
  100.3750    58.2880    64.1310    56.9890    54.3920    24.1830     2.1220   -16.3790 
  100.5000    55.5050    70.0800    63.5950    59.8620    24.2100     2.1080   -16.6590 
  100.6250    54.7360    72.4180    66.8510    63.7990    24.2320     2.1000   -16.8920 
  100.7500    55.7650    73.0190    68.1340    66.0670    24.2560     2.0970   -17.0760 
  100.8750    55.8750    72.9320    68.3710    64.5830    24.2750     2.0970   -17.2230 
  101.0000    54.5500    72.6030    68.1250    62.2480    24.2760     2.0980   -17.3210 
  101.1250    54.2730    71.9330    67.5200    64.0050    24.2370     2.0990   -17.3390 
  101.2500    57.6420    70.6970    66.5020    68.0810    24.1690     2.0990   -17.2340 
  101.3750    61.4790    68.7040    64.9240    66.9820    24.1130     2.0990   -16.9740 
  101.5000    63.2240    65.9640    62.7550    60.2830    24.0810     2.0990   -16.5610 
  101.6250    63.4600    62.7090    60.1270    52.3570    24.0710     2.0970   -16.0430 
  101.7500    63.7550    59.4450    57.4300    48.1580    24.1250     2.0950   -15.4640 
  101.8750    63.0440    56.4760    54.9070    46.0650    24.2340     2.0960   -14.8810 
  102.0000    60.6240    53.8960    52.6500    46.9030    24.2970     2.1010   -14.3250 
  102.1250    60.2040    51.5530    50.5320    46.6460    24.2910     2.1090   -13.8430 
  102.2500    62.9070    49.0870    48.2440    43.6180    24.2890     2.1190   -13.4660 
  102.3750    66.5690    46.3330    45.6160    41.3900    24.3250     2.1280   -13.2070 
  102.5000    68.2460    43.4140    42.7310    39.2470    24.3700     2.1340   -13.0640 
  102.6250    67.5690    40.8780    40.0520    36.2040    24.4220     2.1370   -13.0220 
  102.7500    66.7730    39.3160    38.1530    32.9640    24.4420     2.1370   -13.0510 
  102.8750    64.9890    39.2320    37.5350    31.1170    24.4470     2.1360   -13.1020 
  103.0000    61.4820    40.9950    38.5860    31.5420    24.4460     2.1360   -13.1590 
  103.1250    58.0750    45.1650    41.8870    38.2950    24.4440     2.1390   -13.1980 
  103.2500    56.9300    51.3430    47.1050    47.5780    24.4410     2.1410   -13.2030 
  103.3750    57.1730    59.0820    53.8530    54.8520    24.4400     2.1410   -13.1630 
  103.5000    57.5560    67.4010    61.2810    62.4960    24.4390     2.1350   -13.1130 
  103.6250    57.3190    74.2910    67.7410    77.2060    24.4260     2.1260   -13.1030 
  103.7500    55.8660    78.0190    71.7510    86.0650    24.3880     2.1170   -13.1330 
  103.8750    55.4860    77.6260    72.4050    85.3000    24.3270     2.1080   -13.1860 
  104.0000    58.2540    73.3660    69.6720    77.9920    24.2860     2.1010   -13.2630 
  104.1250    61.2680    66.4160    64.1980    67.6420    24.2660     2.0970   -13.3710 
  104.2500    61.9350    59.0380    57.8900    58.3410    24.2300     2.0980   -13.5060 
  104.3750    61.6270    52.3480    51.8490    49.9010    24.1670     2.1040   -13.6910 
  104.5000    61.6110    46.7160    46.5970    42.7400    24.1230     2.1160   -13.9070 
  104.6250    62.3230    41.9650    42.0820    39.0440    24.1150     2.1340   -14.1150 
  104.7500    64.2170    37.5620    37.6240    36.4890    24.1200     2.1520   -14.3050 
  104.8750    67.6610    33.2120    32.7860    32.5650    24.1270     2.1680   -14.4770 
  105.0000    71.4380    28.2010    27.5250    27.3910    24.1410     2.1800   -14.6300 
  105.1250    76.2650    22.8960    22.3130    21.2040    24.1580     2.1940   -14.7720 
  105.2500    83.8320    18.1750    17.7710    15.8000    24.1750     2.2140   -14.9040 
  105.3750    90.2610    14.6070    14.2560    11.7170    24.1870     2.2400   -15.0170 
  105.5000    90.3590    12.2540    11.8530     9.4170    24.2000     2.2670   -15.1030 
  105.6250    86.6990    11.1090    10.5880     8.6210    24.2080     2.2820   -15.1580 
  105.7500    84.1790    10.7090    10.0630     8.4110    24.2170     2.2820   -15.1940 
  105.8750    82.0660    10.7710    10.0370     8.6460    24.2220     2.2700   -15.2250 
  106.0000    79.7400    11.0110    10.2590     9.0990    24.2200     2.2520   -15.2410 
  106.1250    81.7820    11.1590    10.4790     9.0160    24.2130     2.2370   -15.2450 
  106.2500    85.6360    11.1090    10.5500     8.8720    24.2310     2.2300   -15.2390 
  106.3750    86.6900    10.8950    10.4620     8.7230    24.2620     2.2310   -15.2340 
  106.5000    84.8870    10.6180    10.2770     8.7360    24.2910     2.2370   -15.2380 
  106.6250    83.6760    10.3900    10.0670     8.8090    24.2790     2.2460   -15.2570 
  106.7500    84.6890    10.2460     9.8780     8.8820    24.2640     2.2550   -15.2580 
  106.8750    87.8540    10.1780     9.7110     8.9590    24.2570     2.2640   -15.2270 
  107.0000    90.5390    10.1580     9.5650     8.9640    24.2560     2.2710   -15.1740 
  107.1250    88.7030    10.1630     9.4430     8.7340    24.2570     2.2770   -15.1200 
  107.2500    85.4920    10.1860     9.3470     8.5040    24.2610     2.2820   -15.0720 
  107.3750    83.2890    10.2460     9.2810     8.4780    24.2730     2.2860   -15.0150 
  107.5000    81.2210    10.3660     9.2640     8.7350    24.2930     2.2860   -14.9390 
  107.6250    79.2710    10.5910     9.3430     9.1230    24.3380     2.2790   -14.8450 
  107.7500    78.2070    10.8910     9.5510     9.4170    24.3780     2.2670   -14.7540 
  107.8750    76.4470    11.2070     9.9330     9.5910    24.3680     2.2500   -14.6730 
  108.0000    73.7180    11.4940    10.5310     9.9550    24.3230     2.2320   -14.5880 
  108.1250    73.3100    12.3720    11.4370    10.5250    24.3020     2.2180   -14.4680 
  108.2500    73.1100    13.7530    12.6430    11.3600    24.3030     2.2060   -14.3360 
  108.3750    69.2500    15.5100    14.1410    12.8500    24.3090     2.1970   -14.2050 
  108.5000    62.1670    17.4260    15.8490    15.2380    24.3100     2.1870   -14.0730 
  108.6250    59.5750    19.2390    17.5650    17.7500    24.3080     2.1740   -13.9250 
  108.7500    62.4860    20.7280    19.0310    19.8100    24.2940     2.1600   -13.7810 
  108.8750    65.8510    21.7770    20.0830    20.9180    24.2600     2.1500   -13.6420 
  109.0000    65.6690    22.3890    20.6840    21.5200    24.2130     2.1490   -13.5080 
  109.1250    64.2720    22.6460    20.8990    22.1530    24.2150     2.1580   -13.3840 
  109.2500    64.4980    22.7750    20.9760    22.3220    24.2620     2.1680   -13.2530 
  109.3750    64.9940    22.8980    21.0570    21.9310    24.3280     2.1680   -13.1090 
