~V
VERS. 2.00: Ver 2.00
~W
STRT.M 50.0000:
STOP.M 214.0000:
STEP.M 0.1250:
NULL. -999.2500:
UWI. F10534:
~C
DEPT.M :
DEN.GM/CC :
SP.MV :
GR.API :
RML.OHMM :
RI. :
RXO.OHMM :
CALI.CM :
~A
# ...
   83.7500     2.3780   -26.6890   124.1910     9.3650     6.3200     6.7240    23.7210 
   83.8750     2.4010   -27.0130   111.9990    13.5660     8.8350     9.7170    23.7210 
   84.0000     2.4460   -27.3580    97.8250    19.7120    12.8550    15.4570    23.7210 
   84.1250     2.5180   -27.6960    86.3590    27.0130    18.3540    22.5450    23.7190 
   84.2500     2.5890   -28.0290    80.1250    32.2020    23.1610    27.0160    23.7160 
   84.3750     2.6280   -28.3710    78.3170    32.1240    24.5770    28.9620    23.6980 
   84.5000     2.6150   -28.6880    77.4090    26.9540    21.9610    30.5970    23.5880 
   84.6250     2.5550   -28.9930    74.6720    20.2670    17.4220    25.9750    23.2310 
   84.7500     2.4650   -29.2470    71.9740    14.9150    13.3490    16.2800    22.7530 
   84.8750     2.3520   -29.4400    70.7420    11.2850    10.2890     9.9080    22.4430 
   85.0000     2.2400   -29.5490    73.2180     9.1170     8.2090     7.6260    22.3440 
   85.1250     2.1670   -29.5730    79.1690     8.2240     7.0780     7.1400    22.3420 
   85.2500     2.1360   -29.5400    83.7430     8.0940     6.5940     7.0760    22.3440 
   85.3750     2.1340   -29.4330    84.3050     8.4200     6.5840     7.1250    22.3480 
   85.5000     2.1470   -29.2980    81.5280     8.8800     6.8430     7.3480    22.3480 
   85.6250     2.1650   -29.1380    80.6200     9.2100     7.1630     7.7520    22.3440 
   85.7500     2.1840   -29.0180    82.2700     9.3870     7.4140     8.4790    22.3390 
   85.8750     2.2000   -28.9200    84.0150     9.4730     7.5660     9.2030    22.3480 
   86.0000     2.2130   -28.9020    85.1020     9.4820     7.6080     8.3900    22.3750 
   86.1250     2.2160   -28.9600    83.5940     9.3540     7.5120     7.6000    22.3920 
   86.2500     2.2100   -29.0670    81.3910     9.1090     7.3260     7.0380    22.3980 
   86.3750     2.2020   -29.2370    82.5780     8.8270     7.1090     6.7700    22.3990 
   86.5000     2.1930   -29.4270    87.0520     8.6370     6.9360     6.6590    22.3990 
   86.6250     2.1840   -29.6600    89.5210     8.6770     6.8860     6.9200    22.3990 
   86.7500     2.1710   -29.8810    85.8730     8.8980     6.9460     7.3280    22.3990 
   86.8750     2.1560   -30.1120    81.0600     9.2000     7.0690     7.5750    22.3990 
   87.0000     2.1400   -30.2930    79.1900     9.4910     7.1950     7.6130    22.3990 
   87.1250     2.1240   -30.4220    76.6910     9.7290     7.2840     7.5950    22.3990 
   87.2500     2.1110   -30.5130    71.8990     9.9300     7.3530     7.6650    22.3990 
   87.3750     2.1050   -30.5310    67.7770    10.0910     7.4330     7.7510    22.3990 
   87.5000     2.1090   -30.5130    68.0520    10.1790     7.5360     7.8140    22.3990 
   87.6250     2.1270   -30.4260    69.8710    10.1470     7.6360     7.7700    22.3990 
   87.7500     2.1640   -30.3120    69.9830    10.0280     7.6930     7.6230    22.3990 
   87.8750     2.2150   -30.1560    71.4300     9.8650     7.6830     7.4960    22.3990 
   88.0000     2.2570   -30.0370    76.2860     9.7110     7.6110     7.5110    22.3990 
   88.1250     2.2500   -29.9970    80.7410     9.5950     7.5100     7.5690    22.3990 
   88.2500     2.2160   -30.0130    81.6020     9.5190     7.4280     7.5520    22.3990 
   88.3750     2.1900   -30.0970    79.3700     9.5000     7.3900     7.5080    22.3990 
   88.5000     2.1780   -30.2080    76.9050     9.5470     7.4060     7.7860    22.3950 
   88.6250     2.1670   -30.3680    74.7540     9.6440     7.4700     8.8570    22.3560 
   88.7500     2.1490   -30.5370    71.9290     9.7160     7.5340     9.7670    22.2790 
   88.8750     2.1330   -30.7340    69.2650     9.7140     7.5580     9.1590    22.2200 
   89.0000     2.1250   -30.8980    67.3360     9.6210     7.5260     8.3430    22.2560 
   89.1250     2.1270   -31.0110    68.6020     9.4700     7.4440     8.0630    22.4450 
   89.2500     2.1310   -31.0900    71.4090     9.3550     7.3450     8.0820    22.6690 
   89.3750     2.1350   -31.1140    72.7160     9.3290     7.2490     8.0410    22.8020 
   89.5000     2.1400   -31.1420    72.2300     9.3690     7.1590     8.0080    22.8410 
   89.6250     2.1460   -31.1420    72.0960     9.3800     7.0680     7.8990    22.8400 
   89.7500     2.1490   -31.1420    74.1480     9.3070     6.9750     7.6390    22.8400 
   89.8750     2.1460   -31.1140    76.7660     9.1800     6.8900     7.3710    22.8410 
   90.0000     2.1420   -31.0560    79.2380     9.0580     6.8170     7.2650    22.8410 
   90.1250     2.1400   -30.9620    83.1280     8.9940     6.7550     7.1600    22.8400 
   90.2500     2.1400   -30.8240    87.1960     8.9470     6.6940     7.1060    22.8390 
   90.3750     2.1390   -30.6640    89.4770     8.8400     6.6220     6.9640    22.8400 
   90.5000     2.1360   -30.4520    89.2300     8.6250     6.5250     6.6180    22.8470 
   90.6250     2.1340   -30.2230    87.3880     8.3370     6.3950     6.2680    22.8700 
   90.7500     2.1340   -29.9580    87.8330     8.0850     6.2590     6.0860    22.8960 
   90.8750     2.1370   -29.7060    91.1220     7.9360     6.1470     6.0610    22.9070 
   91.0000     2.1420   -29.4630    94.1420     7.9110     6.0840     6.0930    22.9090 
   91.1250     2.1470   -29.2300    93.1870     8.0010     6.0840     6.0690    22.9220 
   91.2500     2.1500   -29.0480    91.7740     8.1220     6.1240     5.9850    22.9490 
   91.3750     2.1500   -28.9120    92.3820     8.2270     6.1880     5.9440    22.9740 
   91.5000     2.1480   -28.8290    92.9790     8.3100     6.2820     6.0340    22.9840 
   91.6250     2.1430   -28.7720    90.3270     8.4180     6.4330     6.1360    22.9840 
   91.7500     2.1340   -28.7640    86.4190     8.5990     6.6440     6.2420    22.9840 
   91.8750     2.1240   -28.7380    84.0320     8.8520     6.8990     6.3530    22.9840 
   92.0000     2.1190   -28.7430    85.2640     9.1030     7.1470     6.4170    22.9840 
   92.1250     2.1210   -28.7750    88.5000     9.2130     7.2840     6.3990    22.9860 
   92.2500     2.1280   -28.7860    88.2320     9.1400     7.2560     6.4350    22.9990 
   92.3750     2.1400   -28.7830    84.4070     8.9150     7.0640     6.5080    23.0290 
   92.5000     2.1500   -28.7430    80.5580     8.6280     6.7780     6.6200    23.0520 
   92.6250     2.1530   -28.6410    79.7380     8.3900     6.5110     6.6390    23.0600 
   92.7500     2.1540   -28.4560    81.0160     8.2550     6.3500     6.6520    23.0600 
   92.8750     2.1610   -28.2400    83.2030     8.2530     6.3350     6.7230    23.0600 
   93.0000     2.1750   -27.9070    85.5170     8.4120     6.4750     6.8640    23.0600 
   93.1250     2.1960   -27.4370    87.9220     8.8230     6.8160     7.2160    23.0610 
   93.2500     2.2220   -26.8820    87.0840     9.5110     7.3690     8.2050    23.1010 
   93.3750     2.2550   -26.2300    81.4050    10.4770     8.1560    11.1690    23.2850 
   93.5000     2.2990   -25.5080    74.7630    11.5580     9.0860    17.7430    23.7020 
   93.6250     2.3600   -24.7710    74.4110    12.1600     9.7410    26.6940    24.1360 
   93.7500     2.4260   -24.0560    79.2220    11.6920     9.6220    21.8980    24.3450 
   93.8750     2.4610   -23.3900    87.3310    10.0640     8.5660    11.8050    24.4310 
   94.0000     2.4360   -22.8170    99.2970     7.9050     6.9670     6.8070    24.5180 
   94.1250     2.3730   -22.3510   112.3930     6.1550     5.5160     5.6070    24.5940 
   94.2500     2.3280   -21.9770   119.1430     5.1190     4.5390     5.2640    24.6570 
   94.3750     2.3130   -21.6900   118.7160     4.7030     4.0240     4.9430    24.7140 
   94.5000     2.3140   -21.5100   114.7980     4.6800     3.8350     4.6680    24.7480 
   94.6250     2.3150   -21.4370   112.1370     4.8290     3.8230     4.6720    24.7670 
   94.7500     2.3110   -21.4220   112.9480     4.9720     3.8460     4.6510    24.8130 
   94.8750     2.3070   -21.4660   116.1620     5.0640     3.8640     4.3880    24.9030 
