~V
VERS. 2.00: Ver 2.00
~W
STRT.M 50.0000:
STOP.M 236.0000:
STEP.M 0.1250:
NULL. -999.2500:
UWI. F10596:
~C
DEPT.M :
DEN.GM/CC :
SP.MV :
GR.API :
RML.OHMM :
RI. :
RXO.OHMM :
CALI.CM :
~A
# ...
   95.0000     2.1390   -19.3220    74.9070    11.5380     8.8720    11.4260    24.2650 
   95.1250     2.1030   -19.7150    72.1730    12.4930     9.8750    11.9640    24.2340 
   95.2500     2.0860   -20.0990    71.3870    13.0440    10.5630    12.0890    24.2200 
   95.3750     2.0870   -20.4470    70.8160    13.1710    10.8370    12.1630    24.2160 
   95.5000     2.0940   -20.7370    69.3850    13.0490    10.8110    12.4290    24.2160 
   95.6250     2.1040   -20.9350    68.4880    12.9240    10.6990    12.7400    24.2170 
   95.7500     2.1150   -21.0570    69.7750    12.9110    10.6530    12.9120    24.2220 
   95.8750     2.1240   -21.1050    72.5500    12.9800    10.6730    13.0210    24.2390 
   96.0000     2.1280   -21.1080    74.9580    13.0550    10.6980    12.9250    24.2710 
   96.1250     2.1220   -21.0480    73.6830    13.1020    10.6650    12.8100    24.2870 
   96.2500     2.1110   -20.9300    70.7290    13.1410    10.5670    12.7110    24.2920 
   96.3750     2.1020   -20.7710    68.9040    13.1400    10.4080    12.4420    24.2990 
   96.5000     2.0990   -20.5640    69.8110    13.0100    10.2010    12.0320    24.3150 
   96.6250     2.1030   -20.3150    72.6760    12.6580     9.9620    11.7830    24.3430 
   96.7500     2.1100   -20.0200    74.2360    12.1570     9.7160    11.7300    24.3550 
   96.8750     2.1160   -19.7200    73.8480    11.6120     9.4740    11.4970    24.3580 
   97.0000     2.1220   -19.4210    73.1150    11.1380     9.2390    11.2460    24.3590 
   97.1250     2.1260   -19.1510    73.1310    10.8290     9.0130    11.2550    24.3610 
   97.2500     2.1300   -18.9260    74.7910    10.6430     8.8030    11.1300    24.3660 
   97.3750     2.1360   -18.7470    76.6140    10.5440     8.6290    11.1610    24.3810 
   97.5000     2.1420   -18.6140    76.8150    10.5130     8.5130    11.5500    24.4200 
   97.6250     2.1420   -18.5350    74.1140    10.5110     8.4860    11.6350    24.4630 
   97.7500     2.1390   -18.5040    70.0640    10.5060     8.5390    11.4930    24.5210 
   97.8750     2.1310   -18.4910    66.6490    10.5020     8.6610    11.2530    24.5870 
   98.0000     2.1190   -18.4550    65.4080    10.5150     8.8340    11.1180    24.6530 
   98.1250     2.1020   -18.3950    66.5260    10.5370     9.0270    11.3360    24.7190 
   98.2500     2.0870   -18.2680    68.8700    10.5380     9.1920    11.2750    24.7760 
   98.3750     2.0810   -18.0630    70.1460    10.4820     9.2820    11.2200    24.7990 
   98.5000     2.0830   -17.7700    70.8190    10.3550     9.2470    11.1420    24.8020 
   98.6250     2.0890   -17.3700    73.4170    10.1380     9.0250    11.0570    24.8130 
   98.7500     2.0950   -16.8780    76.6510     9.7940     8.6360    11.0030    24.8400 
   98.8750     2.1080   -16.3180    79.0020     9.2430     8.0820    10.7210    24.8680 
   99.0000     2.1360   -15.7360    82.0480     8.4410     7.3710     9.8510    24.8900 
   99.1250     2.1800   -15.1900    88.1920     7.4520     6.5410     8.4080    24.9140 
   99.2500     2.2220   -14.7290    93.5830     6.5280     5.7230     7.0640    24.9350 
   99.3750     2.2450   -14.3680    95.3480     5.8820     5.0420     6.2670    24.9440 
   99.5000     2.2500   -14.1360    96.0180     5.6370     4.5960     5.9960    24.9480 
   99.6250     2.2540   -14.0930    97.2720     5.8800     4.4970     6.1390    24.9480 
   99.7500     2.2630   -14.2210    98.5320     6.5260     4.7250     6.3840    24.9480 
   99.8750     2.2640   -14.4950    99.5310     7.6210     5.3190     6.9340    24.9440 
  100.0000     2.2500   -14.8740    97.6380     9.2420     6.3440     8.2800    24.9180 
  100.1250     2.2380   -15.2820    89.8430    11.4490     7.9240    10.3730    24.8390 
  100.2500     2.2400   -15.6450    80.3610    13.7540     9.8120    11.6620    24.7360 
  100.3750     2.2340   -15.9440    75.1670    15.3260    11.4920    12.1330    24.6710 
  100.5000     2.1950   -16.1300    75.3640    15.3280    12.2600    12.1190    24.6510 
  100.6250     2.1410   -16.1460    76.6690    13.6430    11.6690    11.8460    24.6480 
  100.7500     2.1130   -16.0100    76.7950    11.5990    10.4580    11.5760    24.6260 
  100.8750     2.1210   -15.7410    77.6150     9.9390     9.2020    11.1710    24.5630 
  101.0000     2.1520   -15.3660    82.0090     8.8190     8.1450    10.4470    24.4800 
  101.1250     2.1880   -14.9310    88.0340     8.0880     7.3130     9.4140    24.4430 
  101.2500     2.2090   -14.5200    92.1520     7.5010     6.6220     8.4340    24.4340 
  101.3750     2.2140   -14.1590    94.7230     7.0510     6.0850     7.8610    24.4340 
  101.5000     2.2160   -13.8810    97.5770     6.8050     5.7330     7.6370    24.4340 
  101.6250     2.2260   -13.7330   102.0850     6.7850     5.5910     7.5370    24.4380 
  101.7500     2.2390   -13.7130   105.6030     6.8840     5.5810     7.4330    24.4750 
  101.8750     2.2440   -13.8030   106.1120     7.0870     5.6720     7.4030    24.5620 
  102.0000     2.2350   -13.9900   104.0590     7.4450     5.8570     7.9380    24.6400 
  102.1250     2.2130   -14.2230   101.2550     8.0170     6.1510     8.5650    24.6290 
  102.2500     2.1900   -14.4470    98.5740     8.6490     6.4930     9.1820    24.5990 
  102.3750     2.1790   -14.6440    96.1960     9.0880     6.7810     9.4140    24.6000 
  102.5000     2.1860   -14.8130    95.6550     9.0970     6.9000     9.0640    24.6320 
  102.6250     2.1970   -14.9460    95.7780     8.6610     6.8010     8.3950    24.6490 
  102.7500     2.1960   -15.0290    93.6000     8.1640     6.6240     8.2460    24.6520 
  102.8750     2.1880   -15.0630    92.6540     7.8350     6.4810     8.2680    24.6510 
  103.0000     2.1810   -15.0440    95.1480     7.7510     6.4300     8.1490    24.6510 
  103.1250     2.1760   -14.9950    96.3150     7.9390     6.5000     7.9650    24.6390 
  103.2500     2.1690   -14.9120    94.2820     8.2750     6.6530     8.3820    24.6130 
  103.3750     2.1640   -14.7930    91.5650     8.6020     6.8390     9.1320    24.5870 
  103.5000     2.1680   -14.6160    91.9530     8.7330     6.9700     9.5340    24.5750 
  103.6250     2.1830   -14.4080    96.7550     8.4590     6.9030     9.4610    24.5750 
  103.7500     2.1980   -14.1730   102.8020     7.8550     6.6140     8.5980    24.5750 
  103.8750     2.2130   -13.9370   107.0700     7.1580     6.1800     7.6600    24.5750 
  104.0000     2.2270   -13.7230   108.9870     6.6510     5.7540     7.1620    24.5750 
  104.1250     2.2370   -13.5340   109.3560     6.5400     5.5090     7.0370    24.5750 
  104.2500     2.2400   -13.3780   108.7630     6.7300     5.4790     6.9910    24.5750 
  104.3750     2.2350   -13.2680   105.6170     7.1100     5.6470     7.2020    24.5750 
  104.5000     2.2230   -13.1970   102.0510     7.5410     5.9490     7.6160    24.5750 
  104.6250     2.2140   -13.1450   100.5720     7.8130     6.2580     7.8900    24.5750 
  104.7500     2.2150   -13.1210    98.9380     7.8220     6.4180     7.6000    24.5750 
  104.8750     2.2220   -13.1050    97.5210     7.6210     6.3520     7.0850    24.5750 
  105.0000     2.2290   -13.0860    98.9210     7.3670     6.0870     6.8680    24.5750 
  105.1250     2.2320   -13.0850   102.8490     7.2590     5.7520     6.9110    24.5750 
  105.2500     2.2380   -13.0950   105.4980     7.3730     5.5140     6.9260    24.5750 
  105.3750     2.2560   -13.1330   106.3160     7.7340     5.4800     6.9580    24.5750 
  105.5000     2.2880   -13.2070   106.8280     8.4230     5.7490     7.2170    24.5750 
  105.6250     2.3340   -13.3200   106.8940     9.8090     6.5790     8.4970    24.5750 
  105.7500     2.3860   -13.4420   104.2500    12.1740     8.1730    12.6070    24.5750 
  105.8750     2.4400   -13.5870    98.2510    15.6960    10.7770    23.2090    24.5750 
  106.0000     2.4780   -13.7500    89.4490    19.9590    14.3060    41.1610    24.5750 
  106.1250     2.4760   -13.9000    81.9620    22.8280    17.4360    51.1510    24.5750 
