~V
VERS. 2.00: Ver 2.00
~W
STRT.M 54.0000:
STOP.M 217.0000:
STEP.M 0.1250:
NULL. -999.2500:
UWI. F10593:
~C
DEPT.M :
SP.MV :
GR.API :
RML.OHMM :
RI. :
RXO.OHMM :
CALI.CM :
DEN.GM/CC :
~A
# ...
  200.2500    -9.1970    55.9440     6.4120     5.2770     5.7350    22.8090     2.3990 
  200.3750    -8.9450    48.9390     6.2780     5.2530     5.6160    22.7580     2.3930 
  200.5000    -8.7590    41.1890     6.0930     5.2140     5.4340    22.7390     2.3810 
  200.6250    -8.6780    34.8200     5.9040     5.1550     5.2750    22.7460     2.3690 
  200.7500    -8.7060    32.0110     5.7570     5.0760     5.1820    22.7840     2.3630 
  200.8750    -8.8660    31.7350     5.6910     4.9860     5.1210    22.8620     2.3700 
  201.0000    -9.0680    32.6890     5.6820     4.8960     5.0810    22.9360     2.3860 
  201.1250    -9.2900    34.6030     5.7120     4.8230     5.0500    22.9900     2.4060 
  201.2500    -9.4920    36.3120     5.7590     4.7870     5.0510    23.0220     2.4190 
  201.3750    -9.6470    36.7890     5.8180     4.8090     5.0110    23.0490     2.4190 
  201.5000    -9.8260    36.7220     5.8870     4.8790     5.0420    23.0700     2.4100 
  201.6250   -10.0200    36.6500     5.9700     4.9790     5.1880    23.0800     2.3970 
  201.7500   -10.2360    36.8440     6.0720     5.0880     5.3100    23.0940     2.3880 
  201.8750   -10.4200    38.1910     6.2110     5.1860     5.4740    23.1210     2.3870 
  202.0000   -10.5980    40.4920     6.3790     5.2690     5.6940    23.1340     2.3920 
  202.1250   -10.7540    42.3000     6.5350     5.3370     5.8550    23.1360     2.3990 
  202.2500   -10.9240    43.1860     6.6180     5.3850     5.8370    23.1350     2.4030 
  202.3750   -11.0750    43.7710     6.5590     5.4010     5.7350    23.1340     2.4010 
  202.5000   -11.1770    44.4370     6.4070     5.3830     5.5950    23.1340     2.3960 
  202.6250   -11.2260    45.2500     6.2400     5.3320     5.6070    23.1320     2.3920 
  202.7500   -11.2610    46.1800     6.1370     5.2580     5.5850    23.1310     2.3890 
  202.8750   -11.2820    46.1340     6.1230     5.1760     5.3880    23.1300     2.3870 
  203.0000   -11.3030    44.9630     6.1360     5.1090     5.3020    23.1280     2.3830 
  203.1250   -11.3770    43.8860     6.1300     5.0680     5.3200    23.1250     2.3770 
  203.2500   -11.4790    43.8510     6.1030     5.0600     5.3450    23.1260     2.3710 
  203.3750   -11.6700    44.0610     6.0980     5.0920     5.2720    23.1190     2.3710 
  203.5000   -11.9000    44.5970     6.1590     5.1610     5.3520    23.1040     2.3800 
  203.6250   -12.1560    45.7840     6.2940     5.2760     5.5940    23.0860     2.3970 
  203.7500   -12.3980    47.3630     6.4680     5.4450     5.8210    23.0730     2.4200 
  203.8750   -12.6510    49.3560     6.6260     5.6730     6.1130    23.0560     2.4440 
  204.0000   -12.9280    51.5940     6.7540     5.9300     6.7740    23.0370     2.4630 
  204.1250   -13.2260    54.1970     6.8820     6.1840     7.7120    23.0260     2.4700 
  204.2500   -13.5910    56.7520     7.0590     6.4090     8.0680    23.0280     2.4630 
  204.3750   -13.9230    57.2040     7.3150     6.5760     7.6860    23.0440     2.4430 
  204.5000   -14.2480    55.5380     7.5840     6.6830     7.3420    23.0650     2.4220 
  204.6250   -14.5460    52.2940     7.7740     6.7180     7.5580    23.0750     2.4050 
  204.7500   -14.8270    49.6940     7.8020     6.6670     8.2890    23.0760     2.3950 
  204.8750   -15.0900    49.5300     7.6340     6.5230     8.4520    23.0760     2.3920 
  205.0000   -15.3430    50.8050     7.3980     6.3490     8.1920    23.0760     2.3900 
  205.1250   -15.5640    52.7530     7.2340     6.2260     7.7250    23.0760     2.3900 
  205.2500   -15.7740    53.8250     7.2800     6.2460     7.1640    23.0750     2.3910 
  205.3750   -15.9720    53.7210     7.6710     6.5160     6.8220    23.0740     2.3910 
  205.5000   -16.0940    52.8840     8.3110     6.9850     7.5150    23.0720     2.3860 
  205.6250   -16.1150    52.3120     9.0150     7.5390     9.7470    23.0700     2.3760 
  205.7500   -15.9640    52.5790     9.5220     7.9960    12.0190    23.0450     2.3660 
  205.8750   -15.6370    51.9130     9.5350     8.1160    13.0060    22.9750     2.3690 
  206.0000   -15.2090    51.1720     9.1200     7.8830    12.9470    22.8990     2.3890 
  206.1250   -14.6760    51.4770     8.4560     7.3870    10.7880    22.8620     2.4170 
  206.2500   -14.0050    51.7700     7.7590     6.7820     8.0420    22.8550     2.4420 
  206.3750   -13.2810    51.7700     7.2000     6.2340     6.6340    22.8550     2.4470 
  206.5000   -12.5810    51.7700     6.7830     5.8150     6.0530    22.8460     2.4350 
  206.6250   -11.9330    51.7700     6.4750     5.5350     5.5930    22.8200     2.4140 
  206.7500   -11.4080    51.7700     6.2440     5.3770     5.3590    22.7990     2.3930 
  206.8750   -11.0280    51.7700     6.0910     5.3280     5.3220    22.7890     2.3810 
  207.0000   -10.7420    51.7700     6.0190     5.3440     5.3670    22.7890     2.3800 
  207.1250   -10.5770    51.7700     6.0400     5.4050     5.4530    22.7900     2.3860 
  207.2500   -10.4890    51.7700     6.1530     5.4950     5.6480    22.7910     2.3950 
  207.3750   -10.4060    51.7700     6.3480     5.6230     5.9430    22.7920     2.4050 
  207.5000   -10.3700    51.7700     6.5970     5.8060     6.1460    22.7920     2.4170 
  207.6250   -10.3850    51.7700     6.8890     6.0570     6.4100    22.7920     2.4360 
  207.7500   -10.4400    51.7700     7.2020     6.3580     6.9190    22.7930     2.4640 
  207.8750   -10.5400    51.7700     7.4840     6.6410     7.9140    22.7940     2.4920 
  208.0000   -10.6430    51.7700     7.6740     6.8310     9.1420    22.7940     2.5080 
  208.1250   -10.7050    51.7700     7.7380     6.8860     9.4160    22.7940     2.5030 
  208.2500   -10.7350    51.7700     7.6860     6.8150     8.2800    22.7940     2.4810 
  208.3750   -10.7980    51.7700     7.5760     6.6710     7.2630    22.7940     2.4550 
  208.5000   -10.8430    51.7700     7.4860     6.5380     7.0060    22.7940     2.4370 
  208.6250   -10.8150    51.7700     7.4280     6.4540     7.2570    22.7930     2.4330 
  208.7500   -10.7210    51.7700     7.3770     6.4170     7.6850    22.7900     2.4380 
  208.8750   -10.5840    51.7700     7.2710     6.3840     7.7150    22.7860     2.4410 
  209.0000   -10.4010    51.7700     7.0820     6.2950     7.3580    22.7920     2.4360 
  209.1250   -10.1710    51.7700     6.8090     6.1220     7.0040    22.8020     2.4210 
  209.2500    -9.9910    51.7700     6.4860     5.8760     6.5960    22.8080     2.4030 
  209.3750    -9.8990    51.7700     6.1670     5.6060     6.1570    22.8110     2.3880 
  209.5000    -9.9100    51.7700     5.8890     5.3790     5.7660    22.8140     2.3820 
  209.6250   -10.0680    51.7700     5.6770     5.2410     5.4520    22.8180     2.3840 
  209.7500   -10.3340    51.7700     5.5530     5.2120     5.3410    22.8200     2.3920 
  209.8750   -10.6380    51.7700     5.5600     5.2950     5.5340    22.8220     2.4060 
  210.0000   -10.9910    51.7700     5.6810     5.4320     5.9050    22.8230     2.4220 
  210.1250   -11.4120    51.7700     5.8910     5.5730     6.3140    22.8220     2.4380 
  210.2500   -11.8150    51.7700     6.1470     5.6780     6.8540    22.8210     2.4490 
  210.3750   -12.1160    51.7700     6.3880     5.7140     7.3300    22.8220     2.4520 
  210.5000   -12.3280    51.7700     6.5800     5.6950     7.5330    22.8230     2.4470 
  210.6250   -12.4720    51.7700     6.7140     5.6420     7.3430    22.8230     2.4390 
  210.7500   -12.5810    51.7700     6.7920     5.5840     7.2040    22.8230     2.4340 
  210.8750   -12.6280    51.7700     6.7970     5.5580     7.2530    22.8250     2.4350 
  211.0000   -12.6120    51.7700     6.7460     5.5810     7.4530    22.8240     2.4390 
  211.1250   -12.5860    51.7700     6.6620     5.6530     7.5170    22.8220     2.4390 
  211.2500   -12.5450    51.7700     6.5710     5.7490     7.4040    22.8210     2.4320 
  211.3750   -12.4980    51.7700     6.4960     5.8260     7.3480    22.8210     2.4200 
