~V
VERS. 2.00: Ver 2.00
~W
STRT.M 40.0000:
STOP.M 191.0000:
STEP.M 0.1250:
NULL. -999.2500:
UWI. F10585:
~C
DEPT.M :
DEN.GM/CC :
SP.MV :
GR.API :
RML.OHMM :
RI. :
RXO.OHMM :
CALI.CM :
~A
# ...
  141.2500     2.3420    -8.3180    69.7630    15.1710    13.6070    13.0980    24.9190 
  141.3750     2.3490    -8.5640    70.6680    15.9490    14.0200    13.7000    24.7690 
  141.5000     2.3710    -8.8740    70.4380    16.9060    14.7640    14.7710    24.5080 
  141.6250     2.3910    -9.2410    70.8780    17.9620    15.7210    15.7530    24.2210 
  141.7500     2.4020    -9.6080    73.2260    18.9940    16.7070    15.5830    24.0350 
  141.8750     2.4110    -9.9830    76.4300    19.9140    17.6290    15.4060    23.8970 
  142.0000     2.4200   -10.3900    79.0290    20.6860    18.4860    15.8000    23.7970 
  142.1250     2.4210   -10.7700    80.8150    21.4660    19.4090    16.8610    23.7820 
  142.2500     2.4090   -11.0980    82.8700    22.5820    20.5460    18.7460    23.7850 
  142.3750     2.3970   -11.3810    83.6350    24.2200    21.9230    21.3300    23.7880 
  142.5000     2.3970   -11.6540    81.4470    26.2400    23.3560    23.5940    23.7880 
  142.6250     2.4080   -11.9030    78.7210    27.9320    24.3540    27.1480    23.7880 
  142.7500     2.4130   -12.1460    79.2830    28.4900    24.5940    30.5010    23.7880 
  142.8750     2.4010   -12.3760    83.8160    27.6350    24.0030    28.9930    23.7990 
  143.0000     2.3710   -12.5840    88.7750    25.8230    22.8190    23.4710    23.8310 
  143.1250     2.3360   -12.7810    90.5780    23.9880    21.5370    21.4930    23.8960 
  143.2500     2.3100   -12.9260    91.0250    22.7810    20.6470    22.5730    23.9250 
  143.3750     2.2980   -13.0120    92.5990    22.3450    20.4020    23.2370    23.9320 
  143.5000     2.2970   -13.0490    94.3030    22.5990    20.8840    22.9050    23.9320 
  143.6250     2.3000   -13.0370    92.8920    23.4240    22.0800    23.9270    23.9320 
  143.7500     2.3010   -12.9520    89.8100    24.5380    23.5800    27.0070    23.9320 
  143.8750     2.2980   -12.7710    89.2830    25.6660    24.9250    30.1940    23.9280 
  144.0000     2.2940   -12.5070    92.3240    26.1950    25.4230    30.0380    23.9140 
  144.1250     2.2900   -12.1720    93.5250    24.8730    23.9720    26.4570    23.8840 
  144.2500     2.2900   -11.8030    91.4020    21.5300    20.7380    23.3040    23.8660 
  144.3750     2.2970   -11.3840    89.3010    16.9500    16.5500    19.1390    23.8610 
  144.5000     2.3090   -10.8850    88.4480    12.4880    12.4910    12.5060    23.8600 
  144.6250     2.3160   -10.3680    83.8540     9.3350     9.4450     6.9530    23.8600 
  144.7500     2.3180    -9.9240    75.0240     7.4500     7.4100     5.2110    23.8600 
  144.8750     2.3220    -9.5540    65.9850     6.5590     6.2410     4.9460    23.8600 
  145.0000     2.3330    -9.2260    62.2410     6.3430     5.7460     5.0910    23.8600 
  145.1250     2.3500    -8.9840    66.1650     6.5450     5.7980     5.2360    23.8810 
  145.2500     2.3640    -8.8520    72.2460     6.8380     6.1010     5.4030    23.9390 
  145.3750     2.3720    -8.8290    78.1300     7.0620     6.4610     5.6170    24.0150 
  145.5000     2.3710    -8.9160    84.2260     7.1710     6.7460     5.9130    24.0580 
  145.6250     2.3610    -9.0890    90.7100     7.1990     6.9030     6.2280    24.0660 
  145.7500     2.3510    -9.3020    96.1040     7.2180     6.9780     6.5360    24.0660 
  145.8750     2.3520    -9.5780    99.3830     7.2580     7.0020     6.9440    24.0660 
  146.0000     2.3630    -9.9370    99.4420     7.3310     7.0070     7.4400    24.0660 
  146.1250     2.3740   -10.3540    97.2210     7.4640     7.0310     7.6590    24.0660 
  146.2500     2.3830   -10.7590    97.2150     7.7010     7.1120     7.4360    24.0660 
  146.3750     2.3940   -11.1680   100.0380     8.0710     7.3050     7.4660    24.0660 
  146.5000     2.4060   -11.5990   101.9850     8.5740     7.6440     7.7840    24.0660 
  146.6250     2.4160   -12.0080    98.9060     9.1370     8.1050     8.5000    24.0660 
  146.7500     2.4230   -12.3560    93.4880     9.5990     8.5440     9.3030    24.0660 
  146.8750     2.4220   -12.6500    89.7980     9.8550     8.8390     9.7610    24.0660 
  147.0000     2.4100   -12.8940    90.4020     9.9290     8.9500     9.3340    24.0660 
  147.1250     2.3960   -13.0460    93.4380    10.0120     8.9780     8.7770    24.0660 
  147.2500     2.3990   -13.1540    93.6910    10.3010     9.1160     9.0700    24.0660 
  147.3750     2.4190   -13.2130    90.7760    10.8270     9.4460    10.5810    24.0660 
  147.5000     2.4410   -13.2250    87.1340    11.4540     9.9090    13.2040    24.0660 
  147.6250     2.4370   -13.2190    85.4800    11.8520    10.2730    15.1880    24.0660 
  147.7500     2.4070   -13.1890    86.4630    11.8300    10.3380    13.2830    24.0660 
  147.8750     2.3680   -13.1220    90.0240    11.4340    10.0740    10.7280    24.0660 
  148.0000     2.3410   -13.0010    93.9350    10.8740     9.6310     9.2450    24.0660 
  148.1250     2.3300   -12.8610    94.3630    10.4420     9.2660     9.7140    24.0660 
  148.2500     2.3280   -12.6990    92.8920    10.2840     9.1540    11.1370    24.0660 
  148.3750     2.3270   -12.4690    91.6660    10.4310     9.3620    12.0390    24.0660 
  148.5000     2.3240   -12.1660    91.0560    10.8640     9.8870    12.1420    24.0660 
  148.6250     2.3200   -11.8410    90.2190    11.6140    10.7170    13.0740    24.0660 
  148.7500     2.3160   -11.5350    89.0280    12.6180    11.7350    15.0560    24.0660 
  148.8750     2.3100   -11.2150    89.0180    13.8120    12.8600    17.4250    24.0660 
  149.0000     2.3030   -10.8980    91.2470    15.0550    13.9710    20.0120    24.0660 
  149.1250     2.2990   -10.6100    94.5940    16.0410    14.8430    20.9410    24.0660 
  149.2500     2.2930   -10.3520    96.2740    16.5450    15.3470    19.4950    24.0660 
  149.3750     2.2830   -10.1680    95.4730    16.5960    15.5070    19.8590    24.0660 
  149.5000     2.2770   -10.0390    92.6060    16.5800    15.5890    21.3850    24.0660 
  149.6250     2.2980    -9.9050    88.2970    17.3780    16.1550    20.6170    24.0660 
  149.7500     2.3500    -9.7620    83.5610    19.6330    17.6730    20.0030    24.0660 
  149.8750     2.4290    -9.6600    78.8040    23.7540    20.5470    23.4040    24.0660 
  150.0000     2.5110    -9.6190    72.3500    29.6010    24.9560    34.6340    24.0660 
  150.1250     2.5440    -9.5930    64.6860    35.6890    30.3410    58.2870    24.0660 
  150.2500     2.5020    -9.5590    60.5210    39.1240    34.4290    69.2690    24.0660 
  150.3750     2.4090    -9.5240    60.8610    38.0870    35.0630    55.7750    24.0660 
  150.5000     2.3140    -9.5230    63.5840    33.4140    32.0310    35.1900    24.0660 
  150.6250     2.2640    -9.5600    67.0160    27.9980    27.3510    25.6590    24.0660 
  150.7500     2.2520    -9.5970    71.0870    23.9850    23.4010    21.6180    24.0660 
  150.8750     2.2540    -9.6340    75.7260    21.7050    20.8720    20.5570    24.0660 
  151.0000     2.2520    -9.6710    79.5060    20.8630    19.7770    20.6990    24.0660 
  151.1250     2.2430    -9.7470    81.8160    21.2120    20.0150    23.4910    24.0660 
  151.2500     2.2330    -9.8700    82.3360    22.3400    21.0700    24.5080    24.0660 
  151.3750     2.2260    -9.9970    81.3880    24.2050    22.7330    24.9730    24.0660 
  151.5000     2.2250   -10.0870    79.5930    26.7950    24.8840    26.9890    24.0650 
  151.6250     2.2380   -10.1560    76.4290    29.9590    27.4290    31.2420    24.0260 
  151.7500     2.2620   -10.2370    72.1200    32.9780    29.9660    34.1780    23.9280 
  151.8750     2.2830   -10.3190    68.2210    35.0780    31.9670    36.6140    23.8390 
  152.0000     2.2770   -10.3570    66.3220    35.6240    32.8710    40.6880    23.8700 
  152.1250     2.2480   -10.3390    66.7480    34.2470    32.2240    37.4270    23.9970 
  152.2500     2.2250   -10.3210    67.3190    31.8800    30.6790    31.0590    24.0560 
  152.3750     2.2180   -10.3170    67.8040    29.3990    28.9270    26.9720    24.0670 
