~V
VERS. 2.00: Ver 2.00
~W
STRT.M 58.0000:
STOP.M 208.0000:
STEP.M 0.1250:
NULL. -999.2500:
UWI. F10592:
~C
DEPT.M :
GR.API :
RML.OHMM :
RI. :
RXO.OHMM :
CALI.CM :
DEN.GM/CC :
SP.MV :
~A
# ...
  193.0000    51.1510     7.0500     6.1650     6.7960    24.5470     2.3990    -2.5820 
  193.1250    55.2570     6.9210     6.0540     6.9050    24.5460     2.4180    -2.3640 
  193.2500    59.6200     6.8030     5.9050     7.1540    24.5460     2.4370    -2.0870 
  193.3750    64.4480     6.6400     5.7260     7.1280    24.5520     2.4330    -1.8390 
  193.5000    68.8600     6.4180     5.5330     6.7600    24.6300     2.4040    -1.5590 
  193.6250    70.1350     6.1670     5.3400     6.1930    24.9160     2.3550    -1.2660 
  193.7500    67.3770     5.9420     5.1680     5.8700    25.4860     2.3040    -0.9760 
  193.8750    62.8140     5.8170     5.0440     5.7940    26.0240     2.2660    -0.6970 
  194.0000    58.3490     5.7810     4.9690     5.7790    26.2910     2.2410    -0.4330 
  194.1250    53.2840     5.7830     4.9260     5.6330    26.3950     2.2240    -0.2110 
  194.2500    46.6490     5.7550     4.8910     5.5340    26.4000     2.2110    -0.0370 
  194.3750    40.8830     5.6590     4.8350     5.4490    26.4310     2.2100     0.1160 
  194.5000    37.1920     5.5370     4.7600     5.2630    26.0350     2.2280     0.1980 
  194.6250    34.6660     5.4430     4.6810     5.1890    25.3610     2.2610     0.2720 
  194.7500    32.4440     5.4060     4.6160     5.1670    24.8880     2.2930     0.2870 
  194.8750    30.5800     5.4150     4.5750     5.1660    24.7350     2.2930     0.2440 
  195.0000    30.1630     5.4200     4.5560     5.2930    24.9960     2.2530     0.1950 
  195.1250    30.6870     5.3970     4.5590     5.3430    25.8630     2.1860     0.1190 
  195.2500    31.0430     5.3590     4.5890     5.3360    27.0250     2.1190     0.0610 
  195.3750    31.1050     5.3560     4.6580     5.1640    27.8170     2.0920    -0.0350 
  195.5000    33.2990     5.4210     4.7570     5.1200    28.0070     2.1090    -0.1190 
  195.6250    37.3280     5.5530     4.8650     5.1980    27.6230     2.1580    -0.2260 
  195.7500    39.4960     5.7120     4.9540     5.3810    27.0880     2.2140    -0.3170 
  195.8750    38.0440     5.8160     4.9890     5.5190    26.9100     2.2480    -0.3810 
  196.0000    35.7190     5.8180     4.9740     5.4500    26.9740     2.2530    -0.4450 
  196.1250    33.8830     5.7120     4.9170     5.3430    27.0390     2.2300    -0.4870 
  196.2500    32.7780     5.5410     4.8340     5.2690    26.9780     2.1900    -0.5610 
  196.3750    33.6170     5.3760     4.7430     5.2420    26.7290     2.1510    -0.6350 
  196.5000    34.9500     5.2640     4.6590     5.2560    26.4170     2.1360    -0.6930 
  196.6250    35.4820     5.2050     4.5870     5.1750    26.0530     2.1550    -0.7370 
  196.7500    35.4440     5.1740     4.5320     5.0050    25.7080     2.2020    -0.7810 
  196.8750    35.8990     5.1520     4.5000     4.8480    25.4290     2.2450    -0.8330 
  197.0000    35.7980     5.1460     4.4910     4.7140    25.1470     2.2500    -0.9340 
  197.1250    34.7590     5.1870     4.5120     4.7010    25.1790     2.2130    -1.0890 
  197.2500    34.0540     5.3020     4.5690     4.8240    25.6330     2.1590    -1.2510 
  197.3750    33.7950     5.4960     4.6660     5.1000    26.2070     2.1330    -1.4400 
  197.5000    33.6570     5.7140     4.7890     5.5230    26.0640     2.1510    -1.6540 
  197.6250    34.1710     5.9140     4.9290     6.0170    25.4370     2.2010    -1.8810 
  197.7500    35.6070     6.0780     5.0780     6.2170    24.8490     2.2600    -2.1610 
  197.8750    36.4560     6.2340     5.2380     5.8600    24.6210     2.3060    -2.4500 
  198.0000    36.4560     6.4260     5.4090     5.6420    24.4630     2.3380    -2.7040 
  198.1250    36.4560     6.6720     5.5890     5.8850    24.3050     2.3630    -2.9480 
  198.2500    36.4560     6.9500     5.7730     6.5660    24.2000     2.3840    -3.1800 
  198.3750    36.4560     7.2120     5.9570     6.9850    24.1390     2.4000    -3.3630 
  198.5000    36.4560     7.4300     6.1410     7.2660    24.0990     2.4090    -3.5490 
  198.6250    36.4560     7.6110     6.3250     7.5110    24.1110     2.4120    -3.7310 
  198.7500    36.4560     7.7820     6.5100     7.7400    24.1290     2.4140    -3.8760 
  198.8750    36.4560     7.9790     6.6960     8.2050    24.1150     2.4150    -4.0020 
  199.0000    36.4560     8.2230     6.8960     8.5010    24.0960     2.4170    -4.1260 
  199.1250    36.4560     8.5310     7.1280     8.9880    24.0850     2.4200    -4.1810 
  199.2500    36.4560     8.9100     7.4150     9.1240    24.0770     2.4250    -4.1750 
  199.3750    36.4560     9.3340     7.7670     8.2730    24.0650     2.4310    -4.0920 
  199.5000    36.4560     9.6840     8.1110     7.7850    24.0510     2.4310    -3.9310 
  199.6250    36.4560     9.7980     8.3230     8.0040    24.0510     2.4140    -3.6730 
  199.7500    36.4560     9.5320     8.2600     8.2910    24.0860     2.3690    -3.3200 
  199.8750    36.4560     8.8010     7.7920     7.0230    24.2450     2.2900    -2.8820 
  200.0000    36.4560     7.8420     7.0640     5.9590    24.6290     2.1970    -2.3680 
  200.1250    36.4560     6.8790     6.2570     5.4490    25.3820     2.1150    -1.8770 
  200.2500    36.4560     6.0940     5.5540     5.3640    26.1530     2.0660    -1.4280 
  200.3750    36.4560     5.6250     5.1070     5.2170    26.0840     2.0680    -1.0380 
  200.5000    36.4560     5.4190     4.8870     5.3160    25.6520     2.1030    -0.6740 
  200.6250    36.4560     5.4160     4.8410     5.4490    25.6300     2.1500    -0.3710 
  200.7500    36.4560     5.5260     4.8910     5.4930    25.8940     2.1870    -0.1460 
  200.8750    36.4560     5.6410     4.9650     5.2560    25.8330     2.2020     0.0120 
  201.0000    36.4560     5.6790     5.0130     5.2760    25.3490     2.2040     0.1310 
  201.1250    36.4560     5.6240     5.0220     5.5470    24.8980     2.2080     0.2410 
  201.2500    36.4560     5.5040     4.9900     5.6980    24.9500     2.2250     0.3240 
  201.3750    36.4560     5.3740     4.9160     5.5010    25.5340     2.2590     0.3890 
  201.5000    36.4560     5.2820     4.8160     5.3150    25.9970     2.2950     0.4150 
  201.6250    36.4560     5.2400     4.7060     5.2810    26.0510     2.3200     0.4140 
  201.7500    36.4560     5.2380     4.6100     5.3000    25.7880     2.3240     0.4210 
  201.8750    36.4560     5.2560     4.5560     5.3060    25.2330     2.3090     0.4120 
  202.0000    36.4560     5.2680     4.5410     5.4900    24.8140     2.2960     0.3880 
  202.1250    36.4560     5.2610     4.5520     6.0580    24.4860     2.3000     0.3590 
  202.2500    36.4560     5.2230     4.5700     6.6580    24.3110     2.3280     0.3720 
  202.3750    36.4560     5.1520     4.5800     7.1700    24.2180     2.3760     0.4200 
  202.5000    36.4560     5.0700     4.5800     7.8940    24.1710     2.4230     0.4880 
  202.6250    36.4560     5.0060     4.5760     9.1310    24.1860     2.4530     0.5940 
  202.7500    36.4560     4.9820     4.5710     9.7290    24.2640     2.4600     0.7320 
  202.8750    36.4560     5.0030     4.5700     8.9750    24.3730     2.4510     0.9080 
  203.0000    36.4560     5.0300     4.5730     7.8030    24.4310     2.4420     1.0800 
  203.1250    36.4560     5.0370     4.5840     7.1050    24.4510     2.4440     1.2440 
  203.2500    36.4560     5.0250     4.6060     7.1990    24.4600     2.4530     1.3790 
  203.3750    36.4560     5.0180     4.6380     7.8260    24.4840     2.4520     1.4790 
  203.5000    36.4560     5.0360     4.6720     7.8240    24.5360     2.4250     1.5780 
  203.6250    36.4560     5.0790     4.6960     6.9950    24.6840     2.3710     1.6360 
  203.7500    36.4560     5.1310     4.7060     6.1780    24.9510     2.3050     1.6050 
  203.8750    36.4560     5.1670     4.7040     5.7670    25.2400     2.2610     1.5490 
  204.0000    36.4560     5.1790     4.7020     5.3350    25.2720     2.2510     1.4770 
  204.1250    36.4560     5.1810     4.7020     4.9850    25.2840     2.2710     1.4240 
