~V
VERS. 2.00: Ver 2.00
~W
STRT.M 55.0000:
STOP.M 211.0000:
STEP.M 0.1250:
NULL. -999.2500:
UWI. F10586:
~C
DEPT.M :
GR.API :
RML.OHMM :
RI. :
RXO.OHMM :
CALI.CM :
DEN.GM/CC :
SP.MV :
~A
# ...
  167.5000    69.3840    35.0480    33.2920    34.4840    23.1600     2.3430    -7.8300 
  167.6250    71.5310    34.0990    32.3370    34.1040    23.1170     2.3290    -7.9560 
  167.7500    71.3730    33.6710    31.7830    32.5570    23.1060     2.3160    -8.0880 
  167.8750    69.8480    33.8760    31.7710    31.4020    23.1050     2.3070    -8.2360 
  168.0000    67.2790    35.0070    32.3190    32.1690    23.1060     2.3030    -8.3550 
  168.1250    64.3690    36.7840    33.3880    34.5750    23.1120     2.3020    -8.4370 
  168.2500    62.3600    39.1590    34.7060    37.0950    23.1310     2.2980    -8.5350 
  168.3750    61.9060    41.6160    36.0960    39.1330    23.1750     2.2870    -8.6610 
  168.5000    62.5270    42.9070    37.4490    40.8480    23.2680     2.2700    -8.7510 
  168.6250    62.3760    43.7960    38.8150    42.3000    23.4230     2.2530    -8.8500 
  168.7500    61.5170    44.9160    40.4390    43.2970    23.5670     2.2430    -8.9240 
  168.8750    59.8870    46.6000    42.5790    43.7730    23.6290     2.2510    -8.9620 
  169.0000    58.7700    48.8840    45.2540    44.2340    23.6350     2.2870    -9.0080 
  169.1250    61.0770    51.0090    47.7700    47.2290    23.6140     2.3590    -9.0270 
  169.2500    63.7980    51.4900    48.7400    53.9800    23.5770     2.4560    -8.9700 
  169.3750    62.4540    48.8880    46.7430    62.9900    23.5280     2.5540    -8.8180 
  169.5000    58.5230    42.5280    41.0040    70.4450    23.4690     2.6220    -8.6140 
  169.6250    58.8470    33.0580    32.0480    69.3380    23.4110     2.6250    -8.2700 
  169.7500    61.3050    23.4130    22.8780    57.5590    23.3570     2.5750    -7.8570 
  169.8750    59.3700    15.5160    15.4130    35.8020    23.2990     2.5030    -7.4520 
  170.0000    53.4120    10.1000    10.2490    15.3580    23.2180     2.4350    -7.0360 
  170.1250    49.0500     7.1830     7.2990     7.5090    23.1250     2.3900    -6.7070 
  170.2500    50.1110     5.7020     5.6400     4.9780    23.0830     2.3670    -6.5040 
  170.3750    56.6580     5.1510     4.8840     4.5110    23.0800     2.3600    -6.4170 
  170.5000    65.8440     5.2020     4.7890     4.6870    23.1020     2.3660    -6.4530 
  170.6250    73.2570     5.7360     5.2710     5.1720    23.1520     2.3830    -6.6410 
  170.7500    78.1700     6.5500     6.1180     5.9770    23.2380     2.4040    -6.9540 
  170.8750    80.2560     7.5430     7.1880     7.0970    23.3630     2.4250    -7.3300 
  171.0000    78.7630     8.5300     8.3000     8.2980    23.4840     2.4390    -7.7230 
  171.1250    76.4800     9.3470     9.2010     9.0510    23.5280     2.4420    -8.0940 
  171.2500    77.2550     9.8500     9.7600     9.3060    23.5230     2.4370    -8.4210 
  171.3750    80.4190     9.9460     9.9480     9.3700    23.5080     2.4290    -8.7040 
  171.5000    82.9930     9.7050     9.8380     9.4450    23.5010     2.4240    -8.9780 
  171.6250    85.1510     9.3710     9.5400     9.4270    23.5010     2.4260    -9.2570 
  171.7500    88.4170     9.1290     9.1980     9.4070    23.5010     2.4320    -9.5050 
  171.8750    93.2090     9.0700     8.8770     9.2880    23.5010     2.4380    -9.7930 
  172.0000    98.6390     9.1090     8.6350     9.0470    23.5010     2.4390   -10.1340 
  172.1250   100.8460     9.3450     8.5760     8.9020    23.5010     2.4300   -10.5310 
  172.2500    99.4840     9.8610     8.7700     8.9520    23.5010     2.4180   -10.9680 
  172.3750    97.2870    10.7570     9.3020     9.3770    23.5010     2.4070   -11.4470 
  172.5000    95.3050    12.1120    10.2450    10.4130    23.5010     2.4040   -11.9330 
  172.6250    91.1980    14.0080    11.7100    12.4430    23.5010     2.4100   -12.4130 
  172.7500    84.5350    16.2660    13.5790    15.3670    23.5010     2.4190   -12.9170 
  172.8750    77.3920    18.7170    15.7360    18.5440    23.5010     2.4250   -13.3830 
  173.0000    72.5290    21.1600    18.0050    21.1330    23.4980     2.4240   -13.7970 
  173.1250    72.2710    23.3620    20.1590    23.6270    23.4890     2.4160   -14.1420 
  173.2500    73.5710    25.2530    22.0560    24.7960    23.4710     2.4050   -14.4310 
  173.3750    73.8830    26.8410    23.6520    25.7350    23.4380     2.3940   -14.6210 
  173.5000    73.9710    28.2020    24.9780    26.8050    23.3920     2.3820   -14.7550 
  173.6250    74.8080    29.4330    26.0910    27.7440    23.3720     2.3680   -14.8990 
  173.7500    73.8450    30.6540    27.1160    28.3270    23.3670     2.3540   -14.9870 
  173.8750    71.1520    31.9030    28.1160    29.2110    23.3720     2.3410   -15.0650 
  174.0000    70.0020    33.1480    29.0980    30.4860    23.3820     2.3350   -15.1500 
  174.1250    71.1820    34.2600    29.9980    32.3850    23.4100     2.3390   -15.2150 
  174.2500    70.8790    35.1270    30.7450    34.5010    23.4570     2.3480   -15.3060 
  174.3750    67.7970    35.7090    31.3030    36.5080    23.5110     2.3540   -15.4600 
  174.5000    64.3500    36.1040    31.7340    38.2340    23.5520     2.3520   -15.6500 
  174.6250    64.9500    36.6700    32.2910    37.8620    23.5600     2.3380   -15.8180 
  174.7500    68.9120    37.8650    33.3340    37.3230    23.5540     2.3230   -16.0240 
  174.8750    72.0400    40.0890    35.2300    37.8210    23.5370     2.3130   -16.2260 
  175.0000    71.8420    43.5330    38.2370    41.5360    23.5140     2.3150   -16.3970 
  175.1250    69.9160    48.0660    42.4440    47.3320    23.5020     2.3270   -16.5830 
  175.2500    69.1430    52.6730    47.0450    53.4480    23.4970     2.3370   -16.7550 
  175.3750    69.8940    56.2720    51.0580    58.8220    23.4940     2.3380   -16.8640 
  175.5000    69.5380    57.8650    53.4250    62.0320    23.4870     2.3280   -16.9360 
  175.6250    67.1450    56.5870    53.0710    61.1060    23.4700     2.3110   -17.0300 
  175.7500    66.3280    53.3440    50.6250    56.2200    23.4490     2.2940   -17.0560 
  175.8750    68.0590    49.1810    47.0110    48.6930    23.4330     2.2820   -17.0480 
  176.0000    69.3900    45.1980    43.3180    42.3090    23.4230     2.2770   -17.0700 
  176.1250    70.4020    42.3130    40.5050    38.8650    23.4090     2.2780   -17.0220 
  176.2500    73.6430    40.4580    38.6390    36.2110    23.3890     2.2820   -16.9600 
  176.3750    76.3100    39.3240    37.4960    35.3770    23.3710     2.2870   -16.9090 
  176.5000    75.0010    38.5820    36.8000    36.9590    23.3580     2.2900   -16.7970 
  176.6250    71.4200    38.2380    36.5300    39.5870    23.3390     2.2880   -16.6860 
  176.7500    69.9080    38.6190    36.9170    39.2980    23.3010     2.2800   -16.6200 
  176.8750    70.3890    40.2470    38.4110    34.4630    23.2370     2.2700   -16.5560 
  177.0000    70.3250    43.3950    41.3040    29.7550    23.1590     2.2610   -16.5130 
  177.1250    69.4080    47.7150    45.4050    33.2380    23.1170     2.2580   -16.5000 
  177.2500    67.4900    51.6170    49.3050    42.1250    23.1300     2.2630   -16.4640 
  177.3750    65.0890    53.5400    51.5080    49.9460    23.1500     2.2750   -16.4520 
  177.5000    62.1110    52.4440    50.8730    51.6780    23.1530     2.2910   -16.4580 
  177.6250    63.8420    48.4350    47.1940    46.5090    23.1430     2.3050   -16.3940 
  177.7500    72.7120    44.1650    42.8660    38.4210    23.1330     2.3130   -16.3330 
  177.8750    80.6500    41.9820    40.1530    30.5360    23.1450     2.3130   -16.2700 
  178.0000    80.0500    43.7220    40.9570    28.4660    23.1990     2.3050   -16.1810 
  178.1250    74.0620    51.7860    47.8130    38.0050    23.3110     2.2920   -16.1200 
  178.2500    69.3300    66.1470    60.9060    57.2390    23.4410     2.2770   -16.0760 
  178.3750    65.0530    86.3400    79.8830    82.6830    23.5390     2.2590   -16.0470 
  178.5000    59.8390   109.9290   102.4690   110.0570    23.5940     2.2410   -16.0450 
  178.6250    56.0850   131.0680   123.3280   127.4690    23.6290     2.2290   -16.1290 
