~V
VERS. 2.00: Ver 2.00
~W
STRT.M 42.0000:
STOP.M 195.0000:
STEP.M 0.1250:
NULL. -999.2500:
UWI. F10590:
~C
DEPT.M :
GR.API :
RML.OHMM :
RI. :
RXO.OHMM :
CALI.CM :
DEN.GM/CC :
SP.MV :
~A
# ...
   87.0000    71.7440    11.5490     9.0560     9.9160    24.0120     2.2090   -23.9780 
   87.1250    70.9780    11.5130     9.0900    10.1930    24.0490     2.2150   -24.0370 
   87.2500    70.7920    11.3890     9.0580    10.2440    24.0750     2.2150   -24.0880 
   87.3750    72.2900    11.2190     8.9710     9.9110    24.0810     2.2100   -24.1380 
   87.5000    72.9050    11.0540     8.8610     9.5190    24.0970     2.1990   -24.1790 
   87.6250    72.0290    10.9530     8.7800     9.4860    24.1460     2.1840   -24.2050 
   87.7500    73.6010    10.9290     8.7550     9.7040    24.2070     2.1670   -24.1940 
   87.8750    77.9930    10.9680     8.7820     9.8260    24.2300     2.1540   -24.1420 
   88.0000    80.7470    11.0340     8.8340     9.8960    24.2240     2.1470   -24.0510 
   88.1250    76.5070    11.0550     8.8700     9.7740    24.2220     2.1470   -23.9610 
   88.2500    70.7660    10.9840     8.8630     9.8060    24.2210     2.1510   -23.8550 
   88.3750    68.2670    10.8090     8.8080     9.8200    24.2220     2.1540   -23.6950 
   88.5000    68.4630    10.5800     8.7250     9.8600    24.2200     2.1560   -23.4580 
   88.6250    68.7660    10.4730     8.6980     9.8130    24.2180     2.1510   -23.1620 
   88.7500    68.5520    10.6800     8.8480     9.7400    24.2210     2.1410   -22.8230 
   88.8750    68.9910    11.3100     9.2740     9.6850    24.2420     2.1290   -22.4480 
   89.0000    70.2720    12.2760     9.9660     9.7710    24.2650     2.1290   -22.0060 
   89.1250    72.7690    13.1340    10.6740    10.8800    24.2750     2.1670   -21.4420 
   89.2500    76.8370    13.2980    10.9570    15.1930    24.2390     2.2410   -20.8150 
   89.3750    81.1890    12.4420    10.5050    21.7270    24.1610     2.3300   -20.1880 
   89.5000    86.6690    10.7100     9.3310    18.1650    24.0700     2.4040   -19.6000 
   89.6250    93.0000     8.7130     7.7930     8.8970    24.0460     2.4320   -19.0770 
   89.7500    97.6340     7.1320     6.4310     6.0370    24.0640     2.4220   -18.6150 
   89.8750    99.1660     6.2340     5.5000     5.3520    24.0950     2.3920   -18.2390 
   90.0000    96.7460     6.0350     5.0860     5.2830    24.1260     2.3660   -17.9830 
   90.1250    91.2590     6.4850     5.2340     5.7790    24.0960     2.3600   -17.8700 
   90.2500    84.5350     7.2710     5.7490     6.9330    24.0420     2.3670   -17.8730 
   90.3750    79.4770     8.1660     6.4710     8.3980    24.0050     2.3770   -17.9580 
   90.5000    77.9150     8.9480     7.2120     8.8910    23.9680     2.3740   -18.1350 
   90.6250    75.7960     9.4110     7.7710     8.4830    23.9650     2.3480   -18.3730 
   90.7500    71.6510     9.5910     8.1130     8.1160    24.0220     2.3050   -18.6480 
   90.8750    68.6670     9.6050     8.2890     8.3020    24.0870     2.2570   -18.9220 
   91.0000    69.0900     9.6040     8.4020     8.7390    24.1200     2.2160   -19.1850 
   91.1250    70.5560     9.7300     8.5480     8.9670    24.1060     2.1890   -19.4550 
   91.2500    68.5950     9.9950     8.7550     9.1410    24.0600     2.1750   -19.6820 
   91.3750    65.9850    10.3490     9.0040     9.3960    24.0070     2.1700   -19.8590 
   91.5000    65.8900    10.7160     9.2590     9.7200    23.9620     2.1720   -20.0150 
   91.6250    68.7220    11.0070     9.4730     9.8380    23.9350     2.1770   -20.1610 
   91.7500    72.1160    11.1990     9.6320     9.8870    23.9080     2.1830   -20.2590 
   91.8750    73.2510    11.3100     9.7420    10.0330    23.8880     2.1890   -20.3200 
   92.0000    71.1950    11.3850     9.8260    10.1080    23.8810     2.1920   -20.3620 
   92.1250    67.5100    11.4720     9.9110     9.9770    23.8810     2.1920   -20.3910 
   92.2500    65.4400    11.5810    10.0020     9.9450    23.8930     2.1890   -20.4450 
   92.3750    66.0090    11.6920    10.0890    10.2090    23.9300     2.1830   -20.5030 
   92.5000    68.2410    11.7820    10.1530    10.5140    23.9810     2.1770   -20.5270 
   92.6250    70.5340    11.8310    10.1700    10.3350    24.0010     2.1740   -20.5040 
   92.7500    72.4820    11.8380    10.1280     9.9260    23.9700     2.1740   -20.4750 
   92.8750    73.0090    11.7770    10.0040     9.6600    23.9120     2.1760   -20.4320 
   93.0000    71.4390    11.6020     9.7750     9.5030    23.8670     2.1740   -20.3560 
   93.1250    69.8210    11.2460     9.4170     9.5480    23.8560     2.1710   -20.1970 
   93.2500    70.0680    10.7760     9.0000     9.3630    23.9090     2.1750   -19.9710 
   93.3750    71.0660    10.3460     8.6310     9.0340    23.9810     2.1890   -19.7270 
   93.5000    69.8630    10.2120     8.4800     8.6760    24.0000     2.2100   -19.4580 
   93.6250    67.4270    10.8710     8.8900     8.4000    23.9570     2.2260   -19.1870 
   93.7500    66.1350    12.6600    10.1330     8.8900    23.9270     2.2370   -18.9240 
   93.8750    65.3160    16.0270    12.6300    10.3480    23.8970     2.2540   -18.6710 
   94.0000    62.7580    21.4210    16.8770    14.7880    23.8500     2.2940   -18.4390 
   94.1250    59.2110    29.2780    23.5270    29.8050    23.8220     2.3630   -18.2560 
   94.2500    57.6070    37.9880    31.4360    47.7240    23.7910     2.4430   -18.1030 
   94.3750    59.6380    44.6870    38.2850    58.0800    23.7320     2.5150   -17.9730 
   94.5000    63.1430    46.0280    41.0160    58.2960    23.6660     2.5670   -17.8950 
   94.6250    65.5430    40.0350    37.1960    67.6130    23.5690     2.5890   -17.8690 
   94.7500    69.7920    30.8230    29.7730    57.9380    23.4750     2.5860   -17.8650 
   94.8750    77.1630    21.9340    21.8380    32.3630    23.3920     2.5620   -17.8780 
   95.0000    85.9700    15.3220    15.4650    14.9330    23.3350     2.5250   -17.8890 
   95.1250    92.6380    11.5610    11.5290    11.1770    23.2720     2.4800   -17.9120 
   95.2500    95.4550     9.5540     9.2400    10.0110    23.2110     2.4340   -17.9530 
   95.3750    94.6270     8.6590     8.0740     9.4040    23.1670     2.3890   -17.9800 
   95.5000    92.0850     8.3860     7.6170     8.9000    23.1510     2.3470   -17.9860 
   95.6250    90.7180     8.3960     7.5940     8.5120    23.1300     2.3190   -17.9670 
   95.7500    91.2670     8.4190     7.7030     7.9790    23.0740     2.3090   -17.9380 
   95.8750    93.9970     8.3690     7.8140     7.2710    22.9940     2.3170   -17.8580 
   96.0000    97.4670     8.2380     7.8620     6.8440    22.8990     2.3340   -17.7360 
   96.1250    98.5660     8.0470     7.8220     6.7790    22.7630     2.3470   -17.6060 
   96.2500    98.7620     7.8440     7.7260     6.5570    22.5630     2.3530   -17.4640 
   96.3750   100.0350     7.6620     7.6040     6.0750    22.2880     2.3530   -17.2990 
   96.5000   101.5070     7.5140     7.4780     5.7150    21.8760     2.3490   -17.1010 
   96.6250    99.5230     7.3920     7.3500     5.5730    21.1340     2.3390   -16.8570 
   96.7500    96.0380     7.2660     7.2040     5.4420    20.2070     2.3250   -16.5700 
   96.8750    95.3510     7.1190     7.0260     5.4630    19.2010     2.3070   -16.2830 
   97.0000    97.8780     6.9590     6.8200     5.5450    18.4330     2.2910   -16.0020 
   97.1250   100.0240     6.8260     6.6230     5.9010    18.1630     2.2840   -15.7050 
   97.2500    99.2580     6.7650     6.4820     6.1770    18.1590     2.2860   -15.4330 
   97.3750    97.9370     6.8050     6.4300     6.3530    18.3380     2.2950   -15.1880 
   97.5000    97.7000     6.9410     6.4730     6.4240    18.6690     2.3070   -14.9490 
   97.6250    96.3730     7.1370     6.5930     6.5870    19.2040     2.3190   -14.7270 
   97.7500    94.2840     7.3070     6.7210     6.8570    19.8660     2.3280   -14.5600 
   97.8750    92.8820     7.3830     6.7970     7.0720    20.6090     2.3290   -14.4390 
   98.0000    93.8320     7.3270     6.7810     6.8710    21.3730     2.3240   -14.3670 
   98.1250    98.0530     7.1750     6.6800     6.3760    21.9820     2.3160   -14.3350 
