~V
VERS. 2.00: Ver 2.00
~W
STRT.M 58.0000:
STOP.M 215.0000:
STEP.M 0.1250:
NULL. -999.2500:
UWI. F10587:
~C
DEPT.M :
DEN.GM/CC :
GR.API :
RML.OHMM :
RI. :
RXO.OHMM :
CALI.CM :
SP.MV :
~A
# ...
  159.2500     2.3230    58.0010    19.0450    17.0590    20.2990    25.4010   -13.8210 
  159.3750     2.3260    60.1590    17.0420    15.3370    16.6970    25.3710   -13.8790 
  159.5000     2.3130    61.2700    15.7030    14.0280    14.1410    25.3450   -13.9730 
  159.6250     2.2890    60.5920    15.3970    13.4930    13.9970    25.3370   -14.0440 
  159.7500     2.2600    58.7250    15.9220    13.6460    15.4260    25.3460   -14.1080 
  159.8750     2.2310    57.6210    17.1320    14.4170    17.3440    25.3600   -14.2540 
  160.0000     2.2130    57.5540    18.8450    15.6940    19.9240    25.3680   -14.4920 
  160.1250     2.2200    56.6570    20.8960    17.3650    21.7200    25.3740   -14.7410 
  160.2500     2.2480    54.1210    23.0650    19.2070    23.0390    25.3830   -14.9900 
  160.3750     2.2820    52.2300    25.2620    21.1090    24.2820    25.3920   -15.2700 
  160.5000     2.3010    52.3950    27.4260    22.9940    26.2280    25.3930   -15.5420 
  160.6250     2.2930    53.9740    29.4310    24.7430    29.0230    25.3670   -15.8240 
  160.7500     2.2710    54.1170    31.1590    26.2580    32.0730    25.3850   -16.1250 
  160.8750     2.2460    53.1270    32.5040    27.4450    34.2260    25.4890   -16.3610 
  161.0000     2.2230    53.0330    33.4310    28.2680    34.7270    25.5970   -16.5310 
  161.1250     2.2010    54.0130    33.9910    28.7490    34.3800    25.6370   -16.7170 
  161.2500     2.1830    54.2220    34.4200    29.0910    34.3030    25.6260   -16.8910 
  161.3750     2.1760    52.7350    34.8510    29.4200    34.6250    25.6100   -16.9870 
  161.5000     2.1780    51.1380    35.3190    29.7930    34.4540    25.5790   -17.0430 
  161.6250     2.1870    53.1270    35.7210    30.1640    34.2330    25.5440   -17.0920 
  161.7500     2.1970    57.5020    35.8990    30.4110    34.5940    25.5790   -17.1140 
  161.8750     2.2050    60.3110    35.7200    30.4070    35.1530    25.6370   -17.1070 
  162.0000     2.2120    59.1750    35.1180    30.0640    35.2070    25.6580   -17.0800 
  162.1250     2.2140    57.5250    34.0820    29.3240    34.3060    25.6080   -17.0430 
  162.2500     2.2110    57.0340    32.8250    28.3410    32.5540    25.5600   -17.0190 
  162.3750     2.2050    55.9550    31.5020    27.2420    30.3170    25.5150   -17.0080 
  162.5000     2.1990    53.3310    30.2420    26.1500    28.1600    25.4790   -17.0190 
  162.6250     2.1980    50.7670    29.1810    25.1970    27.6610    25.4670   -17.0600 
  162.7500     2.2030    49.9460    28.3860    24.4580    28.0080    25.5020   -17.1200 
  162.8750     2.2130    52.1690    27.9300    23.9970    27.6800    25.5250   -17.1970 
  163.0000     2.2240    56.2700    27.8690    23.8560    26.9330    25.5370   -17.2880 
  163.1250     2.2290    58.9850    28.2840    24.1040    26.5920    25.5310   -17.3820 
  163.2500     2.2280    59.6240    29.0560    24.6630    27.5320    25.4670   -17.4370 
  163.3750     2.2220    60.2400    30.0710    25.4600    29.2820    25.3870   -17.4550 
  163.5000     2.2170    60.6090    31.1660    26.3780    30.9510    25.3280   -17.4830 
  163.6250     2.2180    58.2860    32.1180    27.2400    32.2130    25.3260   -17.4490 
  163.7500     2.2230    56.2740    32.7950    27.9040    33.2280    25.3480   -17.3300 
  163.8750     2.2260    57.2310    33.1680    28.3090    33.6950    25.3970   -17.2110 
  164.0000     2.2260    59.9920    33.3270    28.4970    34.1400    25.4620   -17.0980 
  164.1250     2.2270    60.4700    33.4680    28.5990    34.4150    25.4920   -16.8980 
  164.2500     2.2350    58.6290    33.7800    28.7880    34.5000    25.5020   -16.6830 
  164.3750     2.2510    57.1320    34.3600    29.1650    34.7100    25.4800   -16.5230 
  164.5000     2.2710    57.3120    35.2140    29.7710    35.7500    25.4610   -16.3350 
  164.6250     2.2860    56.7850    36.2020    30.5490    37.3620    25.4440   -16.0960 
  164.7500     2.2900    54.5800    37.0040    31.2630    38.7790    25.4300   -15.8870 
  164.8750     2.2860    52.6990    37.3730    31.7080    38.4020    25.4390   -15.7010 
  165.0000     2.2780    53.5870    37.2280    31.7780    37.7740    25.4710   -15.5180 
  165.1250     2.2700    55.4410    36.6690    31.4880    36.8290    25.4330   -15.3470 
  165.2500     2.2620    57.2180    36.0460    31.0790    34.9710    25.3370   -15.2060 
  165.3750     2.2560    59.0870    35.5750    30.7260    32.5840    25.2520   -15.1020 
  165.5000     2.2540    59.3990    35.3580    30.5410    32.4390    25.1830   -15.0480 
  165.6250     2.2570    56.2150    35.4040    30.5740    34.5110    25.2340   -15.0670 
  165.7500     2.2640    52.6280    35.5890    30.7400    36.5500    25.3380   -15.1570 
  165.8750     2.2740    50.8690    35.8310    30.9830    36.3350    25.4140   -15.3020 
  166.0000     2.2860    51.6540    36.0010    31.2140    36.1410    25.4330   -15.4870 
  166.1250     2.3000    54.2800    35.7540    31.2040    37.2580    25.4140   -15.7370 
  166.2500     2.3150    58.2260    34.8620    30.7520    38.0620    25.3870   -16.0420 
  166.3750     2.3190    61.2980    33.3340    29.7920    38.5360    25.3790   -16.3200 
  166.5000     2.3080    62.8720    31.6000    28.5480    38.4250    25.3790   -16.5860 
  166.6250     2.2900    62.2750    30.6960    27.7050    36.3650    25.3790   -16.8980 
  166.7500     2.2950    60.5110    31.4620    27.9990    32.2470    25.4000   -17.1870 
  166.8750     2.3460    58.0990    34.3690    29.9790    33.3050    25.4370   -17.4160 
  167.0000     2.4520    55.7230    39.1950    33.7430    39.9050    25.4590   -17.6480 
  167.1250     2.5700    54.1410    43.9220    38.1430    57.4290    25.4280   -17.8510 
  167.2500     2.6330    52.0530    44.4270    39.8320    77.1460    25.3630   -17.9500 
  167.3750     2.6210    49.1960    38.1850    35.9760    78.4750    25.3160   -17.9850 
  167.5000     2.5590    47.5490    27.5430    27.4500    48.0220    25.2980   -17.9710 
  167.6250     2.4860    49.9900    21.0790    18.6540    22.9860    25.2560   -17.8110 
  167.7500     2.4280    53.2680    13.8520    12.2580    11.7670    25.1490   -17.5410 
  167.8750     2.3980    54.4080     9.3420     8.2670     7.2100    25.0210   -17.2390 
  168.0000     2.3960    54.6170     6.8210     6.0360     5.7320    24.9900   -16.9340 
  168.1250     2.4130    56.9840     5.7710     5.1070     5.3430    25.0440   -16.6500 
  168.2500     2.4300    62.5910     5.5580     4.9180     5.5270    25.1660   -16.4180 
  168.3750     2.4410    71.2250     5.9740     5.2870     6.1530    25.2760   -16.2730 
  168.5000     2.4460    79.7740     6.8560     6.0670     7.6830    25.3690   -16.1830 
  168.6250     2.4500    82.7090     8.0340     7.1100     8.9320    25.4770   -16.1720 
  168.7500     2.4540    80.7630     9.1970     8.1390     9.4260    25.5640   -16.2770 
  168.8750     2.4580    77.3110    10.1110     8.9470     9.8790    25.6120   -16.4380 
  169.0000     2.4580    75.4130    10.6380     9.4140    10.3200    25.6250   -16.5430 
  169.1250     2.4550    78.4480    10.7460     9.5100    10.5250    25.6300   -16.6130 
  169.2500     2.4530    82.8380    10.6410     9.4170    10.4900    25.6250   -16.6650 
  169.3750     2.4500    83.6060    10.4420     9.2410    10.5310    25.6090   -16.6300 
  169.5000     2.4470    81.7840    10.2140     9.0390    10.5500    25.5880   -16.5730 
  169.6250     2.4400    84.8220     9.9700     8.8230    10.5220    25.5770   -16.5520 
  169.7500     2.4290    90.4180     9.6950     8.5800    10.4350    25.5720   -16.4880 
  169.8750     2.4140    91.3870     9.3710     8.2930    10.3380    25.5670   -16.4100 
  170.0000     2.4000    89.3950     9.0110     7.9750    10.3530    25.5580   -16.3840 
  170.1250     2.3900    92.4430     8.7400     7.7350    10.2710    25.5430   -16.3640 
  170.2500     2.3840    98.0380     8.7420     7.7370    10.1800    25.5300   -16.3450 
  170.3750     2.3770    98.9150     9.2260     8.1650    10.5190    25.5010   -16.3980 
