~V
VERS. 2.00: Ver 2.00
~W
STRT.M 60.0000:
STOP.M 190.0000:
STEP.M 0.1250:
NULL. -999.2500:
UWI. F10561:
~C
DEPT.M :
SP.MV :
GR.API :
RML.OHMM :
RI. :
RXO.OHMM :
CALI.CM :
DEN.GM/CC :
~A
# ...
  138.7500   -15.8700    67.6960    44.6840    37.5660    49.0110    25.0840     2.3430 
  138.8750   -15.8140    68.8320    47.2200    40.4890    46.7300    25.0940     2.3030 
  139.0000   -15.7910    69.9020    47.8870    41.6830    41.4880    25.0490     2.2840 
  139.1250   -15.7660    70.1550    48.4880    42.3660    39.3290    25.0800     2.2770 
  139.2500   -15.7170    68.5140    50.1800    43.5890    38.8650    25.1420     2.2760 
  139.3750   -15.7190    66.5140    53.1790    45.6760    43.2830    25.2120     2.2760 
  139.5000   -15.7170    65.5930    57.2860    48.6360    49.6130    25.2430     2.2760 
  139.6250   -15.6630    65.2320    62.1230    52.3600    52.3340    25.2470     2.2720 
  139.7500   -15.6050    65.1810    66.9520    56.3190    56.7890    25.2670     2.2650 
  139.8750   -15.5650    65.2200    71.1480    60.0010    62.3190    25.3090     2.2570 
  140.0000   -15.5470    64.8500    74.1190    62.8610    69.9920    25.3480     2.2510 
  140.1250   -15.5240    64.3810    75.1550    64.2470    72.7920    25.3630     2.2500 
  140.2500   -15.5010    64.9120    74.5410    64.2910    70.8870    25.3460     2.2520 
  140.3750   -15.4730    65.4240    72.7170    63.2730    64.5780    25.2970     2.2550 
  140.5000   -15.4370    63.8610    70.3400    61.6780    58.2970    25.2530     2.2570 
  140.6250   -15.4020    61.6740    68.1560    60.1130    52.9860    25.2130     2.2570 
  140.7500   -15.3850    61.1690    66.6150    59.0490    50.6700    25.1630     2.2580 
  140.8750   -15.3680    61.5710    65.8980    58.7130    51.6410    25.1160     2.2600 
  141.0000   -15.3020    62.3230    66.0500    59.1540    53.0980    25.1020     2.2650 
  141.1250   -15.2600    63.0860    67.0990    60.3290    53.9120    25.1190     2.2730 
  141.2500   -15.2410    63.5480    68.5980    61.8060    58.7940    25.1260     2.2860 
  141.3750   -15.1680    62.7240    70.0540    63.2060    67.7490    25.1100     2.3040 
  141.5000   -15.1010    60.6750    70.9420    64.1790    68.6990    25.0400     2.3280 
  141.6250   -15.1090    58.7840    70.8330    64.4470    66.9210    24.9160     2.3560 
  141.7500   -15.1380    57.3160    70.0930    64.2330    62.7780    24.8170     2.3820 
  141.8750   -15.1300    56.0930    69.2400    63.8550    58.6880    24.7940     2.3960 
  142.0000   -15.1190    56.2970    68.7830    63.6660    56.5910    24.8150     2.3960 
  142.1250   -15.1440    57.7090    69.0950    63.9950    52.2290    24.7830     2.3740 
  142.2500   -15.1770    58.5850    69.9880    64.7980    46.9090    24.7010     2.3400 
  142.3750   -15.2200    58.5430    71.2190    65.9470    46.3280    24.6050     2.2980 
  142.5000   -15.2780    60.7780    72.4780    67.2370    54.6140    24.5220     2.2620 
  142.6250   -15.3440    64.4570    73.2660    68.3130    57.7760    24.5030     2.2470 
  142.7500   -15.3940    64.9920    73.2140    68.8240    56.9020    24.5610     2.2550 
  142.8750   -15.4580    63.0290    72.3240    68.5100    55.8830    24.5680     2.2780 
  143.0000   -15.5710    61.4480    70.9030    67.3180    57.6810    24.4720     2.2980 
  143.1250   -15.6490    61.2860    69.5560    65.4080    57.4570    24.3460     2.2980 
  143.2500   -15.6720    60.1970    67.6540    63.3570    51.4300    24.2870     2.2840 
  143.3750   -15.7130    59.3250    65.8520    61.5920    47.3610    24.2550     2.2700 
  143.5000   -15.7720    60.6360    64.5410    60.3850    46.7450    24.1970     2.2640 
  143.6250   -15.7920    62.9750    63.7960    59.8450    48.3190    24.1670     2.2660 
  143.7500   -15.7720    64.3690    63.2400    59.6070    48.0720    24.1570     2.2660 
  143.8750   -15.7750    64.5020    62.5990    59.3170    47.1150    24.1520     2.2630 
  144.0000   -15.7540    64.5570    61.6730    58.6890    46.4920    24.1360     2.2590 
  144.1250   -15.6870    64.9890    60.3540    57.5940    44.4150    24.1030     2.2620 
  144.2500   -15.6750    65.3130    58.8720    56.3170    41.7160    24.0870     2.2700 
  144.3750   -15.6810    65.4760    57.5430    55.1840    38.3090    24.0870     2.2780 
  144.5000   -15.6260    64.5310    56.7190    54.5060    36.7250    24.0900     2.2810 
  144.6250   -15.5470    62.2910    56.8190    54.6320    36.1990    24.0870     2.2760 
  144.7500   -15.5160    61.8270    57.7980    55.5350    36.9930    24.0870     2.2660 
  144.8750   -15.4540    63.9240    59.5480    57.1660    38.9450    24.1020     2.2570 
  145.0000   -15.3880    66.4580    61.8300    59.3610    41.3010    24.1430     2.2520 
  145.1250   -15.3960    65.9330    64.2690    61.8350    40.1510    24.2160     2.2550 
  145.2500   -15.3790    63.9940    66.3560    64.1290    36.7730    24.2570     2.2620 
  145.3750   -15.3120    63.0590    67.6420    65.8540    37.3030    24.2850     2.2700 
  145.5000   -15.2900    64.2360    67.7600    66.6660    40.0300    24.3460     2.2740 
  145.6250   -15.3210    65.8490    66.3280    66.1330    44.2580    24.4650     2.2700 
  145.7500   -15.3120    64.7320    63.7200    64.4190    50.2610    24.6450     2.2630 
  145.8750   -15.2980    63.3650    60.2740    61.7050    55.1740    24.8240     2.2590 
  146.0000   -15.2960    65.9490    56.5730    58.3280    54.3950    24.9200     2.2580 
  146.1250   -15.3060    69.1250    53.6070    54.7600    49.2110    24.9420     2.2570 
  146.2500   -15.3240    67.7430    51.8060    51.5260    43.8470    24.9430     2.2530 
  146.3750   -15.3510    63.7430    50.5140    48.9660    40.6190    24.9520     2.2430 
  146.5000   -15.3880    61.7990    49.1450    47.2820    41.3750    24.9710     2.2330 
  146.6250   -15.4260    62.7480    48.3950    46.6450    43.9390    24.9830     2.2280 
  146.7500   -15.4760    63.4320    48.1190    46.7650    44.4060    24.9680     2.2280 
  146.8750   -15.5770    63.8450    48.3110    47.4700    43.1640    24.9440     2.2300 
  147.0000   -15.6990    64.7850    48.8980    48.6580    44.3300    24.9100     2.2330 
  147.1250   -15.7650    66.4820    50.3130    50.4650    45.9250    24.8500     2.2320 
  147.2500   -15.8430    67.4260    52.4050    52.9810    44.6710    24.7890     2.2310 
  147.3750   -15.9890    67.0490    55.8630    56.3240    44.7790    24.7930     2.2290 
  147.5000   -16.1080    67.3030    60.2860    60.3900    51.2740    24.8840     2.2270 
  147.6250   -16.1690    68.1410    64.7560    64.6570    69.3410    25.0200     2.2230 
  147.7500   -16.2760    67.5950    68.3120    68.2290    83.1220    25.1250     2.2210 
  147.8750   -16.3920    67.5120    70.3400    70.4380    83.1570    25.1610     2.2220 
  148.0000   -16.4680    69.0420    70.7740    71.0860    75.7240    25.1610     2.2290 
  148.1250   -16.5380    70.7350    70.1530    70.5150    68.8270    25.1320     2.2420 
  148.2500   -16.6150    70.5950    69.5860    69.7910    66.1120    25.0670     2.2520 
  148.3750   -16.6820    68.8520    69.5310    69.4800    65.0210    24.9950     2.2530 
  148.5000   -16.7430    66.8290    69.8100    69.6230    68.0130    25.0020     2.2460 
  148.6250   -16.8220    65.6710    69.5730    69.6340    73.5510    25.0560     2.2350 
  148.7500   -16.9110    65.2510    68.1850    68.8320    76.9430    25.0940     2.2270 
  148.8750   -16.9670    64.4840    65.9270    66.9590    73.6420    25.1110     2.2260 
  149.0000   -17.0110    64.2730    63.6130    64.2520    64.9290    25.1210     2.2260 
  149.1250   -17.1150    65.8100    62.4520    61.3750    57.1760    25.1220     2.2260 
  149.2500   -17.2130    67.7000    60.9710    59.0280    53.3890    25.1160     2.2280 
  149.3750   -17.2370    68.3030    59.7840    57.4860    54.8920    25.1010     2.2370 
  149.5000   -17.2680    66.9790    58.9400    56.6580    57.0720    25.0790     2.2520 
  149.6250   -17.3470    64.5230    58.1850    56.1660    56.6790    25.0520     2.2650 
  149.7500   -17.3840    63.7300    57.6830    55.4910    54.5190    25.0190     2.2690 
  149.8750   -17.3790    65.4430    57.1810    54.4410    52.9030    24.9990     2.2630 
