~V
VERS. 2.00: Ver 2.00
~W
STRT.M 52.0000:
STOP.M 224.0000:
STEP.M 0.1250:
NULL. -999.2500:
UWI. F10595:
~C
DEPT.M :
GR.API :
RML.OHMM :
RI. :
RXO.OHMM :
CALI.CM :
DEN.GM/CC :
SP.MV :
~A
# ...
   97.0000    91.0980     6.6880     4.9550     6.5860    20.0000     2.3260   -10.2570 
   97.1250    89.9800     6.8780     5.0870     6.4070    20.4050     2.3130   -10.3090 
   97.2500    84.9450     7.0080     5.1820     6.2860    20.6310     2.3100   -10.3870 
   97.3750    83.4910     7.1250     5.2360     5.9900    20.8310     2.3130   -10.4860 
   97.5000    87.2360     7.2430     5.2620     5.8880    21.1180     2.3160   -10.6030 
   97.6250    88.2730     7.3340     5.2860     5.9850    21.5070     2.3160   -10.7340 
   97.7500    84.7200     7.3580     5.3410     6.2370    21.8740     2.3100   -10.8820 
   97.8750    85.7450     7.3570     5.4480     6.3920    22.0310     2.2990   -11.0420 
   98.0000    89.8330     7.4270     5.6210     6.4360    22.0700     2.2820   -11.2080 
   98.1250    89.0360     7.6500     5.8570     6.6780    22.0780     2.2600   -11.3750 
   98.2500    83.0110     8.0390     6.1360     7.4370    22.0890     2.2410   -11.5340 
   98.3750    78.4670     8.4440     6.4000     8.0070    22.0760     2.2300   -11.6760 
   98.5000    76.8840     8.7280     6.5990     8.0350    22.0340     2.2290   -11.7930 
   98.6250    77.6430     8.8200     6.6880     7.9320    22.0020     2.2340   -11.8800 
   98.7500    80.1490     8.7460     6.6550     7.5670    21.9910     2.2420   -11.9230 
   98.8750    80.9670     8.6750     6.5900     7.4780    21.9910     2.2480   -11.9270 
   99.0000    80.0360     8.7210     6.5770     7.5910    21.9910     2.2450   -11.8920 
   99.1250    80.5750     8.9380     6.6710     7.8680    21.9910     2.2290   -11.8230 
   99.2500    83.4600     9.3430     6.9170     8.4600    21.9930     2.2070   -11.7200 
   99.3750    84.7770     9.8550     7.2830     9.7510    22.0170     2.2000   -11.5950 
   99.5000    82.4440    10.4180     7.7370    10.7840    22.0840     2.2240   -11.4580 
   99.6250    77.1030    10.9990     8.2470    10.7120    22.1750     2.2800   -11.3190 
   99.7500    72.6240    11.5480     8.7710    10.8360    22.2160     2.3460   -11.1890 
   99.8750    71.9610    11.9350     9.2060    12.0180    22.2270     2.3880   -11.0750 
  100.0000    73.3670    11.9900     9.4120    12.4980    22.2460     2.3940   -10.9860 
  100.1250    72.9970    11.6140     9.2920    12.6080    22.3430     2.3750   -10.9260 
  100.2500    71.8320    10.8340     8.8220    13.2310    22.6650     2.3480   -10.9070 
  100.3750    72.8750     9.9570     8.2120    11.0530    23.1140     2.3210   -10.9230 
  100.5000    75.0420     9.2530     7.6570     8.1360    23.5000     2.2930   -10.9710 
  100.6250    76.0970     8.8890     7.3120     6.9660    23.6800     2.2650   -11.0450 
  100.7500    77.5190     8.9180     7.2590     7.2680    23.7040     2.2410   -11.1390 
  100.8750    80.8500     9.1380     7.3930     7.6290    23.6630     2.2270   -11.2370 
  101.0000    83.1060     9.3650     7.5980     8.0820    23.4930     2.2250   -11.3270 
  101.1250    81.8730     9.4090     7.7260     8.6140    23.1040     2.2340   -11.4000 
  101.2500    77.4320     9.1420     7.6320     8.5840    22.7660     2.2490   -11.4370 
  101.3750    74.9600     8.7640     7.4020     7.9910    22.6440     2.2590   -11.4360 
  101.5000    76.3010     8.5120     7.1970     7.5350    22.6780     2.2630   -11.3930 
  101.6250    80.4700     8.5370     7.1540     7.4310    22.8060     2.2650   -11.3100 
  101.7500    82.6820     8.9080     7.3620     7.3670    22.8200     2.2730   -11.1900 
  101.8750    79.6890     9.4580     7.7350     8.1100    22.6290     2.2860   -11.0500 
  102.0000    74.2620    10.0000     8.1430     9.8910    22.2940     2.2960   -10.8990 
  102.1250    71.4470    10.3260     8.4220    11.2000    21.9240     2.2940   -10.7500 
  102.2500    73.1730    10.2800     8.4190     9.9030    21.6630     2.2780   -10.6130 
  102.3750    74.4230    10.0510     8.2360     8.8780    21.5180     2.2620   -10.4970 
  102.5000    72.8910     9.9250     8.0670     9.1040    21.4610     2.2520   -10.4080 
  102.6250    71.5150    10.2290     8.1410     9.9320    21.4760     2.2480   -10.3480 
  102.7500    70.5950    11.4370     8.7820    10.4100    21.5290     2.2400   -10.3170 
  102.8750    68.1400    13.6860    10.1150    11.0730    21.5970     2.2220   -10.3090 
  103.0000    63.8220    17.0930    12.2860    13.3250    21.7150     2.2010   -10.3220 
  103.1250    58.7680    21.5880    15.3610    17.6340    21.8860     2.1850   -10.3550 
  103.2500    55.6350    26.8210    19.3050    22.1300    22.2240     2.1780   -10.4120 
  103.3750    55.5710    31.8910    23.5090    25.6200    22.7690     2.1710   -10.4850 
  103.5000    56.5750    36.0960    27.3820    29.5840    23.4550     2.1590   -10.5680 
  103.6250    57.1830    39.1060    30.4880    36.1690    24.0060     2.1390   -10.6570 
  103.7500    57.1110    40.9370    32.6140    39.6000    24.1910     2.1160   -10.7470 
  103.8750    55.9580    42.0910    34.0520    41.3070    24.2300     2.0980   -10.8330 
  104.0000    53.6970    42.7120    34.8980    40.1350    24.2310     2.0900   -10.9080 
  104.1250    51.4830    42.8550    35.2080    40.1420    24.2310     2.0920   -10.9640 
  104.2500    52.2600    42.5950    35.0580    37.0610    24.2320     2.1020   -10.9900 
  104.3750    53.7550    42.1760    34.7170    34.5080    24.2470     2.1150   -10.9850 
  104.5000    54.1520    41.6330    34.2770    33.5040    24.2870     2.1240   -10.9490 
  104.6250    53.5900    40.8210    33.6770    32.3940    24.3400     2.1270   -10.8840 
  104.7500    53.1700    39.3720    32.6600    34.3340    24.3810     2.1280   -10.7880 
  104.8750    53.1460    37.1840    31.1260    33.8310    24.4050     2.1310   -10.6740 
  105.0000    53.0960    34.3230    29.0920    31.6670    24.4150     2.1370   -10.5470 
  105.1250    53.1100    31.1120    26.7670    28.2010    24.3810     2.1430   -10.4160 
  105.2500    54.0270    28.1560    24.5710    23.3750    24.2350     2.1470   -10.2920 
  105.3750    54.1460    25.9320    22.8590    21.6750    24.0350     2.1470   -10.1880 
  105.5000    53.3500    24.6950    21.8360    21.4670    23.8730     2.1450   -10.1110 
  105.6250    52.9380    24.4880    21.5880    21.4380    23.8670     2.1430   -10.0690 
  105.7500    52.9470    25.1510    22.1200    22.5000    24.0690     2.1400   -10.0720 
  105.8750    51.8650    25.9030    22.9030    22.8360    24.3260     2.1320   -10.1160 
  106.0000    51.0380    25.9650    23.2890    23.5780    24.5250     2.1240   -10.1980 
  106.1250    52.4340    24.6970    22.6160    24.5030    24.6170     2.1310   -10.3130 
  106.2500    55.5000    21.8430    20.4590    23.9850    24.6130     2.1750   -10.4550 
  106.3750    58.8420    18.3840    17.5750    20.7540    24.6080     2.2480   -10.6080 
  106.5000    63.9090    15.1720    14.7050    16.5370    24.5970     2.3200   -10.7670 
  106.6250    69.0620    12.7240    12.3490    12.9560    24.5180     2.3560   -10.9210 
  106.7500    70.4160    11.2740    10.7730    11.8640    24.4680     2.3390   -11.0560 
  106.8750    69.1410    10.5320     9.8050    10.1730    24.4620     2.3000   -11.1670 
  107.0000    68.7170    10.3330     9.3470     9.7710    24.4760     2.2650   -11.2490 
  107.1250    70.4540    10.5320     9.3050     9.9160    24.4690     2.2500   -11.2970 
  107.2500    68.8460    11.0610     9.6280    10.0520    24.3960     2.2600   -11.3020 
  107.3750    64.7330    11.7980    10.1810    10.3400    24.2210     2.2850   -11.2710 
  107.5000    61.7330    12.7000    10.9050    11.3730    23.8850     2.3080   -11.2030 
  107.6250    61.4060    13.7060    11.7410    12.9610    23.3590     2.3120   -11.0970 
  107.7500    62.9290    14.7200    12.6170    14.0750    22.6590     2.2850   -10.9500 
  107.8750    62.7680    15.6530    13.4530    13.4300    22.0770     2.2390   -10.7720 
  108.0000    62.2140    16.4710    14.2020    13.5530    21.7960     2.1910   -10.5650 
  108.1250    61.8760    17.1890    14.8320    14.5450    21.7690     2.1530   -10.3400 
