~V
VERS. 2.00: Ver 2.00
~W
STRT.M 59.0000:
STOP.M 201.0000:
STEP.M 0.1250:
NULL. -999.2500:
UWI. F10560:
~C
DEPT.M :
DEN.GM/CC :
SP.MV :
GR.API :
RML.OHMM :
RI. :
RXO.OHMM :
CALI.CM :
~A
# ...
  182.7500     2.4130   -26.4690    68.7960     7.0050     5.7910     6.2070    24.3610 
  182.8750     2.4600   -26.2650    60.3090     7.1980     5.9780     6.6190    24.3360 
  183.0000     2.5080   -26.1220    56.6060     7.3320     6.1020     7.1720    24.3250 
  183.1250     2.5230   -25.9290    58.6480     7.3360     6.1040     7.3660    24.3210 
  183.2500     2.5050   -25.6530    60.5730     7.2350     6.0130     7.1330    24.3200 
  183.3750     2.4770   -25.3220    61.5070     7.0880     5.8760     6.8590    24.3200 
  183.5000     2.4600   -24.9830    63.9100     6.9700     5.7480     6.8860    24.3210 
  183.6250     2.4550   -24.7470    67.6860     6.9510     5.6730     7.0740    24.3220 
  183.7500     2.4550   -24.6050    69.7890     6.9900     5.6570     7.2030    24.3210 
  183.8750     2.4550   -24.5140    69.5190     7.0280     5.6880     7.1910    24.3210 
  184.0000     2.4510   -24.4660    68.2220     7.0300     5.7470     7.1730    24.3230 
  184.1250     2.4410   -24.4740    66.4170     6.9940     5.8110     7.1440    24.3210 
  184.2500     2.4270   -24.5130    64.3220     6.9570     5.8540     7.1600    24.3200 
  184.3750     2.4140   -24.6200    62.7050     6.9380     5.8570     7.0890    24.3200 
  184.5000     2.4020   -24.7790    61.9210     6.9130     5.8120     6.9510    24.3210 
  184.6250     2.3970   -24.9340    62.7040     6.8480     5.7170     6.7770    24.3220 
  184.7500     2.3950   -25.0640    66.3320     6.7530     5.5980     6.6190    24.3210 
  184.8750     2.3930   -25.1210    71.7690     6.6620     5.4790     6.5570    24.3190 
  185.0000     2.3900   -25.0560    75.9830     6.6070     5.3810     6.5690    24.3190 
  185.1250     2.3870   -24.8950    76.6160     6.6260     5.3350     6.5730    24.3190 
  185.2500     2.3870   -24.7000    75.0670     6.7220     5.3490     6.6930    24.3190 
  185.3750     2.3960   -24.5100    71.9730     6.8710     5.4250     6.8460    24.3190 
  185.5000     2.4120   -24.3560    68.1990     7.0400     5.5520     7.0380    24.3190 
  185.6250     2.4270   -24.2500    67.1980     7.1980     5.6970     7.4110    24.3190 
  185.7500     2.4340   -24.2200    68.6280     7.3170     5.8180     7.8230    24.3190 
  185.8750     2.4330   -24.3360    69.7670     7.3760     5.8870     7.8420    24.3190 
  186.0000     2.4220   -24.6450    69.4400     7.3750     5.8960     7.5290    24.3190 
  186.1250     2.4040   -25.1310    68.0850     7.3260     5.8520     7.2340    24.3190 
  186.2500     2.3860   -25.6840    67.9470     7.2640     5.7940     7.1430    24.3190 
  186.3750     2.3690   -26.2180    71.0000     7.2190     5.7480     7.1800    24.3190 
  186.5000     2.3510   -26.7410    76.5680     7.2120     5.7300     7.1700    24.3190 
  186.6250     2.3300   -27.3540    82.6080     7.2530     5.7590     7.2950    24.3150 
  186.7500     2.3080   -28.0390    90.0820     7.3330     5.8280     7.5700    24.2990 
  186.8750     2.2930   -28.7590    98.0590     7.4730     5.9320     7.9110    24.2710 
  187.0000     2.2900   -29.5140   102.1770     7.6690     6.0600     8.2350    24.2500 
  187.1250     2.2990   -30.2680    99.6300     7.8650     6.2090     8.3260    24.2310 
  187.2500     2.3090   -31.0280    97.3100     7.9910     6.3660     8.3930    24.2050 
  187.3750     2.3140   -31.7340    98.1800     8.0170     6.5160     8.3800    24.1840 
  187.5000     2.3100   -32.2810   100.9610     7.9660     6.6390     8.2650    24.1760 
  187.6250     2.2990   -32.5180   105.5180     7.8940     6.6970     7.9680    24.1760 
  187.7500     2.2910   -32.4740   110.1810     7.8440     6.6810     7.8580    24.1580 
  187.8750     2.2930   -32.2060   113.0740     7.8040     6.5930     7.7910    24.1210 
  188.0000     2.3060   -31.7210   114.3270     7.7290     6.4470     7.6990    24.0860 
  188.1250     2.3180   -31.0430   115.1800     7.5920     6.2650     7.6670    24.0950 
  188.2500     2.3200   -30.2760   114.2630     7.4210     6.0820     7.5360    24.1240 
  188.3750     2.3130   -29.5820   110.3870     7.2460     5.9250     7.2210    24.1730 
  188.5000     2.3060   -29.0990   106.8210     7.1150     5.8230     6.8460    24.2290 
  188.6250     2.2970   -28.8900   108.2140     7.1020     5.8200     6.8650    24.2600 
  188.7500     2.2870   -28.8770   111.6590     7.2310     5.9120     7.2730    24.2680 
  188.8750     2.2780   -28.9510   112.7140     7.4930     6.0940     7.9830    24.2570 
  189.0000     2.2820   -29.0460   109.9770     7.8350     6.3370     8.7440    24.2480 
  189.1250     2.3020   -29.1440   107.3410     8.1530     6.5900     9.0770    24.2470 
  189.2500     2.3250   -29.2300   106.4830     8.3590     6.7900     8.8540    24.2470 
  189.3750     2.3420   -29.2150   106.6820     8.4160     6.9020     8.5210    24.2470 
  189.5000     2.3470   -29.0660   106.6460     8.3420     6.9110     8.3110    24.2470 
  189.6250     2.3420   -28.8040   105.1560     8.1660     6.8170     8.3120    24.2470 
  189.7500     2.3330   -28.4810   105.1340     7.9500     6.6730     8.3300    24.2470 
  189.8750     2.3210   -28.1900   108.1610     7.7350     6.5170     8.0570    24.2470 
  190.0000     2.3090   -28.0000   112.1900     7.5640     6.3940     7.7030    24.2470 
  190.1250     2.3010   -27.9290   113.3900     7.5040     6.3600     7.7260    24.2470 
  190.2500     2.2970   -27.9130   113.2720     7.5810     6.4290     8.1460    24.2470 
  190.3750     2.2960   -27.9700   113.6200     7.7880     6.5910     8.7620    24.2470 
  190.5000     2.3000   -28.0450   112.8880     8.0630     6.7990     9.4130    24.2450 
  190.6250     2.3130   -28.0550   111.3570     8.2670     6.9690     9.5760    24.2310 
  190.7500     2.3260   -28.0340   111.3570     8.2970     7.0340     9.0590    24.2050 
  190.8750     2.3330   -27.9530   111.3570     8.1430     6.9730     8.2820    24.1830 
  191.0000     2.3340   -27.8210   111.3570     7.8850     6.8130     7.9190    24.1740 
  191.1250     2.3360   -27.6890   111.3570     7.6500     6.6120     7.9900    24.1740 
  191.2500     2.3390   -27.5930   111.3570     7.5070     6.4300     8.1830    24.1740 
  191.3750     2.3400   -27.5480   111.3570     7.4590     6.2930     8.3720    24.1740 
  191.5000     2.3400   -27.6160   111.3570     7.4830     6.2050     8.5390    24.1740 
  191.6250     2.3410   -27.8500   111.3570     7.5470     6.1670     8.4720    24.1740 
  191.7500     2.3410   -28.2030   111.3570     7.6080     6.1690     8.2440    24.1740 
  191.8750     2.3350   -28.6060   111.3570     7.6460     6.2120     8.1110    24.1800 
  192.0000     2.3250   -29.0030   111.3570     7.6590     6.2980     8.1460    24.1960 
  192.1250     2.3190   -29.3400   111.3570     7.6610     6.4210     8.1510    24.2290 
  192.2500     2.3230   -29.6000   111.3570     7.6650     6.5490     8.2800    24.2430 
  192.3750     2.3320   -29.7680   111.3570     7.6750     6.6590     8.5510    24.2470 
  192.5000     2.3370   -29.8420   111.3570     7.6900     6.7350     8.7780    24.2470 
  192.6250     2.3300   -29.7860   111.3570     7.6990     6.7620     8.6980    24.2470 
  192.7500     2.3180   -29.6170   111.3570     7.7000     6.7470     8.6050    24.2470 
  192.8750     2.3100   -29.4070   111.3570     7.6890     6.6920     8.6630    24.2470 
  193.0000     2.3110   -29.1540   111.3570     7.6550     6.6020     8.5700    24.2480 
  193.1250     2.3200   -28.8830   111.3570     7.5940     6.4940     8.1910    24.2590 
  193.2500     2.3310   -28.6640   111.3570     7.5220     6.3980     7.9300    24.2810 
  193.3750     2.3340   -28.5040   111.3570     7.4520     6.3360     7.9450    24.3020 
  193.5000     2.3250   -28.3500   111.3570     7.4100     6.3120     8.0910    24.3190 
  193.6250     2.3120   -28.2430   111.3570     7.4200     6.3180     8.3950    24.3320 
  193.7500     2.3080   -28.1740   111.3570     7.4600     6.3310     8.5110    24.3380 
  193.8750     2.3150   -28.1290   111.3570     7.4870     6.3450     8.3390    24.3360 
