~V
VERS. 2.00: Ver 2.00
~W
STRT.M 55.0000:
STOP.M 211.0000:
STEP.M 0.1250:
NULL. -999.2500:
UWI. F10586:
~C
DEPT.M :
GR.API :
RML.OHMM :
RI. :
RXO.OHMM :
CALI.CM :
DEN.GM/CC :
SP.MV :
~A
# ...
  201.2500    44.9540     5.5260     4.6600     5.4390    23.5400     2.4180    -7.6190 
  201.3750    44.9540     5.7500     4.8580     5.7870    23.5400     2.4100    -8.2300 
  201.5000    44.9540     6.0500     5.1290     6.0660    23.5400     2.3870    -9.0560 
  201.6250    44.9540     6.4870     5.5050     6.2990    23.5400     2.3560   -10.0860 
  201.7500    44.9540     7.0450     5.9720     6.7520    23.5400     2.3310   -11.1820 
  201.8750    44.9540     7.6520     6.4850     7.5160    23.5400     2.3170   -12.2310 
  202.0000    44.9540     8.1630     6.9510     8.5440    23.5400     2.3140   -13.1550 
  202.1250    44.9540     8.3610     7.2060     9.5490    23.5400     2.3180   -13.8440 
  202.2500    44.9540     8.2280     7.2050     9.9710    23.5390     2.3230   -14.2530 
  202.3750    44.9540     7.8780     7.0030     9.7500    23.5370     2.3280   -14.4100 
  202.5000    44.9540     7.5430     6.7570     9.0430    23.5350     2.3340   -14.3240 
  202.6250    44.9540     7.5190     6.6940     8.3450    23.5360     2.3430   -14.0510 
  202.7500    44.9540     7.8350     6.8790     8.2400    23.5370     2.3500   -13.6400 
  202.8750    44.9540     8.3510     7.2400     9.0480    23.5370     2.3520   -13.1370 
  203.0000    44.9540     8.8010     7.5930    10.4180    23.5330     2.3500   -12.5940 
  203.1250    44.9540     8.8320     7.6590    11.1010    23.5270     2.3490   -12.0260 
  203.2500    44.9540     8.3930     7.3540    10.5820    23.5140     2.3530   -11.4520 
  203.3750    44.9540     7.6150     6.7490     9.2030    23.4930     2.3620   -10.8640 
  203.5000    44.9540     6.7550     6.0320     7.3120    23.4580     2.3710   -10.2480 
  203.6250    44.9540     6.0900     5.4290     6.0440    23.4290     2.3740    -9.6070 
  203.7500    44.9540     5.6820     5.0190     5.4340    23.4220     2.3700    -9.0610 
  203.8750    44.9540     5.4920     4.7910     5.2570    23.4330     2.3600    -8.6650 
  204.0000    44.9540     5.4380     4.6910     5.1950    23.4620     2.3510    -8.4170 
  204.1250    44.9540     5.4450     4.6650     5.1460    23.5290     2.3480    -8.3590 
  204.2500    44.9540     5.4620     4.6610     5.0950    23.6320     2.3520    -8.4510 
  204.3750    44.9540     5.4800     4.6670     5.0570    23.7340     2.3630    -8.6100 
  204.5000    44.9540     5.4980     4.6800     5.0870    23.8020     2.3760    -8.8100 
  204.6250    44.9540     5.5160     4.6970     5.2420    23.8340     2.3860    -8.9800 
  204.7500    44.9540     5.5300     4.7120     5.5090    23.8580     2.3910    -9.0200 
  204.8750    44.9540     5.5390     4.7220     5.8270    23.8730     2.3960    -8.9250 
  205.0000    44.9540     5.5410     4.7260     6.0880    23.8790     2.4020    -8.7740 
  205.1250    44.9540     5.5340     4.7270     6.1870    23.8790     2.4130    -8.5890 
  205.2500    44.9540     5.5240     4.7250     6.2070    23.8790     2.4240    -8.3640 
  205.3750    44.9540     5.5140     4.7220     6.2390    23.8790     2.4270    -8.1430 
  205.5000    44.9540     5.5070     4.7180     6.3350    23.8790     2.4180    -7.8800 
  205.6250    44.9540     5.5040     4.7160     6.4040    23.8790     2.3960    -7.6330 
  205.7500    44.9540     5.5010     4.7140     6.3120    23.8790     2.3720    -7.4720 
  205.8750    44.9540     5.4960     4.7120     5.9730    23.8810     2.3570    -7.3760 
  206.0000    44.9540     5.4880     4.7110     5.4330    23.8850     2.3580    -7.3060 
  206.1250    44.9540     5.4800     4.7100     5.0180    23.8940     2.3750    -7.2310 
  206.2500    44.9540     5.4770     4.7100     4.8880    23.9120     2.3950    -7.1950 
  206.3750    44.9540     5.4810     4.7110     5.0030    23.9320     2.4110    -7.1670 
  206.5000    44.9540     5.4880     4.7120     5.2750    23.9440     2.4140    -7.1530 
  206.6250    44.9540     5.4930     4.7130     5.6430    23.9480     2.4030    -7.1130 
  206.7500    44.9540     5.4930     4.7130     5.9930    23.9510     2.3840    -7.0550 
  206.8750    44.9540     5.4930     4.7130     6.1170    23.9540     2.3640    -7.0360 
  207.0000    44.9540     5.4930     4.7130     5.8450    23.9530     2.3500    -7.0270 
  207.1250    44.9540     5.4930     4.7130     5.3180    23.9280     2.3480    -7.0260 
  207.2500    44.9540     5.4930     4.7130     4.9270    23.8590     2.3550    -7.0370 
  207.3750    44.9540     5.4930     4.7130     4.7900    23.7150     2.3640    -7.1000 
  207.5000    44.9540     5.4930     4.7130     4.7790    23.5120     2.3710    -7.1780 
  207.6250    44.9540     5.4930     4.7130     4.7950    23.4030     2.3700    -7.2700 
  207.7500    44.9540     5.4930     4.7130     4.7990    23.3310     2.3640    -7.3590 
  207.8750    44.9540     5.4930     4.7130     4.7900    23.2470     2.3570    -7.4120 
  208.0000    44.9540     5.4930     4.7130     4.7480    23.1490     2.3540    -7.4550 
  208.1250    44.9540     5.4930     4.7130     4.6790    23.0330     2.3580    -7.5110 
  208.2500    44.9540     5.4930     4.7130     4.5980    22.9850     2.3690    -7.5440 
  208.3750    44.9540     5.4930     4.7130     4.4990    23.0410     2.3810    -7.5370 
  208.5000    44.9540     5.4930     4.7130     4.4080    23.1480     2.3840    -7.5320 
  208.6250    44.9540     5.4930     4.7130     4.3390    23.1930     2.3590  -999.2500 
  208.7500    44.9540     5.4930     4.7130     4.3080    23.2130     2.3010  -999.2500 
  208.8750    44.9540     5.4930     4.7130     4.3360    23.1790     2.2140  -999.2500 
  209.0000    44.9540     5.4930     4.7130     4.3870    23.0070     2.1130  -999.2500 
  209.1250    44.9540     5.4930     4.7130     4.4130    22.5780     2.0170  -999.2500 
  209.2500    44.9540     5.4930     4.7130     4.4240    21.8910     1.9390  -999.2500 
  209.3750    44.9540     5.4930     4.7130     4.4740    21.0980     1.8830  -999.2500 
  209.5000    44.9540     5.4930     4.7130     4.5220    20.2920     1.8490  -999.2500 
  209.6250    44.9540     5.4930     4.7130     4.5390    19.9640     1.8340  -999.2500 
  209.7500    44.9540     5.4930     4.7130     4.5400    19.8550     1.8300  -999.2500 
  209.8750    44.9540     5.4930     4.7130     4.5400    19.8470     1.8310  -999.2500 
  210.0000    44.9540     5.4930     4.7130     4.5400    19.8450     1.8330  -999.2500 
  210.1250    44.9540     5.4930     4.7130     4.5390    19.8450     1.8340  -999.2500 
  210.2500    44.9540     5.4930     4.7130     4.5390    19.8450     1.8330  -999.2500 
  210.3750    44.9540     5.4930     4.7130     4.5390    19.8440     1.8310  -999.2500 
  210.5000    44.9540     5.4930     4.7130     4.5390    19.8420     1.8320  -999.2500 
  210.6250    44.9540     5.4930     4.7130     4.5390    19.8410  -999.2500  -999.2500 
  210.7500    44.9540     5.4930     4.7130     4.5390    19.8400  -999.2500  -999.2500 
  210.8750    44.9540     5.4930     4.7130     4.5390    19.8380  -999.2500  -999.2500 
  211.0000    44.9540     5.4930     4.7130     4.5390    19.8360  -999.2500  -999.2500 
