~V
VERS. 2.00: Ver 2.00
~W
STRT.M 58.0000:
STOP.M 199.0000:
STEP.M 0.1250:
NULL. -999.2500:
UWI. F10565:
~C
DEPT.M :
SP.MV :
GR.API :
RML.OHMM :
RI. :
RXO.OHMM :
CALI.CM :
DEN.GM/CC :
~A
# ...
   91.7500    -9.4380    65.5090    21.3610    19.1130    16.9800    25.2520     2.2180 
   91.8750    -9.2650    63.4540    23.2570    20.4970    18.4570    25.3190     2.2110 
   92.0000    -9.0970    63.1480    25.2700    22.0970    22.9400    25.3570     2.1920 
   92.1250    -8.9360    63.3960    26.9640    23.5510    29.0100    25.3490     2.1670 
   92.2500    -8.7940    64.9170    27.7190    24.3390    29.7490    25.2910     2.1480 
   92.3750    -8.6760    68.4740    27.4970    24.3520    26.6690    25.2030     2.1410 
   92.5000    -8.5910    69.6550    26.5600    23.7230    22.7180    25.1030     2.1470 
   92.6250    -8.5140    67.4440    25.4150    22.8080    19.8810    25.0060     2.1600 
   92.7500    -8.4560    64.6380    24.6820    22.0980    18.5790    24.9210     2.1730 
   92.8750    -8.4110    62.9810    24.6440    21.8990    18.5090    24.8540     2.1780 
   93.0000    -8.3650    62.6250    25.4040    22.3510    19.3810    24.8110     2.1710 
   93.1250    -8.3190    62.6340    26.9240    23.4750    20.9320    24.7840     2.1560 
   93.2500    -8.2750    62.1830    28.9530    25.1510    22.6150    24.7390     2.1510 
   93.3750    -8.2430    60.3570    30.6400    26.7400    24.6890    24.6560     2.1770 
   93.5000    -8.2240    60.0450    30.9940    27.4450    26.2160    24.5400     2.2470 
   93.6250    -8.2150    63.0900    29.2770    26.5420    30.6320    24.4090     2.3520 
   93.7500    -8.1950    68.9090    25.3810    23.6450    30.2330    24.2800     2.4620 
   93.8750    -8.1510    75.8210    20.7490    19.7930    23.5150    24.1580     2.5430 
   94.0000    -8.0890    81.2580    16.4380    15.9120    14.5560    24.0560     2.5790 
   94.1250    -8.0020    84.2770    13.0520    12.6590    10.2930    23.9990     2.5720 
   94.2500    -7.8810    87.0410    10.8810    10.4170     8.9630    24.0100     2.5290 
   94.3750    -7.7180    90.6470     9.5820     8.9490     9.0140    24.0530     2.4700 
   94.5000    -7.5090    92.7670     8.9500     8.0910     8.2930    24.0830     2.4070 
   94.6250    -7.2750    92.4810     8.7980     7.6900     7.5080    24.0660     2.3510 
   94.7500    -7.0310    92.2050     8.9760     7.6420     7.7030    23.9910     2.3110 
   94.8750    -6.7870    90.7580     9.2510     7.7490     7.9810    23.8860     2.2880 
   95.0000    -6.5480    88.2010     9.4870     7.8910     7.8250    23.7780     2.2790 
   95.1250    -6.3230    86.7020     9.5780     7.9670     7.9770    23.6940     2.2790 
   95.2500    -6.1110    87.4210     9.4440     7.8860     7.8040    23.6680     2.2870 
   95.3750    -5.9140    88.1300     9.1480     7.6760     7.3150    23.6860     2.3010 
   95.5000    -5.7400    89.2370     8.7710     7.3930     6.8180    23.7270     2.3180 
   95.6250    -5.5720    91.7530     8.3940     7.0980     6.5530    23.7730     2.3390 
   95.7500    -5.4240    94.1450     8.0760     6.8350     6.5160    23.8240     2.3580 
   95.8750    -5.3040    94.6990     7.8130     6.6040     6.5030    23.8800     2.3710 
   96.0000    -5.2020    95.5720     7.5870     6.3950     6.5520    23.9280     2.3750 
   96.1250    -5.1150    96.4970     7.3960     6.2160     6.4360    23.9580     2.3700 
   96.2500    -5.0660    95.4770     7.3090     6.1230     6.2870    23.9610     2.3580 
   96.3750    -5.0480    93.5870     7.4120     6.1820     6.2350    23.9460     2.3520 
   96.5000    -5.0660    92.1200     7.7830     6.4530     6.3280    23.9230     2.3590 
   96.6250    -5.1210    90.1820     8.4430     6.9530     6.7670    23.9050     2.3840 
   96.7500    -5.1830    86.0930     9.3200     7.6360     8.2930    23.9010     2.4230 
   96.8750    -5.2060    83.9430    10.1340     8.2940    11.1200    23.9010     2.4590 
   97.0000    -5.1970    86.0640    10.5970     8.7040    13.2770    23.8920     2.4770 
   97.1250    -5.1760    90.1920    10.5100     8.6930    12.0690    23.8720     2.4700 
   97.2500    -5.1240    93.8100     9.8540     8.1980     9.2120    23.8440     2.4390 
   97.3750    -5.0320    97.6990     9.0130     7.4960     7.9230    23.8130     2.4040 
   97.5000    -4.9000   101.6960     8.2820     6.8230     7.1370    23.7760     2.3760 
   97.6250    -4.7360   102.8860     7.8400     6.3500     6.6560    23.7300     2.3600 
   97.7500    -4.5670   100.2990     7.7650     6.1800     6.4550    23.6720     2.3530 
   97.8750    -4.4340    97.0750     7.9060     6.2140     6.6620    23.6190     2.3470 
   98.0000    -4.3240    95.4740     8.1300     6.3560     7.3740    23.5930     2.3410 
   98.1250    -4.2050    95.1810     8.3180     6.5110     8.0610    23.6000     2.3350 
   98.2500    -4.0790    95.4020     8.3780     6.6100     7.6800    23.5860     2.3330 
   98.3750    -3.9730    95.7240     8.3460     6.6710     7.1250    23.5050     2.3340 
   98.5000    -3.8960    96.0740     8.3110     6.7510     6.9410    23.3820     2.3340 
   98.6250    -3.8390    95.7130     8.3820     6.9240     7.1330    23.2910     2.3300 
   98.7500    -3.7830    93.6480     8.6680     7.2710     7.4810    23.2810     2.3160 
   98.8750    -3.7140    92.3420     9.1130     7.7500     7.8160    23.3050     2.2960 
   99.0000    -3.6450    93.0890     9.5990     8.2730     7.9680    23.3230     2.2750 
   99.1250    -3.5830    95.0040     9.9680     8.7020     8.6100    23.3270     2.2620 
   99.2500    -3.5350    96.2210    10.0340     8.8540     9.2780    23.3290     2.2640 
   99.3750    -3.4730    96.7860     9.8210     8.7160     9.2610    23.3350     2.2790 
   99.5000    -3.3780    96.1580     9.4210     8.3420     8.1760    23.3440     2.3000 
   99.6250    -3.2650    95.3870     8.9630     7.8460     7.3480    23.3590     2.3180 
   99.7500    -3.1600    98.0780     8.5830     7.3690     7.1760    23.3630     2.3280 
   99.8750    -3.0580   101.5340     8.3530     7.0130     7.2230    23.3310     2.3310 
  100.0000    -2.9370   101.4970     8.3330     6.8480     7.3010    23.2620     2.3310 
  100.1250    -2.7890    97.7000     8.6090     6.9500     7.4730    23.1930     2.3320 
  100.2500    -2.6120    94.6100     9.4250     7.5100     7.9790    23.1960     2.3320 
  100.3750    -2.4260    91.1580    10.9600     8.6640     8.9980    23.3060     2.3250 
  100.5000    -2.2310    84.4850    13.5090    10.6670    10.7910    23.5220     2.3040 
  100.6250    -2.0200    77.7280    17.3790    13.8200    14.2930    23.8010     2.2650 
  100.7500    -1.7970    73.0170    22.9600    18.5480    21.5060    24.0860     2.2110 
  100.8750    -1.5620    67.2040    29.5700    24.3350    30.1670    24.3450     2.1610 
  101.0000    -1.3180    60.7850    36.0880    30.2810    34.8390    24.5770     2.1260 
  101.1250    -1.0680    58.6900    41.0660    35.1500    38.1810    24.7740     2.1120 
  101.2500    -0.8190    62.5550    43.2020    37.6770    41.5500    24.9130     2.1190 
  101.3750    -0.5950    66.0190    43.4650    38.3930    40.6800    25.0040     2.1330 
  101.5000    -0.4070    66.3170    43.1390    38.2400    35.6200    25.0540     2.1470 
  101.6250    -0.2560    64.9390    43.3820    38.2300    33.1620    25.0710     2.1570 
  101.7500    -0.1370    64.0330    45.0620    39.2400    35.4490    25.0510     2.1600 
  101.8750    -0.0460    63.7860    48.0420    41.3320    40.5260    25.0100     2.1580 
  102.0000    -0.0050    63.7490    51.9910    44.3040    45.1200    24.9580     2.1540 
  102.1250    -0.0180    62.7640    56.3250    47.7210    48.6840    24.9000     2.1480 
  102.2500    -0.0730    61.8860    60.1900    50.9680    50.3050    24.8380     2.1400 
  102.3750    -0.1310    62.0460    63.0750    53.6290    51.3510    24.7650     2.1340 
  102.5000    -0.1800    62.1260    64.8350    55.5580    51.1480    24.6620     2.1390 
  102.6250    -0.2140    62.0910    65.5600    56.7570    49.3690    24.5090     2.1640 
  102.7500    -0.2170    63.2330    65.2510    57.1320    49.2400    24.3140     2.2150 
  102.8750    -0.1860    64.3950    64.1710    56.8070    51.6740    24.1280     2.2820 
