~V
VERS. 2.00: Ver 2.00
~W
STRT.M 58.0000:
STOP.M 203.0000:
STEP.M 0.1250:
NULL. -999.2500:
UWI. F10566:
~C
DEPT.M :
GR.API :
RML.OHMM :
RI. :
RXO.OHMM :
CALI.CM :
SP.MV :
DEN.GM/CC :
~A
   58.0000    58.8450     1.7590     1.4730     1.3800    25.1990     5.7450     2.1520 
   58.1250    72.6580     2.8770     2.1610     2.7090    25.0160     2.2380     2.2170 
   58.2500    89.3900     4.0280     2.8650     5.4740    24.6410    -0.5270     2.2640 
   58.3750   100.6350     5.1640     3.3710     5.0480    24.4160    -2.6060     2.2840 
   58.5000   102.4710     6.3220     3.8630     5.3440    24.3490    -4.1530     2.2780 
   58.6250    98.4710     7.5680     4.6090     5.8390    24.3420    -5.2630     2.2570 
   58.7500    95.7810     8.7870     5.4580     6.3810    24.3360    -6.1590     2.2390 
   58.8750    94.8070     9.7480     6.0310     6.8050    24.3340    -6.8340     2.2320 
   59.0000    94.1310    10.2320     6.3470     6.9430    24.3290    -7.2760     2.2360 
   59.1250    95.0920    10.0880     6.4710     6.7650    24.3020    -7.6680     2.2450 
   59.2500    96.5790     9.5750     6.4670     6.3740    24.2550    -8.2150     2.2530 
   59.3750    97.2870     8.9680     6.3840     6.1800    24.1830    -8.7080     2.2590 
   59.5000    97.5910     8.5430     6.2760     6.0910    24.0850    -9.2000     2.2620 
   59.6250    97.3380     8.5560     6.1830     6.0120    23.9780    -9.5480     2.2670 
   59.7500    95.3310     8.9630     6.1160     6.0280    23.8830    -9.8920     2.2710 
   59.8750    94.0350     9.6300     6.0770     5.9270    23.8350   -10.1250     2.2740 
   60.0000    95.8470    10.3410     6.0620     5.8850    23.8300   -10.4460     2.2750 
   60.1250    98.1680    10.8240     6.0610     5.9000    23.8370   -10.7280     2.2750 
   60.2500    98.4950    10.9320     6.0430     5.9520    23.8520   -11.0240     2.2770 
   60.3750    98.7970    10.5700     5.9760     6.0360    23.8810   -11.3470     2.2830 
   60.5000   102.0830     9.7350     5.8370     6.0330    23.9000   -11.6010     2.2900 
   60.6250   108.1340     8.5660     5.6260     5.8390    23.9060   -11.9540     2.2960 
   60.7500   111.8050     7.4430     5.4000     5.5030    23.9100   -12.2700     2.3000 
   60.8750   110.4730     6.6720     5.2310     5.3360    23.9270   -12.5650     2.3100 
   61.0000   105.4990     6.4850     5.2120     5.2840    23.9680   -12.8930     2.3350 
   61.1250   101.5320     7.1630     5.5030     5.4240    24.0060   -13.2730     2.3880 
   61.2500    97.8210     8.6460     6.1510     5.9780    24.0220   -13.5530     2.4580 
   61.3750    91.4080    10.8180     7.1540     7.4250    24.0250   -13.8940     2.5200 
   61.5000    84.4190    13.2070     8.3660    10.6900    24.0240   -14.2120     2.5500 
   61.6250    80.7020    14.6600     9.3940    14.9450    24.0210   -14.5740     2.5200 
   61.7500    79.2100    14.5130     9.8610    16.3710    24.0200   -14.9000     2.4490 
   61.8750    78.1740    13.0360     9.6280    13.0570    24.0300   -15.2520     2.3650 
   62.0000    75.7930    11.1690     8.8570     8.9530    24.0830   -15.5230     2.2930 
   62.1250    73.6360     9.8690     7.9070     7.2930    24.2210   -15.8020     2.2510 
   62.2500    73.9090     9.2940     7.1110     6.8320    24.3900   -16.0960     2.2330 
   62.3750    75.8500     9.2560     6.5690     6.7020    24.5330   -16.2650     2.2320 
   62.5000    77.8170     9.4440     6.2600     6.4800    24.6060   -16.4580     2.2390 
   62.6250    78.9000     9.5040     6.1390     6.5250    24.6040   -16.5590     2.2500 
   62.7500    80.0220     9.3040     6.1130     6.4640    24.5250   -16.6690     2.2570 
   62.8750    79.5170     8.9200     6.1530     6.1350    24.3970   -16.7310     2.2580 
   63.0000    76.9970     8.5340     6.2410     5.8760    24.2940   -16.8340     2.2560 
   63.1250    76.6890     8.3500     6.3490     6.1520    24.2280   -16.8690     2.2560 
   63.2500    79.9210     8.3710     6.4260     6.6140    24.2080   -16.9030     2.2620 
   63.3750    84.5610     8.4730     6.4250     6.9220    24.2030   -16.9450     2.2710 
   63.5000    86.5140     8.4650     6.3140     6.6330    24.2010   -16.9640     2.2790 
   63.6250    85.6670     8.1700     6.0770     6.0090    24.1690   -16.9840     2.2850 
   63.7500    85.2470     7.6650     5.7780     5.6930    24.0700   -17.0140     2.2880 
   63.8750    85.9880     7.0730     5.4810     5.6340    23.9100   -17.0580     2.2920 
   64.0000    87.4380     6.5280     5.2470     5.3150    23.8060   -17.0650     2.2970 
   64.1250    89.4320     6.1800     5.1420     5.1370    23.8510   -17.1440     2.3030 
   64.2500    91.0900     6.0930     5.1680     5.3710    23.9570   -17.2770     2.3080 
   64.3750    91.0750     6.3160     5.3250     5.7330    24.0100   -17.4990     2.3060 
   64.5000    88.3730     6.8460     5.5980     6.0180    24.0550   -17.8080     2.2920 
   64.6250    83.4590     7.6010     5.9600     6.6910    24.0890   -18.1490     2.2640 
   64.7500    80.6530     8.3040     6.3280     7.6770    24.1290   -18.5270     2.2310 
   64.8750    80.2730     8.6980     6.6160     8.5650    24.2050   -18.9260     2.2100 
   65.0000    79.4080     8.6140     6.7390     8.2150    24.3020   -19.3470     2.2110 
   65.1250    76.4520     8.0190     6.6130     7.7480    24.2740   -19.7000     2.2370 
   65.2500    76.5740     7.2280     6.3120     7.3140    24.1490   -20.0210     2.2690 
   65.3750    81.1610     6.5060     5.9380     6.7260    24.1460   -20.2800     2.2910 
   65.5000    85.7950     6.0740     5.6240     5.8690    24.2580   -20.4930     2.2970 
   65.6250    84.8020     6.1710     5.5470     5.5780    24.4580   -20.7220     2.2950 
   65.7500    78.7440     6.7920     5.7700     5.9420    24.6070   -20.9790     2.2980 
   65.8750    71.3400     7.9020     6.3170     6.6560    24.6230   -21.2220     2.3040 
   66.0000    66.4190     9.3320     7.1360     7.4900    24.5920   -21.4550     2.3010 
   66.1250    64.7410    10.7060     8.0740     8.3300    24.5900   -21.7280     2.2730 
   66.2500    63.3250    11.6170     8.8710     9.1170    24.6030   -21.9780     2.2310 
   66.3750    61.8620    11.8810     9.3420     9.4620    24.5710   -22.2280     2.1910 
   66.5000    61.6900    11.5880     9.4280     9.2900    24.4570   -22.4450     2.1680 
   66.6250    64.4860    11.0270     9.1780     9.1140    24.2700   -22.5830     2.1690 
   66.7500    68.2870    10.5370     8.8150     9.1090    24.1680   -22.6240     2.1800 
   66.8750    69.9490    10.2440     8.4630     9.1460    24.1380   -22.6450     2.1920 
   67.0000    69.4540    10.1500     8.1880     9.1300    24.1380   -22.6570     2.2020 
   67.1250    69.4080    10.2000     8.0120     9.3880    24.1480   -22.6480     2.2080 
   67.2500    69.8980    10.2870     7.9070    10.3800    24.1780   -22.6350     2.2130 
   67.3750    70.0440    10.3600     7.8630    11.3930    24.2140   -22.5940     2.2160 
   67.5000    70.4190    10.4020     7.8820    10.1500    24.2320   -22.5480     2.2170 
   67.6250    71.1150    10.4180     7.9760     9.2670    24.2290   -22.5120     2.2160 
   67.7500    69.6910    10.4390     8.1230     9.0080    24.2250   -22.5030     2.2140 
   67.8750    66.8960    10.4860     8.2930     9.2310    24.2240   -22.5010     2.2080 
   68.0000    64.9680    10.5660     8.4400     9.5970    24.2230   -22.4850     2.2000 
   68.1250    65.3750    10.6620     8.5080     9.9430    24.2200   -22.4900     2.1900 
   68.2500    65.1720    10.7290     8.4830     9.9750    24.2150   -22.4770     2.1840 
   68.3750    63.7870    10.7370     8.3790     9.6620    24.2110   -22.4770     2.1870 
   68.5000    62.7650    10.6790     8.2320     9.4160    24.2100   -22.4500     2.1990 
   68.6250    62.9810    10.5650     8.0950     9.4380    24.2100   -22.4430     2.2140 
   68.7500    62.9750    10.4390     8.0050     9.4280    24.2080   -22.4050     2.2200 
   68.8750    61.3410    10.3280     7.9780     9.3220    24.2020   -22.3660     2.2110 
   69.0000    59.8540    10.2560     8.0140     9.2830    24.1950   -22.3140     2.1890 
   69.1250    60.5530    10.2560     8.1110     9.3030    24.1930   -22.2360     2.1640 
