~V
VERS. 2.00: Ver 2.00
~W
STRT.M 50.0000:
STOP.M 198.0000:
STEP.M 0.1250:
NULL. -999.2500:
UWI. F10574:
~C
DEPT.M :
DEN.GM/CC :
SP.MV :
GR.API :
RML.OHMM :
RI. :
RXO.OHMM :
CALI.CM :
~A
# ...
  173.7500     2.4350   -16.7510    48.0090     6.0240     4.5580     5.5180    24.3640 
  173.8750     2.4650   -16.7460    42.5470     5.9360     4.6330     5.9610    24.3490 
  174.0000     2.4850   -16.7600    40.4470     5.9130     4.6800     5.9800    24.3470 
  174.1250     2.4820   -16.7690    42.3340     6.0490     4.7410     5.3440    24.3460 
  174.2500     2.4650   -16.8240    43.7360     6.3330     4.8580     5.1060    24.3470 
  174.3750     2.4510   -16.8650    43.4880     6.7060     5.0470     5.4980    24.3480 
  174.5000     2.4500   -16.8520    44.7230     7.0730     5.2730     6.2260    24.3500 
  174.6250     2.4540   -16.8170    48.7330     7.3050     5.4460     6.7020    24.3510 
  174.7500     2.4500   -16.7940    50.7940     7.3500     5.4910     6.4220    24.3470 
  174.8750     2.4320   -16.7710    48.6990     7.2030     5.3830     5.8370    24.3320 
  175.0000     2.4090   -16.7790    45.9290     6.9130     5.1610     5.3930    24.3040 
  175.1250     2.4000   -16.8300    47.3590     6.5480     4.9010     5.0880    24.3010 
  175.2500     2.4100   -16.8820    50.5770     6.1810     4.6760     4.7890    24.3060 
  175.3750     2.4300   -16.9750    51.7670     5.8400     4.5090     4.6310    24.2920 
  175.5000     2.4450   -17.1140    48.8780     5.5620     4.4030     4.6200    24.2780 
  175.6250     2.4510   -17.2500    44.3650     5.4250     4.3480     4.6680    24.2740 
  175.7500     2.4560   -17.3890    41.8760     5.4340     4.3120     4.6990    24.2740 
  175.8750     2.4600   -17.5320    41.3860     5.5450     4.2760     4.6820    24.2740 
  176.0000     2.4530   -17.6270    40.5040     5.6720     4.2320     4.6030    24.2740 
  176.1250     2.4310   -17.6820    40.3870     5.7110     4.1880     4.5640    24.2740 
  176.2500     2.4100   -17.7430    42.7750     5.6780     4.1630     4.7750    24.2740 
  176.3750     2.3990   -17.7860    45.7030     5.6590     4.1770     5.1740    24.2740 
  176.5000     2.3950   -17.7790    47.5940     5.7470     4.2430     5.5990    24.2740 
  176.6250     2.3920   -17.7690    49.7080     5.9840     4.3660     5.5030    24.2740 
  176.7500     2.3880   -17.8160    51.8970     6.2850     4.5220     5.5650    24.2740 
  176.8750     2.3860   -17.8540    52.3430     6.5510     4.6790     5.7230    24.2740 
  177.0000     2.3870   -17.8410    50.6150     6.6830     4.7870     5.6640    24.2740 
  177.1250     2.3900   -17.7830    47.5600     6.6000     4.7710     5.1780    24.2740 
  177.2500     2.3940   -17.7000    43.6080     6.3690     4.6520     4.6100    24.2740 
  177.3750     2.4020   -17.6090    40.6170     6.0640     4.4830     4.2720    24.2740 
  177.5000     2.4140   -17.5480    41.0200     5.7750     4.3270     4.2080    24.2740 
  177.6250     2.4250   -17.5170    42.5670     5.6150     4.2380     4.3430    24.2810 
  177.7500     2.4280   -17.4530    41.8190     5.5840     4.2110     4.5490    24.3120 
  177.8750     2.4230   -17.4300    40.0910     5.6380     4.2210     4.8000    24.3820 
  178.0000     2.4150   -17.4930    40.8430     5.7100     4.2390     4.9840    24.4780 
  178.1250     2.4120   -17.6160    43.1380     5.7350     4.2400     5.0350    24.5450 
  178.2500     2.4130   -17.7920    44.0350     5.6860     4.2170     4.9650    24.5690 
  178.3750     2.4140   -17.9990    44.4630     5.5890     4.1640     4.8960    24.5730 
  178.5000     2.4160   -18.2310    44.8870     5.5000     4.0990     4.8780    24.5730 
  178.6250     2.4190   -18.5120    44.7090     5.5170     4.0950     5.0060    24.5730 
  178.7500     2.4190   -18.8200    44.7890     5.7150     4.2310     5.3760    24.5730 
  178.8750     2.4150   -19.1280    48.2760     6.1800     4.5700     6.4160    24.5730 
  179.0000     2.4030   -19.4700    55.6730     6.9600     5.1360     8.3840    24.5710 
  179.1250     2.3810   -19.8390    64.5180     7.9940     5.8930    10.9460    24.5800 
  179.2500     2.3550   -20.1320    71.0010     8.9820     6.6560    12.0800    24.6060 
  179.3750     2.3300   -20.3610    75.1760     9.6550     7.2440    11.9220    24.6310 
  179.5000     2.3130   -20.5260    79.1120     9.8680     7.5370    10.0710    24.6490 
  179.6250     2.3070   -20.5660    83.4560     9.6850     7.5240     7.6910    24.6620 
  179.7500     2.3050   -20.5380    86.4110     9.4310     7.3950     7.1930    24.6690 
  179.8750     2.3040   -20.4700    86.6470     9.2620     7.2660     8.2140    24.6620 
  180.0000     2.3020   -20.3120    86.6360     9.1810     7.1690     9.5430    24.6530 
  180.1250     2.3000   -20.0550    88.9060     9.0380     7.0350     9.2800    24.6530 
  180.2500     2.2960   -19.8120    91.7730     8.7000     6.7790     7.6080    24.6630 
  180.3750     2.2920   -19.5830    92.4210     8.1540     6.3720     6.1210    24.6880 
  180.5000     2.2920   -19.3660    88.8140     7.5170     5.8690     5.3460    24.7100 
  180.6250     2.2990   -19.1700    79.8660     6.9910     5.4020     4.8970    24.7170 
  180.7500     2.3110   -18.9880    69.2060     6.6840     5.0790     4.7720    24.7180 
  180.8750     2.3270   -18.8290    60.5460     6.5990     4.9360     4.9010    24.7180 
  181.0000     2.3460   -18.7130    55.5320     6.6550     4.9460     5.1980    24.7180 
  181.1250     2.3650   -18.6290    54.2450     6.6980     5.0210     5.6360    24.7180 
  181.2500     2.3770   -18.5090    53.9790     6.6170     5.0430     5.8870    24.7180 
  181.3750     2.3860   -18.3750    52.4170     6.4050     4.9620     5.8760    24.7230 
  181.5000     2.3950   -18.2130    48.1990     6.1320     4.8000     5.4440    24.7390 
  181.6250     2.4000   -18.0280    42.8700     5.9130     4.6320     4.8390    24.7470 
  181.7500     2.3970   -17.8190    40.0710     5.8040     4.5210     4.5240    24.7100 
  181.8750     2.3890   -17.5740    41.7720     5.7810     4.4740     4.6390    24.6630 
  182.0000     2.3790   -17.3160    46.5560     5.7630     4.4540     4.9260    24.6820 
  182.1250     2.3690   -17.0700    48.8200     5.6650     4.4050     4.8740    25.0030 
  182.2500     2.3630   -16.8520    46.1700     5.5080     4.3160     4.5840    25.7120 
  182.3750     2.3620   -16.6560    41.9650     5.3440     4.2080     4.2040    26.5510 
  182.5000     2.3590   -16.4980    39.3740     5.2150     4.1070     4.0390    27.1970 
  182.6250     2.3410   -16.3680    37.1830     5.1640     4.0280     4.0210    27.5520 
  182.7500     2.3150   -16.2540    34.6030     5.1600     3.9700     3.9700    27.9080 
  182.8750     2.3040   -16.1800    32.3130     5.1700     3.9350     3.9090    28.9740 
  183.0000     2.3150   -16.1250    30.9570     5.1760     3.9300     3.8890    30.6550 
  183.1250     2.3380   -16.0720    29.4590     5.1710     3.9520     3.8650    30.9670 
  183.2500     2.3540   -16.0400    27.0920     5.1540     3.9710     3.8690    29.8930 
  183.3750     2.3550   -16.0670    24.9860     5.1300     3.9690     3.8950    28.5710 
  183.5000     2.3490   -16.1190    24.3540     5.1240     3.9440     3.8920    27.9000 
  183.6250     2.3400   -16.1700    25.6160     5.1530     3.9060     3.8740    27.7460 
  183.7500     2.3290   -16.2290    27.4710     5.1850     3.8620     3.7970    27.6610 
  183.8750     2.3190   -16.2570    28.9010     5.1900     3.8120     3.7080    27.5210 
  184.0000     2.3240   -16.2900    29.4590     5.1480     3.7560     3.7760    27.1020 
  184.1250     2.3530   -16.3220    28.7500     5.0460     3.7000     3.9720    26.4290 
  184.2500     2.3870   -16.3060    28.5400     4.9340     3.6540     4.0590    25.7940 
  184.3750     2.4120   -16.2150    29.4880     4.8580     3.6330     3.9680    25.6440 
  184.5000     2.4260   -16.0710    30.4480     4.8550     3.6480     3.8370    26.1440 
  184.6250     2.4320   -15.9510    30.7840     4.9540     3.7090     3.8120    27.1710 
  184.7500     2.4340   -15.8510    31.8810     5.1160     3.7950     3.9730    27.5130 
  184.8750     2.4330   -15.8050    32.5540     5.3050     3.8940     4.1570    26.8970 
