~V
VERS. 2.00: Ver 2.00
~W
STRT.M 50.0000:
STOP.M 191.0000:
STEP.M 0.1250:
NULL. -999.2500:
UWI. F10562:
~C
DEPT.M :
DEN.GM/CC :
SP.MV :
GR.API :
RML.OHMM :
RI. :
RXO.OHMM :
CALI.CM :
~A
# ...
  140.0000     2.2540   -27.6490    63.1250    85.7240    80.0480    65.6680    24.6780 
  140.1250     2.2360   -27.5860    65.6720    96.5310    91.7530    58.3990    24.6850 
  140.2500     2.2360   -27.5300    66.2480    88.6400    84.6640    52.1380    24.6850 
  140.3750     2.2410   -27.4920    65.1330    74.4110    69.7760    49.2210    24.6850 
  140.5000     2.2430   -27.4780    65.4130    64.5920    58.4460    48.8620    24.6850 
  140.6250     2.2430   -27.4930    67.0940    61.8180    54.5630    49.2130    24.6850 
  140.7500     2.2420   -27.5080    67.6940    62.6360    54.5320    49.8430    24.6850 
  140.8750     2.2370   -27.5150    67.1010    65.0970    56.2150    51.9580    24.6830 
  141.0000     2.2300   -27.5210    66.7850    68.0440    58.5880    54.3310    24.6790 
  141.1250     2.2190   -27.5300    67.4460    70.8530    61.1960    55.8260    24.6800 
  141.2500     2.2100   -27.5390    67.9370    73.2500    63.7070    57.4260    24.6830 
  141.3750     2.2090   -27.5300    68.0470    74.9480    65.7930    58.4340    24.6850 
  141.5000     2.2130   -27.5210    68.3020    75.6370    67.0810    59.6760    24.6840 
  141.6250     2.2160   -27.5010    67.9160    75.0790    67.2160    57.4790    24.6810 
  141.7500     2.2190   -27.4990    66.3260    73.7950    66.5690    56.1040    24.6780 
  141.8750     2.2290   -27.5020    63.9630    72.1120    65.4590    56.2040    24.6750 
  142.0000     2.2490   -27.4960    61.4160    70.1210    64.0620    54.3840    24.6590 
  142.1250     2.2700   -27.4890    59.9010    67.6870    62.3240    51.1630    24.6110 
  142.2500     2.2840   -27.4750    59.4920    64.9720    60.2950    50.8860    24.5640 
  142.3750     2.2950   -27.4570    59.3860    62.3580    58.2000    50.0960    24.5440 
  142.5000     2.3120   -27.4410    59.5970    60.3460    56.4610    48.4920    24.5370 
  142.6250     2.3320   -27.4170    60.7140    59.3530    55.5730    48.4790    24.5420 
  142.7500     2.3370   -27.3770    61.4630    59.0630    55.4490    47.9630    24.5800 
  142.8750     2.3270   -27.3240    61.2110    59.2210    55.9270    46.7220    24.6670 
  143.0000     2.3220   -27.2700    61.7110    59.8120    56.9410    46.3990    24.7300 
  143.1250     2.3330   -27.2140    62.6850    61.2710    58.7460    48.6430    24.7510 
  143.2500     2.3400   -27.1850    60.8690    63.5820    61.2890    53.3600    24.7550 
  143.3750     2.3230   -27.1740    57.5930    66.3010    64.2190    58.1840    24.7700 
  143.5000     2.2840   -27.1610    56.6300    68.6060    66.8130    60.5870    24.8040 
  143.6250     2.2470   -27.1610    59.7050    69.4080    68.0160    61.2720    24.8210 
  143.7500     2.2280   -27.1610    63.6880    68.7220    67.7520    60.2270    24.8260 
  143.8750     2.2210   -27.1830    65.5720    67.0200    66.4250    58.4440    24.8260 
  144.0000     2.2190   -27.2090    64.5890    64.9440    64.6600    56.3210    24.8260 
  144.1250     2.2190   -27.2250    62.5450    62.9590    62.9620    54.5500    24.8260 
  144.2500     2.2200   -27.2370    61.2450    61.1690    61.4730    54.4340    24.8160 
  144.3750     2.2220   -27.2490    60.3290    59.6170    60.1950    54.8370    24.7640 
  144.5000     2.2250   -27.2640    60.3980    58.3900    59.1610    52.7430    24.6480 
  144.6250     2.2270   -27.2700    62.5290    58.5470    57.7090    48.6980    24.5210 
  144.7500     2.2300   -27.2670    65.0830    58.5090    57.6800    46.2850    24.4690 
  144.8750     2.2330   -27.2410    66.6410    59.2220    58.4010    47.5930    24.4590 
  145.0000     2.2340   -27.2030    67.1100    60.6080    59.6620    54.0110    24.4590 
  145.1250     2.2300   -27.1760    66.1050    62.0250    60.6450    60.2640    24.4480 
  145.2500     2.2250   -27.1300    63.7020    62.4800    60.4280    60.4020    24.4210 
  145.3750     2.2220   -27.0800    61.6820    61.4690    58.6830    53.5770    24.3940 
  145.5000     2.2200   -27.0140    61.0930    59.3080    55.9290    49.1750    24.3670 
  145.6250     2.2180   -26.9260    61.5510    57.0400    53.3610    46.2560    24.2960 
  145.7500     2.2160   -26.8580    63.3580    55.6090    51.8550    41.8670    24.1660 
  145.8750     2.2140   -26.8140    65.0070    55.3040    51.6300    36.6620    24.0400 
  146.0000     2.2130   -26.7760    63.7820    56.0110    52.4610    35.3460    23.9650 
  146.1250     2.2160   -26.7420    60.1430    57.4660    53.9310    41.2630    23.9480 
  146.2500     2.2190   -26.7300    59.7770    59.0530    55.3260    50.5840    23.9450 
  146.3750     2.2210   -26.7230    62.8960    60.2210    56.0990    54.3690    23.9430 
  146.5000     2.2260   -26.7210    65.2910    60.5160    55.9010    49.3780    23.9420 
  146.6250     2.2310   -26.7580    64.7880    59.8130    54.7960    45.1120    23.9410 
  146.7500     2.2290   -26.7910    65.6150    58.8830    53.6860    43.6060    23.9470 
  146.8750     2.2180   -26.8340    69.2580    58.4360    53.2770    43.5730    23.9980 
  147.0000     2.2060   -26.9040    71.8680    58.9060    53.8990    46.5470    24.1520 
  147.1250     2.2090   -26.9730    69.4960    60.4050    55.4810    53.9830    24.3940 
  147.2500     2.2210   -27.0140    66.2590    62.3580    57.3090    57.8410    24.5470 
  147.3750     2.2430   -27.0550    65.9330    64.3970    59.0140    54.4850    24.5960 
  147.5000     2.2710   -27.0630    67.0730    66.5400    60.7400    50.8080    24.5970 
  147.6250     2.2870   -27.0420    65.1510    69.3550    63.1310    56.7530    24.5930 
  147.7500     2.2950   -27.0230    60.1510    72.7650    66.0250    77.3680    24.5920 
  147.8750     2.2880   -27.0000    54.7370    75.6880    68.2670    94.7410    24.5970 
  148.0000     2.2750   -26.9590    52.8320    76.3270    68.1710    87.2380    24.6000 
  148.1250     2.2570   -26.9270    56.7830    72.7860    64.1980    72.8990    24.5980 
  148.2500     2.2400   -26.9190    62.1410    66.5260    57.9900    59.8380    24.5850 
  148.3750     2.2290   -26.9260    65.8620    59.6980    51.6030    49.4960    24.5490 
  148.5000     2.2320   -26.9650    68.9790    54.1730    46.6570    44.6870    24.5100 
  148.6250     2.2380   -27.0190    71.8820    51.0750    44.0750    43.3030    24.4670 
  148.7500     2.2380   -27.0660    72.0460    49.8500    43.3170    41.4640    24.4500 
  148.8750     2.2310   -27.1000    68.8940    50.1490    44.0480    39.9750    24.4470 
  149.0000     2.2210   -27.1300    65.3980    51.7060    45.9480    39.0180    24.4490 
  149.1250     2.2120   -27.1350    64.5590    54.4870    48.8960    41.2470    24.4500 
  149.2500     2.2090   -27.1210    64.6570    58.1720    52.5830    45.7630    24.4500 
  149.3750     2.2070   -27.0930    64.3390    62.5260    56.8190    50.7470    24.4500 
  149.5000     2.2020   -27.0630    63.8580    67.0340    61.2130    53.6540    24.4500 
  149.6250     2.1930   -27.0430    64.2730    70.7500    65.0030    56.3680    24.4500 
  149.7500     2.1880   -27.0480    65.5920    73.1710    67.7620    57.4560    24.4500 
  149.8750     2.1890   -27.0800    66.8630    74.3870    69.5870    56.7540    24.4500 
  150.0000     2.1950   -27.1540    67.5090    75.0730    71.0930    58.6480    24.4500 
  150.1250     2.2000   -27.2870    66.7860    76.2290    73.1600    61.9390    24.4500 
  150.2500     2.2040   -27.4410    64.8530    78.3100    76.1150    62.9850    24.4500 
  150.3750     2.2050   -27.6140    62.5490    81.3530    79.9780    63.3020    24.4500 
  150.5000     2.2020   -27.7830    60.8240    85.2470    84.6520    64.1970    24.4500 
  150.6250     2.2000   -27.9430    60.5720    89.8460    89.9510    70.0130    24.4500 
  150.7500     2.2020   -28.1010    60.9080    94.4970    95.1410    77.5760    24.4500 
  150.8750     2.2100   -28.2530    62.2600    98.3610    99.2940    83.0110    24.4500 
  151.0000     2.2210   -28.3870    65.6200   100.4740   101.3790    85.4830    24.4500 
  151.1250     2.2320   -28.4900    67.7470    99.8110   100.3890    87.0760    24.4450 
