~V
VERS. 2.00: Ver 2.00
~W
STRT.M 60.0000:
STOP.M 207.0000:
STEP.M 0.1250:
NULL. -999.2500:
UWI. F10577:
~C
DEPT.M :
DEN.GM/CC :
SP.MV :
GR.API :
RML.OHMM :
RI. :
RXO.OHMM :
CALI.CM :
~A
# ...
  183.7500     2.4950   -14.6150    58.1970     8.1690     6.2060    10.8190    23.5440 
  183.8750     2.5560   -14.6880    54.7230     9.0330     6.9420    14.5490    23.5440 
  184.0000     2.5700   -14.7280    50.7060     9.4120     7.4060    14.4290    23.5440 
  184.1250     2.5110   -14.7060    51.2300     9.0310     7.3020     9.7810    23.5440 
  184.2500     2.4440   -14.6850    55.8240     8.2470     6.7940     6.9000    23.5440 
  184.3750     2.4050   -14.6320    61.3400     7.4340     6.1360     6.1160    23.5420 
  184.5000     2.3920   -14.5750    65.0750     6.8490     5.5540     6.1690    23.5330 
  184.6250     2.3820   -14.5430    65.2140     6.6060     5.1910     6.1040    23.5150 
  184.7500     2.3690   -14.5020    65.1740     6.5820     5.0100     5.9270    23.4850 
  184.8750     2.3540   -14.4470    68.9450     6.6660     4.9470     5.7470    23.4540 
  185.0000     2.3380   -14.3920    76.7130     6.7630     4.9280     5.5980    23.4100 
  185.1250     2.3280   -14.3750    82.4290     6.7990     4.8960     5.5280    23.3720 
  185.2500     2.3260   -14.3460    83.6790     6.7580     4.8320     5.3830    23.3400 
  185.3750     2.3310   -14.3260    83.1980     6.6330     4.7330     5.1140    23.3230 
  185.5000     2.3370   -14.3310    81.2400     6.4420     4.6060     4.8600    23.3050 
  185.6250     2.3420   -14.3130    74.9150     6.2430     4.4650     4.6980    23.2720 
  185.7500     2.3440   -14.3220    65.3570     6.0970     4.3350     4.6140    23.2570 
  185.8750     2.3410   -14.3490    55.9730     6.0230     4.2300     4.5800    23.2450 
  186.0000     2.3390   -14.4160    49.5380     6.0220     4.1660     4.6640    23.2380 
  186.1250     2.3450   -14.4870    48.1950     6.0980     4.1670     4.8350    23.2560 
  186.2500     2.3590   -14.5780    49.9210     6.2310     4.2310     5.0620    23.3010 
  186.3750     2.3750   -14.6740    53.0030     6.4180     4.3560     5.3800    23.3230 
  186.5000     2.3890   -14.7220    55.8210     6.6570     4.5320     5.8330    23.3240 
  186.6250     2.3960   -14.7600    57.2830     6.9310     4.7420     6.1370    23.3090 
  186.7500     2.3960   -14.7550    57.7420     7.1830     4.9540     6.2810    23.2790 
  186.8750     2.3900   -14.7230    58.5780     7.3670     5.1410     6.4280    23.2440 
  187.0000     2.3820   -14.6300    60.7080     7.4490     5.2750     6.5600    23.2040 
  187.1250     2.3730   -14.4880    62.4580     7.3890     5.3070     6.5070    23.1840 
  187.2500     2.3650   -14.3130    63.0090     7.1970     5.2370     6.2420    23.1550 
  187.3750     2.3580   -14.1190    62.6810     6.9010     5.0800     5.8340    23.1000 
  187.5000     2.3520   -13.9530    60.9960     6.5720     4.8770     5.3930    23.0600 
  187.6250     2.3500   -13.7920    57.1540     6.3290     4.6980     5.1150    23.0430 
  187.7500     2.3520   -13.6810    52.9900     6.2380     4.5930     5.1020    23.0390 
  187.8750     2.3560   -13.6060    50.7600     6.3090     4.5760     5.3010    23.0360 
  188.0000     2.3570   -13.5800    52.2760     6.4930     4.6300     5.6400    23.0370 
  188.1250     2.3540   -13.6020    57.5770     6.6700     4.7050     5.8460    23.0260 
  188.2500     2.3500   -13.6200    61.1580     6.7300     4.7370     5.6690    22.9740 
  188.3750     2.3440   -13.6610    60.4160     6.6540     4.6920     5.1640    22.8780 
  188.5000     2.3350   -13.7210    57.0220     6.4940     4.5770     4.7780    22.7970 
  188.6250     2.3240   -13.7770    54.8300     6.3400     4.4280     4.6240    22.7660 
  188.7500     2.3140   -13.8120    55.6660     6.2510     4.2920     4.5680    22.7090 
  188.8750     2.3060   -13.8430    58.0850     6.2270     4.1920     4.5090    22.4900 
  189.0000     2.3000   -13.8550    60.5320     6.2320     4.1280     4.4980    22.0350 
  189.1250     2.2920   -13.8730    62.1770     6.2220     4.0960     4.5420    21.6330 
  189.2500     2.2840   -13.9070    63.0990     6.1940     4.0810     4.5220    21.4920 
  189.3750     2.2790   -13.9540    63.2540     6.1730     4.0840     4.3940    21.4770 
  189.5000     2.2780   -14.0140    62.6580     6.1980     4.1170     4.3440    21.4560 
  189.6250     2.2820   -14.0950    62.5530     6.3220     4.2120     4.5810    21.3930 
  189.7500     2.2890   -14.1970    64.1060     6.5400     4.3770     5.0220    21.3810 
  189.8750     2.2970   -14.3170    67.2360     6.8240     4.6060     5.5470    21.4560 
  190.0000     2.3040   -14.4410    72.4050     7.1170     4.8700     6.0600    21.6610 
  190.1250     2.3110   -14.5220    80.7040     7.3290     5.1140     6.4930    21.7980 
  190.2500     2.3190   -14.5750    88.0120     7.4200     5.2920     6.5290    21.8640 
  190.3750     2.3230   -14.5780    91.5170     7.4070     5.3880     6.2850    21.9100 
  190.5000     2.3220   -14.5450    91.5800     7.3430     5.4180     6.2170    21.9690 
  190.6250     2.3200   -14.4700    90.6390     7.2860     5.4010     6.4070    22.0380 
  190.7500     2.3220   -14.3460    89.9140     7.2500     5.3600     6.5540    22.1330 
  190.8750     2.3280   -14.1450    88.8220     7.2070     5.2930     6.4990    22.2140 
  191.0000     2.3320   -13.9340    87.3260     7.1160     5.1910     6.0850    22.2440 
  191.1250     2.3350   -13.7330    84.1310     6.9510     5.0450     5.7830    22.1470 
  191.2500     2.3370   -13.5350    78.2670     6.7660     4.8820     5.5640    21.9290 
  191.3750     2.3370   -13.3680    71.8890     6.6170     4.7320     5.4420    21.7240 
  191.5000     2.3330   -13.1900    67.2900     6.5320     4.6180     5.4950    21.6360 
  191.6250     2.3240   -13.0220    67.0760     6.5030     4.5500     5.7190    21.6350 
  191.7500     2.3140   -12.8570    68.5740     6.4790     4.5100     5.7790    21.6370 
  191.8750     2.3070   -12.7430    67.9470     6.4350     4.4870     5.3400    21.6410 
  192.0000     2.3090   -12.6770    65.0920     6.3830     4.4830     4.9340    21.6500 
  192.1250     2.3240   -12.6340    62.7260     6.3640     4.5100     4.9270    21.6830 
  192.2500     2.3440   -12.6370    62.1980     6.4080     4.5750     5.2200    21.7990 
  192.3750     2.3620   -12.6450    63.2600     6.5280     4.6850     5.5480    22.0270 
  192.5000     2.3740   -12.6950    64.8860     6.7150     4.8390     5.6370    22.2850 
  192.6250     2.3800   -12.7640    65.4490     6.9330     5.0200     5.7410    22.4900 
  192.7500     2.3810   -12.8330    63.5300     7.1030     5.1740     6.5040    22.5820 
  192.8750     2.3780   -12.8600    58.5840     7.1500     5.2440     7.7420    22.6280 
  193.0000     2.3720   -12.8170    50.8220     7.0230     5.1890     8.4030    22.6390 
  193.1250     2.3650   -12.7230    43.9860     6.7050     4.9840     7.0440    22.6300 
  193.2500     2.3650   -12.5790    41.2410     6.3150     4.6990     5.5810    22.6180 
  193.3750     2.3720   -12.4040    41.1470     5.9540     4.4000     4.6850    22.6130 
  193.5000     2.3810   -12.1700    40.8640     5.6960     4.1470     4.3760    22.6200 
  193.6250     2.3840   -11.9020    40.5360     5.5820     3.9850     4.3730    22.6830 
  193.7500     2.3840   -11.6390    41.3510     5.5580     3.9080     4.4390    22.8160 
  193.8750     2.3870   -11.4320    42.6550     5.5860     3.9060     4.5280    22.9550 
  194.0000     2.3940   -11.2910    43.3360     5.6440     3.9590     4.6900    23.0250 
  194.1250     2.4020   -11.2200    42.1050     5.7490     4.0620     5.0670    23.0370 
  194.2500     2.4060   -11.2120    40.2570     5.9150     4.2060     5.6220    23.0370 
  194.3750     2.4050   -11.2690    39.3330     6.1430     4.3900     5.9510    23.0370 
  194.5000     2.4000   -11.3890    39.7580     6.4110     4.6100     5.8900    23.0370 
  194.6250     2.3930   -11.5710    40.4940     6.6780     4.8440     5.8230    23.0370 
  194.7500     2.3880   -11.7710    41.2820     6.9070     5.0550     6.1980    23.0370 
  194.8750     2.3850   -11.9520    41.2810     7.0610     5.2100     6.5370    23.0370 
