~V
VERS. 2.00: Ver 2.00
~W
STRT.M 50.0000:
STOP.M 191.0000:
STEP.M 0.1250:
NULL. -999.2500:
UWI. F10562:
~C
DEPT.M :
DEN.GM/CC :
SP.MV :
GR.API :
RML.OHMM :
RI. :
RXO.OHMM :
CALI.CM :
~A
# ...
  106.2500     2.3020   -21.8080    93.5070     7.8020     8.4700     7.6350    24.5310 
  106.3750     2.2940   -21.6780    88.9570     8.4710     9.4170     8.0510    24.4580 
  106.5000     2.2980   -21.5090    86.7580     9.0170    10.3400     9.0450    24.3250 
  106.6250     2.3130   -21.2920    86.1650     9.2380    10.9990    10.3410    24.1540 
  106.7500     2.3120   -21.0600    86.0050     9.0840    11.2320     9.7430    24.0390 
  106.8750     2.2880   -20.8280    86.8970     8.6750    11.0150     7.8660    24.0010 
  107.0000     2.2600   -20.6120    87.3670     8.2820    10.4930     7.1500    23.9970 
  107.1250     2.2550   -20.4540    86.4200     8.2080     9.8930     7.4570    23.9970 
  107.2500     2.2690   -20.3640    87.9540     8.4640     9.4090     7.2380    23.9970 
  107.3750     2.2920   -20.3520    93.7270     8.9820     9.1590     6.6280    23.9970 
  107.5000     2.3150   -20.4160   100.7320     9.7570     9.2780     6.1270    23.9970 
  107.6250     2.3400   -20.5440   101.4870    11.2050    10.1250     6.9240    24.0250 
  107.7500     2.3710   -20.7460    95.6570    13.8450    11.9720     9.4900    24.1160 
  107.8750     2.4060   -20.9790    87.1400    18.2110    15.2110    14.6570    24.2550 
  108.0000     2.4410   -21.2460    79.4210    24.5960    20.1940    20.8310    24.3400 
  108.1250     2.4800   -21.4950    73.6990    32.7150    27.0800    27.9400    24.3590 
  108.2500     2.5190   -21.7280    68.9810    40.4350    34.2500    31.8040    24.3640 
  108.3750     2.5470   -21.9390    65.6660    45.5030    39.5790    31.3010    24.3800 
  108.5000     2.5500   -22.1250    64.9270    46.7410    41.6110    30.8620    24.4110 
  108.6250     2.5300   -22.2780    64.5120    44.8630    40.5620    31.8490    24.4260 
  108.7500     2.5000   -22.3820    62.5690    42.6540    38.7990    32.9610    24.4310 
  108.8750     2.4720   -22.4440    60.9680    41.6560    37.7390    33.2060    24.4310 
  109.0000     2.4570   -22.4910    61.7890    42.4050    38.0590    36.0080    24.4310 
  109.1250     2.4560   -22.5260    62.3200    44.5310    39.7270    39.4150    24.4300 
  109.2500     2.4600   -22.5550    60.8580    46.8450    41.7940    38.1410    24.4210 
  109.3750     2.4720   -22.5840    59.1080    48.6650    43.6240    40.9310    24.3990 
  109.5000     2.4920   -22.5950    58.3030    49.5790    44.7780    46.7700    24.3700 
  109.6250     2.5120   -22.5970    58.4190    49.4180    44.9610    45.6380    24.3580 
  109.7500     2.5350   -22.5830    59.6980    48.7520    44.5440    42.1510    24.3550 
  109.8750     2.5660   -22.5830    63.0020    48.0770    43.9460    39.2230    24.3500 
  110.0000     2.5960   -22.5650    66.1060    47.7610    43.5680    37.9650    24.3350 
  110.1250     2.6070   -22.5540    65.6870    48.0530    43.7790    37.9000    24.3000 
  110.2500     2.5980   -22.5280    63.1200    48.7490    44.4890    39.8490    24.2560 
  110.3750     2.5690   -22.5070    61.3130    49.5980    45.4170    38.3130    24.1780 
  110.5000     2.5330   -22.4850    60.9320    50.4420    46.2880    38.6550    24.0550 
  110.6250     2.5050   -22.4880    59.7470    51.1830    46.9770    42.8540    23.7900 
  110.7500     2.4910   -22.5010    58.3240    51.6900    47.5320    42.2910    23.4880 
  110.8750     2.4910   -22.5130    58.5790    51.8780    48.0290    37.7580    23.3930 
  111.0000     2.5040   -22.5220    59.8800    51.8650    48.5950    38.4750    23.6400 
  111.1250     2.5200   -22.5590    58.4780    51.9350    49.3200    44.5020    24.0530 
  111.2500     2.5230   -22.6230    56.3730    52.0780    49.9580    50.1610    24.2840 
  111.3750     2.5120   -22.7100    56.2960    51.9540    50.0670    45.1540    24.3500 
  111.5000     2.5020   -22.8210    57.5390    51.1800    49.2730    37.7100    24.3550 
  111.6250     2.5020   -22.9310    57.5870    49.6700    47.5520    33.8460    24.3550 
  111.7500     2.5030   -23.0440    57.1380    48.1220    45.7430    35.6620    24.3430 
  111.8750     2.4940   -23.1430    57.8470    47.0550    44.4910    37.5990    24.2960 
  112.0000     2.4820   -23.2600    58.7330    46.5530    43.9740    38.8440    24.1970 
  112.1250     2.4780   -23.3350    58.3030    46.2930    43.8930    37.1080    24.1490 
  112.2500     2.4810   -23.4010    57.2400    45.9220    43.7430    34.6140    24.1310 
  112.3750     2.4870   -23.4390    56.3410    45.5380    43.4600    34.2000    24.1290 
  112.5000     2.4950   -23.4620    57.4350    45.4390    43.2640    34.6620    24.1290 
  112.6250     2.5090   -23.4660    61.5400    45.9040    43.4850    35.0290    24.1080 
  112.7500     2.5240   -23.4560    64.0170    46.7840    44.1390    34.2580    24.0500 
  112.8750     2.5300   -23.4360    63.0840    47.8590    45.0920    33.3920    23.9420 
  113.0000     2.5230   -23.4190    62.6240    48.9120    46.1120    32.7470    23.7680 
  113.1250     2.5120   -23.4040    64.3900    49.8330    47.0380    30.4670    23.5750 
  113.2500     2.5080   -23.3920    62.7560    50.6430    47.8910    32.2130    23.5290 
  113.3750     2.5080   -23.3790    57.0660    51.2180    48.6220    38.6330    23.6500 
  113.5000     2.5040   -23.3580    53.8160    51.2280    49.0070    46.1430    23.9130 
  113.6250     2.4910   -23.3320    56.5830    50.2310    48.6040    45.6120    24.1520 
  113.7500     2.4800   -23.3090    59.1630    48.6290    47.5110    39.1860    24.2240 
  113.8750     2.4810   -23.3050    59.7890    47.0880    46.1560    35.6380    24.2230 
  114.0000     2.4990   -23.2480    60.3130    46.2580    45.1350    35.5400    24.2460 
  114.1250     2.5240   -23.1750    61.3860    46.5080    44.9950    38.1780    24.3230 
  114.2500     2.5430   -23.0770    60.9540    47.1530    45.4380    38.6240    24.3950 
  114.3750     2.5560   -22.9750    59.0220    47.4070    45.8820    37.0400    24.4220 
  114.5000     2.5660   -22.8640    57.8990    46.6720    45.7310    37.9960    24.4250 
  114.6250     2.5630   -22.7520    59.0200    44.7260    44.5140    39.4390    24.4270 
  114.7500     2.5380   -22.6560    59.4340    42.2620    42.5510    37.9670    24.4350 
  114.8750     2.4970   -22.5740    59.0390    39.8570    40.2720    34.8920    24.4870 
  115.0000     2.4610   -22.5220    59.5900    37.9360    38.1620    33.6520    24.6200 
  115.1250     2.4430   -22.5190    61.6680    36.8090    36.7490    30.8100    24.7700 
  115.2500     2.4420   -22.5250    63.2600    36.3350    36.1260    31.0130    24.7420 
  115.3750     2.4530   -22.5260    63.6340    36.4340    36.2470    33.7120    24.5070 
  115.5000     2.4690   -22.5520    63.1560    36.9230    36.8340    40.1230    24.2110 
  115.6250     2.4690   -22.5830    61.8810    37.3810    37.3210    40.5410    24.1470 
  115.7500     2.4510   -22.5980    61.1830    37.4010    37.2960    34.1290    24.2760 
  115.8750     2.4320   -22.5950    61.2400    36.8700    36.7650    29.5970    24.4610 
  116.0000     2.4240   -22.6070    59.6070    36.0200    36.0560    28.7810    24.5400 
  116.1250     2.4250   -22.5880    56.9220    35.3800    35.6750    29.0350    24.4950 
  116.2500     2.4280   -22.5490    56.5500    35.2710    35.7960    30.3180    24.4150 
  116.3750     2.4360   -22.5160    58.5480    35.7010    36.3360    31.1070    24.3820 
  116.5000     2.4550   -22.4790    60.2780    36.4870    37.0950    31.2110    24.4010 
  116.6250     2.4870   -22.4440    59.0620    37.4410    37.9360    31.5220    24.4160 
  116.7500     2.5200   -22.4210    57.9080    38.4410    38.8390    32.3740    24.4210 
  116.8750     2.5520   -22.4030    58.5550    39.4090    39.8110    34.0390    24.4210 
  117.0000     2.5800   -22.4120    59.6990    40.1760    40.7240    38.1880    24.4210 
  117.1250     2.5940   -22.4230    57.8550    40.2670    41.0670    44.1460    24.4210 
  117.2500     2.5900   -22.4610    54.1180    39.3580    40.3900    42.5700    24.4210 
  117.3750     2.5670   -22.5130    52.7400    37.3680    38.5390    35.1100    24.4210 
