~V
VERS. 2.00: Ver 2.00
~W
STRT.M 59.0000:
STOP.M 201.0000:
STEP.M 0.1250:
NULL. -999.2500:
UWI. F10560:
~C
DEPT.M :
DEN.GM/CC :
SP.MV :
GR.API :
RML.OHMM :
RI. :
RXO.OHMM :
CALI.CM :
~A
# ...
  171.5000     2.3720   -26.9220    57.7540     6.5230     4.6060     5.3240    24.1200 
  171.6250     2.3690   -27.2590    62.6200     6.6240     4.6790     5.5690    24.1200 
  171.7500     2.3690   -27.6800    66.9160     6.7660     4.7900     5.7960    24.1200 
  171.8750     2.3710   -28.1110    70.2480     6.9360     4.9290     6.0280    24.1200 
  172.0000     2.3740   -28.5300    72.0600     7.1080     5.0780     6.2140    24.1200 
  172.1250     2.3790   -28.9530    68.7620     7.2430     5.2130     6.5090    24.1200 
  172.2500     2.3860   -29.3640    62.4080     7.3300     5.3310     6.8350    24.1200 
  172.3750     2.3960   -29.7610    58.2410     7.3930     5.4450     7.1280    24.1200 
  172.5000     2.4060   -30.1250    58.0350     7.4800     5.5830     7.2050    24.1200 
  172.6250     2.4110   -30.4280    60.2820     7.6700     5.7840     7.3720    24.1180 
  172.7500     2.4160   -30.7060    62.3450     7.9820     6.0560     7.8530    24.1050 
  172.8750     2.4210   -31.0250    63.0690     8.3920     6.3760     8.5190    24.0760 
  173.0000     2.4210   -31.4030    61.1160     8.8270     6.6950     8.7360    24.0550 
  173.1250     2.4050   -31.8430    57.9740     9.1610     6.9180     8.6070    24.0470 
  173.2500     2.3840   -32.3340    58.9390     9.3120     6.9850     8.2810    24.0440 
  173.3750     2.3730   -32.8770    64.5020     9.2520     6.8820     8.1430    24.0290 
  173.5000     2.3700   -33.4680    69.0820     9.0200     6.6530     8.3210    23.9970 
  173.6250     2.3580   -34.1380    70.0670     8.7150     6.4020     8.1580    23.9800 
  173.7500     2.3290   -34.8450    72.7400     8.5010     6.2440     7.6660    23.9730 
  173.8750     2.2930   -35.5150    78.2920     8.5120     6.2580     7.5620    23.9580 
  174.0000     2.2600   -36.1190    83.2230     8.8490     6.5080     8.3880    23.9190 
  174.1250     2.2420   -36.6170    89.5050     9.6200     7.0960     9.7190    23.8580 
  174.2500     2.2410   -37.0050    99.0560    10.7250     7.9980    10.9080    23.8110 
  174.3750     2.2600   -37.2870   105.9930    12.0890     9.1990    11.8680    23.7630 
  174.5000     2.2930   -37.4700   105.2330    13.6200    10.6360    13.1370    23.6990 
  174.6250     2.3210   -37.4850   101.1260    15.1900    12.1970    15.0550    23.6350 
  174.7500     2.3390   -37.3550   100.6180    16.5730    13.6580    16.8610    23.5930 
  174.8750     2.3500   -37.1460   101.3360    17.4380    14.7590    19.7600    23.6370 
  175.0000     2.3580   -36.8740   101.5320    17.4380    15.2050    22.7080    23.7840 
  175.1250     2.3530   -36.5430   102.5610    16.3040    14.6610    23.7960    23.8610 
  175.2500     2.3360   -36.2180   103.8660    14.4990    13.4000    20.0710    23.8480 
  175.3750     2.3170   -35.9260   103.2500    12.5010    11.7810    14.5070    23.7680 
  175.5000     2.3040   -35.6490   101.2570    10.7300    10.1900    10.2700    23.7250 
  175.6250     2.3000   -35.3790    99.7470     9.5020     8.9660     9.4770    23.7620 
  175.7500     2.2960   -35.1310    99.6540     8.7720     8.1590     9.5560    23.8650 
  175.8750     2.2930   -34.8460   101.5030     8.4500     7.7340     9.3820    23.9730 
  176.0000     2.2950   -34.5100   104.8260     8.3910     7.5860     9.1850    24.0320 
  176.1250     2.2990   -34.0610   104.8730     8.4120     7.5640     9.4710    24.0470 
  176.2500     2.3030   -33.5550   102.1120     8.3580     7.5070     9.4500    24.0470 
  176.3750     2.3100   -33.0040    99.3450     8.2100     7.3710     8.6170    24.0420 
  176.5000     2.3230   -32.4790    96.4580     8.0190     7.1910     7.3150    24.0110 
  176.6250     2.3380   -32.0550    93.2420     7.8700     7.0510     7.0470    23.9350 
  176.7500     2.3460   -31.6710    93.2580     7.8220     7.0000     7.4490    23.8630 
  176.8750     2.3470   -31.3330    94.6790     7.8730     7.0290     8.0970    23.8340 
  177.0000     2.3450   -31.0290    93.5690     7.9780     7.0810     8.3630    23.8300 
  177.1250     2.3410   -30.7610    89.6820     8.0370     7.0470     8.0200    23.8300 
  177.2500     2.3340   -30.5080    87.4230     7.9540     6.8750     7.4940    23.8300 
  177.3750     2.3260   -30.3050    86.7370     7.7160     6.5740     7.1350    23.8250 
  177.5000     2.3230   -30.2070    86.7620     7.3950     6.2180     6.7990    23.8080 
  177.6250     2.3250   -30.3520    88.0780     7.1430     5.9270     6.4970    23.7740 
  177.7500     2.3280   -30.8000    89.1310     7.0630     5.7770     6.6180    23.7480 
  177.8750     2.3340   -31.5450    89.4020     7.1790     5.8080     7.2720    23.7190 
  178.0000     2.3400   -32.5460    91.5710     7.4580     6.0180     8.3790    23.6990 
  178.1250     2.3330   -33.7890    99.3010     7.8300     6.3800     9.1330    23.6910 
  178.2500     2.3090   -35.0930   107.9970     8.2070     6.8030     9.0510    23.6930 
  178.3750     2.2800   -36.3370   112.1860     8.5790     7.2360     8.8540    23.6930 
  178.5000     2.2640   -37.4010   110.9340     8.9580     7.6480     9.0110    23.6870 
  178.6250     2.2700   -38.0420   108.5790     9.3420     8.0010     9.7310    23.6670 
  178.7500     2.2880   -38.2470   109.0360     9.6630     8.2540    10.7580    23.6470 
  178.8750     2.3060   -38.0490   110.6690     9.7900     8.3510    10.9760    23.6530 
  179.0000     2.3150   -37.5550   110.1140     9.6100     8.2470     9.9570    23.7190 
  179.1250     2.3110   -36.8600   105.6040     9.1120     7.9290     8.6680    23.8730 
  179.2500     2.3030   -36.1280   100.8400     8.5290     7.5200     8.0430    24.0660 
  179.3750     2.3010   -35.5110    98.8780     8.0490     7.1300     7.7540    24.1620 
  179.5000     2.3060   -35.1040    99.3100     7.7870     6.8500     7.6610    24.1830 
  179.6250     2.3080   -35.0540   100.6410     7.8090     6.7660     8.0840    24.1830 
  179.7500     2.2960   -35.2850   100.9910     8.0090     6.8490     8.5970    24.1830 
  179.8750     2.2740   -35.7040    99.4870     8.2800     7.0450     9.0110    24.1830 
  180.0000     2.2570   -36.2050    99.1210     8.5260     7.2690     9.2750    24.1810 
  180.1250     2.2570   -36.6980   102.9160     8.6600     7.4280     9.1700    24.1670 
  180.2500     2.2700   -37.1910   108.6340     8.6880     7.4940     8.9970    24.1370 
  180.3750     2.2850   -37.6390   113.0080     8.6460     7.4730     8.7770    24.0820 
  180.5000     2.2950   -37.9220   114.1320     8.5620     7.3970     8.4400    23.9890 
  180.6250     2.2950   -37.8700   113.0350     8.4530     7.3080     8.3350    23.9510 
  180.7500     2.2870   -37.5600   112.7970     8.3400     7.2370     8.3020    24.0570 
  180.8750     2.2770   -37.1020   113.7740     8.2500     7.1970     8.0750    24.1940 
  181.0000     2.2680   -36.5930   114.9580     8.2190     7.1870     8.0610    24.2560 
  181.1250     2.2610   -36.0340   115.6920     8.2520     7.2050     8.6460    24.2660 
  181.2500     2.2600   -35.3610   117.2920     8.2880     7.2210     9.1630    24.2910 
  181.3750     2.2690   -34.5150   116.6670     8.2610     7.1950     9.1650    24.3140 
  181.5000     2.2900   -33.5130   110.3450     8.1170     7.0900     8.7560    24.3260 
  181.6250     2.3130   -32.4330    99.6570     7.8420     6.8630     8.3870    24.3260 
  181.7500     2.3280   -31.3600    91.8770     7.5190     6.5450     7.7500    24.3240 
  181.8750     2.3350   -30.3090    90.4750     7.2170     6.1870     6.9790    24.3220 
  182.0000     2.3430   -29.2610    93.8640     6.9820     5.8520     6.4360    24.3240 
  182.1250     2.3520   -28.3840    95.8660     6.8240     5.6020     6.2970    24.3260 
  182.2500     2.3560   -27.7360    94.5900     6.7170     5.4500     6.2160    24.3400 
  182.3750     2.3580   -27.2670    90.3600     6.6700     5.4000     6.1960    24.3660 
  182.5000     2.3620   -26.9500    84.9690     6.6940     5.4510     6.1130    24.3850 
  182.6250     2.3790   -26.7050    78.0950     6.8190     5.5980     6.0810    24.3830 
