~V
VERS. 2.00: Ver 2.00
~W
STRT.M 58.0000:
STOP.M 199.0000:
STEP.M 0.1250:
NULL. -999.2500:
UWI. F10565:
~C
DEPT.M :
SP.MV :
GR.API :
RML.OHMM :
RI. :
RXO.OHMM :
CALI.CM :
DEN.GM/CC :
~A
# ...
   80.5000    -9.0030    98.7330     6.6950     6.2260     5.6160    23.7470     2.3260 
   80.6250    -8.9720   103.0420     6.5660     6.1310     5.6730    23.7040     2.3230 
   80.7500    -8.9510   106.0530     6.4770     6.0430     6.0590    23.6510     2.3190 
   80.8750    -8.9360   109.0710     6.3830     5.9290     6.1660    23.6280     2.3190 
   81.0000    -8.9110   112.2520     6.2670     5.7780     5.9940    23.6540     2.3220 
   81.1250    -8.8680   112.7720     6.1430     5.6110     5.9360    23.7300     2.3270 
   81.2500    -8.8130   108.5340     6.0760     5.4930     6.0110    23.8390     2.3340 
   81.3750    -8.7490   103.2550     6.1330     5.4880     6.0220    23.9500     2.3390 
   81.5000    -8.6810    99.5040     6.3590     5.6450     6.0240    24.0410     2.3380 
   81.6250    -8.6180    95.6900     6.7560     5.9790     6.2510    24.1100     2.3270 
   81.7500    -8.5590    90.7260     7.2670     6.4590     6.7810    24.1640     2.3060 
   81.8750    -8.5020    87.6250     7.7510     6.9530     7.5000    24.2200     2.2830 
   82.0000    -8.4320    88.0170     8.0960     7.3500     8.4310    24.2760     2.2640 
   82.1250    -8.3620    89.5680     8.2390     7.5670     8.6830    24.3220     2.2600 
   82.2500    -8.3130    87.8660     8.1860     7.5650     8.1120    24.3450     2.2790 
   82.3750    -8.2890    84.8770     8.0740     7.4490     7.2990    24.3480     2.3130 
   82.5000    -8.2730    84.8130     7.9930     7.3080     7.1430    24.3410     2.3510 
   82.6250    -8.2580    88.7140     7.9830     7.2070     7.4900    24.3320     2.3770 
   82.7500    -8.2530    93.9480     8.0230     7.1810     7.5690    24.3260     2.3780 
   82.8750    -8.2700    94.8840     8.0590     7.2090     7.3670    24.3220     2.3620 
   83.0000    -8.3140    91.3300     8.0790     7.2770     7.4770    24.3240     2.3380 
   83.1250    -8.3740    88.4350     8.1200     7.3910     7.5500    24.3350     2.3150 
   83.2500    -8.4170    88.1200     8.2890     7.5990     7.7440    24.3550     2.2920 
   83.3750    -8.4440    87.6410     8.6340     7.9280     7.9330    24.3740     2.2670 
   83.5000    -8.4720    87.1240     9.1550     8.3900     8.2470    24.3920     2.2420 
   83.6250    -8.5200    88.6930     9.7790     8.9470     8.9580    24.4220     2.2230 
   83.7500    -8.5890    89.4780    10.3560     9.4980    10.0240    24.4830     2.2160 
   83.8750    -8.6610    87.8230    10.7590     9.9220    10.7680    24.5550     2.2190 
   84.0000    -8.7460    87.3320    10.9510    10.1630    10.8510    24.5920     2.2270 
   84.1250    -8.8440    90.3600    11.0080    10.2590    10.4330    24.5610     2.2310 
   84.2500    -8.9600    92.4100    11.1210    10.3620     9.6350    24.4750     2.2320 
   84.3750    -9.0850    90.9030    11.4300    10.6270     9.1490    24.3990     2.2460 
   84.5000    -9.2100    87.6600    11.9150    11.0770     8.8330    24.3680     2.2840 
   84.6250    -9.3080    84.4860    12.3730    11.5720     8.8780    24.3830     2.3490 
   84.7500    -9.3640    82.0450    12.3960    11.7670    10.4480    24.4300     2.4150 
   84.8750    -9.3870    82.3860    11.8820    11.4640    12.7450    24.4900     2.4520 
   85.0000    -9.3600    85.4290    11.0390    10.6850    12.8560    24.5540     2.4540 
   85.1250    -9.2960    87.8910    10.3140     9.6750     9.8280    24.6130     2.4330 
   85.2500    -9.2380    87.7790     9.7440     8.8430     7.8220    24.6590     2.4160 
   85.3750    -9.1980    87.8560     9.7120     8.4920     7.6910    24.7050     2.4090 
   85.5000    -9.1720    86.5940    10.4660     8.8220     9.2850    24.7660     2.4000 
   85.6250    -9.1430    80.5440    12.1660     9.9930    10.6420    24.8530     2.3730 
   85.7500    -9.0930    71.3080    15.0220    12.3420    12.9090    24.9720     2.3200 
   85.8750    -9.0240    65.2110    18.8700    15.7970    16.6090    25.1100     2.2580 
   86.0000    -8.9690    64.3050    23.5940    20.2520    23.8710    25.2580     2.2030 
   86.1250    -8.9290    65.6950    28.8290    25.3030    32.7030    25.4160     2.1640 
   86.2500    -8.8620    64.7260    33.7300    30.1210    35.4300    25.5710     2.1450 
   86.3750    -8.7550    62.3290    37.4970    33.9530    38.2810    25.6890     2.1380 
   86.5000    -8.6120    60.6850    39.8420    36.4830    45.1280    25.7460     2.1380 
   86.6250    -8.4590    61.0410    41.0410    37.8400    49.4000    25.7520     2.1410 
   86.7500    -8.3190    63.5910    41.5900    38.3410    47.3650    25.7440     2.1450 
   86.8750    -8.2030    65.2620    41.9790    38.4870    42.4840    25.7480     2.1490 
   87.0000    -8.0830    64.5920    42.2890    38.4290    44.1010    25.7650     2.1550 
   87.1250    -7.9280    62.1090    42.4500    38.2050    46.0230    25.7790     2.1600 
   87.2500    -7.7510    61.3220    42.2580    37.7620    42.6660    25.7730     2.1630 
   87.3750    -7.5650    62.2670    41.6420    37.1010    40.6120    25.7480     2.1640 
   87.5000    -7.3750    62.2630    40.6220    36.2450    37.8100    25.7120     2.1640 
   87.6250    -7.1840    61.1710    39.3720    35.3050    36.7350    25.6810     2.1650 
   87.7500    -6.9930    59.6340    38.2040    34.5120    36.1410    25.6720     2.1680 
   87.8750    -6.8080    58.5300    37.3540    34.0410    35.0190    25.6810     2.1710 
   88.0000    -6.6600    58.8020    36.9040    33.9770    34.2280    25.6980     2.1720 
   88.1250    -6.5730    59.3020    36.8080    34.3060    34.5060    25.7120     2.1720 
   88.2500    -6.5400    58.6340    36.9360    34.9590    38.2110    25.7150     2.1700 
   88.3750    -6.5340    57.7730    37.1250    35.7600    38.5700    25.7080     2.1700 
   88.5000    -6.5550    58.5150    37.3830    36.6700    37.7410    25.6970     2.1710 
   88.6250    -6.6160    61.4500    37.8360    37.7520    37.9820    25.6890     2.1720 
   88.7500    -6.7310    64.5020    38.5810    39.1100    38.0920    25.6820     2.1710 
   88.8750    -6.8880    65.0910    39.1110    40.3660    37.1840    25.6460     2.1670 
   89.0000    -7.0680    62.7200    38.3480    40.5420    37.7750    25.5450     2.1580 
   89.1250    -7.2450    60.9660    35.1110    38.3270    41.3960    25.3580     2.1480 
   89.2500    -7.4230    66.0610    28.9210    32.6600    43.2030    25.1080     2.1470 
   89.3750    -7.6230    77.4760    21.8160    25.2850    35.9050    24.8640     2.1660 
   89.5000    -7.8410    91.0090    15.5060    18.1130    20.9970    24.6660     2.2060 
   89.6250    -8.0570   102.0930    10.8880    12.4960     9.6050    24.5240     2.2580 
   89.7500    -8.2490   106.3740     8.2100     9.0660     6.3070    24.4400     2.3080 
   89.8750    -8.4010   104.7600     6.7470     7.1180     5.3960    24.3990     2.3450 
   90.0000    -8.5270   101.9410     6.1350     6.2190     5.3670    24.3930     2.3710 
   90.1250    -8.6670   100.6380     6.1430     6.0690     5.7060    24.4130     2.3940 
   90.2500    -8.8390    97.5490     6.7390     6.5940     6.0710    24.4530     2.4160 
   90.3750    -9.0330    90.8930     7.8170     7.6380     6.4450    24.5110     2.4260 
   90.5000    -9.2320    82.8590     9.3820     9.1870     7.3080    24.5950     2.4110 
   90.6250    -9.4180    77.1260    11.3870    11.1890     9.6880    24.7150     2.3660 
   90.7500    -9.5840    74.5470    13.6510    13.4670    13.8440    24.8520     2.3020 
   90.8750    -9.7380    72.8880    15.7360    15.5850    17.2590    24.9660     2.2420 
   91.0000    -9.8690    71.5220    17.2860    17.1610    17.9610    25.0390     2.2020 
   91.1250    -9.9550    69.6160    18.1410    17.9840    16.5480    25.0790     2.1840 
   91.2500    -9.9580    67.3860    18.4040    18.0660    14.8320    25.1010     2.1840 
   91.3750    -9.8880    66.7040    18.5720    17.8960    15.0190    25.1200     2.1910 
   91.5000    -9.7580    67.7080    18.9900    17.8440    16.5270    25.1420     2.2020 
   91.6250    -9.6070    67.8960    19.8700    18.1790    17.2360    25.1840     2.2130 
