~V
VERS. 2.00: Ver 2.00
~W
STRT.M 58.0000:
STOP.M 193.0000:
STEP.M 0.1250:
NULL. -999.2500:
UWI. F10563:
~C
DEPT.M :
GR.API :
RML.OHMM :
RI. :
RXO.OHMM :
CALI.CM :
DEN.GM/CC :
SP.MV :
~A
# ...
  170.5000    89.5530     8.0680     6.6310     7.8190    24.2690     2.2650   -12.6770 
  170.6250    92.4590     8.5960     7.0990     9.5990    24.2690     2.2380   -12.9500 
  170.7500    93.7130     9.1130     7.6110    10.8560    24.2670     2.2220   -13.0250 
  170.8750    93.2900     9.5990     8.1300    10.6280    24.2460     2.2200   -12.9580 
  171.0000    92.1120    10.0590     8.6240     9.9170    24.1570     2.2330   -12.8540 
  171.1250    92.5250    10.4990     9.0600    10.3640    23.9820     2.2550   -12.7500 
  171.2500    93.6310    10.8810     9.4130    10.9340    23.8210     2.2730   -12.6620 
  171.3750    92.5630    11.1160     9.6320    11.4700    23.7980     2.2820   -12.5180 
  171.5000    89.8960    11.0920     9.6460    11.6430    23.9350     2.2790   -12.1700 
  171.6250    87.8600    10.6850     9.3610    11.7790    24.1350     2.2710   -11.7810 
  171.7500    83.8900    10.0000     8.8440    11.0400    24.2690     2.2670   -11.5110 
  171.8750    76.7150     9.1760     8.1910     9.6780    24.3130     2.2720   -11.1540 
  172.0000    67.5700     8.3770     7.5290     8.7120    24.3180     2.2890   -10.7540 
  172.1250    60.4870     7.7930     7.0020     7.5800    24.3180     2.3160   -10.3760 
  172.2500    56.6280     7.4850     6.6730     7.1860    24.3170     2.3500    -9.9460 
  172.3750    53.3030     7.4610     6.5620     6.9700    24.3120     2.3940    -9.5750 
  172.5000    50.3650     7.6570     6.6420     6.8360    24.2990     2.4450    -9.3380 
  172.6250    49.1480     7.9300     6.8310     7.2880    24.2870     2.4920    -9.1060 
  172.7500    49.9100     8.0770     6.9780     8.4620    24.2740     2.5190    -8.8840 
  172.8750    51.7270     7.9790     6.9840     9.3670    24.2690     2.5180    -8.8580 
  173.0000    53.7460     7.6290     6.8140     8.7180    24.2640     2.4930    -8.9170 
  173.1250    55.4070     7.1470     6.5150     6.8390    24.2510     2.4580    -8.8850 
  173.2500    54.0980     6.7370     6.2240     6.1090    24.2350     2.4320    -8.8990 
  173.3750    51.1130     6.5210     6.0350     5.9410    24.2320     2.4190    -9.0450 
  173.5000    50.7600     6.5410     5.9940     5.9390    24.2430     2.4180    -9.2040 
  173.6250    54.7210     6.7930     6.1180     6.1300    24.2730     2.4200    -9.3200 
  173.7500    58.1100     7.1330     6.3220     6.7870    24.3030     2.4180    -9.4600 
  173.8750    58.7880     7.4290     6.5240     7.5800    24.3160     2.4080    -9.6330 
  174.0000    58.9260     7.5710     6.6450     7.8670    24.3170     2.3920    -9.7900 
  174.1250    60.1310     7.5020     6.6220     7.4400    24.2970     2.3810   -10.0140 
  174.2500    60.4840     7.3520     6.5230     7.2210    24.2450     2.3800   -10.2390 
  174.3750    59.9640     7.2790     6.4580     6.9760    24.1830     2.3910   -10.3710 
  174.5000    59.7640     7.4320     6.5480     6.5520    24.1500     2.4050   -10.6080 
  174.6250    60.2120     7.9390     6.9140     6.4150    24.1340     2.4100   -10.8920 
  174.7500    60.4150     8.6890     7.4840     7.2580    24.0980     2.4070   -11.1270 
  174.8750    60.1120     9.4990     8.1210     9.3060    24.0450     2.3990   -11.3570 
  175.0000    60.0100    10.1130     8.6310    11.4330    24.0240     2.3940   -11.4930 
  175.1250    61.0830    10.2460     8.7990    11.3330    24.0290     2.3930   -11.5980 
  175.2500    62.7730     9.9860     8.6720     9.3410    24.0470     2.3910   -11.8350 
  175.3750    63.9730     9.5580     8.3980     7.4640    24.0230     2.3810   -12.1580 
  175.5000    65.8740     9.2410     8.1740     6.6470    23.9250     2.3600   -12.4330 
  175.6250    69.6950     9.3200     8.2150     6.9300    23.7700     2.3360   -12.6160 
  175.7500    73.2760     9.8350     8.5750     7.8270    23.6910     2.3170   -12.7530 
  175.8750    75.5290    10.7560     9.2620     8.7030    23.7300     2.3080   -12.8810 
  176.0000    77.3690    11.9480    10.2120     9.2830    23.8580     2.3050   -13.0310 
  176.1250    80.5520    13.0920    11.2280    11.1450    24.0130     2.3040   -13.2130 
  176.2500    85.3070    13.7810    11.9730    13.9890    24.0730     2.3000   -13.2780 
  176.3750    92.1660    13.7360    12.1740    17.4440    24.0740     2.2940   -13.1700 
  176.5000    99.4350    12.9350    11.7280    17.9710    24.0500     2.2870   -13.0370 
  176.6250   101.4110    11.6250    10.7360    15.6790    24.0290     2.2820   -13.0140 
  176.7500    97.5240    10.3210     9.6170    11.8510    24.0050     2.2760   -12.9820 
  176.8750    92.3560     9.3030     8.6400     9.2680    23.9870     2.2700   -12.7670 
  177.0000    89.8400     8.6840     7.9500     8.6620    23.9790     2.2660   -12.6040 
  177.1250    89.2680     8.4910     7.6250     8.6990    23.9790     2.2700   -12.4300 
  177.2500    88.1290     8.5410     7.5540     8.6330    23.9790     2.2820   -12.1640 
  177.3750    86.1760     8.6980     7.6450     8.3600    23.9790     2.2980   -11.9540 
  177.5000    84.1440     8.8320     7.7910     8.2360    23.9790     2.3110   -11.7000 
  177.6250    81.7580     8.8180     7.8700     8.3510    23.9790     2.3160   -11.3570 
  177.7500    80.0370     8.6380     7.8170     8.4960    23.9790     2.3150   -11.0690 
  177.8750    78.4660     8.3150     7.6140     8.3160    23.9900     2.3140   -10.8440 
  178.0000    75.3970     7.9080     7.2870     7.7280    24.0240     2.3190   -10.5900 
  178.1250    70.5430     7.5040     6.8960     6.9000    24.0840     2.3320   -10.3420 
  178.2500    64.2570     7.1770     6.5300     6.5640    24.0980     2.3510   -10.1320 
  178.3750    58.0150     6.9580     6.2410     6.5020    24.0830     2.3710    -9.9760 
  178.5000    53.7030     6.8420     6.0510     6.5000    24.0720     2.3920    -9.9430 
  178.6250    52.8400     6.8120     5.9690     6.5350    24.0720     2.4090   -10.0370 
  178.7500    53.8320     6.8240     5.9540     6.4030    24.0720     2.4200   -10.1100 
  178.8750    55.2550     6.8620     5.9850     6.3900    24.0720     2.4230   -10.1930 
  179.0000    56.9300     6.9240     6.0450     6.4640    24.0720     2.4200   -10.3150 
  179.1250    57.8380     7.0110     6.1250     6.4620    24.0720     2.4160   -10.4550 
  179.2500    57.4190     7.1040     6.2010     6.6850    24.0730     2.4180   -10.6480 
  179.3750    57.6770     7.1690     6.2450     6.9210    24.0770     2.4250   -10.8030 
  179.5000    59.0210     7.1720     6.2310     7.1120    24.0820     2.4310   -10.9440 
  179.6250    59.0140     7.0800     6.1310     7.2540    24.0850     2.4240   -11.1160 
  179.7500    58.7380     6.9310     5.9810     7.0930    24.1130     2.4000   -11.2490 
  179.8750    62.4520     6.7830     5.8320     6.7260    24.1760     2.3670   -11.4270 
  180.0000    71.2130     6.7040     5.7460     6.3360    24.2550     2.3360   -11.6210 
  180.1250    79.3100     6.7820     5.7960     6.2580    24.1850     2.3170   -11.8450 
  180.2500    81.7030     7.0160     5.9750     6.5030    24.1640     2.3080   -12.1150 
  180.3750    80.4360     7.3780     6.2550     6.9160    24.1910     2.3040   -12.4910 
  180.5000    80.0540     7.8070     6.5850     7.4170    24.2190     2.3000   -12.8540 
  180.6250    83.1750     8.2120     6.9000     8.1480    24.2260     2.2940   -13.0750 
  180.7500    87.5510     8.5300     7.1640     8.6450    24.2260     2.2890   -13.2630 
  180.8750    90.2630     8.7330     7.3700     8.6840    24.2260     2.2850   -13.4190 
  181.0000    89.9250     8.8210     7.5200     8.7120    24.2260     2.2820   -13.5310 
  181.1250    89.5290     8.7930     7.5980     8.8590    24.2260     2.2810   -13.4750 
  181.2500    92.1810     8.6920     7.6000     9.0030    24.2250     2.2830   -13.4000 
  181.3750    95.7160     8.5540     7.5290     9.4610    24.2240     2.2850   -13.2430 
  181.5000    96.3710     8.4240     7.4160     9.1690    24.2160     2.2870   -13.0000 
  181.6250    95.4110     8.3770     7.3370     8.4750    24.1990     2.2850   -12.7000 
