~V
VERS. 2.00: Ver 2.00
~W
STRT.M 58.0000:
STOP.M 199.0000:
STEP.M 0.1250:
NULL. -999.2500:
UWI. F10565:
~C
DEPT.M :
SP.MV :
GR.API :
RML.OHMM :
RI. :
RXO.OHMM :
CALI.CM :
DEN.GM/CC :
~A
# ...
  136.7500    -8.0220    83.5610     7.8540     6.5430     6.7340    23.5370     2.3700 
  136.8750    -8.2180    85.7690     8.0740     6.7590     6.9330    23.5170     2.3690 
  137.0000    -8.4340    85.7770     8.4060     7.0310     7.2220    23.4870     2.3740 
  137.1250    -8.6610    84.0900     8.8280     7.3470     7.7400    23.4650     2.3810 
  137.2500    -8.8760    84.0840     9.2880     7.6740     9.3840    23.4620     2.3890 
  137.3750    -9.0550    85.3060     9.7160     7.9750    11.9270    23.4700     2.3940 
  137.5000    -9.2060    85.2900    10.0870     8.2370    12.1330    23.4740     2.3950 
  137.6250    -9.3380    84.9180    10.4120     8.4770    10.3000    23.4720     2.3940 
  137.7500    -9.4300    84.5460    10.7230     8.7340     9.7040    23.4740     2.3920 
  137.8750    -9.4760    82.5500    11.0280     9.0230    10.2390    23.4850     2.3900 
  138.0000    -9.4800    79.3470    11.2840     9.3210    11.7780    23.5020     2.3880 
  138.1250    -9.4540    79.0330    11.4110     9.5710    14.2090    23.5190     2.3850 
  138.2500    -9.4100    83.1180    11.2980     9.6770    14.4730    23.5400     2.3820 
  138.3750    -9.3720    86.0970    10.9770     9.6270    10.9440    23.5610     2.3790 
  138.5000    -9.3250    86.5200    10.5210     9.4410     9.4210    23.5740     2.3790 
  138.6250    -9.2530    86.4330    10.0290     9.1660     8.8940    23.5680     2.3820 
  138.7500    -9.1600    87.6940     9.5970     8.8500     8.5450    23.5340     2.3880 
  138.8750    -9.0640    89.0640     9.2530     8.5320     8.0630    23.4930     2.3940 
  139.0000    -8.9860    89.9750     8.9970     8.2370     7.5240    23.4600     2.3970 
  139.1250    -8.9290    90.6910     8.8240     7.9890     7.2930    23.4400     2.3970 
  139.2500    -8.8910    90.1520     8.7340     7.8250     7.3550    23.4290     2.3960 
  139.3750    -8.8500    88.9660     8.7000     7.7460     7.5170    23.4180     2.3960 
  139.5000    -8.8040    87.5600     8.7050     7.7400     7.7060    23.4060     2.3990 
  139.6250    -8.7590    85.8690     8.7260     7.7840     7.9870    23.3990     2.4050 
  139.7500    -8.6940    85.4400     8.7410     7.8470     8.2740    23.3960     2.4130 
  139.8750    -8.6090    86.6690     8.7460     7.9060     8.4980    23.3840     2.4160 
  140.0000    -8.4870    89.2960     8.7780     7.9670     8.5630    23.3580     2.4110 
  140.1250    -8.3430    90.5570     8.9320     8.0860     8.4270    23.3400     2.3960 
  140.2500    -8.2180    86.7230     9.4610     8.4470     8.5790    23.3780     2.3790 
  140.3750    -8.1210    79.3420    10.6180     9.2790     9.0750    23.4720     2.3750 
  140.5000    -8.0370    70.3510    12.7720    10.9360    10.4100    23.5810     2.4000 
  140.6250    -7.9410    61.6220    16.3990    13.9020    12.5570    23.6740     2.4540 
  140.7500    -7.8550    55.4600    22.4660    19.1200    18.9750    23.7990     2.5150 
  140.8750    -7.8090    54.3340    31.0010    26.6000    31.2750    24.0210     2.5480 
  141.0000    -7.8050    57.0370    41.5180    35.8720    41.3920    24.3510     2.5340 
  141.1250    -7.8060    59.6450    52.3880    45.5650    46.1630    24.7290     2.4800 
  141.2500    -7.7790    58.3660    60.7450    53.4230    52.8830    25.0470     2.4120 
  141.3750    -7.7240    56.2590    65.6710    58.5830    59.3630    25.2390     2.3580 
  141.5000    -7.6600    56.2420    67.8070    61.2980    66.2190    25.3010     2.3220 
  141.6250    -7.6170    58.8610    68.4450    62.4140    72.1450    25.2890     2.2940 
  141.7500    -7.5940    62.7750    68.5640    62.6900    75.4670    25.2830     2.2660 
  141.8750    -7.5710    65.8580    68.7330    62.8150    70.4390    25.3040     2.2380 
  142.0000    -7.5580    66.1290    69.2300    63.1530    65.4150    25.3170     2.2150 
  142.1250    -7.5560    63.9010    70.2730    63.9860    62.7720    25.2790     2.2010 
  142.2500    -7.5490    60.8630    71.9070    65.4480    64.1920    25.1810     2.1950 
  142.3750    -7.5410    60.0190    73.5250    67.0660    69.3430    25.0810     2.1930 
  142.5000    -7.5290    59.4220    74.3510    68.2030    76.0240    25.0220     2.1930 
  142.6250    -7.5260    57.7380    73.7090    68.2400    80.9190    25.0270     2.1970 
  142.7500    -7.5440    57.1010    71.1890    66.6810    78.2040    25.1120     2.2030 
  142.8750    -7.5770    59.0290    67.6530    64.0840    69.7240    25.2510     2.2090 
  143.0000    -7.6110    61.9280    63.9720    61.1140    58.1750    25.3990     2.2130 
  143.1250    -7.6540    62.4360    60.9410    58.4890    50.4320    25.4980     2.2150 
  143.2500    -7.7160    61.0200    59.2710    56.9340    51.6020    25.4980     2.2150 
  143.3750    -7.7910    59.7870    58.8320    56.4740    51.7320    25.4330     2.2140 
  143.5000    -7.8800    59.6860    59.3620    56.9400    51.6610    25.3430     2.2120 
  143.6250    -7.9650    60.0850    60.4260    57.9630    53.8470    25.2550     2.2100 
  143.7500    -8.0490    58.6790    61.4940    59.0510    57.9430    25.1770     2.2100 
  143.8750    -8.1270    56.2220    62.1860    59.8140    57.7930    25.1050     2.2130 
  144.0000    -8.1730    55.0100    62.7050    60.1300    55.9240    25.0330     2.2180 
  144.1250    -8.1660    56.8010    63.4240    60.0580    55.4350    24.9670     2.2240 
  144.2500    -8.1340    59.3680    64.7850    59.7660    58.8850    24.9220     2.2280 
  144.3750    -8.1020    60.3860    64.9540    59.4850    63.6900    24.9000     2.2320 
  144.5000    -8.0980    61.0100    64.4700    59.3080    65.8420    24.8860     2.2370 
  144.6250    -8.1120    61.4580    63.8230    59.2370    58.3930    24.8700     2.2410 
  144.7500    -8.0870    61.8140    63.2610    59.2090    53.3010    24.8670     2.2420 
  144.8750    -8.0170    61.7240    62.7560    59.1380    50.0060    24.8970     2.2380 
  145.0000    -7.9470    62.0820    62.2430    58.9620    53.0570    24.9570     2.2270 
  145.1250    -7.9220    62.0480    61.6000    58.6130    56.3930    25.0260     2.2120 
  145.2500    -7.9330    61.5760    60.6500    57.9780    57.6930    25.0670     2.1960 
  145.3750    -7.9530    61.8260    59.4440    57.0990    55.3630    25.0800     2.1860 
  145.5000    -7.9640    62.4250    58.1360    56.0900    53.8880    25.0860     2.1840 
  145.6250    -7.9770    62.8090    56.9380    55.1280    52.0190    25.1130     2.1900 
  145.7500    -8.0120    62.3330    56.0780    54.4440    47.7940    25.1800     2.2010 
  145.8750    -8.0660    62.0980    55.5640    54.1020    47.3740    25.2690     2.2100 
  146.0000    -8.1050    61.4840    55.3440    54.0870    49.7670    25.3610     2.2130 
  146.1250    -8.1240    59.3010    55.3200    54.3060    50.0840    25.4400     2.2100 
  146.2500    -8.1590    57.2200    55.3870    54.6070    49.9160    25.4900     2.2020 
  146.3750    -8.2150    57.8250    55.4430    54.8230    48.4020    25.4860     2.1940 
  146.5000    -8.2630    61.1360    55.4380    54.8730    48.4220    25.4030     2.1910 
  146.6250    -8.2820    62.6880    55.3510    54.7410    52.0590    25.2580     2.1920 
  146.7500    -8.2790    59.7270    55.1850    54.4630    52.1350    25.1180     2.1950 
  146.8750    -8.2670    57.1270    55.0470    54.1950    51.3220    25.0170     2.1930 
  147.0000    -8.2730    57.6140    55.1480    54.1500    50.6640    24.9130     2.1860 
  147.1250    -8.2950    59.8860    55.8320    54.6660    51.8350    24.7340     2.1790 
  147.2500    -8.2980    59.6040    57.6980    56.3510    51.9490    24.4260     2.1880 
  147.3750    -8.2760    57.0640    60.7580    59.2580    48.9910    24.0620     2.2330 
  147.5000    -8.2370    54.5350    64.6860    63.1180    42.8680    23.7380     2.3160 
  147.6250    -8.1660    52.7370    68.6120    67.1570    40.9980    23.5330     2.4190 
  147.7500    -8.0950    51.6540    70.8490    69.8890    52.4130    23.4800     2.4950 
  147.8750    -8.0540    52.7540    70.4390    70.3460    70.3050    23.5090     2.5100 
