~V
VERS. 2.00: Ver 2.00
~W
STRT.M 50.0000:
STOP.M 233.0000:
STEP.M 0.1250:
NULL. -999.2500:
UWI. F10598:
~C
DEPT.M :
DEN.GM/CC :
SP.MV :
GR.API :
RML.OHMM :
RI. :
RXO.OHMM :
CALI.CM :
~A
# ...
  207.5000     2.3170    -8.6240    71.4700     6.7450     5.6570     6.8690    24.4160 
  207.6250     2.3150    -8.7340    71.9820     6.4570     5.7080     6.6570    24.4160 
  207.7500     2.3210    -8.8290    70.3010     6.1710     5.7590     6.7190    24.4160 
  207.8750     2.3320    -8.9230    69.2840     6.0970     5.6000     6.7380    24.4160 
  208.0000     2.3430    -9.0150    70.7010     6.0010     5.4270     6.7080    24.4160 
  208.1250     2.3510    -9.1020    74.1950     5.7760     5.3570     6.6200    24.4140 
  208.2500     2.3550    -9.2040    76.3920     5.5430     5.3470     6.6370    24.4130 
  208.3750     2.3560    -9.3250    76.7380     5.3690     5.3740     6.8560    24.4130 
  208.5000     2.3570    -9.4910    77.5990     5.2510     5.4300     7.4760    24.4150 
  208.6250     2.3520    -9.6850    80.2710     5.1680     5.5380     8.1770    24.4160 
  208.7500     2.3370    -9.8790    84.9200     5.1330     5.6900     8.1000    24.4160 
  208.8750     2.3150   -10.0360    91.9330     5.2090     5.8620     7.4790    24.4160 
  209.0000     2.2990   -10.1130    98.9940     5.4380     6.0200     7.7510    24.4150 
  209.1250     2.3020   -10.0590    99.5010     5.7690     6.1070     8.3610    24.4120 
  209.2500     2.3200    -9.9150    92.0880     6.0340     6.0950     8.0080    24.4100 
  209.3750     2.3430    -9.7260    80.9600     6.0970     5.9780     7.0390    24.4120 
  209.5000     2.3620    -9.5030    70.7060     5.9300     5.7880     6.3430    24.4140 
  209.6250     2.3750    -9.2680    62.6830     5.6530     5.5720     6.2870    24.4150 
  209.7500     2.3850    -9.0450    57.7130     5.4330     5.3810     6.4330    24.4270 
  209.8750     2.3940    -8.8410    57.0520     5.3070     5.2480     6.7040    24.4570 
  210.0000     2.4010    -8.6970    61.2260     5.2460     5.1770     6.9060    24.4810 
  210.1250     2.3960    -8.6730    65.9380     5.2180     5.1510     6.8080    24.4890 
  210.2500     2.3800    -8.7190    66.9010     5.2350     5.1370     6.2990    24.4910 
  210.3750     2.3630    -8.7740    66.5230     5.3390     5.1370     6.1510    24.4900 
  210.5000     2.3550    -8.8200    66.9360     5.5550     5.1610     6.3770    24.4860 
  210.6250     2.3610    -8.8550    67.2380     5.8740     5.2130     6.7270    24.4840 
  210.7500     2.3690    -8.8900    66.6420     6.1910     5.2740     7.1430    24.4830 
  210.8750     2.3740    -8.9430    65.9430     6.3970     5.3330     7.4080    24.4840 
  211.0000     2.3710    -9.0090    66.1560     6.4040     5.3740     7.0310    24.4860 
  211.1250     2.3630    -9.0840    66.6240     6.2200     5.3830     6.8660    24.4910 
  211.2500     2.3550    -9.1460    67.9680     6.0180     5.3660     6.8420    24.4920 
  211.3750     2.3500    -9.1900    70.4320     5.9300     5.3340     6.8860    24.4910 
  211.5000     2.3480    -9.2100    71.4760     6.0400     5.2920     6.8590    24.4890 
  211.6250     2.3530    -9.1840    67.8750     6.3100     5.2420     6.8900    24.4910 
  211.7500     2.3600    -9.1220    62.7480     6.5200     5.1920     6.8800    24.4910 
  211.8750     2.3660    -9.0000    60.1100     6.5350     5.1470     6.7320    24.4880 
  212.0000     2.3690    -8.8380    61.4270     6.3730     5.1190     6.6680    24.4870 
  212.1250     2.3730    -8.6290    64.5800     6.1660     5.1290     6.8210    24.4890 
  212.2500     2.3780    -8.4110    67.2730     6.0290     5.1910     7.2160    24.4880 
  212.3750     2.3830    -8.2150    68.4400     5.9750     5.3080     7.7220    24.4860 
  212.5000     2.3820    -8.0260    67.6350     5.9680     5.4740     8.0820    24.4870 
  212.6250     2.3760    -7.8700    66.4970     5.9920     5.6740     8.1570    24.4850 
  212.7500     2.3700    -7.7330    66.3260     6.0760     5.8640     7.9950    24.4840 
  212.8750     2.3670    -7.6000    67.3400     6.2070     5.9950     7.7550    24.4850 
  213.0000     2.3660    -7.4710    67.7550     6.2920     6.0180     7.7770    24.4870 
  213.1250     2.3640    -7.3010    67.1140     6.2140     5.8990     7.8600    24.4850 
  213.2500     2.3570    -7.0800    68.6290     6.0020     5.6840     7.6550    24.4840 
  213.3750     2.3440    -6.8220    76.1440     5.7230     5.4200     7.0280    24.4830 
  213.5000     2.3270    -6.5800    88.8800     5.4720     5.1620     6.2210    24.4820 
  213.6250     2.3110    -6.3510    97.3350     5.3730     4.9710     5.7380    24.4360 
  213.7500     2.3030    -6.1430    97.0620     5.4300     4.8610     5.6050    24.3300 
  213.8750     2.3030    -5.9950    90.9890     5.5900     4.8330     5.7910    24.2270 
  214.0000     2.3040    -5.8960    83.0300     5.7570     4.8740     5.9770    24.1830 
  214.1250     2.2970    -5.8880    75.2660     5.8190     4.9560     5.9830    24.1830 
  214.2500     2.2860    -5.9690    71.8420     5.7590     5.0270     5.8900    24.1830 
  214.3750     2.2750    -6.1230    74.0530     5.6140     5.0580     5.7690    24.1830 
  214.5000     2.2710    -6.3230    75.8300     5.4330     5.0450     5.6560    24.1830 
  214.6250     2.2750    -6.5570    70.6530     5.2620     4.9940     5.7110    24.1830 
  214.7500     2.2820    -6.8180    63.2630     5.1430     4.9280     5.8440    24.1830 
  214.8750     2.2910    -7.1110    58.6780     5.1040     4.8690     5.9260    24.1830 
  215.0000     2.2950    -7.4160    59.1410     5.1520     4.8380     5.8550    24.1830 
  215.1250     2.2940    -7.7030    61.7780     5.2630     4.8420     5.8450    24.1750 
  215.2500     2.2950    -7.9590    61.5730     5.3630     4.8700     6.0410    24.1530 
  215.3750     2.3030    -8.1600    58.1730     5.4250     4.9100     6.2960    24.1280 
  215.5000     2.3120    -8.3250    56.8710     5.4780     4.9510     6.4570    24.1140 
  215.6250     2.3180    -8.4350    60.4460     5.5740     5.0010     6.5610    24.1080 
  215.7500     2.3240    -8.4810    63.6780     5.6980     5.0900     6.7940    24.1070 
  215.8750     2.3370    -8.4760    64.3480     5.8180     5.2370     7.2050    24.1060 
  216.0000     2.3540    -8.4410    63.9270     5.9160     5.4300     7.7540    24.1060 
  216.1250     2.3690    -8.4050    63.3670     5.9930     5.6230     8.1850    24.1060 
  216.2500     2.3730    -8.3470    62.8840     6.0680     5.7510     8.1760    24.1060 
  216.3750     2.3680    -8.3070    62.8340     6.1240     5.7750     7.7210    24.1060 
  216.5000     2.3620    -8.2460    62.8540     6.0960     5.6900     7.2470    24.1060 
  216.6250     2.3580    -8.1310    63.6400     5.8910     5.5110     6.9140    24.1060 
  216.7500     2.3530    -8.0110    65.9430     5.5530     5.2800     6.7140    24.1060 
  216.8750     2.3400    -7.8860    68.7160     5.1930     5.0150     6.4440    24.1060 
  217.0000     2.3180    -7.7760    69.2460     4.9190     4.7430     5.9990    24.1060 
  217.1250     2.2910    -7.6750    65.6840     4.7820     4.5190     5.5460    24.1060 
  217.2500     2.2670    -7.5990    62.0630     4.7160     4.3830     5.4050    24.1060 
  217.3750     2.2570    -7.5130    61.3310     4.6930     4.3610     5.5930    24.1060 
  217.5000     2.2700    -7.4400    62.8830     4.7100     4.4410     5.8900    24.1050 
  217.6250     2.2990    -7.3990    62.4290     4.7740     4.5910     6.1300    24.0970 
  217.7500     2.3320    -7.3240    60.3030     4.8700     4.7480     6.2140    24.0760 
  217.8750     2.3580    -7.1900    61.0280     4.9590     4.8740     6.1610    24.0410 
  218.0000     2.3720    -6.9950    64.3020     4.9960     4.9490     6.0190    24.0040 
  218.1250     2.3690    -6.7210    65.0530     4.9960     4.9600     5.8560    23.9660 
  218.2500     2.3550    -6.4150    62.1650     5.0060     4.9160     5.7560    23.9530 
  218.3750     2.3380    -6.0850    57.6140     5.0150     4.8200     5.7260    23.9510 
  218.5000     2.3210    -5.7370    52.8430     4.9670     4.6890     5.6490    23.9510 
  218.6250     2.3050    -5.4180    48.1010     4.8140     4.5500     5.4210    23.9510 
