~V
VERS. 2.00: Ver 2.00
~W
STRT.M 50.0000:
STOP.M 233.0000:
STEP.M 0.1250:
NULL. -999.2500:
UWI. F10598:
~C
DEPT.M :
DEN.GM/CC :
SP.MV :
GR.API :
RML.OHMM :
RI. :
RXO.OHMM :
CALI.CM :
~A
# ...
   83.7500     2.3540   -17.0320    85.6500    11.1360     8.7820    16.4050    24.2530 
   83.8750     2.3650   -16.3450    90.2110    10.0920     8.2820    15.2010    23.9670 
   84.0000     2.3330   -15.7290   101.9110     8.4640     7.1800     9.2190    23.8820 
   84.1250     2.3140   -15.2240   113.0080     6.9120     5.9580     6.1760    23.8790 
   84.2500     2.3210   -14.8500   119.3780     5.8440     4.9970     5.2790    23.8890 
   84.3750     2.3410   -14.5860   122.0300     5.3530     4.4100     5.0310    23.8950 
   84.5000     2.3610   -14.4470   120.5080     5.3770     4.2150     4.9870    23.9010 
   84.6250     2.3760   -14.4780   117.6720     5.8280     4.4130     5.1670    23.9060 
   84.7500     2.3870   -14.5600   115.4320     6.4780     4.8320     5.7520    23.9110 
   84.8750     2.3920   -14.6880   113.3760     7.1580     5.3380     6.9520    23.9140 
   85.0000     2.3820   -14.8130   107.5050     7.6820     5.7790     8.2860    23.9190 
   85.1250     2.3410   -14.9660    97.0930     7.8610     5.9680     8.3500    23.9660 
   85.2500     2.2820   -15.0730    89.9700     7.7560     5.9000     6.9840    24.0860 
   85.3750     2.2250   -15.1750    86.8660     7.4970     5.6720     5.9450    24.2580 
   85.5000     2.1840   -15.2590    84.6160     7.2020     5.4160     5.9640    24.3650 
   85.6250     2.1640   -15.2890    83.4950     6.9260     5.2250     6.1980    24.3880 
   85.7500     2.1560   -15.3050    85.5430     6.6770     5.0910     6.2490    24.3870 
   85.8750     2.1590   -15.3060    90.1860     6.4720     4.9820     6.1660    24.3870 
   86.0000     2.1750   -15.3500    94.4590     6.3420     4.8640     6.0000    24.3870 
   86.1250     2.2000   -15.4130    95.7600     6.3310     4.7510     5.7190    24.3870 
   86.2500     2.2210   -15.5760    94.4990     6.4270     4.7100     5.9150    24.3890 
   86.3750     2.2270   -15.7900    91.7330     6.6100     4.7950     6.3710    24.3920 
   86.5000     2.2190   -16.0400    87.4320     6.8520     5.0150     6.4800    24.3950 
   86.6250     2.2040   -16.3180    83.7780     7.1290     5.3310     6.6030    24.4180 
   86.7500     2.1880   -16.5890    82.8010     7.4200     5.6390     6.8290    24.4690 
   86.8750     2.1730   -16.8700    84.3480     7.6740     5.8630     7.1020    24.5200 
   87.0000     2.1580   -17.1330    85.5130     7.8310     5.9660     7.2150    24.5410 
   87.1250     2.1460   -17.4100    84.4370     7.8510     5.9570     7.1140    24.5410 
   87.2500     2.1400   -17.6180    84.2520     7.7890     5.9030     7.1990    24.5410 
   87.3750     2.1420   -17.7790    84.2810     7.6920     5.8370     7.3170    24.5410 
   87.5000     2.1520   -17.8950    82.6530     7.6180     5.7780     7.3700    24.5410 
   87.6250     2.1660   -18.0330    80.8940     7.6360     5.7380     7.2320    24.5440 
   87.7500     2.1780   -18.2070    80.4540     7.7240     5.7150     7.1170    24.5580 
   87.8750     2.1830   -18.3990    80.4270     7.8440     5.7190     7.1130    24.5850 
   88.0000     2.1760   -18.5850    78.0810     7.9880     5.7630     7.2020    24.6060 
   88.1250     2.1590   -18.7710    74.7210     8.1970     5.8660     7.4290    24.6160 
   88.2500     2.1460   -18.9700    75.3090     8.4950     6.0110     7.6540    24.6030 
   88.3750     2.1470   -19.2000    78.9870     8.8700     6.1820     7.8420    24.5400 
   88.5000     2.1580   -19.4760    81.2290     9.2520     6.3620     7.8900    24.3870 
   88.6250     2.1660   -19.7220    79.0540     9.4980     6.5330     7.8680    24.2170 
   88.7500     2.1610   -19.9680    77.1940     9.5600     6.6820     7.8990    24.0030 
   88.8750     2.1510   -20.1810    79.6100     9.4740     6.7900     8.0290    23.7310 
   89.0000     2.1450   -20.3920    84.3520     9.3080     6.8380     8.2060    23.5070 
   89.1250     2.1500   -20.5790    85.7780     9.1060     6.8210     8.3330    23.3980 
   89.2500     2.1590   -20.7670    83.1400     8.8920     6.7870     8.4410    23.3500 
   89.3750     2.1590   -20.9500    78.7790     8.6800     6.7760     8.4790    23.3360 
   89.5000     2.1440   -21.1060    76.7090     8.4950     6.8100     8.4350    23.3750 
   89.6250     2.1200   -21.2800    76.6450     8.3610     6.8900     8.3330    23.5780 
   89.7500     2.1000   -21.4080    75.8050     8.2690     6.9830     8.3790    23.9470 
   89.8750     2.0860   -21.5320    74.6020     8.2250     7.0500     8.5630    24.2940 
   90.0000     2.0710   -21.6250    74.7420     8.2400     7.0630     8.8340    24.5360 
   90.1250     2.0550   -21.6990    78.9810     8.3060     6.9990     8.8230    24.7180 
   90.2500     2.0540   -21.7470    83.3690     8.3750     6.8760     8.4810    24.8120 
   90.3750     2.0730   -21.7800    84.3910     8.3990     6.7260     8.0190    24.8390 
   90.5000     2.1020   -21.8380    83.1830     8.3630     6.6000     7.6680    24.8330 
   90.6250     2.1190   -21.8800    82.9620     8.3550     6.5610     7.7590    24.7960 
   90.7500     2.1210   -21.9730    84.0480     8.4920     6.6170     8.1190    24.7160 
   90.8750     2.1130   -22.0930    83.6050     8.8040     6.7530     8.7180    24.6060 
   91.0000     2.1030   -22.2840    81.3120     9.2220     6.9380     9.4100    24.4830 
   91.1250     2.1030   -22.4940    79.4160     9.6080     7.1180     9.8720    24.3920 
   91.2500     2.1170   -22.7360    78.3780     9.8430     7.2420     9.8120    24.3160 
   91.3750     2.1430   -22.9720    78.4990     9.8660     7.2860     9.4710    24.2410 
   91.5000     2.1660   -23.1930    77.9060     9.7050     7.2470     9.1240    24.1850 
   91.6250     2.1750   -23.4190    75.4410     9.4640     7.1420     8.8010    24.1670 
   91.7500     2.1750   -23.6420    74.5120     9.2610     7.0340     8.5880    24.1640 
   91.8750     2.1770   -23.8600    75.3180     9.1550     6.9660     8.6150    24.1640 
   92.0000     2.1820   -24.0170    74.8450     9.1650     6.9620     8.8900    24.1640 
   92.1250     2.1790   -24.1640    71.4300     9.3030     7.0310     9.1990    24.1780 
   92.2500     2.1590   -24.2710    70.8400     9.5380     7.1420     9.5620    24.2820 
   92.3750     2.1270   -24.3540    74.0390     9.8260     7.2740    10.0130    24.6040 
   92.5000     2.1000   -24.4020    77.5430    10.0750     7.4220    10.3170    25.1200 
   92.6250     2.0950   -24.4140    79.6750    10.1620     7.5970    10.5330    25.5560 
   92.7500     2.1060   -24.3870    79.1580    10.1290     7.7890    10.7980    25.7240 
   92.8750     2.1140   -24.3090    76.1450    10.0660     7.9630    10.8130    25.7980 
   93.0000     2.1110   -24.2130    73.6490    10.0330     8.0770    10.5440    25.9100 
   93.1250     2.0980   -24.0330    75.3130    10.0170     8.0920    10.5330    26.0470 
   93.2500     2.0810   -23.8190    76.5720     9.9380     8.0290    10.4650    26.1040 
   93.3750     2.0630   -23.5460    74.4190     9.7510     7.9100    10.3180    26.0640 
   93.5000     2.0490   -23.2240    72.4600     9.4760     7.7590    10.2080    25.8870 
   93.6250     2.0470   -22.8160    72.9380     9.1720     7.5750    10.0440    25.5510 
   93.7500     2.0480   -22.3510    72.0020     8.8760     7.3540     9.6800    25.3040 
   93.8750     2.0520   -21.8350    69.7160     8.5810     7.1160     9.1930    25.1570 
   94.0000     2.0680   -21.3200    69.0180     8.2980     6.8890     8.6200    24.9510 
   94.1250     2.1040   -20.8720    71.5600     8.0570     6.6980     8.0560    24.5820 
   94.2500     2.1430   -20.5080    74.7500     7.8470     6.5330     7.6830    24.2710 
   94.3750     2.1690   -20.2390    79.2070     7.6450     6.3950     7.5230    24.1320 
   94.5000     2.1700   -20.0440    84.4210     7.4520     6.2910     7.5160    24.1390 
   94.6250     2.1440   -19.9970    84.8390     7.3320     6.2520     7.5950    24.3150 
   94.7500     2.1050   -20.0380    80.8320     7.3520     6.3010     7.7200    24.6400 
   94.8750     2.0650   -20.1890    79.0650     7.5610     6.4370     7.8470    25.0370 
