~V
VERS. 2.00: Ver 2.00
~W
STRT.M 52.0000:
STOP.M 224.0000:
STEP.M 0.1250:
NULL. -999.2500:
UWI. F10595:
~C
DEPT.M :
GR.API :
RML.OHMM :
RI. :
RXO.OHMM :
CALI.CM :
DEN.GM/CC :
SP.MV :
~A
   52.0000  -999.2500  -999.2500  -999.2500  -999.2500  -999.2500  -999.2500   135.1080 
   52.1250  -999.2500  -999.2500  -999.2500  -999.2500  -999.2500  -999.2500   135.0490 
   52.2500  -999.2500  -999.2500  -999.2500  -999.2500  -999.2500  -999.2500   134.9190 
   52.3750  -999.2500  -999.2500  -999.2500  -999.2500  -999.2500  -999.2500   134.7700 
   52.5000  -999.2500  -999.2500  -999.2500  -999.2500  -999.2500  -999.2500   134.6250 
   52.6250  -999.2500  -999.2500  -999.2500  -999.2500  -999.2500  -999.2500   134.5040 
   52.7500  -999.2500  -999.2500  -999.2500  -999.2500  -999.2500  -999.2500   134.4160 
   52.8750    38.6520     8.4950     0.9460     2.5560    25.2750  -999.2500   134.3470 
   53.0000    38.6520     8.4950     0.9460     2.5560    25.2750  -999.2500   134.2790 
   53.1250    38.6520     8.4950     0.9460     2.5560    25.2750  -999.2500   134.2040 
   53.2500    37.3170     8.4910     0.9520     2.5790    25.3070  -999.2500   134.1140 
   53.3750    36.5990     8.3720     0.9600     2.2100    25.3120  -999.2500   134.0150 
   53.5000    39.4710     8.1230     0.9690     1.9810    25.3080  -999.2500   133.9240 
   53.6250    43.1920     7.8390     0.9730     1.8850    25.3000  -999.2500   133.8530 
   53.7500    42.9080     7.6530     0.9730     1.9200    25.3060  -999.2500   133.8090 
   53.8750    40.8370     7.5070     0.9710     2.0270    25.3120     1.9760   133.7950 
   54.0000    40.9130     7.2590     0.9730     2.2370    25.3180     1.9760   133.8180 
   54.1250    42.2730     6.9060     0.9820     2.5750    25.3210     1.9760   133.8700 
   54.2500    42.3290     6.6130     0.9920     2.7140    25.2940     1.9950   133.9260 
   54.3750    41.7070     6.5170     0.9980     2.5790    25.2320     2.0350   133.9510 
   54.5000    40.7920     6.5790     1.0010     2.5040    25.1710     2.0920   133.9120 
   54.6250    39.5440     6.5970     1.0060     2.7920    25.1860     2.1590   133.7860 
   54.7500    37.5660     6.4030     1.0180     3.0010    25.2610     2.2270   133.5360 
   54.8750    35.8470     6.1450     1.0300     2.9930    25.3070     2.2740   133.1650 
   55.0000    35.0840     6.0210     1.0390     3.0210    25.3200     2.2840   132.6680 
   55.1250    35.0360     6.1350     1.0400     3.2040    25.3210     2.2600   132.0550 
   55.2500    35.9060     6.3850     1.0370     3.4560    25.3200     2.2260   131.3390 
   55.3750    37.5960     6.5020     1.0340     3.6350    25.3160     2.2060   130.5700 
   55.5000    39.3270     6.3180     1.0370     3.8410    25.3030     2.2110   129.7770 
   55.6250    40.0950     5.8190     1.0420     4.1200    25.2470     2.2370   128.9900 
   55.7500    40.8330     5.2180     1.0480     4.7590    25.0660     2.2780   128.2490 
   55.8750    43.1940     4.7730     1.0470     5.7760    24.7570     2.3210   127.5740 
   56.0000    46.1890     4.5560     1.0360     7.2540    24.3490     2.3600   126.9620 
   56.1250    48.1860     4.5370     1.0170     8.8050    23.9710     2.3890   126.3890 
   56.2500    47.9730     4.5700     0.9950     7.3920    23.7950     2.4040   125.8130 
   56.3750    46.1600     4.4950     0.9770     3.7270    23.7140     2.4120   125.1660 
   56.5000    44.8560     4.2690     0.9670     1.9590    23.6280     2.4200   124.3710 
   56.6250    45.0790     3.9510     0.9610     1.2430    23.4710     2.4290   123.3370 
   56.7500    46.7760     3.7380     0.9530     1.0480    23.2140     2.4400   121.8780 
   56.8750    50.6040     3.7610     0.9400     1.0280    22.9120     2.4490   119.9120 
   57.0000    56.3300     3.9570     0.9160     1.1020    22.6030     2.4520   117.3030 
   57.1250    59.3370     3.9820     0.8640     1.2220    22.3370     2.4520   113.8980 
   57.2500    55.9840     3.2440     0.7650     1.3610    22.1490     2.4790   109.3490 
   57.3750    51.5980     2.1010     0.6450     1.4810    22.1120     2.5540   103.6630 
   57.5000    48.9700     1.1440     0.5380     1.5380    22.1550     2.6480    96.7510 
   57.6250    48.5090     0.5900     0.4680     1.5550    22.2010     2.6990    88.5860 
   57.7500    52.5260     0.4330     0.4520     1.6210    22.1920     2.6590    79.0430 
   57.8750    57.7940     0.5590     0.4980     1.9890    22.1520     2.5630    68.4960 
   58.0000    60.6610     0.9930     0.6370     3.0950    22.1240     2.4500    57.2020 
   58.1250    61.5020     1.7990     0.9230     5.2040    22.2100     2.3450    45.5190 
   58.2500    65.3700     3.0020     1.4710     6.9220    22.7480     2.2660    33.9700 
   58.3750    72.1170     4.2370     2.2600     7.5760    23.9050     2.2040    23.0610 
   58.5000    76.5900     5.1320     3.1820     7.5820    25.3620     2.1560    13.1790 
   58.6250    75.4670     5.5930     4.0790     7.6300    26.1430     2.1130     4.5900 
   58.7500    71.0430     5.8630     4.8550     7.9180    26.1120     2.0790    -2.3090 
   58.8750    67.5130     6.2050     5.5420     8.2780    25.9150     2.0510    -7.7180 
   59.0000    64.2380     6.6050     6.1070     8.4910    26.0410     2.0330   -11.6920 
   59.1250    59.8320     6.9020     6.4430     8.5650    26.3510     2.0360   -14.3730 
   59.2500    58.5350     6.8850     6.4000     8.3980    26.4270     2.0740   -15.8340 
   59.3750    62.5100     6.5830     6.0740     7.7970    26.0870     2.1350   -16.5380 
   59.5000    69.5330     6.1220     5.6120     6.5540    25.4820     2.1960   -16.7240 
   59.6250    75.5870     5.6690     5.1660     5.6150    24.9460     2.2370   -16.5660 
   59.7500    76.3620     5.3630     4.8540     5.5030    24.5880     2.2570   -16.1770 
   59.8750    73.7280     5.2120     4.6760     5.7910    24.3120     2.2780   -15.7100 
   60.0000    72.3760     5.2180     4.6330     5.9440    24.1830     2.3090   -15.2440 
   60.1250    73.9520     5.3990     4.7400     6.1260    24.3030     2.3350   -14.8470 
   60.2500    75.6150     5.8450     5.0750     6.2500    24.5740     2.3240   -14.5880 
   60.3750    74.7590     6.5830     5.6570     6.3140    24.7550     2.2730   -14.4800 
   60.5000    70.9170     7.6070     6.4860     7.8360    24.7490     2.1990   -14.5270 
   60.6250    66.2360     8.7670     7.4500    12.7690    24.5760     2.1350   -14.7170 
   60.7500    64.7620     9.6080     8.2030    18.2670    24.4250     2.1120   -15.0350 
   60.8750    65.2040     9.7530     8.4180    15.8760    24.3280     2.1330   -15.4240 
   61.0000    65.0840     9.1820     8.0360    11.2250    24.3490     2.1800   -15.8580 
   61.1250    66.5240     8.2840     7.3020     8.4430    24.4740     2.2210   -16.3230 
   61.2500    70.3940     7.6180     6.6230     7.2190    24.5880     2.2360   -16.8150 
   61.3750    72.2460     7.4240     6.2550     6.9310    24.5790     2.2480   -17.3300 
   61.5000    68.4680     7.7180     6.2790     7.0410    24.5130     2.2870   -17.8660 
   61.6250    61.4810     8.4240     6.6860     7.3760    24.4660     2.3630   -18.4190 
   61.7500    56.6370     9.4800     7.4550     7.9770    24.4090     2.4280   -18.9830 
   61.8750    54.8900    10.7020     8.4060     8.9550    24.3020     2.4250   -19.5460 
   62.0000    54.7810    11.9230     9.3850    10.8500    24.2500     2.3550   -20.0930 
   62.1250    54.0730    12.9440    10.2300    14.2610    24.3260     2.2550   -20.6120 
   62.2500    54.1740    13.4840    10.7480    17.7370    24.4270     2.1610   -21.0740 
   62.3750    56.2450    13.5120    10.9140    14.6130    24.4340     2.1020   -21.4680 
   62.5000    58.6820    13.0940    10.7450    11.5200    24.3190     2.0820   -21.7800 
   62.6250    60.1210    12.3980    10.3240     9.9950    24.1070     2.0950   -22.0010 
   62.7500    60.2830    11.6300     9.7670     9.5460    23.8980     2.1210   -22.1190 
   62.8750    60.2860    10.9830     9.2310     9.2980    23.7770     2.1330   -22.1530 
   63.0000    60.3730    10.5670     8.8130     9.2090    23.7030     2.1240   -22.1120 
   63.1250    60.3430    10.4170     8.5690     9.1260    23.6550     2.1110   -22.0030 
