~V
VERS. 2.00: Ver 2.00
~W
STRT.M 58.0000:
STOP.M 215.0000:
STEP.M 0.1250:
NULL. -999.2500:
UWI. F10587:
~C
DEPT.M :
DEN.GM/CC :
GR.API :
RML.OHMM :
RI. :
RXO.OHMM :
CALI.CM :
SP.MV :
~A
# ...
  114.2500     2.2470    47.2440    43.2070    36.5520    37.8800    24.4420    -5.8220 
  114.3750     2.1850    47.8390    40.3340    34.3110    34.0210    24.6570    -5.7180 
  114.5000     2.1470    50.0890    37.4370    32.0320    30.1150    25.0110    -5.6660 
  114.6250     2.1210    50.2050    34.9810    30.0740    27.3710    25.1610    -5.6700 
  114.7500     2.0840    48.7640    33.1490    28.6090    25.9430    25.1540    -5.7270 
  114.8750     2.0460    48.6840    32.1250    27.7630    25.6740    25.1860    -5.9410 
  115.0000     2.0380    50.5460    32.2500    27.7630    26.3020    25.2440    -6.2830 
  115.1250     2.1110    52.2790    34.2490    29.1860    26.0480    24.9650    -6.7280 
  115.2500     2.2480    53.2170    37.8040    31.9530    26.7660    24.6130    -7.3390 
  115.3750     2.3880    53.7480    41.8830    35.4610    29.5570    24.3420    -8.0770 
  115.5000     2.4620    53.8200    44.3620    38.1740    38.2590    24.1630    -8.8770 
  115.6250     2.4400    54.7570    42.0230    37.3290    55.1940    24.2370    -9.7620 
  115.7500     2.3830    59.6610    35.5510    32.7960    56.6350    24.3860   -10.6290 
  115.8750     2.3400    66.8280    27.5390    26.3730    33.1540    24.4790   -11.4450 
  116.0000     2.3340    71.0870    20.5790    20.3570    17.5670    24.5070   -12.1850 
  116.1250     2.3570    71.6660    16.0600    16.1970    14.2910    24.5010   -12.8110 
  116.2500     2.3770    74.0880    13.3490    13.5610    12.9120    24.4630   -13.3320 
  116.3750     2.3720    78.0210    11.8860    12.0410    12.1420    24.4160   -13.7350 
  116.5000     2.3440    79.6450    11.1520    11.2310    11.2270    24.4000   -14.0340 
  116.6250     2.3090    80.0120    10.7350    10.7900    11.5240    24.4170   -14.2210 
  116.7500     2.2870    82.3510    10.3210    10.3870    10.8340    24.4370   -14.3240 
  116.8750     2.2860    85.3640     9.8580     9.9290     9.8160    24.4200   -14.3410 
  117.0000     2.3050    86.7520     9.3940     9.4460     9.2140    24.3990   -14.3330 
  117.1250     2.3370    85.7820     8.9940     9.0010     9.2120    24.3930   -14.2830 
  117.2500     2.3700    84.0130     8.6720     8.6180     9.1230    24.4070   -14.1870 
  117.3750     2.4000    82.3710     8.4730     8.3240     9.0130    24.4380   -14.1320 
  117.5000     2.4320    82.6350     8.5130     8.1980     9.3150    24.4620   -14.1080 
  117.6250     2.4740    83.9740     9.1200     8.4680    10.4470    24.4700   -14.0650 
  117.7500     2.5290    82.4530    10.5990     9.3430    10.3250    24.4640   -14.1010 
  117.8750     2.5880    76.2540    13.3910    11.1640    11.7860    24.4530   -14.1980 
  118.0000     2.6360    67.2110    17.9250    14.3450    17.6500    24.4360   -14.2910 
  118.1250     2.6550    59.2690    24.7400    19.5390    30.8680    24.4550   -14.4710 
  118.2500     2.6520    55.1150    33.0120    26.2480    42.7090    24.4600   -14.6940 
  118.3750     2.6340    53.9240    41.3700    33.3740    46.6390    24.4470   -14.9030 
  118.5000     2.6080    53.2570    47.9480    39.2330    48.1710    24.3930   -15.1330 
  118.6250     2.5830    52.8430    51.0400    42.1920    46.7060    24.2960   -15.3730 
  118.7500     2.5620    52.0250    51.7590    43.0280    48.4040    24.1590   -15.5880 
  118.8750     2.5390    50.7550    51.3240    42.7090    49.8730    24.0770   -15.7800 
  119.0000     2.5070    48.6850    50.6020    41.9700    45.8990    24.0880   -15.9450 
  119.1250     2.4670    48.7520    50.1980    41.3220    43.0780    24.1270   -16.0670 
  119.2500     2.4290    51.0330    50.4740    41.1150    41.6560    24.1090   -16.1430 
  119.3750     2.4020    52.6670    51.6900    41.6010    40.4590    24.0180   -16.1640 
  119.5000     2.3900    52.9890    53.9270    42.9050    38.3480    23.9960   -16.1280 
  119.6250     2.4010    51.6850    57.0240    45.0210    41.6840    24.1690   -16.0650 
  119.7500     2.4260    49.5160    60.1460    47.3830    46.4530    24.4730   -15.9390 
  119.8750     2.4560    46.6900    62.5020    49.4300    50.8040    24.5960   -15.7940 
  120.0000     2.4860    44.2980    63.5710    50.7110    53.5390    24.5640   -15.6950 
  120.1250     2.5070    43.1790    63.3230    51.0250    53.4040    24.5080   -15.5460 
  120.2500     2.5240    42.5850    62.7880    50.9610    50.8500    24.4770   -15.4110 
  120.3750     2.5490    43.7170    62.8770    51.1740    49.3800    24.4680   -15.3250 
  120.5000     2.5870    47.0800    64.1800    52.2020    52.1990    24.4690   -15.2310 
  120.6250     2.6210    48.4040    66.7570    54.2650    52.8590    24.4670   -15.1530 
  120.7500     2.6260    46.0400    69.4710    56.6180    55.6960    24.4420   -15.1480 
  120.8750     2.5930    44.6400    71.1020    58.3490    66.0800    24.3560   -15.1480 
  121.0000     2.5360    47.5150    70.7680    58.6730    74.7860    24.2070   -15.1450 
  121.1250     2.4720    51.3310    68.3470    57.2320    71.7250    24.1510   -15.2120 
  121.2500     2.4230    51.5460    65.2950    54.9910    56.8950    24.3130   -15.2580 
  121.3750     2.3970    49.9060    62.6610    52.7840    50.2330    24.5150   -15.3040 
  121.5000     2.3930    48.9520    60.9960    51.1700    49.2650    24.6160   -15.3830 
  121.6250     2.4090    48.8480    60.4500    50.4390    52.6890    24.6220   -15.4340 
  121.7500     2.4360    48.2580    60.4800    50.2800    54.5710    24.6150   -15.4630 
  121.8750     2.4670    47.2220    60.6840    50.4070    53.2190    24.6060   -15.4600 
  122.0000     2.4940    46.5900    60.8410    50.6130    50.1670    24.5750   -15.4140 
  122.1250     2.5140    48.1100    61.0860    50.9390    48.8980    24.5260   -15.2990 
  122.2500     2.5250    49.9170    61.7120    51.5710    50.0700    24.4830   -15.1510 
  122.3750     2.5270    50.1760    62.8270    52.5990    51.3750    24.4700   -14.9800 
  122.5000     2.5270    48.9620    64.2280    53.8900    52.6580    24.5100   -14.7730 
  122.6250     2.5310    49.4410    65.3140    54.9860    55.6320    24.4900   -14.5500 
  122.7500     2.5400    51.4850    65.5590    55.4410    57.2190    24.4660   -14.3270 
  122.8750     2.5500    52.1340    64.7400    55.0290    56.4510    24.4760   -14.1140 
  123.0000     2.5500    50.5580    62.9790    53.7990    53.5710    24.5180   -13.8820 
  123.1250     2.5310    48.5960    60.5120    51.9130    50.3930    24.5400   -13.6960 
  123.2500     2.4960    48.4530    57.7030    49.6920    47.2900    24.5490   -13.5550 
  123.3750     2.4580    50.2120    54.6900    47.2660    45.5440    24.5560   -13.4100 
  123.5000     2.4290    52.2660    51.6330    44.7670    45.0210    24.5690   -13.3200 
  123.6250     2.4250    52.0170    48.9150    42.4780    43.4670    24.5740   -13.2870 
  123.7500     2.4460    51.0930    46.9560    40.7340    40.8550    24.5460   -13.2470 
  123.8750     2.4850    50.5060    46.1050    39.8390    36.7260    24.4910   -13.2620 
  124.0000     2.5230    49.9970    46.4380    39.9170    35.9250    24.3890   -13.3320 
  124.1250     2.5340    47.9880    47.7450    40.8900    38.9520    24.1260   -13.4100 
  124.2500     2.5220    46.0770    49.2430    42.1570    44.4610    23.8310   -13.5400 
  124.3750     2.4980    46.2030    50.3520    43.2370    50.0070    23.8210   -13.6880 
  124.5000     2.4800    47.2300    50.7480    43.7950    49.0980    24.1320   -13.8270 
  124.6250     2.4840    47.2950    50.4510    43.7250    44.0620    24.4030   -13.9380 
  124.7500     2.5040    46.8860    49.9420    43.3720    40.4370    24.5000   -14.0400 
  124.8750     2.5240    47.2840    49.4140    42.9210    42.6950    24.5250   -14.1240 
  125.0000     2.5270    48.3650    48.8270    42.3930    47.4260    24.5310   -14.1690 
  125.1250     2.5060    48.5890    47.9930    41.6680    47.2070    24.5350   -14.2070 
  125.2500     2.4800    48.3200    46.9180    40.7380    43.9610    24.5600   -14.1990 
  125.3750     2.4620    48.4200    45.7810    39.7150    41.4220    24.6240   -14.1690 
