~V
VERS. 2.00: Ver 2.00
~W
STRT.M 42.0000:
STOP.M 195.0000:
STEP.M 0.1250:
NULL. -999.2500:
UWI. F10590:
~C
DEPT.M :
GR.API :
RML.OHMM :
RI. :
RXO.OHMM :
CALI.CM :
DEN.GM/CC :
SP.MV :
~A
# ...
  132.0000    52.8580    19.4290    18.4820    17.7230    23.3350     2.4730   -18.6330 
  132.1250    53.1720    19.1500    18.3670    17.9520    23.3330     2.4690   -18.6520 
  132.2500    50.7590    18.6670    18.0100    17.3700    23.3190     2.4670   -18.6590 
  132.3750    49.7990    18.0610    17.4750    16.3000    23.2860     2.4660   -18.6520 
  132.5000    53.3270    17.4140    16.8460    15.2550    23.2620     2.4660   -18.6610 
  132.6250    57.8830    16.8190    16.2310    15.1050    23.2540     2.4640   -18.7000 
  132.7500    59.3820    16.3440    15.7090    14.6290    23.2540     2.4600   -18.7570 
  132.8750    58.6900    16.0280    15.3280    14.2070    23.2540     2.4570   -18.8190 
  133.0000    57.7460    15.8880    15.1070    13.9430    23.2540     2.4560   -18.8410 
  133.1250    57.8050    15.9330    15.0700    13.6750    23.2530     2.4600   -18.8070 
  133.2500    59.2290    16.0960    15.1630    13.9840    23.2520     2.4660   -18.7660 
  133.3750    59.8690    16.3220    15.3360    15.1150    23.2500     2.4740   -18.7300 
  133.5000    58.5840    16.5480    15.5270    15.6030    23.2470     2.4820   -18.7040 
  133.6250    57.4970    16.6990    15.6710    15.9120    23.2440     2.4870   -18.6740 
  133.7500    57.9370    16.7590    15.7490    15.9560    23.2430     2.4890   -18.6170 
  133.8750    58.9550    16.7420    15.7700    16.1400    23.2440     2.4860   -18.5370 
  134.0000    59.0360    16.6840    15.7530    15.2740    23.2460     2.4790   -18.4570 
  134.1250    57.5450    16.6160    15.7150    14.8100    23.2450     2.4700   -18.4100 
  134.2500    54.9020    16.5520    15.6630    15.0430    23.2350     2.4640   -18.3760 
  134.3750    53.1090    16.4900    15.5980    15.6580    23.2160     2.4620   -18.3600 
  134.5000    53.2540    16.4570    15.5450    15.1730    23.2030     2.4660   -18.3380 
  134.6250    54.5910    16.5660    15.6050    14.6580    23.1980     2.4710   -18.2970 
  134.7500    54.9490    16.9150    15.8730    14.9090    23.1960     2.4770   -18.2600 
  134.8750    54.1430    17.5580    16.4100    15.3180    23.1930     2.4820   -18.2410 
  135.0000    54.6840    18.4380    17.1880    16.4160    23.1920     2.4870   -18.2490 
  135.1250    59.0060    19.3390    18.0420    18.7220    23.1920     2.4910   -18.2590 
  135.2500    62.4720    19.9580    18.7020    20.5610    23.1920     2.4900   -18.2450 
  135.3750    61.7340    20.1050    18.9670    20.4480    23.1920     2.4820   -18.1940 
  135.5000    59.1870    19.7590    18.7640    18.1730    23.1920     2.4710   -18.1300 
  135.6250    58.9790    19.0680    18.1540    16.6320    23.1920     2.4610   -18.0790 
  135.7500    59.7890    18.3670    17.4410    15.9010    23.1920     2.4580   -18.0590 
  135.8750    59.2950    17.8580    16.8360    15.3580    23.1920     2.4610   -18.0660 
  136.0000    58.0800    17.6300    16.4650    14.9710    23.1920     2.4670   -18.0790 
  136.1250    58.0020    17.6970    16.3790    14.9220    23.1920     2.4700   -18.0730 
  136.2500    58.6910    17.9050    16.4560    15.5600    23.1920     2.4680   -18.0560 
  136.3750    59.1760    18.1360    16.5960    16.4420    23.1930     2.4650   -18.0430 
  136.5000    58.2500    18.3080    16.7240    15.8290    23.1940     2.4630   -18.0330 
  136.6250    56.4400    18.3890    16.8060    15.5670    23.1970     2.4670   -18.0140 
  136.7500    55.5970    18.4410    16.8720    15.7570    23.1950     2.4730   -17.9860 
  136.8750    55.1420    18.5190    16.9570    16.4110    23.1870     2.4780   -17.9530 
  137.0000    54.1130    18.6430    17.0840    16.8330    23.1880     2.4790   -17.9320 
  137.1250    52.0020    18.7820    17.2360    16.7310    23.2120     2.4780   -17.9380 
  137.2500    50.8680    18.8840    17.3620    16.9920    23.2600     2.4750   -17.9340 
  137.3750    51.8080    18.9390    17.4350    17.5450    23.3210     2.4720   -17.9070 
  137.5000    53.1740    18.9750    17.4570    17.4540    23.3690     2.4690   -17.8620 
  137.6250    52.6490    19.0380    17.4590    16.4660    23.4060     2.4660   -17.8250 
  137.7500    51.7640    19.1320    17.4630    15.9900    23.4200     2.4650   -17.8060 
  137.8750    52.6940    19.2260    17.4640    16.1840    23.4240     2.4640   -17.8050 
  138.0000    55.7030    19.2720    17.4350    17.2820    23.4240     2.4630   -17.8230 
  138.1250    57.1140    19.2110    17.3310    17.7340    23.4240     2.4600   -17.8650 
  138.2500    56.5120    19.0520    17.1530    17.6590    23.4240     2.4570   -17.9460 
  138.3750    55.8020    18.8460    16.9370    17.8130    23.4240     2.4560   -18.0600 
  138.5000    56.5750    18.6920    16.7640    17.2760    23.4240     2.4560   -18.1860 
  138.6250    57.4430    18.7690    16.7890    16.8710    23.4240     2.4540   -18.3010 
  138.7500    57.6330    19.1580    17.0850    16.5820    23.4230     2.4490   -18.3800 
  138.8750    57.6050    19.8640    17.6640    17.1080    23.4200     2.4440   -18.4080 
  139.0000    58.6260    20.7590    18.4360    18.4200    23.4180     2.4410   -18.4150 
  139.1250    61.4690    21.5300    19.1740    19.3240    23.4170     2.4420   -18.4290 
  139.2500    63.9820    21.8640    19.6150    19.9770    23.4180     2.4440   -18.4500 
  139.3750    63.5520    21.5870    19.5810    19.6160    23.4190     2.4450   -18.4660 
  139.5000    60.0650    20.7270    19.0440    18.7040    23.4210     2.4450   -18.4670 
  139.6250    56.9420    19.4880    18.1270    17.7290    23.4210     2.4420   -18.4390 
  139.7500    54.8160    18.2580    17.1620    17.0260    23.4200     2.4370   -18.4100 
  139.8750    53.1860    17.2680    16.3590    15.6120    23.4260     2.4290   -18.4230 
  140.0000    51.9670    16.6490    15.8430    14.0840    23.4380     2.4190   -18.4700 
  140.1250    52.6440    16.4940    15.7040    13.7590    23.4570     2.4120   -18.5260 
  140.2500    53.6140    16.6340    15.8320    14.6220    23.4700     2.4110   -18.5690 
  140.3750    53.5330    16.8620    16.0740    14.9250    23.4870     2.4200   -18.6170 
  140.5000    53.6860    16.8770    16.1770    15.1220    23.5130     2.4350   -18.6750 
  140.6250    54.8190    16.2500    15.7310    15.2810    23.5280     2.4510   -18.7730 
  140.7500    57.1330    14.9380    14.6300    15.6000    23.5350     2.4590   -18.9140 
  140.8750    60.9710    13.1040    12.9880    14.2440    23.5430     2.4540   -19.0640 
  141.0000    67.1020    11.1040    11.1230    11.4910    23.5600     2.4360   -19.2090 
  141.1250    75.2650     9.4040     9.4630     8.3450    23.5860     2.4070   -19.3560 
  141.2500    80.7550     8.2290     8.2370     6.9220    23.6050     2.3760   -19.5250 
  141.3750    81.5730     7.6470     7.5280     6.5270    23.6160     2.3520   -19.7070 
  141.5000    80.0150     7.6120     7.3260     6.8490    23.6210     2.3400   -19.9200 
  141.6250    80.0540     8.0390     7.6030     7.5130    23.6280     2.3470   -20.1390 
  141.7500    81.5620     8.6700     8.1410     8.1220    23.6350     2.3650   -20.3120 
  141.8750    81.9620     9.3470     8.7900     9.3440    23.6470     2.3880   -20.4440 
  142.0000    81.2480     9.9630     9.4270    10.8440    23.6750     2.4050   -20.5330 
  142.1250    80.9630    10.4520     9.9550    10.5630    23.6960     2.4110   -20.5800 
  142.2500    81.1810    10.8300    10.3640    10.0080    23.6950     2.4100   -20.6050 
  142.3750    82.0760    11.1040    10.6580    10.2830    23.6590     2.4040   -20.6210 
  142.5000    81.6880    11.2790    10.8420    11.1100    23.5840     2.3980   -20.6220 
  142.6250    78.5600    11.3570    10.9180    11.2870    23.5080     2.3890   -20.6010 
  142.7500    77.1670    11.3980    10.9380    10.5390    23.4770     2.3740   -20.5630 
  142.8750    80.6340    11.4640    10.9540    10.2890    23.4710     2.3550   -20.5010 
  143.0000    86.5440    11.6170    11.0280    10.5330    23.4750     2.3350   -20.4110 
  143.1250    87.8910    11.9190    11.2440    10.1740    23.4700     2.3210   -20.2900 
