~V
VERS. 2.00: Ver 2.00
~W
STRT.M 58.0000:
STOP.M 214.0000:
STEP.M 0.1250:
NULL. -999.2500:
UWI. F10594:
~C
DEPT.M :
GR.API :
RML.OHMM :
RI. :
RXO.OHMM :
CALI.CM :
DEN.GM/CC :
SP.MV :
~A
# ...
  181.7500    59.9220   121.7840   101.1350   101.6200    24.4190     2.2810   -36.7860 
  181.8750    59.2680   119.2880   100.0560   100.0660    24.7080     2.3080   -36.9420 
  182.0000    59.8730   113.5460    96.0430    97.0310    24.6660     2.2900   -37.0960 
  182.1250    62.0840   105.9050    90.0280    95.2290    24.4430     2.2450   -37.2390 
  182.2500    64.0790    98.2010    83.6580    93.5970    24.4310     2.2120   -37.3680 
  182.3750    63.8390    91.4880    77.9170    88.4410    24.5260     2.1950   -37.4820 
  182.5000    61.7370    86.5320    73.5160    80.2470    24.6110     2.1880   -37.5790 
  182.6250    58.8270    84.2690    71.2970    75.1160    24.7210     2.1830   -37.6600 
  182.7500    58.0240    84.4210    71.1430    75.9260    24.8350     2.1820   -37.7230 
  182.8750    60.3000    86.5510    72.8230    77.0700    24.7840     2.1900   -37.7620 
  183.0000    63.3860    89.7510    75.7030    79.7620    24.5180     2.2050   -37.7660 
  183.1250    64.2190    92.7280    78.8130    91.2620    24.3670     2.2150   -37.7180 
  183.2500    60.9620    94.7260    81.3650   108.5770    24.3220     2.2160   -37.6300 
  183.3750    56.8500    95.8340    83.2590   123.0820    24.3150     2.2170   -37.5030 
  183.5000    55.9650    96.5590    84.7800   110.3510    24.2850     2.2280   -37.3440 
  183.6250    58.2390    97.1760    86.1300    96.6090    24.2470     2.2550   -37.1480 
  183.7500    58.8570    97.0210    86.8880    97.8720    24.2210     2.2780   -36.9270 
  183.8750    56.4160    94.6470    85.9180   106.9800    24.1870     2.2830   -36.6970 
  184.0000    54.3590    88.5970    81.8790   103.4100    24.1440     2.2640   -36.4710 
  184.1250    56.5490    78.0560    73.6100    83.4670    24.1830     2.2370   -36.2700 
  184.2500    59.8170    65.5340    62.9260    71.3540    24.2620     2.2230   -36.0910 
  184.3750    60.9900    53.5050    51.9900    58.1650    24.3020     2.2250   -35.9360 
  184.5000    61.3140    43.8150    42.7460    43.8450    24.3090     2.2340   -35.8030 
  184.6250    63.9190    37.6720    36.6330    33.9790    24.3110     2.2440   -35.7000 
  184.7500    66.9110    34.3700    33.1920    29.8230    24.3150     2.2610   -35.6250 
  184.8750    67.1800    33.5230    32.0990    28.9140    24.3210     2.2850   -35.5770 
  185.0000    65.8410    34.7770    33.0550    31.1220    24.3350     2.3040   -35.5540 
  185.1250    64.2350    38.0990    36.1010    34.7910    24.3650     2.2990   -35.5580 
  185.2500    62.9360    42.9330    40.7340    39.2050    24.3960     2.2730   -35.5810 
  185.3750    64.0830    49.0820    46.7670    46.6460    24.4400     2.2380   -35.6200 
  185.5000    69.2850    56.3320    53.9570    56.1130    24.4610     2.2140   -35.6740 
  185.6250    77.0740    64.4840    62.0640    59.5950    24.3940     2.2170   -35.7480 
  185.7500    81.3840    72.6260    70.2430    71.7620    24.2860     2.2410   -35.8260 
  185.8750    79.5550    78.9400    76.9130    93.3810    24.1810     2.2690   -35.9050 
  186.0000    75.1640    80.1950    79.0920   108.2780    24.0670     2.2890   -35.9900 
  186.1250    73.7380    72.2800    72.4730    93.7670    23.9970     2.2950   -36.0750 
  186.2500    74.0490    58.8570    59.8860    85.3480    24.0070     2.2900   -36.1570 
  186.3750    73.4730    45.3950    46.4190    71.6010    23.9770     2.2780   -36.2390 
  186.5000    72.5900    35.9750    36.2340    53.9080    23.8960     2.2620   -36.3220 
  186.6250    70.8550    32.8420    31.6770    39.3980    23.7370     2.2390   -36.4090 
  186.7500    66.2170    34.6950    31.7380    34.1580    23.5690     2.2140   -36.5050 
  186.8750    60.7460    40.5570    35.7440    54.2910    23.4520     2.1940   -36.6140 
  187.0000    56.2420    48.6000    42.3680   105.8960    23.3990     2.1850   -36.7290 
  187.1250    51.7400    54.4270    48.1540   152.2550    23.4190     2.1910   -36.8450 
  187.2500    51.2640    53.8520    48.9590    95.7390    23.5410     2.2030   -36.9680 
  187.3750    57.0020    46.9090    43.9930    51.6360    23.7270     2.2160   -37.0980 
  187.5000    64.1090    37.7500    36.3100    33.3090    23.8300     2.2270   -37.2290 
  187.6250    66.0730    30.7110    29.7880    28.2860    23.8410     2.2430   -37.3590 
  187.7500    65.6360    26.3200    25.4530    26.5050    23.8380     2.2730   -37.4860 
  187.8750    65.8520    23.9200    22.9330    25.3730    23.8370     2.3100   -37.6130 
  188.0000    66.6070    22.8690    21.6920    24.7500    23.8370     2.3390   -37.7390 
  188.1250    67.9600    22.9900    21.5360    24.1990    23.8390     2.3420   -37.8660 
  188.2500    69.0490    24.0780    22.2220    23.5700    23.8460     2.3300   -37.9900 
  188.3750    68.6000    26.0780    23.7330    23.3990    23.8560     2.3200   -38.1090 
  188.5000    67.4950    28.4920    25.7420    24.5490    23.8580     2.3260   -38.2240 
  188.6250    67.8610    29.7260    26.9440    27.9920    23.8350     2.3470   -38.3220 
  188.7500    67.9510    28.2810    25.8590    32.0130    23.7190     2.3590   -38.3950 
  188.8750    65.5050    23.9440    22.1680    32.5010    23.4000     2.3530   -38.4320 
  189.0000    61.7280    18.2280    17.1760    22.6200    22.8850     2.3390   -38.4310 
  189.1250    60.1640    13.3760    12.8110    12.7820    22.7770     2.3450   -38.3870 
  189.2500    59.8900    10.1430     9.7470     8.4200    23.0360     2.3780   -38.3100 
  189.3750    58.1230     8.3280     7.8710     7.4420    23.3820     2.4310   -38.2080 
  189.5000    54.1100     7.4850     6.8630     7.5600    23.5780     2.4790   -38.0880 
  189.6250    49.8060     7.2750     6.4950     7.7920    23.7000     2.4930   -37.9560 
  189.7500    46.4270     7.2980     6.4200     7.6860    23.8260     2.4750   -37.8380 
  189.8750    44.3060     7.3570     6.4520     7.1780    23.8930     2.4440   -37.7520 
  190.0000    43.0930     7.3270     6.4500     6.9970    23.9100     2.4150   -37.7150 
  190.1250    43.4850     7.1370     6.3150     7.0260    23.9130     2.3880   -37.7620 
  190.2500    47.0530     6.8400     6.0760     6.8820    23.9040     2.3610   -37.8970 
  190.3750    52.3730     6.5160     5.7960     6.5640    23.8790     2.3340   -38.1330 
  190.5000    55.9460     6.2790     5.5670     6.3750    23.8510     2.3190   -38.4780 
  190.6250    57.4810     6.2940     5.5130     6.1970    23.8400     2.3290   -38.9570 
  190.7500    60.7300     6.6030     5.6750     6.2410    23.8370     2.3510   -39.5430 
  190.8750    67.9110     7.2030     6.0610     6.7860    23.8370     2.3640   -40.2110 
  191.0000    75.2120     8.0100     6.6240     8.5100    23.8420     2.3500   -40.9250 
  191.1250    78.4630     8.8270     7.2410    10.7890    23.8530     2.3160   -41.6290 
  191.2500    79.0990     9.4330     7.7360    11.3770    23.8610     2.2890   -42.2580 
  191.3750    79.1140     9.7140     7.9920    10.5040    23.8530     2.2810   -42.7610 
  191.5000    79.1430     9.6840     7.9850     9.3960    23.8510     2.2950   -43.1050 
  191.6250    78.3430     9.4790     7.7900     9.0360    23.8770     2.3240   -43.2370 
  191.7500    78.7210     9.3320     7.6030     9.3230    23.9130     2.3510   -43.1710 
  191.8750    80.6960     9.3360     7.5250     9.4450    23.9310     2.3650   -42.9120 
  192.0000    82.2630     9.4590     7.5650     8.7980    23.8840     2.3630   -42.4780 
  192.1250    84.8390     9.5310     7.6130     8.8450    23.8250     2.3460   -41.8820 
  192.2500    87.3220     9.3660     7.5110    10.5600    23.7380     2.3310   -41.2040 
  192.3750    86.1690     8.8800     7.1710    11.7020    23.6380     2.3290   -40.4830 
  192.5000    79.0020     8.1340     6.6130    10.3350    23.5580     2.3430   -39.7460 
  192.6250    70.1740     7.3400     5.9720     7.2020    23.5490     2.3650   -39.0180 
  192.7500    65.4580     6.7150     5.4240     5.8520    23.5940     2.3850   -38.3340 
  192.8750    64.0900     6.3420     5.0530     5.8340    23.6720     2.4010   -37.7240 
