~V
VERS. 2.00: Ver 2.00
~W
STRT.M 59.0000:
STOP.M 201.0000:
STEP.M 0.1250:
NULL. -999.2500:
UWI. F10560:
~C
DEPT.M :
DEN.GM/CC :
SP.MV :
GR.API :
RML.OHMM :
RI. :
RXO.OHMM :
CALI.CM :
~A
# ...
  137.7500     2.3530   -26.6790    95.9020     9.6670     7.9930     7.8870    24.4910 
  137.8750     2.3540   -26.6350    98.7930     9.6820     7.9410     7.8730    24.4910 
  138.0000     2.3580   -26.5640   100.4130     9.7030     7.8650     7.9090    24.4910 
  138.1250     2.3590   -26.4620   100.0230     9.6990     7.7570     7.9930    24.4910 
  138.2500     2.3550   -26.4060    98.1960     9.7090     7.6550     8.1620    24.4910 
  138.3750     2.3530   -26.3690    96.1470     9.8010     7.6210     8.5010    24.4910 
  138.5000     2.3550   -26.3100    92.7110    10.0230     7.6940     8.9930    24.4910 
  138.6250     2.3590   -26.2670    90.1890    10.4460     7.9260     9.4970    24.4910 
  138.7500     2.3690   -26.2560    89.0360    11.1620     8.3620    10.0800    24.4910 
  138.8750     2.3890   -26.2670    89.1540    12.4010     9.1420    12.1200    24.4910 
  139.0000     2.4090   -26.3240    88.8870    14.5390    10.5020    16.9130    24.4910 
  139.1250     2.4150   -26.4140    85.9340    18.4780    13.0740    24.2200    24.4910 
  139.2500     2.4230   -26.4770    80.6060    24.7100    17.4020    26.1130    24.4910 
  139.3750     2.4440   -26.5500    74.1280    33.6880    24.1710    30.5800    24.4920 
  139.5000     2.4550   -26.6310    69.6330    45.2040    33.6240    46.2360    24.5000 
  139.6250     2.4080   -26.7020    68.4670    57.4830    44.7750    68.6360    24.5200 
  139.7500     2.3290   -26.7600    68.3790    67.1670    54.5710    80.5100    24.5430 
  139.8750     2.2630   -26.8100    69.9830    72.4600    60.9020    76.3000    24.5530 
  140.0000     2.2280   -26.8280    73.3380    74.3170    63.8600    73.7100    24.5550 
  140.1250     2.2170   -26.8430    75.2810    75.3400    65.2600    77.9620    24.5550 
  140.2500     2.2120   -26.9060    74.3260    77.2290    66.9390    81.5170    24.5560 
  140.3750     2.1980   -26.9690    73.1240    80.0050    69.2480    80.1710    24.5580 
  140.5000     2.1740   -27.0200    73.4680    83.2190    72.0150    78.0830    24.5570 
  140.6250     2.1530   -27.1030    73.4450    86.3070    74.8940    79.1570    24.5550 
  140.7500     2.1500   -27.1790    73.5660    88.9100    77.5420    82.9970    24.5550 
  140.8750     2.1600   -27.2330    73.4330    91.0640    79.9250    83.7960    24.5550 
  141.0000     2.1720   -27.3090    72.4290    93.2050    82.3370    81.3260    24.5550 
  141.1250     2.1880   -27.4080    70.1100    96.0410    85.3360    81.9370    24.5470 
  141.2500     2.2210   -27.4750    66.7860    99.6040    88.9700    87.6130    24.4900 
  141.3750     2.2770   -27.5270    63.6040   103.2690    92.7830    94.0670    24.3340 
  141.5000     2.3440   -27.6160    62.2850   105.7710    95.7960   108.0660    24.1600 
  141.6250     2.3970   -27.6940    62.5400   105.1450    96.3920   111.1530    23.9930 
  141.7500     2.4080   -27.7240    63.5050   101.4120    94.3470    99.6370    23.9350 
  141.8750     2.3770   -27.7620    65.0400    95.4810    90.1280    85.4320    23.9210 
  142.0000     2.3280   -27.8130    66.7050    88.7780    84.7530    78.7410    23.9210 
  142.1250     2.2880   -27.8110    67.2360    82.7950    79.4880    74.2550    23.9210 
  142.2500     2.2600   -27.7780    66.8540    78.2240    75.2630    72.8540    23.9210 
  142.3750     2.2400   -27.7450    67.8600    75.2550    72.4690    71.6780    23.9210 
  142.5000     2.2310   -27.6870    69.9890    73.7990    71.1520    69.2260    23.9210 
  142.6250     2.2340   -27.6130    71.9730    73.8610    71.3950    70.3510    23.9210 
  142.7500     2.2370   -27.5630    72.5950    74.9010    72.7030    77.6250    23.9210 
  142.8750     2.2300   -27.5180    72.7900    76.4490    74.6450    83.3930    23.9210 
  143.0000     2.2130   -27.4700    72.6040    78.9830    77.9770    83.7780    23.9210 
  143.1250     2.1930   -27.4520    69.7700    80.6400    79.0220    81.5800    23.9210 
  143.2500     2.1800   -27.4220    65.1890    81.7180    79.5520    80.0160    23.9210 
  143.3750     2.1790   -27.3780    63.7180    82.1980    79.5900    77.6070    23.9210 
  143.5000     2.1890   -27.3620    66.9070    82.0090    79.0260    75.5760    23.9210 
  143.6250     2.2070   -27.3780    70.4660    80.6810    77.3110    80.0620    23.9220 
  143.7500     2.2280   -27.3990    69.6490    78.1100    74.3660    83.1640    23.9480 
  143.8750     2.2500   -27.4120    65.5260    74.5390    70.5590    76.7690    24.0330 
  144.0000     2.2690   -27.4250    61.9170    70.7420    66.7890    64.9090    24.1810 
  144.1250     2.2750   -27.4450    61.8410    67.9370    64.3520    57.1820    24.2590 
  144.2500     2.2650   -27.5570    63.0280    66.7370    63.6980    58.5520    24.2770 
  144.3750     2.2450   -27.7240    64.4900    67.2690    64.7540    70.0310    24.2750 
  144.5000     2.2310   -27.8790    66.0100    69.1100    66.8800    80.5700    24.2730 
  144.6250     2.2270   -28.0180    66.8740    71.3260    68.8950    80.1330    24.2400 
  144.7500     2.2250   -28.1850    67.2250    72.8560    69.8170    76.7480    24.1670 
  144.8750     2.2260   -28.3520    68.3090    73.3440    69.4760    72.9450    24.1040 
  145.0000     2.2290   -28.5150    70.0880    73.1530    68.4870    70.0300    24.1220 
  145.1250     2.2280   -28.6990    70.9950    73.3440    68.0820    69.6830    24.2410 
  145.2500     2.2160   -28.8060    70.2910    74.7500    69.0140    73.2700    24.3470 
  145.3750     2.1970   -28.8540    69.5010    77.5740    71.3760    77.3820    24.3680 
  145.5000     2.1780   -28.8720    70.0850    81.4310    74.7020    81.7120    24.3560 
  145.6250     2.1670   -28.8460    71.4360    85.2140    77.8310    86.2750    24.4050 
  145.7500     2.1620   -28.7810    71.2170    87.2370    79.1290    88.4110    24.5290 
  145.8750     2.1600   -28.7070    68.8870    85.8040    77.0270    87.3370    24.6480 
  146.0000     2.1600   -28.6230    67.4730    79.9930    70.8570    82.5720    24.6990 
  146.1250     2.1650   -28.4940    68.6190    70.5120    61.6480    74.7450    24.7000 
  146.2500     2.1750   -28.3990    71.1110    60.7890    52.6790    61.7800    24.7000 
  146.3750     2.1870   -28.3490    72.9220    53.1370    46.0210    46.7340    24.7000 
  146.5000     2.1990   -28.3260    72.3150    48.8290    42.7250    38.1160    24.7000 
  146.6250     2.2050   -28.3450    72.2700    48.9160    43.5830    43.5510    24.7000 
  146.7500     2.2010   -28.4100    74.9710    52.5850    47.5540    58.4100    24.7000 
  146.8750     2.1890   -28.5110    77.6850    59.1960    53.7890    71.9340    24.7000 
  147.0000     2.1750   -28.6030    77.4390    67.5210    61.0210    77.9050    24.7000 
  147.1250     2.1670   -28.7290    74.8130    75.4910    67.4620    79.2960    24.7000 
  147.2500     2.1680   -28.8730    72.8240    81.5490    72.1990    80.6300    24.7000 
  147.3750     2.1710   -28.9850    70.8830    85.6500    75.5090    81.5720    24.7000 
  147.5000     2.1730   -29.0870    68.1590    88.6930    78.2500    82.7430    24.7000 
  147.6250     2.1700   -29.2010    66.5520    91.2170    80.7290    86.2000    24.6960 
  147.7500     2.1670   -29.2780    67.4520    92.6510    82.1630    91.0250    24.6800 
  147.8750     2.1660   -29.3320    70.3100    91.9480    81.5010    94.4400    24.6460 
  148.0000     2.1660   -29.4010    72.0430    88.6330    78.3460    92.1480    24.6050 
  148.1250     2.1680   -29.4820    71.5600    83.2420    73.3650    83.3280    24.5490 
  148.2500     2.1730   -29.5210    72.2720    77.9270    68.6630    71.9230    24.5100 
  148.3750     2.1780   -29.5640    75.1950    74.3690    65.7780    65.0430    24.4930 
  148.5000     2.1800   -29.6410    78.5420    73.6440    65.5770    63.9670    24.4680 
  148.6250     2.1780   -29.7100    78.8650    76.3920    68.4150    68.3750    24.4060 
  148.7500     2.1840   -29.7430    75.9660    81.1650    72.7690    79.1930    24.3240 
  148.8750     2.2070   -29.7520    71.3450    86.2570    76.9560    98.8750    24.2830 
