~V
VERS. 2.00: Ver 2.00
~W
STRT.M 55.0000:
STOP.M 318.0000:
STEP.M 0.1250:
NULL. -999.2500:
UWI. F10558:
~C
DEPT.M :
DEN.GM/CC :
GR.API :
RML.OHMM :
RI. :
RXO.OHMM :
CALI.CM :
SP.MV :
~A
# ...
  190.0000     2.5150    83.5770    18.9090    19.2230    22.6310    24.2490   -17.6470 
  190.1250     2.5110    86.2420    18.5480    18.8150    22.4890    24.1990   -17.6090 
  190.2500     2.5120    85.3170    18.3050    18.3570    21.3790    24.0810   -17.5830 
  190.3750     2.5130    82.1690    18.0220    17.8160    19.5370    23.9500   -17.5750 
  190.5000     2.5070    81.5850    17.6540    17.2430    18.0600    23.8850   -17.5920 
  190.6250     2.4940    82.6160    17.2640    16.7840    17.2690    23.8770   -17.6310 
  190.7500     2.4810    82.5820    16.9650    16.5190    16.7840    23.8770   -17.6830 
  190.8750     2.4740    81.4980    16.8190    16.4410    17.0800    23.8770   -17.7300 
  191.0000     2.4710    79.8810    16.7980    16.4790    17.1170    23.8770   -17.7560 
  191.1250     2.4690    78.4360    16.8330    16.5450    16.7790    23.8770   -17.7510 
  191.2500     2.4660    78.7720    16.8760    16.5980    16.4090    23.8820   -17.7180 
  191.3750     2.4660    81.0770    16.9210    16.6630    16.8750    23.9090   -17.6450 
  191.5000     2.4770    83.1410    16.9750    16.7790    17.9170    23.9780   -17.5350 
  191.6250     2.5030    81.3420    17.0800    16.9700    19.0820    24.0760   -17.3750 
  191.7500     2.5310    77.8940    17.2910    17.1870    19.8330    24.1680   -17.1810 
  191.8750     2.5450    75.4750    17.5970    17.3560    20.9290    24.2650   -16.9590 
  192.0000     2.5410    75.0870    17.9140    17.4150    20.4400    24.3320   -16.7160 
  192.1250     2.5300    76.5250    18.1260    17.3530    18.9240    24.3710   -16.4700 
  192.2500     2.5250    77.6680    18.2120    17.2630    18.2870    24.3820   -16.2280 
  192.3750     2.5240    77.5180    18.2260    17.2280    18.5830    24.3770   -15.9890 
  192.5000     2.5230    76.3530    18.2930    17.2970    19.0520    24.3710   -15.7390 
  192.6250     2.5190    75.9620    18.5400    17.4720    19.4180    24.3750   -15.5040 
  192.7500     2.5110    76.6070    18.8780    17.6910    19.6470    24.3770   -15.2810 
  192.8750     2.5000    77.7350    19.1240    17.9070    20.6130    24.3770   -15.0720 
  193.0000     2.4930    79.1220    19.0870    18.0440    21.9390    24.3670   -14.8840 
  193.1250     2.4910    79.0630    18.5290    17.9010    21.9950    24.3460   -14.7170 
  193.2500     2.4930    76.9610    17.5150    17.3670    20.9660    24.3240   -14.5720 
  193.3750     2.4950    74.8250    16.2510    16.4760    18.7490    24.2880   -14.4630 
  193.5000     2.4950    72.4410    15.0520    15.4510    16.4110    24.2180   -14.4010 
  193.6250     2.4940    69.3210    14.3140    14.6760    14.5000    24.1660   -14.3650 
  193.7500     2.4930    66.8300    14.1780    14.3640    14.3140    24.1410   -14.3580 
  193.8750     2.4940    66.1110    14.7100    14.5680    15.3830    24.1360   -14.3590 
  194.0000     2.4970    66.0190    15.8440    15.2100    17.2160    24.1360   -14.3690 
  194.1250     2.5040    65.7390    17.3260    16.1260    19.0630    24.1340   -14.3750 
  194.2500     2.5110    65.5010    18.6750    17.0140    20.0770    24.1310   -14.3840 
  194.3750     2.5130    67.6910    19.5610    17.6870    20.3310    24.1280   -14.3890 
  194.5000     2.5080    71.6040    19.8490    18.0540    20.1520    24.1260   -14.3870 
  194.6250     2.5040    73.1440    19.6160    18.0920    19.7670    24.1270   -14.3710 
  194.7500     2.5010    70.9790    19.1850    17.9350    19.4360    24.1260   -14.3290 
  194.8750     2.4940    70.2390    18.7090    17.6840    18.9260    24.1180   -14.2810 
  195.0000     2.4850    75.6440    18.2780    17.4430    18.9370    24.1050   -14.2090 
  195.1250     2.4870    82.0840    17.9060    17.2490    20.3170    24.0990   -14.1370 
  195.2500     2.5000    81.9030    17.4910    16.9880    20.6030    24.0970   -14.0530 
  195.3750     2.5120    76.5390    16.9300    16.5060    18.9060    24.0970   -13.9640 
  195.5000     2.5100    71.2130    16.1750    15.7240    16.5330    24.0970   -13.8670 
  195.6250     2.4970    70.6750    15.3160    14.7500    15.5000    24.1230   -13.7690 
  195.7500     2.4830    72.9790    14.5590    13.8690    14.9450    24.1900   -13.6830 
  195.8750     2.4710    75.5020    14.0350    13.2530    14.0700    24.2700   -13.5930 
  196.0000     2.4610    77.4860    13.7970    12.9690    13.2200    24.3120   -13.5180 
  196.1250     2.4570    78.0620    13.8850    13.0590    13.3770    24.3170   -13.4570 
  196.2500     2.4610    77.0570    14.2060    13.4060    14.6540    24.3170   -13.4080 
  196.3750     2.4710    74.5230    14.6750    13.9000    15.2100    24.3170   -13.3680 
  196.5000     2.4800    70.9500    15.1470    14.3880    15.1270    24.3170   -13.3460 
  196.6250     2.4830    69.7100    15.4400    14.6950    15.4540    24.3170   -13.3370 
  196.7500     2.4810    71.9130    15.4990    14.7980    16.4310    24.3170   -13.3370 
  196.8750     2.4750    76.5740    15.3520    14.7450    17.0060    24.3170   -13.3680 
  197.0000     2.4640    80.8500    15.0660    14.5880    16.8570    24.3170   -13.4190 
  197.1250     2.4510    81.6540    14.6670    14.3260    16.6270    24.3170   -13.4810 
  197.2500     2.4400    79.6640    14.2220    13.9780    16.2220    24.3170   -13.5590 
  197.3750     2.4350    77.4820    13.8570    13.6180    15.2750    24.3170   -13.6360 
  197.5000     2.4350    76.6570    13.7010    13.3670    14.7610    24.3170   -13.6990 
  197.6250     2.4340    76.9460    13.8340    13.3510    14.7830    24.3170   -13.7590 
  197.7500     2.4340    76.2030    14.1610    13.5330    14.8630    24.3060   -13.8200 
  197.8750     2.4350    76.8930    14.6140    13.8600    14.7790    24.2660   -13.8580 
  198.0000     2.4380    81.7000    15.1550    14.2750    14.9950    24.1810   -13.8870 
  198.1250     2.4470    87.9670    15.7800    14.7590    15.9220    24.0950   -13.8960 
  198.2500     2.4630    89.0290    16.4590    15.2730    17.5120    24.0400   -13.8810 
  198.3750     2.4820    84.8480    17.1320    15.7620    18.7600    24.0230   -13.8560 
  198.5000     2.4970    80.9310    17.6880    16.1340    19.2570    24.0210   -13.8250 
  198.6250     2.5020    82.4410    18.0260    16.2680    18.9150    24.0210   -13.7760 
  198.7500     2.5040    83.8300    18.2340    16.2280    18.6080    24.0210   -13.7240 
  198.8750     2.5070    82.8610    18.3670    16.1130    18.5370    24.0210   -13.6810 
  199.0000     2.5150    83.0540    18.4150    15.9980    18.2820    24.0210   -13.6410 
  199.1250     2.5200    87.1250    18.2980    15.8760    17.8090    24.0210   -13.6200 
  199.2500     2.5210    88.2300    18.0190    15.6940    17.5160    24.0210   -13.6130 
  199.3750     2.5180    84.8420    17.6460    15.4610    17.9270    24.0210   -13.6210 
  199.5000     2.5080    81.1350    17.3010    15.2550    18.4750    24.0210   -13.6590 
  199.6250     2.4880    82.5180    17.1890    15.2290    17.6000    24.0210   -13.7210 
  199.7500     2.4650    85.8570    17.4380    15.4790    16.2800    24.0210   -13.7960 
  199.8750     2.4490    85.2940    18.1080    16.0530    17.1300    24.0210   -13.8700 
  200.0000     2.4510    80.6290    19.1480    16.9150    19.8010    24.0210   -13.9570 
  200.1250     2.4750    77.9300    20.2930    17.9010    20.6620    24.0210   -14.0330 
  200.2500     2.5040    81.7580    21.1040    18.7080    20.0170    24.0210   -14.1150 
  200.3750     2.5230    87.4210    21.3430    19.1420    19.2640    24.0210   -14.1880 
  200.5000     2.5270    89.4490    21.0710    19.1860    19.8860    24.0210   -14.2550 
  200.6250     2.5290    89.3290    20.6130    19.0100    20.2720    24.0210   -14.3130 
  200.7500     2.5380    89.0370    20.2760    18.8390    20.8760    24.0210   -14.3650 
  200.8750     2.5500    88.6480    20.0360    18.6690    21.3260    24.0210   -14.4070 
  201.0000     2.5560    87.8980    19.7240    18.3710    21.3080    24.0210   -14.4190 
  201.1250     2.5470    85.8470    19.1110    17.7750    20.3230    24.0210   -14.4210 
