~V
VERS. 2.00: Ver 2.00
~W
STRT.M 52.0000:
STOP.M 208.0000:
STEP.M 0.1250:
NULL. -999.2500:
UWI. F10572:
~C
DEPT.M :
GR.API :
RML.OHMM :
RI. :
RXO.OHMM :
CALI.CM :
DEN.GM/CC :
SP.MV :
~A
# ...
  142.0000    72.1110     7.7320     6.0210     6.5960    24.1000     2.3980   -20.7400 
  142.1250    75.3730     8.2470     6.3440     7.9050    24.0670     2.4050   -20.8660 
  142.2500    75.1800     8.7000     6.6540     9.0040    24.0750     2.4070   -20.9230 
  142.3750    71.9390     8.9840     6.8760     8.7470    24.1040     2.4050   -20.9150 
  142.5000    69.1340     9.0390     6.9540     8.0040    24.1200     2.3980   -20.8800 
  142.6250    69.0920     8.8590     6.8640     7.6580    24.1230     2.3880   -20.7950 
  142.7500    70.6050     8.5920     6.6960     7.6070    24.1270     2.3740   -20.6660 
  142.8750    72.0040     8.3720     6.5370     7.4730    24.1300     2.3620   -20.5110 
  143.0000    73.8560     8.3220     6.4730     7.2260    24.1390     2.3580   -20.2940 
  143.1250    76.0330     8.6070     6.6140     7.4950    24.1510     2.3710   -20.0320 
  143.2500    75.1080     9.2630     6.9990     8.1420    24.1070     2.3980   -19.8120 
  143.3750    70.7330    10.3080     7.6640     9.0060    23.9470     2.4290   -19.6520 
  143.5000    66.0470    11.6830     8.6050    10.2590    23.6630     2.4520   -19.5070 
  143.6250    64.6550    13.1700     9.7340    11.8930    23.4240     2.4520   -19.3590 
  143.7500    65.2890    14.3620    10.7650    13.6750    23.2210     2.4340   -19.2500 
  143.8750    66.9070    14.9170    11.4200    14.3740    23.0490     2.4060   -19.2110 
  144.0000    69.7640    14.6990    11.5230    13.9700    23.0120     2.3790   -19.2320 
  144.1250    73.7770    13.8390    11.0710    12.6570    23.1770     2.3630   -19.2810 
  144.2500    76.2670    12.8620    10.4300    11.8440    23.4360     2.3580   -19.3540 
  144.3750    76.6180    12.0960     9.8560    11.3630    23.6260     2.3600   -19.4590 
  144.5000    75.9310    11.7200     9.5170    11.1470    23.7110     2.3680   -19.5860 
  144.6250    74.4830    11.8550     9.5370    10.7030    23.8140     2.3780   -19.7430 
  144.7500    72.6070    12.3880     9.8630    10.6860    23.9520     2.3800   -19.9190 
  144.8750    69.8250    13.2180    10.4400    11.8310    24.0720     2.3660   -20.0810 
  145.0000    65.9780    14.1600    11.1550    13.4780    24.1450     2.3350   -20.2150 
  145.1250    62.9270    14.9230    11.8050    14.2980    24.2050     2.2980   -20.3290 
  145.2500    63.5190    15.3270    12.2180    14.8870    24.2480     2.2810   -20.3830 
  145.3750    66.9120    15.3990    12.3650    15.0290    24.2680     2.2970   -20.3580 
  145.5000    69.5120    15.4050    12.3900    14.2970    24.2270     2.3320   -20.2880 
  145.6250    68.2620    15.8490    12.6260    12.4140    24.1180     2.3550   -20.1750 
  145.7500    64.5470    17.0520    13.3450    11.3240    23.9960     2.3550   -20.0350 
  145.8750    60.4580    19.1690    14.7210    13.0720    23.9620     2.3510   -19.8940 
  146.0000    56.4590    22.1020    16.7670    20.0400    23.9980     2.3610   -19.7510 
  146.1250    52.9530    25.4180    19.2860    24.2660    23.9720     2.3850   -19.5890 
  146.2500    51.6060    28.3420    21.6940    24.0230    23.9350     2.3960   -19.4300 
  146.3750    53.8110    30.4480    23.5800    22.6340    23.9450     2.3780   -19.3080 
  146.5000    58.2810    31.8530    24.8870    21.8640    23.9100     2.3400   -19.2380 
  146.6250    59.7930    33.1990    25.9800    20.6170    23.6270     2.3060   -19.2020 
  146.7500    57.7410    35.0580    27.3500    21.0210    23.3620     2.2880   -19.1190 
  146.8750    54.2000    37.4950    29.1280    23.7730    23.3500     2.2780   -19.0000 
  147.0000    51.7340    40.2230    31.1610    26.6100    23.4920     2.2650   -18.9210 
  147.1250    52.5740    42.6330    33.0280    26.9930    23.4930     2.2500   -18.8980 
  147.2500    54.5060    44.1760    34.3090    27.2710    23.3720     2.2390   -18.8660 
  147.3750    56.0400    44.5310    34.7540    28.2420    23.2470     2.2380   -18.8200 
  147.5000    55.3600    43.7280    34.3610    30.2110    23.1160     2.2440   -18.7740 
  147.6250    53.5280    42.0350    33.2890    30.4490    22.8790     2.2540   -18.7060 
  147.7500    55.1390    40.1220    31.9950    27.4230    22.6190     2.2580   -18.6460 
  147.8750    59.0870    38.4330    30.7890    22.5990    22.4100     2.2530   -18.6000 
  148.0000    60.3990    37.2780    29.9170    20.8840    22.3010     2.2420   -18.5060 
  148.1250    58.5590    36.9270    29.6300    20.7230    22.3030     2.2370   -18.3380 
  148.2500    57.4850    37.2850    29.9020    20.4690    22.3410     2.2530   -18.1790 
  148.3750    56.6880    38.2560    30.6900    20.0250    22.3980     2.3040   -18.0300 
  148.5000    53.8950    39.6160    31.8380    20.6890    22.4650     2.3930   -17.8650 
  148.6250    51.7850    40.9760    33.0550    24.4370    22.5510     2.4860   -17.7060 
  148.7500    51.0940    41.9150    33.9950    28.3410    22.6390     2.5360   -17.5480 
  148.8750    49.0480    42.1840    34.4310    29.2780    22.6480     2.5250   -17.3840 
  149.0000    45.6550    41.7320    34.2790    27.7250    22.5500     2.4690   -17.2790 
  149.1250    46.2170    40.7210    33.5980    24.8270    22.4710     2.3990   -17.2580 
  149.2500    49.8830    39.6490    32.7730    22.6190    22.4440     2.3370   -17.2360 
  149.3750    52.8270    38.8370    32.0820    21.9780    22.5470     2.2910   -17.2100 
  149.5000    53.8540    38.4410    31.6910    23.0020    22.8640     2.2660   -17.2180 
  149.6250    54.3920    38.4870    31.6750    27.1640    23.3460     2.2630   -17.3030 
  149.7500    55.2790    38.7180    31.8790    31.3770    23.7830     2.2710   -17.4320 
  149.8750    55.0010    38.9040    32.1510    33.9430    24.0540     2.2820   -17.5690 
  150.0000    52.7550    38.8100    32.3080    36.0570    24.1620     2.2900   -17.7250 
  150.1250    51.1160    38.1570    32.0930    37.4780    24.1940     2.2820   -17.9180 
  150.2500    51.3310    37.0510    31.4870    36.6230    24.2070     2.2630   -18.1210 
  150.3750    52.7120    35.7660    30.6320    34.8770    24.1940     2.2520   -18.3010 
  150.5000    53.7970    34.6730    29.7980    33.1800    24.1710     2.2840   -18.4570 
  150.6250    54.1930    34.1200    29.2970    30.5240    24.1470     2.3820   -18.5990 
  150.7500    54.0940    34.0170    29.1490    29.7980    24.0750     2.4890   -18.7160 
  150.8750    53.1350    34.1160    29.2210    31.8880    23.8540     2.5310   -18.7970 
  151.0000    52.0930    34.0650    29.2610    38.7150    23.4730     2.4850   -18.8420 
  151.1250    53.1450    33.4990    28.9660    41.3670    23.3670     2.3820   -18.8170 
  151.2500    56.7050    32.5120    28.3340    34.5920    23.7140     2.2820   -18.7500 
  151.3750    60.2790    31.3830    27.5240    28.4660    24.1280     2.2210   -18.6690 
  151.5000    60.2480    30.4610    26.7850    25.9560    24.3280     2.2090   -18.5670 
  151.6250    56.6280    30.1190    26.4190    25.9690    24.3920     2.2380   -18.4360 
  151.7500    54.6550    30.3230    26.4680    26.3920    24.4530     2.2720   -18.3010 
  151.8750    57.0510    30.9100    26.8500    27.1260    24.4440     2.2870   -18.1620 
  152.0000    60.0730    31.6260    27.3820    27.9100    24.3080     2.2770   -17.9870 
  152.1250    59.5640    32.1980    27.8430    28.2630    24.2210     2.2530   -17.8130 
  152.2500    56.4210    32.5150    28.1090    27.3900    24.1700     2.2340   -17.7000 
  152.3750    53.7590    32.5320    28.1210    26.2910    24.1170     2.2260   -17.6560 
  152.5000    52.0740    32.2200    27.8460    25.3220    24.0510     2.2240   -17.6510 
  152.6250    51.6250    31.5030    27.2340    25.1920    24.0550     2.2270   -17.6420 
  152.7500    53.5060    30.4850    26.3880    25.8710    24.1560     2.2400   -17.6330 
  152.8750    55.5900    29.2940    25.4280    25.9580    24.2550     2.2660   -17.6560 
  153.0000    55.4940    28.1230    24.5110    24.7380    24.1810     2.2960   -17.7310 
  153.1250    53.9310    27.2210    23.8300    22.9780    23.9770     2.3090   -17.8340 
