~V
VERS. 2.00: Ver 2.00
~W
STRT.M 50.0000:
STOP.M 236.0000:
STEP.M 0.1250:
NULL. -999.2500:
UWI. F10596:
~C
DEPT.M :
DEN.GM/CC :
SP.MV :
GR.API :
RML.OHMM :
RI. :
RXO.OHMM :
CALI.CM :
~A
# ...
   61.2500     2.0770   -18.7850    85.4890     8.1260     6.3990     8.4530    22.2110 
   61.3750     2.0890   -18.4750    81.9300     7.9870     6.3220     8.6260    22.4270 
   61.5000     2.0970   -18.1870    78.0880     7.8940     6.2890     8.7600    22.6130 
   61.6250     2.0990   -17.9270    76.4690     7.7810     6.2520     8.6990    22.6800 
   61.7500     2.1050   -17.7280    76.4360     7.6350     6.1760     8.4740    22.6870 
   61.8750     2.1220   -17.5660    77.6810     7.5060     6.0850     8.2160    22.6870 
   62.0000     2.1500   -17.4350    80.0990     7.4680     6.0500     8.1660    22.6870 
   62.1250     2.1940   -17.2820    83.1080     7.6460     6.2030     8.4670    22.6870 
   62.2500     2.2620   -17.0740    84.2720     8.1120     6.6190     9.3570    22.6870 
   62.3750     2.3570   -16.8800    83.9110     8.9340     7.3460    11.3490    22.6870 
   62.5000     2.4630   -16.7560    85.1190    10.0680     8.3360    15.0240    22.6900 
   62.6250     2.5250   -16.7790    88.9370    11.1530     9.2950    17.6830    22.7120 
   62.7500     2.5240   -16.9240    91.5630    11.5500     9.7430    17.9680    22.7560 
   62.8750     2.4720   -17.2150    91.8290    10.8900     9.3790    15.3190    22.8110 
   63.0000     2.3880   -17.6280    91.1210     9.4580     8.3090    10.6510    22.8610 
   63.1250     2.2890   -18.1830    90.6890     7.9990     7.0160     8.4190    22.9230 
   63.2500     2.2070   -18.8210    89.9830     7.0040     5.9940     7.6520    22.9820 
   63.3750     2.1600   -19.4630    88.4720     6.5690     5.4030     7.5800    23.0470 
   63.5000     2.1410   -20.0500    86.4120     6.6560     5.2330     7.6410    23.1220 
   63.6250     2.1350   -20.5870    84.7630     7.2300     5.4180     7.5980    23.1970 
   63.7500     2.1280   -21.0540    84.0150     8.0380     5.7400     7.8050    23.2520 
   63.8750     2.1190   -21.4290    84.1180     8.8930     6.0600     7.9420    23.2750 
   64.0000     2.1090   -21.7210    84.0390     9.7170     6.3010     7.9550    23.2760 
   64.1250     2.0970   -21.9380    81.9370    10.6130     6.4360     7.8820    23.2580 
   64.2500     2.0860   -22.0930    78.8100    11.7120     6.5000     7.7470    23.2300 
   64.3750     2.0760   -22.2030    75.5260    12.8000     6.5020     7.6810    23.2110 
   64.5000     2.0690   -22.2700    73.6710    13.0850     6.4450     7.7820    23.2050 
   64.6250     2.0710   -22.2280    75.3760    11.7470     6.3040     7.9040    23.1930 
   64.7500     2.0890   -22.1410    80.6860     9.9480     6.0890     7.8260    23.1980 
   64.8750     2.1190   -22.0120    86.8930     8.6410     5.8450     7.6700    23.3260 
   65.0000     2.1480   -21.8660    89.1920     8.0470     5.6600     7.9090    23.7330 
   65.1250     2.1590   -21.6620    86.1010     8.1370     5.6920     8.0190    24.4380 
   65.2500     2.1520   -21.4560    81.0960     8.7550     6.0440     8.2290    25.2310 
   65.3750     2.1410   -21.2320    76.7200     9.9930     6.8430     8.9330    25.7510 
   65.5000     2.1510   -21.0100    73.2840    12.0260     8.2370    11.0090    25.6760 
   65.6250     2.2120   -20.8240    69.3640    15.0110    10.4700    16.4070    25.0390 
   65.7500     2.3070   -20.7130    65.3380    18.2360    13.2300    25.5270    24.6070 
   65.8750     2.4020   -20.7040    63.2010    20.3880    15.7090    31.7460    24.4650 
   66.0000     2.4580   -20.7710    64.0440    20.0580    16.6330    29.6470    24.4520 
   66.1250     2.4460   -20.9830    67.7930    17.0220    15.0430    23.4930    24.4520 
   66.2500     2.3890   -21.2460    72.5870    13.3660    12.2960    18.0120    24.4520 
   66.3750     2.3070   -21.5330    76.3150    10.2510     9.5500    13.8000    24.4830 
   66.5000     2.2200   -21.7520    78.0390     8.0600     7.3880     9.7770    24.5850 
   66.6250     2.1500   -21.8730    79.7670     6.8820     6.0160     7.6820    24.7820 
   66.7500     2.1010   -21.8370    84.8470     6.3990     5.2160     6.8110    24.8440 
   66.8750     2.0740   -21.6330    92.1550     6.4590     4.8880     6.5440    24.7750 
   67.0000     2.0620   -21.2750    96.8490     6.9210     4.9480     6.3980    24.6970 
   67.1250     2.0630   -20.7200    95.8420     7.6510     5.3400     7.3100    24.6720 
   67.2500     2.0860   -20.0450    92.8660     8.3780     5.8700     8.5650    24.6700 
   67.3750     2.1400   -19.2880    90.7120     8.8310     6.3490     9.2050    24.6800 
   67.5000     2.2100   -18.5580    90.5370     8.7750     6.5720     8.8060    24.7100 
   67.6250     2.2510   -17.8670    90.8320     8.1530     6.3860     7.7980    24.7730 
   67.7500     2.2490   -17.2670    91.9470     7.3750     5.9820     7.2500    24.8030 
   67.8750     2.2330   -16.7400    93.5930     6.7580     5.5680     6.8820    24.8170 
   68.0000     2.2240   -16.2680    93.5670     6.4620     5.2920     6.6780    24.8340 
   68.1250     2.2230   -15.8440    90.8990     6.4800     5.2060     6.4940    24.8870 
   68.2500     2.2260   -15.4860    88.9080     6.5900     5.2020     6.5490    24.9790 
   68.3750     2.2350   -15.2300    91.6680     6.6470     5.1910     6.3700    25.1220 
   68.5000     2.2480   -15.0530    98.8800     6.6140     5.1330     5.8900    25.2230 
   68.6250     2.2510   -14.9770   104.8840     6.5710     5.0590     6.0230    25.2540 
   68.7500     2.2470   -14.9390   105.0250     6.6020     5.0080     6.5950    25.2550 
   68.8750     2.2440   -14.9690   101.9710     6.7040     4.9750     6.6980    25.2550 
   69.0000     2.2500   -15.0640   100.4450     6.8050     4.9350     6.3370    25.2550 
   69.1250     2.2630   -15.2920   102.6950     6.8590     4.8940     6.0270    25.2550 
   69.2500     2.2730   -15.6150   102.7440     6.9870     4.9210     6.1200    25.2550 
   69.3750     2.2850   -16.0210   100.4340     7.3940     5.1240     6.5770    25.2550 
   69.5000     2.3010   -16.4910    99.1800     8.2840     5.6160     7.2970    25.2550 
   69.6250     2.3250   -17.0470    98.4460     9.9890     6.6140     9.1020    25.2320 
   69.7500     2.3600   -17.6860    93.8830    12.5230     8.2100    13.9420    25.1800 
   69.8750     2.4060   -18.3620    83.9700    15.6820    10.4230    25.1350    25.1270 
   70.0000     2.4390   -19.0900    73.6520    18.6370    12.8660    33.0870    25.1040 
   70.1250     2.4050   -19.8160    68.7240    19.3980    14.2020    26.8490    25.1090 
   70.2500     2.3300   -20.4990    67.9100    17.4900    13.6270    17.5190    25.1280 
   70.3750     2.2740   -21.0820    68.9600    14.2620    11.7170    11.8430    25.1540 
   70.5000     2.2590   -21.5790    70.5940    11.4620     9.6840     9.5830    25.1240 
   70.6250     2.2540   -21.9230    74.5250     9.9570     8.3460     9.1780    24.9810 
   70.7500     2.2240   -22.1180    77.1900     9.2660     7.6070     9.2560    24.7890 
   70.8750     2.1840   -22.1720    76.3150     8.9830     7.2460     9.3710    24.6910 
   71.0000     2.1590   -22.0900    74.9420     8.8840     7.0900     9.4040    24.6700 
   71.1250     2.1490   -21.8480    78.9150     8.9310     7.0860     9.3460    24.6700 
   71.2500     2.1370   -21.5190    84.4370     9.0730     7.1910     9.4900    24.6700 
   71.3750     2.1190   -21.1220    86.4830     9.2090     7.3440     9.7200    24.6760 
   71.5000     2.1010   -20.6370    85.3750     9.2060     7.4400     9.7400    24.7230 
   71.6250     2.0920   -20.0750    85.8310     8.9730     7.3840     9.4740    24.8390 
   71.7500     2.0940   -19.4280    88.5490     8.5850     7.2070     9.1930    24.9410 
   71.8750     2.1090   -18.7160    90.0860     8.0940     6.9320     8.9980    24.9420 
   72.0000     2.1390   -17.9380    89.9070     7.5480     6.5740     8.5900    24.9360 
   72.1250     2.1810   -17.1870    92.1930     7.0430     6.1560     7.7180    24.9970 
   72.2500     2.2220   -16.4940    99.2560     6.6820     5.7610     6.7350    25.0700 
   72.3750     2.2500   -15.9150   107.0350     6.5120     5.4630     6.2700    25.1000 
