~V
VERS. 2.00: Ver 2.00
~W
STRT.M 55.0000:
STOP.M 217.0000:
STEP.M 0.1250:
NULL. -999.2500:
UWI. F10537:
~C
DEPT.M :
SP.MV :
DEN.GM/CC :
GR.API :
RML.OHMM :
RI. :
RXO.OHMM :
CALI.CM :
~A
# ...
  100.0000   -13.2970     2.2930    83.1410     5.7360     4.7170     4.3700    23.8700 
  100.1250   -13.2620     2.2870    84.4780     5.8340     4.7090     4.7100    23.4930 
  100.2500   -13.1820     2.2900    86.1100     5.9900     4.7730     5.0130    23.2980 
  100.3750   -13.1190     2.3020    86.2500     6.1410     4.8590     5.0350    23.3070 
  100.5000   -13.0600     2.3210    83.3120     6.2640     4.9400     4.7750    23.4090 
  100.6250   -13.0600     2.3400    80.1780     6.3750     5.0120     4.6610    23.4570 
  100.7500   -13.0960     2.3510    80.4170     6.4970     5.0860     4.9260    23.4700 
  100.8750   -13.1830     2.3540    83.9260     6.6230     5.1600     5.1310    23.4700 
  101.0000   -13.3470     2.3510    86.9080     6.7120     5.2130     5.2380    23.4690 
  101.1250   -13.5730     2.3460    84.8860     6.7080     5.2080     5.3180    23.4670 
  101.2500   -13.8720     2.3400    80.9870     6.6580     5.1660     5.4210    23.4710 
  101.3750   -14.2210     2.3300    78.8940     6.6970     5.1670     5.4270    23.4880 
  101.5000   -14.6220     2.3190    77.4960     7.0160     5.3320     5.2520    23.5250 
  101.6250   -15.1140     2.3150    73.7520     7.9050     5.8540     5.4650    23.5450 
  101.7500   -15.6240     2.3320    68.3310     9.3770     6.7730     7.0580    23.5640 
  101.8750   -16.1700     2.3690    63.2390    11.2960     8.0570    11.3820    23.5960 
  102.0000   -16.7470     2.4080    59.7490    13.2390     9.4880    17.8250    23.6190 
  102.1250   -17.3240     2.4110    59.5270    14.3340    10.5090    19.8710    23.6270 
  102.2500   -17.9160     2.3650    61.5620    14.2040    10.7350    15.8770    23.6270 
  102.3750   -18.4850     2.2910    64.4790    13.0800    10.1900    10.9580    23.6280 
  102.5000   -19.0230     2.2210    66.7940    11.6060     9.2470     8.1150    23.6410 
  102.6250   -19.4430     2.1820    67.2160    10.4200     8.3430     7.3620    23.7070 
  102.7500   -19.7800     2.1740    66.7190     9.6690     7.6820     7.1900    23.8020 
  102.8750   -20.0030     2.1840    66.6030     9.2840     7.2750     6.9600    23.7900 
  103.0000   -20.0920     2.1950    66.3170     9.1400     7.0690     6.7330    23.5850 
  103.1250   -20.1040     2.2030    64.9380     9.1370     7.0110     6.7300    23.3540 
  103.2500   -20.0220     2.2100    63.9130     9.1800     7.0210     6.8460    23.2600 
  103.3750   -19.9070     2.2150    64.0880     9.2370     7.0640     6.9630    23.2430 
  103.5000   -19.7500     2.2140    65.5380     9.2880     7.1200     6.9030    23.2450 
  103.6250   -19.5790     2.2040    66.4860     9.3120     7.1690     6.8590    23.2480 
  103.7500   -19.4270     2.1940    66.6440     9.3020     7.1970     6.8330    23.2460 
  103.8750   -19.3020     2.1900    66.5380     9.2650     7.2010     6.9150    23.2300 
  104.0000   -19.2320     2.1980    66.6740     9.2280     7.1880     7.1170    23.2000 
  104.1250   -19.2000     2.2100    68.6830     9.2380     7.1860     7.2880    23.1840 
  104.2500   -19.2040     2.2150    70.3130     9.3140     7.2190     7.2910    23.1800 
  104.3750   -19.2450     2.2090    69.0990     9.4520     7.2940     7.1960    23.1820 
  104.5000   -19.3110     2.2010    64.6130     9.6230     7.4000     7.1470    23.2220 
  104.6250   -19.4150     2.2040    61.2530     9.7760     7.5080     7.4380    23.3450 
  104.7500   -19.5370     2.2240    61.0320     9.8660     7.5810     7.9610    23.5160 
  104.8750   -19.6680     2.2480    60.7300     9.8710     7.5990     8.0410    23.6070 
  105.0000   -19.8000     2.2590    57.8050     9.7880     7.5540     7.7140    23.6270 
  105.1250   -19.9110     2.2470    55.1050     9.6300     7.4410     7.3970    23.6270 
  105.2500   -20.0320     2.2210    55.8430     9.4390     7.2860     7.2580    23.6270 
  105.3750   -20.1060     2.1990    59.3820     9.2400     7.1090     7.1640    23.6270 
  105.5000   -20.1720     2.1900    62.5890     9.0560     6.9340     6.9790    23.6270 
  105.6250   -20.1680     2.1970    62.6620     8.9260     6.7960     6.8510    23.6270 
  105.7500   -20.1200     2.2060    62.1820     8.8730     6.7160     6.7710    23.6270 
  105.8750   -20.0460     2.2060    62.3860     8.9160     6.7110     6.9140    23.6270 
  106.0000   -19.8980     2.1950    64.0070     9.0480     6.7870     7.2300    23.6270 
  106.1250   -19.7340     2.1820    64.7170     9.2420     6.9360     7.4450    23.6270 
  106.2500   -19.5040     2.1740    62.6770     9.4350     7.1120     7.6170    23.6270 
  106.3750   -19.2320     2.1740    60.2390     9.5840     7.2800     7.7620    23.6270 
  106.5000   -18.9210     2.1810    60.2280     9.6580     7.4080     7.8590    23.6270 
  106.6250   -18.5600     2.1930    62.6040     9.6190     7.4580     7.9970    23.6270 
  106.7500   -18.1800     2.2050    62.8350     9.4620     7.4190     8.1670    23.6270 
  106.8750   -17.7910     2.2140    61.0650     9.1870     7.2810     8.2660    23.6240 
  107.0000   -17.4020     2.2190    61.3910     8.8180     7.0530     8.0970    23.6120 
  107.1250   -17.0050     2.2220    64.6470     8.4010     6.7540     7.5550    23.5910 
  107.2500   -16.6240     2.2260    67.6660     7.9860     6.4280     6.8190    23.5790 
  107.3750   -16.2880     2.2350    68.7980     7.5920     6.0970     6.1830    23.5640 
  107.5000   -15.9860     2.2520    70.0080     7.2230     5.7750     6.0030    23.5330 
  107.6250   -15.7950     2.2770    72.3890     6.8840     5.4820     5.6900    23.5860 
  107.7500   -15.7230     2.3040    74.9340     6.5950     5.2350     5.1320    23.6950 
  107.8750   -15.7480     2.3250    77.6850     6.3950     5.0590     4.7080    23.7680 
  108.0000   -15.9070     2.3340    81.5900     6.3230     4.9750     4.6390    23.7060 
  108.1250   -16.1720     2.3290    83.5500     6.4280     5.0140     4.9330    23.5420 
  108.2500   -16.5170     2.3170    80.3880     6.6760     5.1580     5.3420    23.3620 
  108.3750   -16.8850     2.3020    74.4480     7.0250     5.3900     5.8470    23.2660 
  108.5000   -17.2500     2.2850    70.7620     7.4080     5.6720     6.2930    23.2370 
  108.6250   -17.5880     2.2650    69.5200     7.7460     5.9520     6.8440    23.2340 
  108.7500   -17.8270     2.2430    65.6340     7.9980     6.1910     7.5710    23.2340 
  108.8750   -17.9910     2.2210    60.9540     8.1560     6.3690     7.8840    23.2340 
  109.0000   -18.0250     2.2030    58.8390     8.2290     6.4810     7.3050    23.2350 
  109.1250   -17.9590     2.1950    59.5440     8.2230     6.5230     6.9420    23.2380 
  109.2500   -17.8020     2.1980    60.6370     8.1640     6.5150     6.8890    23.2390 
  109.3750   -17.5770     2.2090    62.6540     8.0690     6.4730     6.9560    23.2280 
  109.5000   -17.3350     2.2210    65.4100     7.9570     6.4140     6.9070    23.1970 
  109.6250   -17.0300     2.2230    64.8730     7.8500     6.3510     6.6660    23.1680 
  109.7500   -16.7190     2.2130    62.8020     7.7530     6.2920     6.4530    23.1490 
  109.8750   -16.3850     2.1990    61.4430     7.6640     6.2390     6.3970    23.0980 
  110.0000   -16.0420     2.1890    61.3630     7.5850     6.1990     6.3930    22.9510 
  110.1250   -15.7000     2.1940    63.8220     7.5200     6.1750     6.3740    22.7480 
  110.2500   -15.3700     2.2070    68.3180     7.4500     6.1520     6.3420    22.6790 
  110.3750   -15.0550     2.2180    72.8600     7.3390     6.0960     6.2560    22.8000 
  110.5000   -14.7540     2.2180    75.4120     7.1230     5.9580     6.0610    22.9140 
  110.6250   -14.4780     2.2090    76.5840     6.7140     5.6690     6.0740    23.0180 
  110.7500   -14.2480     2.2010    78.2460     6.1470     5.2530     5.7790    23.2190 
  110.8750   -14.0900     2.2060    81.2670     5.5130     4.7670     4.9940    23.5810 
  111.0000   -14.0460     2.2370    84.9030     4.9400     4.2990     4.3480    24.0110 
  111.1250   -14.1130     2.2960    87.0070     4.5770     3.9580     3.8150    24.2930 
