~V
VERS. 2.00: Ver 2.00
~W
STRT.M 57.0000:
STOP.M 205.0000:
STEP.M 0.1250:
NULL. -999.2500:
UWI. F10591:
~C
DEPT.M :
SP.MV :
GR.API :
RML.OHMM :
RI. :
RXO.OHMM :
CALI.CM :
DEN.GM/CC :
~A
# ...
  147.0000   -16.2480    54.6140    32.3890    26.7060    27.3780    24.5350     2.1880 
  147.1250   -16.2170    57.6780    34.2060    27.9710    29.2230    24.6500     2.1820 
  147.2500   -16.1930    58.6820    36.2410    29.5630    34.3990    24.7690     2.1790 
  147.3750   -16.1910    57.6180    37.7390    30.9430    39.3790    24.8330     2.1770 
  147.5000   -16.2050    58.1150    38.0470    31.5480    38.9090    24.8070     2.1780 
  147.6250   -16.2440    59.4120    36.8660    30.9940    34.2390    24.6680     2.1780 
  147.7500   -16.3180    59.1470    35.0260    29.8040    29.7550    24.4960     2.1790 
  147.8750   -16.3680    58.8310    33.2480    28.5060    27.1620    24.3880     2.1790 
  148.0000   -16.4430    59.0310    32.0340    27.5140    25.5080    24.3540     2.1780 
  148.1250   -16.5160    58.3390    31.6550    27.1140    25.5700    24.3790     2.1760 
  148.2500   -16.5860    58.7870    31.8400    27.1900    27.6950    24.4120     2.1750 
  148.3750   -16.6750    61.2540    32.3590    27.6020    29.3370    24.4190     2.1750 
  148.5000   -16.7480    62.5670    33.0110    28.1970    29.7330    24.4100     2.1750 
  148.6250   -16.8000    60.4430    33.6520    28.8440    30.4980    24.3930     2.1750 
  148.7500   -16.8270    58.3820    34.2420    29.4620    32.5310    24.4080     2.1770 
  148.8750   -16.8320    58.2890    34.8230    30.0570    33.4570    24.5170     2.1820 
  149.0000   -16.8270    58.7640    35.4760    30.6910    33.8030    24.7070     2.1890 
  149.1250   -16.7880    57.8820    36.2970    31.4510    34.1370    24.8280     2.1910 
  149.2500   -16.7360    57.1800    37.2600    32.3400    34.7970    24.8590     2.1840 
  149.3750   -16.6560    56.4820    38.2600    33.3000    37.0850    24.8510     2.1690 
  149.5000   -16.5710    55.8270    39.0870    34.1780    39.0440    24.8280     2.1520 
  149.6250   -16.4900    55.1300    39.4140    34.6960    41.0560    24.8560     2.1440 
  149.7500   -16.4060    54.1950    39.2300    34.7780    41.1690    24.8970     2.1490 
  149.8750   -16.3360    53.7990    38.6830    34.5030    39.5370    24.9100     2.1670 
  150.0000   -16.2540    54.1460    38.0190    34.0620    36.9020    24.8840     2.1910 
  150.1250   -16.2050    55.7320    37.4230    33.6210    34.8110    24.8300     2.2090 
  150.2500   -16.1590    57.0330    36.8040    33.1480    34.3330    24.8080     2.2170 
  150.3750   -16.1640    57.0980    35.9290    32.4630    34.9420    24.7970     2.2160 
  150.5000   -16.1680    56.7430    34.6030    31.4020    35.1870    24.7840     2.2130 
  150.6250   -16.2110    56.3450    32.8110    29.9240    31.8580    24.7580     2.2140 
  150.7500   -16.2660    55.6400    30.9650    28.3520    28.1530    24.7190     2.2200 
  150.8750   -16.3440    55.5260    29.4690    27.0060    25.9380    24.6510     2.2270 
  151.0000   -16.4310    56.6520    28.6460    26.1610    25.2680    24.5800     2.2340 
  151.1250   -16.5080    57.7260    28.7850    26.1030    26.0460    24.5600     2.2400 
  151.2500   -16.6080    58.2070    29.6800    26.7320    27.0470    24.5540     2.2410 
  151.3750   -16.6790    57.6930    31.1320    27.9370    28.4390    24.5630     2.2350 
  151.5000   -16.7600    56.3200    32.8870    29.5120    30.6530    24.5790     2.2190 
  151.6250   -16.7890    54.2270    34.6990    31.2150    33.7660    24.5880     2.1960 
  151.7500   -16.8030    54.4640    36.4130    32.8380    36.2880    24.5860     2.1760 
  151.8750   -16.7710    56.8670    38.0230    34.3380    37.5540    24.5750     2.1640 
  152.0000   -16.7360    58.0020    39.5670    35.7480    37.7480    24.5580     2.1610 
  152.1250   -16.6630    56.5270    40.9730    37.0390    39.0130    24.5000     2.1610 
  152.2500   -16.5500    53.9320    42.0330    38.0590    41.0730    24.4490     2.1580 
  152.3750   -16.4320    52.0940    42.4570    38.5580    43.3140    24.3910     2.1560 
  152.5000   -16.2660    52.1350    42.0530    38.3310    44.0830    24.3180     2.1630 
  152.6250   -16.1090    54.2770    40.7650    37.2720    41.2630    24.3020     2.1930 
  152.7500   -15.9270    56.6980    39.0930    35.7870    36.8930    24.3210     2.2450 
  152.8750   -15.7640    57.3690    37.5130    34.2820    34.4670    24.3450     2.3050 
  153.0000   -15.6370    55.8870    36.4650    33.1580    34.0940    24.3580     2.3440 
  153.1250   -15.5560    52.5980    36.4180    32.8600    34.7710    24.3650     2.3340 
  153.2500   -15.5300    51.1220    37.3420    33.4230    34.6170    24.3750     2.2870 
  153.3750   -15.5410    52.7350    39.1180    34.8080    34.4710    24.3770     2.2260 
  153.5000   -15.6070    54.8580    41.4150    36.7810    37.8910    24.3670     2.1740 
  153.6250   -15.7260    55.2960    43.5890    38.8420    42.0150    24.3640     2.1470 
  153.7500   -15.8870    56.5260    44.9780    40.3500    44.0090    24.3640     2.1410 
  153.8750   -16.0860    58.8530    45.2110    40.9000    43.1620    24.3540     2.1440 
  154.0000   -16.2410    60.2900    44.3070    40.4110    41.1870    24.3490     2.1460 
  154.1250   -16.4140    59.7610    42.6220    39.1080    38.8950    24.3260     2.1430 
  154.2500   -16.5530    58.9330    40.8740    37.6320    36.6150    24.3110     2.1380 
  154.3750   -16.6600    58.6550    39.4340    36.3410    35.0320    24.2910     2.1390 
  154.5000   -16.7360    58.3560    38.4670    35.4170    34.2310    24.2720     2.1510 
  154.6250   -16.7830    57.6010    38.0740    34.9700    33.8500    24.2360     2.1690 
  154.7500   -16.8150    57.2500    38.1170    34.8990    33.7390    24.2200     2.1800 
  154.8750   -16.8060    57.7210    38.5020    35.1380    34.0150    24.2150     2.1770 
  155.0000   -16.8030    57.8620    39.0580    35.5670    34.5010    24.2110     2.1640 
  155.1250   -16.7330    56.0440    39.3870    35.8990    34.5380    24.1820     2.1500 
  155.2500   -16.6630    54.9580    39.0340    35.7250    34.6650    24.1270     2.1450 
  155.3750   -16.5790    56.2460    37.6920    34.7260    33.7420    24.0900     2.1510 
  155.5000   -16.4980    58.4530    35.3900    32.8480    31.8980    24.0680     2.1630 
  155.6250   -16.4150    59.5750    32.5130    30.3490    29.3220    24.0550     2.1720 
  155.7500   -16.3240    60.4280    29.7990    27.8790    25.7690    24.0300     2.1740 
  155.8750   -16.2690    61.1730    27.7300    25.8830    23.2370    24.0010     2.1660 
  156.0000   -16.2170    60.3130    26.5880    24.6350    22.5190    23.9770     2.1540 
  156.1250   -16.2310    57.5260    26.6730    24.4130    22.2200    23.9460     2.1560 
  156.2500   -16.2600    54.1570    27.8250    25.1230    22.2140    23.8760     2.1980 
  156.3750   -16.3070    51.2140    29.9010    26.7210    23.8290    23.7790     2.2990 
  156.5000   -16.3940    48.3270    32.5120    28.9670    26.7500    23.7020     2.4500 
  156.6250   -16.4580    46.3690    34.8500    31.2550    30.3960    23.6630     2.5780 
  156.7500   -16.5710    46.2560    36.0720    32.7470    33.3880    23.5990     2.6090 
  156.8750   -16.6660    47.8630    35.6730    32.8550    35.5810    23.4980     2.5450 
  157.0000   -16.7720    51.4170    33.7420    31.5010    32.7400    23.3740     2.4340 
  157.1250   -16.8620    56.4130    30.9750    29.1770    27.4940    23.2980     2.3260 
  157.2500   -16.9310    61.1590    28.4500    26.8760    24.9490    23.4480     2.2500 
  157.3750   -17.0040    64.1580    26.6820    25.1000    24.3060    23.8070     2.2100 
  157.5000   -17.0410    63.9470    25.8080    24.0420    23.8690    24.1470     2.1980 
  157.6250   -17.0900    60.6720    25.7690    23.7390    24.1550    24.2810     2.1990 
  157.7500   -17.0810    57.9190    26.1240    23.8630    25.0250    24.2310     2.1990 
  157.8750   -17.0670    57.4840    26.6190    24.2100    26.0940    24.0950     2.1980 
  158.0000   -17.0040    58.6600    27.1050    24.6360    25.9630    24.1620     2.1980 
  158.1250   -16.9330    59.4820    27.5250    25.0690    25.0650    24.2490     2.2000 
