~V
VERS. 2.00: Ver 2.00
~W
STRT.M 42.0000:
STOP.M 195.0000:
STEP.M 0.1250:
NULL. -999.2500:
UWI. F10590:
~C
DEPT.M :
GR.API :
RML.OHMM :
RI. :
RXO.OHMM :
CALI.CM :
DEN.GM/CC :
SP.MV :
~A
# ...
  120.7500    51.0270    37.4870    37.7880    42.2800    24.2670     2.5400   -16.8080 
  120.8750    53.5390    37.0700    37.4410    46.5180    24.2500     2.5570   -16.9410 
  121.0000    55.6150    36.0740    36.4820    42.2510    24.2420     2.5540   -17.0750 
  121.1250    54.4290    35.0710    35.4070    35.7630    24.2380     2.5320   -17.2170 
  121.2500    52.3170    34.6600    34.8100    31.0300    24.2270     2.5150   -17.3600 
  121.3750    51.8480    35.0860    34.9760    31.3090    24.2130     2.5150   -17.4890 
  121.5000    53.0310    36.2040    35.8530    36.0130    24.2200     2.5360   -17.5850 
  121.6250    52.6400    37.4270    36.9870    39.9460    24.2300     2.5680   -17.6510 
  121.7500    50.2460    37.9980    37.6320    41.3170    24.2350     2.5920   -17.7140 
  121.8750    47.9080    37.5310    37.3370    39.0700    24.2300     2.5990   -17.7590 
  122.0000    48.3130    36.1080    36.0820    35.6550    24.2140     2.5890   -17.8070 
  122.1250    52.6190    34.2360    34.2790    32.6810    24.1830     2.5640   -17.8720 
  122.2500    56.3900    32.6320    32.6470    29.3510    24.1640     2.5360   -17.9250 
  122.3750    56.4780    31.6550    31.5740    28.1570    24.1560     2.5130   -17.9550 
  122.5000    54.0810    31.3990    31.1960    30.0550    24.1530     2.4960   -17.9750 
  122.6250    54.7080    31.8440    31.5380    32.1160    24.1510     2.4910   -18.0220 
  122.7500    58.2330    32.7000    32.3180    32.5370    24.1480     2.4930   -18.0900 
  122.8750    60.2760    33.8080    33.3770    31.4020    24.1470     2.5040   -18.1900 
  123.0000    59.0260    35.0080    34.5470    30.7140    24.1470     2.5220   -18.2710 
  123.1250    57.7910    36.0110    35.5440    33.1820    24.1470     2.5430   -18.2910 
  123.2500    58.7710    36.4780    36.0360    35.5830    24.1450     2.5590   -18.2970 
  123.3750    59.2530    36.1010    35.7270    37.2980    24.1430     2.5660   -18.3040 
  123.5000    57.2340    34.7640    34.4920    36.7970    24.1400     2.5640   -18.3360 
  123.6250    55.7360    32.6170    32.4390    32.5890    24.1360     2.5570   -18.3870 
  123.7500    55.2660    30.3390    30.1890    25.9510    24.1240     2.5470   -18.4320 
  123.8750    55.0850    28.4320    28.2140    22.7200    24.1010     2.5350   -18.4540 
  124.0000    55.3410    27.2270    26.8490    22.4760    24.0830     2.5200   -18.4670 
  124.1250    56.1800    26.9600    26.3720    23.7820    24.0750     2.5090   -18.4920 
  124.2500    56.0340    27.3720    26.6000    23.9890    24.0620     2.5060   -18.5050 
  124.3750    54.5660    28.2130    27.3380    23.6500    24.0330     2.5180   -18.5140 
  124.5000    53.2790    29.1610    28.2880    24.5260    23.9950     2.5440   -18.5010 
  124.6250    54.3880    29.8070    29.0460    26.9660    23.8720     2.5790   -18.4860 
  124.7500    57.4290    29.9210    29.3190    29.1450    23.6550     2.6120   -18.4960 
  124.8750    59.8870    29.4050    28.9510    28.9770    23.4190     2.6360   -18.5430 
  125.0000    60.0790    28.3020    27.9380    25.8620    23.3630     2.6450   -18.6010 
  125.1250    58.0630    26.7740    26.4000    22.9800    23.5510     2.6360   -18.6270 
  125.2500    56.7970    25.1880    24.7260    21.9380    23.8140     2.6180   -18.6430 
  125.3750    56.6520    23.7810    23.1760    20.4420    23.9670     2.6010   -18.6630 
  125.5000    54.3790    22.6910    21.9150    18.5740    24.0100     2.5930   -18.7020 
  125.6250    50.3130    21.9970    21.0540    17.3430    24.0070     2.5940   -18.7590 
  125.7500    49.1530    21.5730    20.4890    18.1100    24.0000     2.5930   -18.8080 
  125.8750    51.1090    21.3360    20.1420    19.4800    23.9930     2.5840   -18.8510 
  126.0000    52.2080    21.2210    19.9490    19.4970    23.9880     2.5640   -18.9130 
  126.1250    51.7850    21.2240    19.9010    19.7390    23.9830     2.5380   -19.0140 
  126.2500    52.5820    21.3550    20.0010    20.1100    23.9750     2.5150   -19.1280 
  126.3750    53.4000    21.6560    20.2900    19.5590    23.9690     2.4960   -19.2230 
  126.5000    52.9900    22.1180    20.7620    19.0900    23.9710     2.4760   -19.2760 
  126.6250    54.1980    22.5880    21.2810    19.5750    23.9940     2.4580   -19.2570 
  126.7500    56.3540    22.7910    21.5850    21.0350    23.9970     2.4470   -19.2350 
  126.8750    57.8740    22.5090    21.4660    23.0950    23.9710     2.4490   -19.2310 
  127.0000    58.0230    21.6750    20.8470    23.6330    23.9240     2.4610   -19.2430 
  127.1250    56.3130    20.4050    19.7950    20.8490    23.8740     2.4770   -19.2470 
  127.2500    53.7910    19.0950    18.6440    17.6890    23.8430     2.4880   -19.2380 
  127.3750    52.8330    18.0220    17.6390    15.9660    23.8230     2.4940   -19.2110 
  127.5000    54.2380    17.3420    16.9430    15.6290    23.8050     2.4960   -19.1970 
  127.6250    54.8950    17.1180    16.6520    15.7760    23.7940     2.4950   -19.2120 
  127.7500    53.3130    17.1290    16.5970    15.9230    23.7700     2.4870   -19.2380 
  127.8750    51.9380    17.1670    16.5970    16.4680    23.7090     2.4750   -19.2650 
  128.0000    53.3660    17.0470    16.4740    17.2870    23.6250     2.4600   -19.2670 
  128.1250    58.5090    16.6430    16.0860    16.8750    23.5570     2.4490   -19.2480 
  128.2500    63.2570    16.0550    15.5030    15.3650    23.4980     2.4450   -19.2290 
  128.3750    64.2470    15.4090    14.8220    13.4900    23.4550     2.4490   -19.2280 
  128.5000    61.2690    14.8270    14.1510    12.5130    23.4110     2.4570   -19.2340 
  128.6250    56.8720    14.4250    13.5960    11.9630    23.3590     2.4680   -19.2450 
  128.7500    56.8780    14.1930    13.2090    11.5790    23.2980     2.4770   -19.2410 
  128.8750    61.9340    14.0930    13.0430    11.4810    23.2550     2.4830   -19.2190 
  129.0000    67.2430    14.0890    13.1450    11.6060    23.2600     2.4840   -19.2060 
  129.1250    65.7860    14.5920    13.6210    11.8880    23.3140     2.4800   -19.2300 
  129.2500    60.4590    15.5410    14.4520    12.7460    23.3410     2.4740   -19.2660 
  129.3750    57.0960    16.8930    15.6390    13.9560    23.3510     2.4680   -19.2970 
  129.5000    57.5770    18.5680    17.1500    15.6300    23.3570     2.4620   -19.3010 
  129.6250    59.1630    20.4770    18.9280    17.2710    23.3700     2.4600   -19.2650 
  129.7500    59.4580    22.3450    20.7510    19.8030    23.3750     2.4600   -19.2170 
  129.8750    58.0520    23.8510    22.3550    22.0900    23.3760     2.4640   -19.1690 
  130.0000    56.4180    24.6550    23.4080    23.8670    23.3740     2.4690   -19.1150 
  130.1250    55.9750    24.3630    23.4580    26.0240    23.3720     2.4730   -19.0580 
  130.2500    56.4130    23.2070    22.6010    25.1530    23.3730     2.4740   -18.9950 
  130.3750    56.6000    21.5200    21.0870    21.8340    23.3780     2.4690   -18.9400 
  130.5000    55.4200    19.7280    19.3170    17.9790    23.3820     2.4590   -18.9050 
  130.6250    53.4490    18.2550    17.7320    15.3930    23.3830     2.4480   -18.8780 
  130.7500    52.8380    17.2220    16.5370    14.8990    23.3830     2.4400   -18.8360 
  130.8750    53.9740    16.6220    15.7760    14.8460    23.3830     2.4370   -18.7670 
  131.0000    55.6910    16.3880    15.4100    14.4320    23.3780     2.4400   -18.6880 
  131.1250    57.3690    16.4830    15.4130    13.8740    23.3640     2.4490   -18.6220 
  131.2500    59.6320    16.7990    15.6560    13.8340    23.3450     2.4590   -18.5860 
  131.3750    61.2350    17.2940    16.0900    15.0120    23.3370     2.4690   -18.5730 
  131.5000    60.4460    17.9130    16.6590    17.2870    23.3350     2.4770   -18.5630 
  131.6250    57.1460    18.5550    17.2920    18.0460    23.3350     2.4810   -18.5640 
  131.7500    53.5390    19.0840    17.8690    17.5510    23.3350     2.4810   -18.5800 
  131.8750    51.8590    19.3950    18.2910    17.2820    23.3350     2.4780   -18.6050 
