~V
VERS. 2.00: Ver 2.00
~W
STRT.M 47.0000:
STOP.M 254.0000:
STEP.M 0.1250:
NULL. -999.2500:
UWI. F10599:
~C
DEPT.M :
DEN.GM/CC :
SP.MV :
GR.API :
RML.OHMM :
RI. :
RXO.OHMM :
CALI.CM :
~A
# ...
  103.2500     2.2890    -6.3960    86.4140     7.5920     6.4690     7.0780    23.6880 
  103.3750     2.2310    -6.5780    88.0720     7.2310     6.0140     6.6470    23.5060 
  103.5000     2.2000    -6.7500    86.0350     6.9790     5.6660     6.8920    23.4420 
  103.6250     2.1930    -6.9050    83.8150     6.9480     5.5570     7.1590    23.4450 
  103.7500     2.1990    -7.0250    84.0950     7.1630     5.7370     7.3230    23.4960 
  103.8750     2.2100    -7.0750    83.4610     7.5320     6.1760     7.5920    23.5750 
  104.0000     2.2200    -7.0590    81.2010     7.8420     6.6520     7.9590    23.6630 
  104.1250     2.2330    -6.9690    79.6750     7.9500     6.9620     8.2720    23.7090 
  104.2500     2.2500    -6.7990    79.6200     7.7890     6.9520     8.0850    23.7590 
  104.3750     2.2730    -6.5750    81.0800     7.3590     6.5210     7.0920    23.8710 
  104.5000     2.2970    -6.3380    85.6880     6.8120     5.8540     5.8690    24.0100 
  104.6250     2.3190    -6.1200    92.6930     6.2510     5.1450     5.2210    24.0510 
  104.7500     2.3310    -5.9630    97.7090     5.7620     4.5620     5.3170    23.9600 
  104.8750     2.3250    -5.9080    97.1300     5.4430     4.2360     5.9060    23.7240 
  105.0000     2.3050    -5.9420    96.4380     5.3120     4.1270     6.5550    23.5160 
  105.1250     2.2760    -6.0810    98.1700     5.3570     4.1850     6.8580    23.4260 
  105.2500     2.2430    -6.3350    98.5200     5.5300     4.3510     6.8680    23.3480 
  105.3750     2.2100    -6.6880    94.4380     5.7810     4.5880     6.9260    23.1400 
  105.5000     2.1810    -7.0800    88.7020     6.0550     4.8710     7.1850    22.8840 
  105.6250     2.1600    -7.4770    86.1230     6.3340     5.1960     7.7320    22.7330 
  105.7500     2.1510    -7.8490    87.3370     6.6200     5.5400     8.4080    22.6630 
  105.8750     2.1550    -8.1760    90.2420     6.9190     5.8630     8.7010    22.5790 
  106.0000     2.1640    -8.4530    90.9630     7.2150     6.1450     8.6810    22.4650 
  106.1250     2.1720    -8.6900    88.3170     7.4830     6.3720     8.6710    22.4100 
  106.2500     2.1750    -8.8870    85.5160     7.6920     6.5310     8.7210    22.4000 
  106.3750     2.1750    -9.0420    85.7450     7.7810     6.6170     8.6940    22.4000 
  106.5000     2.1740    -9.1740    84.7310     7.7470     6.6480     8.5660    22.4120 
  106.6250     2.1730    -9.2860    79.9710     7.6310     6.6260     8.4400    22.4940 
  106.7500     2.1720    -9.3990    74.8910     7.5010     6.5470     8.4230    22.7250 
  106.8750     2.1650    -9.5150    75.4060     7.4100     6.4080     8.6230    23.0500 
  107.0000     2.1520    -9.6340    77.5810     7.3520     6.2350     8.7870    23.2120 
  107.1250     2.1380    -9.7400    78.8430     7.2920     6.0500     8.5190    23.2120 
  107.2500     2.1270    -9.8080    81.4390     7.2090     5.8930     8.0930    23.1990 
  107.3750     2.1230    -9.8340    86.7910     7.1250     5.8140     7.8780    23.2010 
  107.5000     2.1250    -9.8330    89.7950     7.0900     5.8130     7.8280    23.2110 
  107.6250     2.1310    -9.7990    86.9550     7.1160     5.8790     7.8190    23.2350 
  107.7500     2.1350    -9.7290    80.3940     7.1560     5.9710     7.7970    23.2950 
  107.8750     2.1320    -9.6100    74.3600     7.1530     6.0180     7.8240    23.3340 
  108.0000     2.1250    -9.4600    72.6200     7.1010     5.9860     7.7670    23.3490 
  108.1250     2.1200    -9.2970    77.1230     7.0190     5.8830     7.5480    23.3510 
  108.2500     2.1210    -9.1670    84.9480     6.9120     5.7580     7.4270    23.3510 
  108.3750     2.1330    -9.0820    87.8500     6.7580     5.6660     7.4980    23.3510 
  108.5000     2.1490    -9.0390    87.2770     6.5780     5.6250     7.6880    23.3510 
  108.6250     2.1630    -9.0560    87.6290     6.4130     5.6300     7.8180    23.3510 
  108.7500     2.1700    -9.1190    89.1760     6.3150     5.6610     7.7890    23.3510 
  108.8750     2.1670    -9.2210    87.9730     6.3190     5.6890     7.6510    23.3510 
  109.0000     2.1590    -9.3410    86.7180     6.3880     5.6900     7.6420    23.3510 
  109.1250     2.1500    -9.4710    87.3790     6.5010     5.6480     7.6760    23.3510 
  109.2500     2.1450    -9.5820    88.0690     6.6300     5.5560     7.6400    23.3510 
  109.3750     2.1490    -9.6690    87.8210     6.7470     5.4490     7.5850    23.3520 
  109.5000     2.1580    -9.7260    87.7100     6.8120     5.4020     7.5360    23.3650 
  109.6250     2.1650    -9.7410    87.9560     6.7940     5.4590     7.5770    23.4150 
  109.7500     2.1680    -9.7290    87.9450     6.7160     5.6070     7.6960    23.5140 
  109.8750     2.1650    -9.6860    86.6320     6.6420     5.7680     7.8590    23.6070 
  110.0000     2.1550    -9.6190    84.5250     6.6150     5.8570     8.0320    23.6790 
  110.1250     2.1390    -9.5290    82.3800     6.6310     5.8430     8.2010    23.7770 
  110.2500     2.1220    -9.4180    81.0580     6.6650     5.7530     8.3460    23.8820 
  110.3750     2.1170    -9.2860    81.7300     6.7020     5.6500     8.3600    23.9250 
  110.5000     2.1240    -9.1490    82.8880     6.7210     5.5670     8.1670    23.9340 
  110.6250     2.1370    -9.0210    83.6860     6.7160     5.5090     8.0190    23.9340 
  110.7500     2.1470    -8.8990    85.6970     6.6960     5.4710     8.1210    23.9400 
  110.8750     2.1500    -8.7940    87.9650     6.6870     5.4610     8.4460    23.9700 
  111.0000     2.1500    -8.7010    86.0620     6.6910     5.4820     8.6890    24.0340 
  111.1250     2.1480    -8.6120    80.4450     6.6890     5.5190     8.7590    24.1040 
  111.2500     2.1460    -8.5330    76.2020     6.6550     5.5400     8.5290    24.1420 
  111.3750     2.1460    -8.4810    77.1930     6.5550     5.5150     8.2750    24.1510 
  111.5000     2.1490    -8.4380    78.7060     6.4280     5.4610     8.1640    24.1510 
  111.6250     2.1510    -8.4050    79.8660     6.3400     5.4020     8.1210    24.1580 
  111.7500     2.1480    -8.3680    82.8120     6.3380     5.3550     8.1520    24.1770 
  111.8750     2.1430    -8.3310    85.0760     6.4130     5.3390     8.1280    24.2090 
  112.0000     2.1420    -8.2980    83.5040     6.4970     5.3610     7.9670    24.2230 
  112.1250     2.1480    -8.2780    80.1570     6.5730     5.4310     7.7160    24.2260 
  112.2500     2.1590    -8.2760    79.2040     6.6530     5.5480     7.8400    24.2260 
  112.3750     2.1680    -8.2520    80.7210     6.7530     5.6810     7.9490    24.2260 
  112.5000     2.1750    -8.2210    82.9590     6.8600     5.7820     8.0370    24.2260 
  112.6250     2.1780    -8.1770    85.9210     6.9210     5.8340     8.0610    24.2260 
  112.7500     2.1760    -8.1240    87.4670     6.8860     5.8510     7.9510    24.2260 
  112.8750     2.1700    -8.0810    84.3860     6.7620     5.8780     7.7590    24.2260 
  113.0000     2.1670    -8.0600    78.5990     6.6390     5.9400     7.7860    24.2270 
  113.1250     2.1710    -8.0570    74.0560     6.5710     6.0360     7.9780    24.2410 
  113.2500     2.1800    -8.0440    73.1360     6.5840     6.1290     8.0620    24.2880 
  113.3750     2.1920    -8.0280    75.9090     6.6940     6.1520     8.1840    24.3810 
  113.5000     2.2100    -8.0020    80.4630     6.8650     6.0920     8.2420    24.4340 
  113.6250     2.2330    -7.9850    84.1920     7.0530     5.9770     8.1540    24.4510 
  113.7500     2.2520    -8.0080    86.2410     7.2240     5.8760     8.1700    24.4440 
  113.8750     2.2460    -8.0370    85.8450     7.3600     5.8830     8.6070    24.4200 
  114.0000     2.2180    -8.0470    84.0170     7.4840     6.0110     8.8340    24.3890 
  114.1250     2.1820    -8.0170    81.7430     7.6240     6.2400     8.9280    24.3770 
  114.2500     2.1520    -7.9590    79.2480     7.8030     6.5280     9.0160    24.3610 
  114.3750     2.1380    -7.8570    76.7050     8.0510     6.8410     8.9710    24.3160 
