~V
VERS. 2.00: Ver 2.00
~W
STRT.M 52.0000:
STOP.M 224.0000:
STEP.M 0.1250:
NULL. -999.2500:
UWI. F10595:
~C
DEPT.M :
GR.API :
RML.OHMM :
RI. :
RXO.OHMM :
CALI.CM :
DEN.GM/CC :
SP.MV :
~A
# ...
   63.2500    60.8440    10.5100     8.5270     9.0020    23.7230     2.1240   -21.8330 
   63.3750    62.1300    10.6900     8.6120     8.9920    23.7460     2.1680   -21.6230 
   63.5000    64.0140    10.8540     8.7690     9.0670    23.5820     2.2250   -21.3840 
   63.6250    64.6250    10.9300     8.9440     9.0760    23.2370     2.2600   -21.1210 
   63.7500    62.8010    10.8430     9.0520     9.1740    23.0720     2.2460   -20.8340 
   63.8750    62.4810    10.5590     9.0040     9.2800    23.2070     2.2090   -20.5320 
   64.0000    65.0140    10.0300     8.7190     9.3150    23.4980     2.1760   -20.2190 
   64.1250    67.5140     9.2650     8.1800     9.2570    23.7140     2.1640   -19.9050 
   64.2500    68.9040     8.3540     7.4430     8.5240    23.6830     2.1800   -19.5980 
   64.3750    74.9300     7.4860     6.6850     7.3000    23.4740     2.2140   -19.3080 
   64.5000    85.7430     6.8000     6.0240     6.1070    23.3100     2.2550   -19.0440 
   64.6250    93.3930     6.3720     5.5360     5.5500    23.3110     2.2890   -18.8200 
   64.7500    93.6630     6.2510     5.2860     5.4850    23.3350     2.3030   -18.6530 
   64.8750    91.0660     6.3350     5.2270     5.6620    23.2670     2.2990   -18.5400 
   65.0000    88.0970     6.5420     5.3140     5.8690    23.1270     2.2790   -18.4800 
   65.1250    85.0060     6.7840     5.4800     6.1100    23.0100     2.2520   -18.4670 
   65.2500    82.2380     6.9640     5.6440     6.4180    22.9540     2.2290   -18.4970 
   65.3750    81.5460     7.0490     5.7460     6.4920    22.9320     2.2190   -18.5490 
   65.5000    83.3680     7.0530     5.7710     6.3430    22.9320     2.2180   -18.6170 
   65.6250    86.3830     7.0430     5.7440     6.1780    22.9520     2.2180   -18.6930 
   65.7500    88.2140     7.1560     5.7450     6.1300    23.0100     2.2190   -18.7760 
   65.8750    87.5000     7.4830     5.8650     6.3570    23.1150     2.2310   -18.8680 
   66.0000    85.1760     8.0770     6.1720     6.8510    23.2930     2.2580   -18.9740 
   66.1250    80.6310     8.9490     6.7040     7.5000    23.4980     2.2930   -19.1000 
   66.2500    74.0050    10.0580     7.4760     9.5590    23.6440     2.3110   -19.2640 
   66.3750    69.6190    11.2200     8.3560    12.7950    23.7390     2.3000   -19.4650 
   66.5000    67.4120    12.3370     9.2370    14.1930    23.9090     2.2700   -19.7070 
   66.6250    64.4440    13.4950    10.1150    15.1790    24.2280     2.2500   -19.9850 
   66.7500    60.2130    15.1200    11.2110    15.5570    24.4150     2.2800   -20.2980 
   66.8750    57.3390    17.5280    12.7810    13.6970    24.3000     2.3740   -20.6300 
   67.0000    56.4920    20.7730    14.9770    13.0820    24.0830     2.5150   -20.9760 
   67.1250    56.2040    24.3410    17.6100    16.3950    23.9750     2.6410   -21.3300 
   67.2500    56.0980    26.5280    19.6140    25.5570    23.9400     2.6540   -21.6830 
   67.3750    56.8270    25.9880    19.8150    28.0180    23.9570     2.5620   -22.0300 
   67.5000    57.7230    22.8660    18.0690    18.7060    24.1700     2.4240   -22.3620 
   67.6250    58.4450    18.7420    15.3530    12.9060    24.6940     2.2800   -22.6730 
   67.7500    59.7120    15.4500    12.9060    11.5590    25.4560     2.1690   -22.9470 
   67.8750    61.6460    13.4660    11.2130    11.4520    25.9740     2.1010   -23.1800 
   68.0000    64.4890    12.6020    10.2660    11.4870    25.7970     2.0690   -23.3680 
   68.1250    66.8750    12.4630     9.8960    11.5460    25.1250     2.0600   -23.5030 
   68.2500    67.2950    12.6610     9.9140    11.6090    24.6850     2.0600   -23.5710 
   68.3750    66.8330    12.8520    10.0460    11.7090    24.6330     2.0630   -23.5800 
   68.5000    66.7310    12.9250    10.1720    11.8180    24.7780     2.0670   -23.5340 
   68.6250    66.5290    12.8710    10.2460    11.7630    24.9380     2.0730   -23.4400 
   68.7500    64.0480    12.6970    10.2510    11.5470    25.1210     2.0820   -23.3060 
   68.8750    60.4560    12.4580    10.1940    11.3260    25.3270     2.0950   -23.1500 
   69.0000    58.9000    12.2050    10.0790    11.0910    25.4050     2.1100   -22.9830 
   69.1250    60.9790    11.9960     9.9270    10.8080    25.3140     2.1240   -22.8150 
   69.2500    64.7350    11.8920     9.7820    10.7630    25.1920     2.1310   -22.6630 
   69.3750    66.0610    11.8930     9.6860    10.7360    25.1700     2.1290   -22.5380 
   69.5000    64.7900    11.9830     9.6610    10.6380    25.2110     2.1230   -22.4470 
   69.6250    63.6880    12.1280     9.6970    11.0620    25.2580     2.1160   -22.3950 
   69.7500    64.1310    12.2550     9.7450    11.4790    25.2890     2.1140   -22.3950 
   69.8750    65.6010    12.2970     9.7390    11.6760    25.3140     2.1190   -22.4410 
   70.0000    66.8920    12.2100     9.6490    11.6260    25.3340     2.1340   -22.5310 
   70.1250    67.3260    12.0030     9.4860    11.2180    25.3300     2.1540   -22.6630 
   70.2500    67.0870    11.7450     9.2970    10.8390    25.3370     2.1680   -22.8340 
   70.3750    66.8700    11.5270     9.1370    10.3160    25.3400     2.1680   -23.0290 
   70.5000    65.1680    11.3830     9.0270    10.2870    25.3300     2.1530   -23.2390 
   70.6250    59.4620    11.2970     8.9590    10.7990    25.4300     2.1300   -23.4510 
   70.7500    54.2920    11.2250     8.9120    10.8810    26.0310     2.1070   -23.6500 
   70.8750    55.7380    11.1310     8.8610    10.5350    26.7010     2.0920   -23.8220 
   71.0000    60.5820    11.0190     8.8030    10.2320    27.0820     2.0830   -23.9580 
   71.1250    62.3550    10.9160     8.7450    10.0380    27.1620     2.0770   -24.0480 
   71.2500    60.7810    10.8770     8.7110     9.9800    27.0070     2.0730   -24.0780 
   71.3750    59.5370    10.9150     8.7190    10.0340    26.7400     2.0670   -24.0530 
   71.5000    58.7460    11.0280     8.7730    10.1790    26.5260     2.0570   -23.9770 
   71.6250    57.5800    11.1910     8.8610    10.4610    26.4480     2.0410   -23.8500 
   71.7500    59.3340    11.3450     8.9540    10.8650    26.3370     2.0300   -23.6760 
   71.8750    63.0750    11.4190     9.0170    11.0810    25.9560     2.0330   -23.4680 
   72.0000    65.3080    11.3820     9.0340    11.0080    25.2790     2.0570   -23.2400 
   72.1250    63.9750    11.2540     9.0060    10.7200    24.6030     2.0970   -23.0030 
   72.2500    60.5810    11.1100     8.9510    10.3970    24.2920     2.1310   -22.7690 
   72.3750    57.3860    11.0390     8.9070    10.1920    24.2360     2.1430   -22.5490 
   72.5000    55.5570    11.0810     8.8940    10.2960    24.2600     2.1390   -22.3540 
   72.6250    56.3970    11.2160     8.9210    10.5290    24.2800     2.1370   -22.1930 
   72.7500    58.0760    11.3860     8.9800    10.5860    24.2590     2.1520   -22.0840 
   72.8750    58.1530    11.5320     9.0410    10.3210    24.1830     2.1760   -22.0240 
   73.0000    58.2160    11.6320     9.0840     9.7920    24.0340     2.1880   -22.0160 
   73.1250    60.0140    11.6740     9.1050     9.5260    23.8270     2.1790   -22.0590 
   73.2500    60.7400    11.6490     9.1180     9.5110    23.6930     2.1560   -22.1570 
   73.3750    59.0390    11.5940     9.1490     9.5980    23.7430     2.1380   -22.2970 
   73.5000    57.2510    11.5380     9.2080     9.9020    23.9890     2.1330   -22.4630 
   73.6250    56.7840    11.5140     9.2890    10.3860    24.4500     2.1370   -22.6400 
   73.7500    55.7960    11.5320     9.3680    10.7540    24.8100     2.1440   -22.8080 
   73.8750    55.9250    11.5540     9.4190    11.0510    24.9660     2.1480   -22.9550 
   74.0000    58.0510    11.5440     9.4260    11.2750    24.9680     2.1480   -23.0710 
   74.1250    59.9800    11.4930     9.3880    11.1880    24.9970     2.1460   -23.1440 
   74.2500    58.9350    11.4360     9.3230    11.1640    25.1610     2.1420   -23.1580 
   74.3750    56.2680    11.4180     9.2600    11.1880    25.3780     2.1400   -23.1130 
