~V
VERS. 2.00: Ver 2.00
~W
STRT.M 50.0000:
STOP.M 215.0000:
STEP.M 0.1250:
NULL. -999.2500:
UWI. F10588:
~C
DEPT.M :
DEN.GM/CC :
GR.API :
RML.OHMM :
RI. :
RXO.OHMM :
CALI.CM :
SP.MV :
~A
# ...
  162.5000     2.2330    57.8870    27.7610    24.0940    24.4100    23.9290   -18.1830 
  162.6250     2.2430    56.5110    27.7030    23.9630    26.0210    23.9220   -18.4410 
  162.7500     2.2530    55.4360    27.7430    23.8650    28.1470    23.9490   -18.6800 
  162.8750     2.2580    58.5320    28.3140    24.1060    28.3330    23.9680   -18.9290 
  163.0000     2.2560    64.2360    29.9300    25.0720    26.7370    23.9460   -19.1470 
  163.1250     2.2520    65.9350    33.3200    27.3420    27.3410    23.9480   -19.3570 
  163.2500     2.2480    63.5850    38.3950    30.9530    33.6350    23.9720   -19.5610 
  163.3750     2.2410    60.5800    44.8590    35.8020    49.4430    23.9630   -19.7430 
  163.5000     2.2260    58.8210    51.8990    41.3710    66.0580    23.9160   -19.8970 
  163.6250     2.2050    57.5350    58.0480    46.5690    65.7950    23.9040   -20.0190 
  163.7500     2.1900    56.8090    62.4560    50.5480    57.8410    23.9350   -20.1130 
  163.8750     2.1930    57.6250    65.0300    53.0560    58.2760    23.9480   -20.2030 
  164.0000     2.2140    59.1210    66.1010    54.2410    65.9290    23.9310   -20.2740 
  164.1250     2.2410    60.4130    65.8920    54.2900    70.3400    23.8980   -20.3350 
  164.2500     2.2570    61.0840    64.9280    53.7260    67.7970    23.8980   -20.3930 
  164.3750     2.2570    61.4530    63.6890    52.9040    62.0690    23.9190   -20.4550 
  164.5000     2.2440    59.5240    63.0150    52.3490    53.5960    23.9220   -20.5480 
  164.6250     2.2250    55.4520    64.2120    53.0190    49.5560    23.8610   -20.6210 
  164.7500     2.2210    53.7870    66.9930    55.0220    53.6690    23.7470   -20.7190 
  164.8750     2.2570    56.2920    69.2350    57.0770    59.7720    23.6250   -20.7930 
  165.0000     2.3530    58.6610    66.9200    56.1160    59.6210    23.5570   -20.8830 
  165.1250     2.4790    55.4270    55.7080    48.0770    56.7330    23.5720   -20.9270 
  165.2500     2.5490    50.0020    40.0260    35.7860    51.4880    23.5610   -20.9500 
  165.3750     2.5300    47.6000    25.6600    23.8980    33.5050    23.5070   -20.9310 
  165.5000     2.4570    49.3790    15.7690    15.2670    15.2610    23.4600   -20.8580 
  165.6250     2.4000    52.9960    10.7220    10.4980     6.9640    23.5940   -20.7850 
  165.7500     2.3950    56.1170     8.2370     7.9210     5.4310    23.8010   -20.6810 
  165.8750     2.4270    57.7710     7.2270     6.7020     5.5380    23.9540   -20.5860 
  166.0000     2.4500    56.9760     7.0490     6.3420     6.1740    23.9990   -20.4790 
  166.1250     2.4260    52.2830     7.3470     6.5770     7.1380    23.9600   -20.4180 
  166.2500     2.3780    46.0140     7.7340     7.0230     7.0010    23.8930   -20.3750 
  166.3750     2.3350    41.1830     8.0040     7.4430     6.8560    23.8450   -20.3550 
  166.5000     2.3170    40.2800     8.0450     7.6670     6.9100    23.8000   -20.3620 
  166.6250     2.3230    43.0920     7.8300     7.5960     6.9260    23.7310   -20.3910 
  166.7500     2.3340    46.4170     7.5150     7.3600     6.8560    23.5990   -20.4260 
  166.8750     2.3430    47.5890     7.2460     7.1030     6.5830    23.4230   -20.4560 
  167.0000     2.3480    46.3420     7.1420     6.9540     6.3570    23.2150   -20.4770 
  167.1250     2.3510    46.0950     7.3080     7.0170     6.4740    23.0200   -20.4990 
  167.2500     2.3570    50.3100     7.6970     7.2680     7.4030    22.9820   -20.4830 
  167.3750     2.3730    57.1160     8.2340     7.6570     8.9220    23.1640   -20.4720 
  167.5000     2.3980    61.9220     8.7960     8.0990     9.5080    23.4100   -20.4580 
  167.6250     2.4200    64.3350     9.2150     8.4650     9.9050    23.5580   -20.4720 
  167.7500     2.4310    66.5360     9.4270     8.6770    10.0710    23.6050   -20.5530 
  167.8750     2.4260    67.7150     9.4450     8.7200    10.1970    23.6100   -20.6560 
  168.0000     2.4120    67.3110     9.3460     8.6370    10.0890    23.6080   -20.8120 
  168.1250     2.4000    68.2530     9.2200     8.4960     9.7220    23.5820   -20.9750 
  168.2500     2.3950    73.4610     9.1370     8.3670     9.4760    23.5640   -21.2110 
  168.3750     2.3930    80.8040     9.1180     8.2740     9.3150    23.5550   -21.4700 
  168.5000     2.3900    87.2830     9.1610     8.2220     9.2080    23.5540   -21.7690 
  168.6250     2.3820    92.1110     9.2280     8.1870     9.1020    23.5480   -22.0560 
  168.7500     2.3720    94.6450     9.2550     8.1260     9.0320    23.5360   -22.3150 
  168.8750     2.3620    95.4330     9.1920     8.0020     9.1390    23.5250   -22.5650 
  169.0000     2.3560    98.8860     9.0270     7.8030     9.1250    23.5200   -22.7880 
  169.1250     2.3520   105.8350     8.8450     7.5800     8.9920    23.5000   -23.0160 
  169.2500     2.3460   110.3530     8.8440     7.4750     8.8600    23.4610   -23.2570 
  169.3750     2.3370   108.9920     9.2710     7.6610     9.0790    23.4220   -23.5030 
  169.5000     2.3250   104.6150    10.4160     8.3410     9.8700    23.4050   -23.7570 
  169.6250     2.3190    97.7770    12.8180     9.9230    11.8880    23.4030   -23.9890 
  169.7500     2.3220    87.4760    16.5920    12.5960    15.8470    23.4010   -24.1810 
  169.8750     2.3320    76.9430    21.7430    16.5620    24.2170    23.3990   -24.3590 
  170.0000     2.3380    69.9300    27.8010    21.7060    35.0920    23.3970   -24.5260 
  170.1250     2.3290    67.2920    33.4960    27.2140    42.6490    23.3960   -24.6900 
  170.2500     2.3090    67.3590    37.5650    31.7200    44.9830    23.3980   -24.7850 
  170.3750     2.2880    68.7230    39.5320    34.4710    44.3190    23.4020   -24.8700 
  170.5000     2.2750    69.6910    39.6290    35.4160    44.0260    23.4050   -24.9090 
  170.6250     2.2720    66.8840    38.1920    34.7100    45.2760    23.4100   -24.9640 
  170.7500     2.2740    63.9990    35.9590    33.0680    46.3590    23.4160   -25.0250 
  170.8750     2.2770    63.4120    33.4920    31.0250    44.5160    23.4170   -25.0900 
  171.0000     2.2820    64.8300    31.4800    29.2060    38.5280    23.4170   -25.1710 
  171.1250     2.2930    65.2100    30.8990    28.4420    31.0760    23.4090   -25.2470 
  171.2500     2.3040    64.8620    32.0790    29.1080    29.6370    23.4070   -25.3600 
  171.3750     2.3080    66.8740    35.1130    31.4680    35.0030    23.4140   -25.4590 
  171.5000     2.2990    69.4290    45.5730    35.4790    50.0610    23.4270   -25.5850 
  171.6250     2.2830    66.7790    51.2700    40.6210    56.6240    23.4080   -25.6810 
  171.7500     2.2680    61.4560    55.5830    45.3650    60.0170    23.3640   -25.7770 
  171.8750     2.2600    57.3760    57.2660    48.3900    67.5450    23.3840   -25.8460 
  172.0000     2.2570    56.3360    56.2610    49.1240    69.1920    23.4530   -25.8710 
  172.1250     2.2520    55.7590    53.6770    47.9780    57.1200    23.5110   -25.8270 
  172.2500     2.2440    56.4640    51.1770    46.3930    50.3590    23.5420   -25.7220 
  172.3750     2.2370    59.5510    49.3360    45.0380    48.7730    23.5520   -25.5610 
  172.5000     2.2320    62.4680    48.1580    44.0990    49.5850    23.5540   -25.3580 
  172.6250     2.2320    62.8230    47.3530    43.4480    50.5490    23.5430   -25.1210 
  172.7500     2.2350    61.3900    46.5100    42.7750    49.9640    23.5200   -24.8600 
  172.8750     2.2390    60.9650    45.5240    41.9670    47.5810    23.4970   -24.5850 
  173.0000     2.2430    62.0700    44.5250    41.1020    43.9460    23.4910   -24.3380 
  173.1250     2.2470    63.1070    43.9060    40.4770    42.1120    23.4900   -24.1270 
  173.2500     2.2510    62.9310    44.0140    40.3980    43.1120    23.4800   -23.9770 
  173.3750     2.2550    61.8070    45.1550    41.1560    44.9370    23.4540   -23.8960 
  173.5000     2.2590    61.3780    47.4980    42.9470    45.3630    23.4270   -23.8490 
  173.6250     2.2610    61.3490    51.1740    45.9680    46.1660    23.3980   -23.9040 
