~V
VERS. 2.00: Ver 2.00
~W
STRT.M 61.0000:
STOP.M 190.0000:
STEP.M 0.1250:
NULL. -999.2500:
UWI. F10559:
~C
DEPT.M :
SP.MV :
DEN.GM/CC :
GR.API :
RML.OHMM :
RI. :
RXO.OHMM :
CALI.CM :
~A
# ...
   72.2500   -20.8210     2.2050    83.6410     9.2490     8.2450     6.8800    26.3110 
   72.3750   -20.2760     2.1980    81.3400    10.4750     9.2130     7.1940    26.2930 
   72.5000   -19.7100     2.1850    74.5520    11.8970    10.3910     8.0030    26.3200 
   72.6250   -19.1490     2.1680    69.3430    13.4050    11.7700     9.4340    26.3450 
   72.7500   -18.6190     2.1560    69.7080    14.7740    13.1380    11.4170    26.3760 
   72.8750   -18.1840     2.1530    71.6460    15.7940    14.2520    12.6380    26.4220 
   73.0000   -17.8910     2.1550    70.3620    16.3060    14.9210    12.1070    26.4160 
   73.1250   -17.6930     2.1560    66.3930    16.1150    14.9750    10.8910    26.3870 
   73.2500   -17.6350     2.1500    64.7400    15.2980    14.4520    10.3050    26.3430 
   73.3750   -17.7240     2.1420    66.3320    13.8990    13.3200    11.6470    26.2880 
   73.5000   -17.9640     2.1410    69.6230    12.0680    11.6630    15.7000    26.2090 
   73.6250   -18.2780     2.1610    73.1380    10.1000     9.7590    16.3340    26.0880 
   73.7500   -18.6460     2.1990    77.8080     8.3790     8.0300    11.2640    25.9340 
   73.8750   -19.0490     2.2430    84.4150     7.1310     6.7050     6.8700    25.7550 
   74.0000   -19.4080     2.2780    90.2680     6.4510     5.8770     5.1080    25.6550 
   74.1250   -19.7670     2.2910    90.1350     6.4120     5.6150     5.1810    25.6840 
   74.2500   -20.0460     2.2860    84.9110     6.8480     5.7860     5.7820    25.8390 
   74.3750   -20.2840     2.2640    79.1120     7.6880     6.3340     6.1910    26.0890 
   74.5000   -20.3950     2.2300    76.5320     8.8620     7.2070     6.2090    26.3720 
   74.6250   -20.4400     2.1880    77.4820    10.2770     8.3880     6.9040    26.5700 
   74.7500   -20.4280     2.1490    76.6360    11.6780     9.7250     8.1360    26.7150 
   74.8750   -20.3210     2.1270    71.3460    12.7830    11.0090     9.2770    26.7640 
   75.0000   -20.1930     2.1300    64.6970    13.3080    11.9070    10.4700    26.7290 
   75.1250   -20.1410     2.1610    64.2200    12.9700    11.9470    11.4360    26.6610 
   75.2500   -20.1230     2.2050    69.9390    12.0270    11.2500    11.9660    26.5450 
   75.3750   -20.1400     2.2540    77.0750    10.7970    10.1480    10.2170    26.3550 
   75.5000   -20.2140     2.2990    81.4300     9.6030     9.0030     7.5760    26.1870 
   75.6250   -20.3580     2.3400    83.5690     8.6670     8.0620     6.6910    26.1590 
   75.7500   -20.5290     2.3750    86.3200     7.9550     7.3330     7.1640    26.1700 
   75.8750   -20.7460     2.3980    87.8680     7.3980     6.7660     8.1530    26.1650 
   76.0000   -20.8920     2.4020    86.8150     6.9350     6.2960     8.1250    26.1410 
   76.1250   -20.9540     2.3890    87.7180     6.5780     5.8980     5.8920    26.1350 
   76.2500   -20.9590     2.3720    93.2170     6.3750     5.6000     5.1520    26.1480 
   76.3750   -20.8830     2.3660    96.4520     6.3900     5.4710     5.2760    26.1360 
   76.5000   -20.7240     2.3770    92.0460     6.6410     5.5660     4.9310    26.1350 
   76.6250   -20.5010     2.4030    85.3000     7.0730     5.9010     4.8230    26.1100 
   76.7500   -20.2570     2.4230    82.8210     7.4990     6.3170     5.2110    26.0410 
   76.8750   -19.9740     2.4270    81.7000     7.7720     6.6530     6.5410    25.9520 
   77.0000   -19.7300     2.4120    82.4280     7.8180     6.7840     8.4160    25.8420 
   77.1250   -19.4570     2.3940    87.4150     7.6470     6.6760     7.6990    25.7510 
   77.2500   -19.2000     2.3870    91.9630     7.4180     6.4690     6.0430    25.6900 
   77.3750   -18.9630     2.3870    90.6750     7.2350     6.2670     5.4480    25.6480 
   77.5000   -18.7770     2.3850    86.7030     7.1510     6.1420     5.8780    25.5610 
   77.6250   -18.5970     2.3670    87.5600     7.1690     6.1200     6.8060    25.3810 
   77.7500   -18.4510     2.3360    88.8790     7.2260     6.1420     6.9550    25.1970 
   77.8750   -18.3300     2.3020    85.7200     7.2850     6.1670     6.0260    25.0820 
   78.0000   -18.2400     2.2750    80.6430     7.3250     6.1780     5.5020    25.0750 
   78.1250   -18.2030     2.2580    82.0360     7.3170     6.1750     6.0550    25.1640 
   78.2500   -18.2400     2.2490    86.4170     7.2300     6.1390     6.4320    25.2250 
   78.3750   -18.3220     2.2440    86.0970     7.0290     6.0280     6.2300    25.2490 
   78.5000   -18.4340     2.2430    81.8420     6.7110     5.8100     6.0010    25.2930 
   78.6250   -18.6010     2.2480    81.1340     6.3260     5.4900     5.6670    25.4630 
   78.7500   -18.7600     2.2560    86.5540     5.9900     5.1650     5.2200    25.7660 
   78.8750   -18.9450     2.2680    94.7390     5.7910     4.9220     4.7560    26.0840 
   79.0000   -19.1390     2.2760   100.2790     5.7650     4.8130     4.4500    26.2500 
   79.1250   -19.3240     2.2750    99.3380     5.8970     4.8630     4.5110    26.2950 
   79.2500   -19.4450     2.2690    94.9960     6.0710     4.9990     4.7030    26.3180 
   79.3750   -19.4800     2.2600    91.7730     6.1990     5.1450     4.9610    26.3500 
   79.5000   -19.4350     2.2560    91.3010     6.2220     5.2260     5.2230    26.3500 
   79.6250   -19.2670     2.2630    92.2230     6.1260     5.1910     5.3370    26.3290 
   79.7500   -19.1090     2.2780    93.6880     6.0070     5.1010     5.0950    26.2690 
   79.8750   -18.9110     2.2990    93.6680     5.9590     5.0310     4.8180    26.1620 
   80.0000   -18.6960     2.3200    92.8570     6.0620     5.0520     4.7190    26.0710 
   80.1250   -18.4510     2.3280    93.3870     6.3800     5.2320     4.9070    26.0450 
   80.2500   -18.1790     2.3220    93.6660     6.8440     5.5470     5.5010    26.0820 
   80.3750   -17.9070     2.3020    92.0530     7.3650     5.9500     6.1900    26.1430 
   80.5000   -17.6690     2.2760    88.8860     7.8240     6.3570     6.1980    26.1850 
   80.6250   -17.4810     2.2520    85.8950     8.0900     6.6500     6.2010    26.1730 
   80.7500   -17.2800     2.2350    83.3580     8.1670     6.7780     6.5020    26.1550 
   80.8750   -17.1240     2.2280    83.9830     8.1370     6.7640     6.8020    26.1110 
   81.0000   -17.0180     2.2320    89.3300     8.1580     6.7180     6.5270    25.9660 
   81.1250   -16.9100     2.2550    94.6900     8.4590     6.8290     5.9860    25.7400 
   81.2500   -16.8570     2.2990    93.4800     9.0920     7.1850     5.9030    25.5150 
   81.3750   -16.8580     2.3580    86.2950     9.9960     7.8140     6.5630    25.4190 
   81.5000   -16.9370     2.4180    79.4560    10.9870     8.6560     8.6070    25.4840 
   81.6250   -17.0820     2.4500    78.2330    11.7350     9.4940    13.5550    25.7110 
   81.7500   -17.2290     2.4440    80.8110    12.0220    10.0290    14.6850    25.9300 
   81.8750   -17.3470     2.4030    83.5420    11.7900    10.0960    12.0420    26.0520 
   82.0000   -17.4410     2.3440    83.4940    11.1640     9.7270    11.0590    26.1030 
   82.1250   -17.5280     2.2900    81.3390    10.3750     9.1030    10.2680    26.2220 
   82.2500   -17.6050     2.2600    79.1500     9.6680     8.4900     8.9730    26.3050 
   82.3750   -17.6720     2.2600    79.5170     9.1350     7.9980     7.7030    26.3550 
   82.5000   -17.6560     2.2810    83.0350     8.7880     7.6540     7.0870    26.3480 
   82.6250   -17.6000     2.3020    86.0650     8.6250     7.4740     7.3300    26.2920 
   82.7500   -17.5050     2.3050    86.5130     8.5770     7.4150     7.6890    26.2610 
   82.8750   -17.3280     2.2870    86.8670     8.5930     7.4410     7.0210    26.2530 
   83.0000   -17.0720     2.2630    89.4080     8.6170     7.4990     6.3240    26.2520 
   83.1250   -16.8150     2.2470    90.7670     8.5870     7.5330     6.3540    26.2040 
   83.2500   -16.4640     2.2470    88.4960     8.4900     7.5070     6.7100    26.1040 
   83.3750   -16.0430     2.2580    85.3150     8.3450     7.4190     6.3390    25.9810 
