~V
VERS. 2.00: Ver 2.00
~W
STRT.M 50.0000:
STOP.M 215.0000:
STEP.M 0.1250:
NULL. -999.2500:
UWI. F10588:
~C
DEPT.M :
DEN.GM/CC :
GR.API :
RML.OHMM :
RI. :
RXO.OHMM :
CALI.CM :
SP.MV :
~A
# ...
   83.7500     2.1730    56.4480    28.0390    22.6070    27.6130    24.8760   -22.8360 
   83.8750     2.1700    57.9200    26.6080    21.6130    25.9950    24.8390   -22.9060 
   84.0000     2.1670    57.6390    24.9380    20.3820    24.3800    24.8010   -22.9460 
   84.1250     2.1650    58.6810    23.4710    19.2170    22.2670    24.6850   -22.9900 
   84.2500     2.1640    61.9720    22.4550    18.3290    19.9100    24.5760   -23.0030 
   84.3750     2.1650    64.2460    21.9090    17.7750    19.0650    24.6740   -23.0080 
   84.5000     2.1690    63.6140    21.6940    17.4970    19.2100    24.8510   -22.9880 
   84.6250     2.1710    60.7170    21.6060    17.3810    18.8540    24.7230   -22.9480 
   84.7500     2.1650    57.4610    21.4550    17.2710    18.3110    24.3960   -22.9110 
   84.8750     2.1490    54.2800    21.1830    17.0940    17.9730    24.3290   -22.8790 
   85.0000     2.1270    51.1630    20.8350    16.8550    17.8690    24.5540   -22.8770 
   85.1250     2.1120    49.3100    20.5510    16.6340    17.8140    24.7500   -22.8830 
   85.2500     2.1070    50.4520    20.4180    16.5080    17.7760    24.8080   -22.9380 
   85.3750     2.1140    52.5810    20.4370    16.4940    18.0800    24.8120   -23.0200 
   85.5000     2.1250    52.4540    20.5440    16.5600    18.6010    24.8230   -23.1630 
   85.6250     2.1360    50.4760    20.6440    16.6340    18.9960    24.8440   -23.3200 
   85.7500     2.1420    49.4940    20.6690    16.6550    19.1800    24.8610   -23.5050 
   85.8750     2.1420    50.1080    20.6170    16.6040    19.1540    24.9080   -23.7210 
   86.0000     2.1380    51.2800    20.5290    16.4980    19.1480    25.0440   -23.9440 
   86.1250     2.1280    52.1750    20.4630    16.3770    19.0420    25.1480   -24.1880 
   86.2500     2.1170    54.1590    20.4500    16.2830    18.8960    25.1520   -24.4290 
   86.3750     2.1120    56.4510    20.4950    16.2320    18.9600    25.0920   -24.6740 
   86.5000     2.1180    57.9390    20.5910    16.2270    19.2670    25.0790   -24.8770 
   86.6250     2.1340    56.4640    20.6980    16.2540    19.7480    25.0420   -25.0730 
   86.7500     2.1480    53.5710    20.7490    16.2740    20.0090    24.9700   -25.2180 
   86.8750     2.1490    52.4580    20.6940    16.2570    19.7570    24.8780   -25.2990 
   87.0000     2.1390    53.1240    20.5110    16.1840    19.2690    24.8270   -25.3400 
   87.1250     2.1240    53.4720    20.2210    16.0460    19.4780    24.8170   -25.3350 
   87.2500     2.1170    52.9890    19.9230    15.8860    19.4800    24.8160   -25.3090 
   87.3750     2.1200    52.9740    19.7020    15.7520    19.1000    24.8020   -25.2510 
   87.5000     2.1250    53.7520    19.6110    15.6910    18.7400    24.7830   -25.1870 
   87.6250     2.1220    54.6140    19.6390    15.7230    18.6770    24.8150   -25.1210 
   87.7500     2.1120    54.8330    19.6640    15.7760    18.7890    24.8810   -25.0640 
   87.8750     2.1020    54.0560    19.5850    15.7720    18.9590    24.9220   -25.0580 
   88.0000     2.0990    53.9120    19.3360    15.6500    19.2970    24.9370   -25.0760 
   88.1250     2.1050    56.6860    18.8370    15.3330    18.9730    24.8850   -25.1490 
   88.2500     2.1150    60.6310    18.0810    14.8010    17.8690    24.7080   -25.2370 
   88.3750     2.1270    63.2630    17.0510    14.0330    16.4380    24.5470   -25.3810 
   88.5000     2.1420    63.9640    15.7800    13.0550    15.5140    24.4940   -25.5390 
   88.6250     2.1660    64.6240    14.3600    11.9290    15.0400    24.4580   -25.7680 
   88.7500     2.2000    68.0320    12.9770    10.8000    13.0740    24.3560   -26.0390 
   88.8750     2.2370    74.5830    11.7810     9.7920    11.2000    24.2450   -26.3380 
   89.0000     2.2680    79.4190    10.8870     9.0110    10.4940    24.2050   -26.6680 
   89.1250     2.2810    78.2080    10.4320     8.5840     9.8610    24.2060   -26.9850 
   89.2500     2.2740    76.3670    10.3880     8.4960     8.9310    24.1910   -27.2870 
   89.3750     2.2490    76.4460    10.7350     8.7360     8.4290    24.1620   -27.5430 
   89.5000     2.2120    75.7920    11.3810     9.2450     9.2150    24.2180   -27.7710 
   89.6250     2.1810    71.8070    12.1630     9.9130    10.5770    24.3920   -27.9470 
   89.7500     2.1690    67.2750    12.8640    10.5530    11.5240    24.4900   -28.0640 
   89.8750     2.1730    64.5040    13.3600    11.0530    12.1350    24.4540   -28.1400 
   90.0000     2.1840    65.4200    13.5800    11.3320    12.6010    24.3400   -28.1670 
   90.1250     2.1900    68.5660    13.3960    11.2600    11.5410    24.2050   -28.1870 
   90.2500     2.1940    68.7470    12.7800    10.8010    10.9050    24.1610   -28.2100 
   90.3750     2.2030    65.9090    11.6770     9.9120    11.1870    24.2470   -28.2460 
   90.5000     2.2220    65.2300    10.1750     8.6710    11.6630    24.3850   -28.3010 
   90.6250     2.2520    71.5690     8.6620     7.3670     9.9010    24.3710   -28.3880 
   90.7500     2.2890    80.7960     7.6080     6.3640     7.3540    24.2480   -28.5020 
   90.8750     2.3300    88.2410     7.2610     5.8560     5.9860    24.1360   -28.6480 
   91.0000     2.3690    88.3850     7.7410     5.9350     6.0440    24.0730   -28.8500 
   91.1250     2.3810    80.2790     9.2660     6.7660     9.2680    24.0300   -29.1010 
   91.2500     2.3540    72.3220    11.5560     8.2250    17.4320    23.9550   -29.4050 
   91.3750     2.2950    67.9720    14.1130    10.0790    23.4200    23.8810   -29.7490 
   91.5000     2.2240    66.1740    16.0870    11.7970    17.8490    23.9420   -30.1430 
   91.6250     2.1650    65.1450    16.5440    12.6120    13.5410    24.0500   -30.5580 
   91.7500     2.1250    64.4310    15.8990    12.5660    12.4390    24.1770   -31.0370 
   91.8750     2.1020    63.3820    14.8780    12.0690    12.6530    24.2900   -31.5060 
   92.0000     2.0880    62.8680    14.0790    11.5450    12.7330    24.4550   -31.9790 
   92.1250     2.0770    64.5030    13.7590    11.2370    12.5150    24.5060   -32.4030 
   92.2500     2.0700    64.2280    13.7170    11.0970    12.1910    24.5320   -32.7870 
   92.3750     2.0750    61.9070    13.8150    11.0550    12.1840    24.5500   -33.1210 
   92.5000     2.0920    61.3080    13.9780    11.0730    12.6230    24.5360   -33.4010 
   92.6250     2.1130    63.6630    14.1680    11.1350    13.0660    24.5110   -33.6050 
   92.7500     2.1310    64.5960    14.3490    11.2150    12.9000    24.5690   -33.7270 
   92.8750     2.1430    62.3210    14.5010    11.2940    12.7940    24.6970   -33.7800 
   93.0000     2.1530    58.8410    14.6020    11.3570    13.0140    24.7510   -33.7600 
   93.1250     2.1580    57.4240    14.6100    11.3760    13.3040    24.7410   -33.6220 
   93.2500     2.1560    58.4710    14.5250    11.3440    13.0740    24.7030   -33.3690 
   93.3750     2.1470    59.6520    14.3660    11.2670    12.6980    24.6360   -32.9870 
   93.5000     2.1340    58.5720    14.1730    11.1630    12.3510    24.5690   -32.4830 
   93.6250     2.1260    58.2610    14.0220    11.0780    12.1440    24.4830   -31.8780 
   93.7500     2.1220    61.3100    13.9660    11.0590    11.9740    24.3620   -31.2230 
   93.8750     2.1180    63.6660    14.0270    11.1330    11.7020    24.2040   -30.5910 
   94.0000     2.1160    61.7510    14.1940    11.3010    11.5180    24.0800   -29.9380 
   94.1250     2.1250    59.9210    14.4540    11.5510    11.7180    24.1140   -29.3580 
   94.2500     2.1520    61.0160    14.7500    11.8300    12.4520    24.1840   -28.8320 
   94.3750     2.1900    61.6870    15.0090    12.0770    13.3440    24.1790   -28.3810 
   94.5000     2.2210    58.9410    15.1110    12.2000    13.8270    24.1110   -27.9960 
   94.6250     2.2310    56.3810    14.8360    12.0220    13.5770    24.0630   -27.6880 
   94.7500     2.2320    58.2390    14.1710    11.5130    13.5310    24.0760   -27.3910 
   94.8750     2.2380    64.7080    13.2400    10.7510    13.3890    24.1140   -27.0720 
