~V
VERS. 2.00: Ver 2.00
~W
STRT.M 50.0000:
STOP.M 198.0000:
STEP.M 0.1250:
NULL. -999.2500:
UWI. F10574:
~C
DEPT.M :
DEN.GM/CC :
SP.MV :
GR.API :
RML.OHMM :
RI. :
RXO.OHMM :
CALI.CM :
~A
# ...
   61.2500     2.2150   -16.9980    67.3810     5.2620     6.0940     6.5080    21.5680 
   61.3750     2.2240   -19.0120    64.9950     5.9120     6.9670     6.3300    21.3230 
   61.5000     2.2480   -20.5990    59.5930     6.4240     7.5940     6.0830    20.9570 
   61.6250     2.2770   -21.8220    56.7990     6.9700     8.1910     5.9100    20.7150 
   61.7500     2.3020   -22.7900    57.2400     7.5480     8.8320     5.8480    20.6340 
   61.8750     2.3270   -23.5310    57.0900     8.0960     9.4760     6.0200    20.6210 
   62.0000     2.3380   -24.0660    55.6400     8.5100    10.0210     6.4130    20.6070 
   62.1250     2.3020   -24.4350    56.1160     8.6690    10.2900     6.6870    20.5260 
   62.2500     2.2330   -24.6580    57.1340     8.5920    10.2630     6.3320    20.3550 
   62.3750     2.1690   -24.7990    55.7630     8.3390     9.9980     5.8660    20.1350 
   62.5000     2.1450   -24.8900    53.7970     8.0330     9.6200     5.6640    19.9390 
   62.6250     2.1660   -24.9220    53.7540     7.8060     9.2770     5.6100    19.7350 
   62.7500     2.2050   -24.9270    53.8290     7.7140     9.0440     5.5610    19.5580 
   62.8750     2.2440   -24.9540    53.4150     7.7680     8.9230     5.5750    19.4480 
   63.0000     2.2780   -25.0370    54.0620     7.9460     8.8840     5.5930    19.4110 
   63.1250     2.3030   -25.1310    54.3510     8.2250     8.8950     5.5700    19.4130 
   63.2500     2.3140   -25.2410    53.4930     8.5440     8.9310     5.4840    19.4140 
   63.3750     2.3080   -25.3370    53.9480     8.8620     9.0040     5.4000    19.4150 
   63.5000     2.2940   -25.4030    56.3440     9.1480     9.1470     5.3000    19.4150 
   63.6250     2.2840   -25.4670    57.6620     9.3990     9.4090     5.1850    19.4150 
   63.7500     2.2730   -25.5460    56.3290     9.6510     9.7640     5.1010    19.4150 
   63.8750     2.2500   -25.6070    54.8520     9.9090    10.1530     5.0490    19.4140 
   64.0000     2.2150   -25.6160    54.9080    10.1260    10.4800     4.9800    19.4050 
   64.1250     2.1860   -25.6390    55.1400    10.1690    10.6060     4.9530    19.3800 
   64.2500     2.1830   -25.6900    54.1480    10.0000    10.5110     5.0060    19.3510 
   64.3750     2.2020   -25.7080    52.4690     9.6980    10.2270     5.0900    19.3390 
   64.5000     2.2180   -25.6650    52.3300     9.4060     9.8300     5.1570    19.3370 
   64.6250     2.2160   -25.5690    54.9770     9.2260     9.4260     5.2100    19.3370 
   64.7500     2.2180   -25.4490    57.3160     9.1240     9.1000     5.2170    19.3370 
   64.8750     2.2380   -25.3140    56.7280     9.0560     8.8820     5.1510    19.3370 
   65.0000     2.2630   -25.1650    52.8510     9.0110     8.7640     5.0440    19.3370 
   65.1250     2.2680   -24.9560    50.0000     9.0090     8.7260     4.9850    19.3370 
   65.2500     2.2510   -24.7530    50.5640     9.0460     8.7260     5.0100    19.3370 
   65.3750     2.2220   -24.6090    52.0850     9.0660     8.7370     5.0720    19.3370 
   65.5000     2.1920   -24.5240    52.1290     9.0000     8.7430     5.1370    19.3370 
   65.6250     2.1800   -24.4670    52.4210     8.8420     8.7420     5.1910    19.3370 
   65.7500     2.1980   -24.4480    54.4420     8.6980     8.7530     5.2390    19.3370 
   65.8750     2.2400   -24.4870    55.1970     8.6500     8.8000     5.2860    19.3370 
   66.0000     2.2810   -24.5850    53.0370     8.7300     8.9010     5.3550    19.3370 
   66.1250     2.2830   -24.7070    51.3580     8.9270     9.0710     5.4500    19.3370 
   66.2500     2.2530   -24.8380    52.3730     9.1820     9.2830     5.4800    19.3370 
   66.3750     2.2220   -24.9880    54.6520     9.4610     9.5010     5.4380    19.3320 
   66.5000     2.2140   -25.1220    56.1090     9.7170     9.6760     5.4170    19.2920 
   66.6250     2.2330   -25.2620    55.3550     9.8690     9.7290     5.5420    19.1820 
   66.7500     2.2560   -25.4150    55.2050     9.8960     9.6420     5.6980    19.0630 
   66.8750     2.2700   -25.5680    57.4510     9.8040     9.4370     5.8590    19.0530 
   67.0000     2.2770   -25.7200    60.8140     9.6160     9.1840     5.9660    19.2120 
   67.1250     2.2830   -25.8480    62.4860     9.3660     8.9980     6.0860    19.5340 
   67.2500     2.2920   -25.9190    62.0570     9.1410     8.9470     6.2130    19.7590 
   67.3750     2.3050   -25.9520    60.7630     9.0360     9.0440     6.1320    19.8420 
   67.5000     2.3150   -25.9950    60.1130     9.1450     9.2610     5.9010    19.9070 
   67.6250     2.3090   -26.0020    60.4970     9.4990     9.5250     5.7580    20.0250 
   67.7500     2.2920   -25.9220    59.4880     9.9320     9.7430     5.7270    20.0780 
   67.8750     2.2700   -25.7810    56.7640    10.3040     9.8650     5.6910    20.0910 
   68.0000     2.2530   -25.6100    57.4940    10.5310     9.8930     5.6270    20.0920 
   68.1250     2.2400   -25.4260    61.1080    10.5800     9.8570     5.5660    20.1250 
   68.2500     2.2260   -25.2350    61.2940    10.5290     9.8040     5.5670    20.2540 
   68.3750     2.2110   -25.0580    58.0090    10.4370     9.7480     5.5510    20.5390 
   68.5000     2.1990   -24.9270    55.4040    10.3920     9.7180     5.4840    20.9790 
   68.6250     2.2040   -24.8790    54.8590    10.6560     9.8630     5.5450    21.4600 
   68.7500     2.2300   -24.9110    54.3490    11.5430    10.3920     5.8320    21.9090 
   68.8750     2.2780   -24.9940    54.1530    13.3060    11.5390     6.7690    22.3220 
   69.0000     2.3500   -25.0980    55.3960    15.8950    13.4230     9.3700    22.8020 
   69.1250     2.4460   -25.2670    57.7770    18.6370    15.8030    16.2400    23.3110 
   69.2500     2.5360   -25.4670    60.7940    20.1090    17.5690    25.5390    23.7030 
   69.3750     2.5740   -25.6210    62.6600    19.1400    17.5060    29.7060    23.8830 
   69.5000     2.5360   -25.7080    63.3670    15.8370    15.2890    21.8650    23.9260 
   69.6250     2.4520   -25.7490    65.2380    11.8370    12.0060    11.6730    23.9260 
   69.7500     2.3830   -25.7630    70.0310     8.7440     9.1630     7.0320    23.9260 
   69.8750     2.3470   -25.7350    74.6700     6.8430     7.1920     5.4610    23.9260 
   70.0000     2.3320   -25.6530    76.7220     5.9090     6.0790     4.9540    23.9260 
   70.1250     2.3150   -25.5320    77.1680     5.7560     5.7890     5.3690    23.9260 
   70.2500     2.2840   -25.4300    76.5370     6.1130     6.0670     6.0710    23.9230 
   70.3750     2.2460   -25.3600    73.2020     6.9350     6.8290     6.3000    23.8770 
   70.5000     2.2130   -25.2810    68.2640     8.1780     8.0060     6.2300    23.6840 
   70.6250     2.2040   -25.1600    65.0050     9.7890     9.5630     6.7360    23.2170 
   70.7500     2.2190   -25.0550    63.4490    11.5460    11.2850     7.5590    22.7170 
   70.8750     2.2460   -24.9950    61.0860    13.2050    12.9210     7.7970    22.3800 
   71.0000     2.2710   -24.9940    58.0000    14.4130    14.1260     7.4420    22.1910 
   71.1250     2.2820   -24.9950    58.1980    14.6450    14.3900     7.1840    22.1600 
   71.2500     2.2870   -24.9630    61.7140    13.9420    13.7640     7.2760    22.2580 
   71.3750     2.2890   -24.9180    65.0580    12.6010    12.5450     7.4540    22.5400 
   71.5000     2.2900   -24.8900    65.8790    11.1080    11.1680     7.4730    22.9590 
   71.6250     2.2930   -24.8640    67.3460    10.0130    10.0700     7.2470    23.2560 
   71.7500     2.2930   -24.7590    71.5980     9.5330     9.4340     7.0350    23.3260 
   71.8750     2.2880   -24.5530    74.5290     9.7790     9.3750     7.0850    23.2590 
   72.0000     2.2820   -24.2740    71.6330    10.8670     9.9990     7.2330    23.0100 
   72.1250     2.2730   -23.9200    65.0030    13.1750    11.6100     7.5910    22.4220 
   72.2500     2.2530   -23.5020    60.0830    16.6270    14.2090     8.3110    21.7860 
   72.3750     2.2240   -23.0330    57.7150    20.9300    17.7290     8.9610    21.4900 
