~V
VERS. 2.00: Ver 2.00
~W
STRT.M 52.0000:
STOP.M 220.0000:
STEP.M 0.1250:
NULL. -999.2500:
UWI. F10539:
~C
DEPT.M :
SP.MV :
DEN.GM/CC :
GR.API :
RML.OHMM :
RI. :
RXO.OHMM :
CALI.CM :
~A
# ...
   85.7500   -16.8280     2.1890    55.5960     9.7760     7.4450     7.2650    23.3470 
   85.8750   -16.4580     2.1980    54.0850     9.4150     7.2410     7.2600    23.3960 
   86.0000   -16.0270     2.2240    55.4800     8.7420     6.8220     7.3650    23.4420 
   86.1250   -15.5970     2.2640    65.5520     7.8370     6.2190     6.7750    23.5240 
   86.2500   -15.1570     2.3020    79.6790     6.9360     5.5780     5.6930    23.6870 
   86.3750   -14.7450     2.3290    89.7230     6.1790     4.9960     4.9170    23.8780 
   86.5000   -14.3600     2.3490    93.2160     5.6270     4.5300     4.6820    23.9840 
   86.6250   -14.0470     2.3710    94.4500     5.3120     4.2140     4.5430    23.9980 
   86.7500   -13.8190     2.3950    96.9910     5.1650     4.0060     4.4120    23.9920 
   86.8750   -13.6650     2.4150    99.9100     5.1380     3.8760     4.3150    23.9930 
   87.0000   -13.5960     2.4200   101.9860     5.1720     3.7940     4.2320    23.9920 
   87.1250   -13.6070     2.4100   101.5630     5.1740     3.7260     4.1450    23.9740 
   87.2500   -13.7150     2.3950    98.9440     5.0680     3.6380     4.0460    23.9110 
   87.3750   -13.9010     2.3810    96.7570     4.8550     3.5290     4.0370    23.7900 
   87.5000   -14.1990     2.3720    95.7550     4.6400     3.4450     4.2880    23.6850 
   87.6250   -14.5590     2.3770    91.8660     4.7260     3.5470     4.3060    23.6900 
   87.7500   -14.9770     2.4020    83.7270     5.4680     4.0250     4.4040    23.7530 
   87.8750   -15.4360     2.4520    74.0190     7.3970     5.1840     5.6430    23.7900 
   88.0000   -15.9320     2.5250    65.6760    11.2370     7.4990    10.0320    23.8440 
   88.1250   -16.4410     2.6080    60.1010    18.3260    12.0410    27.0380    23.9920 
   88.2500   -16.9470     2.6720    57.4420    28.2160    18.9590    50.5350    24.1700 
   88.3750   -17.4350     2.6990    55.7980    38.4950    27.0170    58.8870    24.2750 
   88.5000   -17.8780     2.6840    53.5170    43.9000    32.3010    52.8410    24.3060 
   88.6250   -18.2540     2.6230    51.1980    39.3780    30.1540    43.9860    24.1430 
   88.7500   -18.5610     2.5350    50.7430    30.3530    24.0800    32.9470    23.7510 
   88.8750   -18.8030     2.4380    52.6570    21.8760    17.8880    20.1250    23.2500 
   89.0000   -18.9570     2.3500    56.0660    15.9530    13.2550    10.8220    22.8540 
   89.1250   -19.0120     2.2860    58.4310    12.7510    10.4830     8.0350    22.8080 
   89.2500   -18.9750     2.2430    58.0780    11.0820     8.8450     7.3080    22.8210 
   89.3750   -18.8550     2.2170    56.5400    10.3800     7.9890     7.3250    22.9340 
   89.5000   -18.6810     2.2030    56.1540    10.2440     7.6490     7.4920    23.0140 
   89.6250   -18.4640     2.2000    56.9150    10.3670     7.6270     7.4520    23.0090 
   89.7500   -18.2290     2.2040    56.4810    10.4680     7.6780     7.3030    22.9540 
   89.8750   -17.9850     2.2100    55.8280    10.4450     7.6950     7.2880    22.9110 
   90.0000   -17.7710     2.2120    56.6960    10.2940     7.6440     7.3490    22.9090 
   90.1250   -17.6040     2.2070    57.7890    10.0530     7.5240     7.1790    22.9110 
   90.2500   -17.5110     2.2020    57.5070     9.7990     7.3750     7.0270    22.8710 
   90.3750   -17.4910     2.1970    57.0040     9.5930     7.2290     7.1050    22.8220 
   90.5000   -17.5260     2.1910    58.6790     9.4780     7.1160     6.9690    22.8340 
   90.6250   -17.6320     2.1800    62.9300     9.4800     7.0740     6.8130    22.8640 
   90.7500   -17.7600     2.1670    64.8770     9.5660     7.0990     6.8280    22.7930 
   90.8750   -17.9290     2.1600    63.1430     9.7050     7.1790     7.8300    22.6380 
   91.0000   -18.0920     2.1630    58.5630     9.8650     7.2890     9.6980    22.4390 
   91.1250   -18.2490     2.1780    54.3920    10.0320     7.3940    11.0180    22.2750 
   91.2500   -18.3420     2.1890    53.2150    10.1880     7.4650     8.9110    22.3050 
   91.3750   -18.3750     2.1910    54.9170    10.3000     7.4870     7.4620    22.4430 
   91.5000   -18.3410     2.1860    57.1040    10.3350     7.4610     7.2220    22.5420 
   91.6250   -18.2390     2.1810    56.8780    10.2840     7.3950     7.5540    22.4580 
   91.7500   -18.1030     2.1810    55.5050    10.1960     7.3200     7.5570    22.3240 
   91.8750   -17.9160     2.1810    54.4490    10.1050     7.2550     7.2160    22.2180 
   92.0000   -17.7120     2.1780    53.3040    10.0430     7.2120     6.9090    22.1100 
   92.1250   -17.4890     2.1710    53.9200    10.0280     7.2040     6.9270    21.8850 
   92.2500   -17.2900     2.1660    55.8960    10.0350     7.2160     7.1890    21.6250 
   92.3750   -17.0960     2.1680    56.7860    10.0250     7.2220     7.3170    21.5180 
   92.5000   -16.9350     2.1800    57.0630     9.9580     7.1890     7.2260    21.6200 
   92.6250   -16.7980     2.2010    58.8380     9.8030     7.0980     7.0010    21.8280 
   92.7500   -16.6690     2.2230    60.4430     9.6180     6.9860     7.0340    22.0560 
   92.8750   -16.5590     2.2360    60.3210     9.5010     6.9050     7.1580    22.2420 
   93.0000   -16.4710     2.2390    59.6760     9.5370     6.9010     7.1000    22.4700 
   93.1250   -16.4170     2.2350    60.4870     9.6950     6.9560     6.9300    22.6840 
   93.2500   -16.3940     2.2350    62.7660     9.7510     6.9370     7.1420    22.8190 
   93.3750   -16.4530     2.2450    66.7810     9.5380     6.7370     7.5740    22.7780 
   93.5000   -16.5610     2.2650    73.2860     9.0760     6.3660     7.5950    22.6820 
   93.6250   -16.7590     2.2880    78.9610     8.6600     6.0090     6.7210    22.7110 
   93.7500   -17.0060     2.3030    79.2910     8.5950     5.8870     5.6190    22.9700 
   93.8750   -17.2990     2.3030    75.1790     8.9730     6.0950     5.0290    23.2590 
   94.0000   -17.5980     2.2870    70.3600     9.6690     6.5930     5.5410    23.1270 
   94.1250   -17.9180     2.2620    67.6210    10.3670     7.1990     6.7290    22.6260 
   94.2500   -18.2260     2.2420    65.3580    10.7920     7.6620     7.1970    22.2660 
   94.3750   -18.4970     2.2340    63.7460    10.8960     7.8800     7.6010    22.0620 
   94.5000   -18.7200     2.2370    64.5440    10.7890     7.8770     8.1810    21.9100 
   94.6250   -18.8840     2.2440    65.7590    10.6180     7.7450     8.3810    21.8900 
   94.7500   -19.0180     2.2430    65.3910    10.4630     7.5950     7.8100    21.9860 
   94.8750   -19.1020     2.2320    63.5050    10.3240     7.4620     7.5920    22.1510 
   95.0000   -19.1580     2.2160    62.0110    10.1950     7.3630     7.4130    22.3630 
   95.1250   -19.1410     2.2020    60.8970    10.0890     7.3080     7.1610    22.5870 
   95.2500   -19.0750     2.1940    58.8500    10.0210     7.2840     7.0850    22.7610 
   95.3750   -18.9680     2.1940    57.2420    10.0090     7.2840     7.3160    22.8540 
   95.5000   -18.8270     2.1990    56.8390    10.0620     7.3090     7.4360    22.8560 
   95.6250   -18.6610     2.2060    58.6390    10.1750     7.3650     7.3110    22.8450 
   95.7500   -18.4700     2.2110    62.1870    10.3060     7.4420     7.1720    22.8600 
   95.8750   -18.2880     2.2180    65.7000    10.4240     7.5270     7.1500    22.8930 
   96.0000   -18.1180     2.2290    64.8050    10.4930     7.6000     7.3220    22.9310 
   96.1250   -18.0190     2.2420    58.6000    10.4820     7.6350     7.5810    23.0260 
   96.2500   -17.9560     2.2500    53.9160    10.4060     7.6290     7.4620    23.2250 
   96.3750   -17.9390     2.2450    52.6780    10.2710     7.5830     6.8830    23.5400 
   96.5000   -17.9400     2.2260    52.6110    10.0850     7.4920     6.3890    23.8540 
   96.6250   -17.9370     2.2030    52.8710     9.8720     7.3510     6.4040    23.8280 
   96.7500   -17.9370     2.1880    54.6090     9.6870     7.1890     6.8110    23.5440 
   96.8750   -17.9040     2.1890    56.5840     9.5680     7.0360     7.1300    23.3250 
