~V
VERS. 2.00: Ver 2.00
~W
STRT.M 50.0000:
STOP.M 214.0000:
STEP.M 0.1250:
NULL. -999.2500:
UWI. F10534:
~C
DEPT.M :
DEN.GM/CC :
SP.MV :
GR.API :
RML.OHMM :
RI. :
RXO.OHMM :
CALI.CM :
~A
# ...
  185.0000     2.1880   -20.3330    69.8800   148.8000   132.0300   111.9160    24.8270 
  185.1250     2.1850   -20.0420    71.0220   150.4770   131.6460   117.7400    24.8880 
  185.2500     2.1800   -20.1670    71.2480   149.3910   128.4550   119.5430    24.9240 
  185.3750     2.1750   -20.0420    70.4970   144.4380   121.8620   123.0980    24.9600 
  185.5000     2.1720   -20.0000    69.9010   135.3410   112.0310   120.9590    25.0290 
  185.6250     2.1730   -19.6670    69.6360   122.4160    99.7320   108.3130    25.1070 
  185.7500     2.1720   -19.6530    69.4440   107.8900    86.8920    94.3780    25.1400 
  185.8750     2.1740   -19.6180    67.7010    93.3380    74.7200    84.0110    25.1030 
  186.0000     2.1820   -19.6110    63.5740    80.0680    64.0600    66.5380    24.9110 
  186.1250     2.1920   -19.5760    58.8450    69.4420    55.8080    47.9730    24.4630 
  186.2500     2.2020   -19.5280    57.2740    61.6910    49.9910    38.8910    24.1270 
  186.3750     2.2110   -19.5000    59.0070    57.2720    46.9800    41.0130    24.1950 
  186.5000     2.2180   -19.5000    62.5760    56.6340    47.1620    48.8310    24.6240 
  186.6250     2.2200   -19.5000    68.2520    60.8860    51.3860    44.6790    24.7200 
  186.7500     2.2100   -19.5000    72.1970    69.4020    58.9690    38.3370    24.2400 
  186.8750     2.2030   -19.5000    71.1350    81.4990    69.2680    41.5770    23.7830 
  187.0000     2.1960   -19.5000    67.3140    95.5930    81.0890    54.7220    23.6510 
  187.1250     2.1910   -19.5000    67.3830   109.5070    92.8890    71.6290    23.7190 
  187.2500     2.1890   -19.5000    70.8300   122.0610   103.7900    92.4310    23.7490 
  187.3750     2.1850   -19.5000    71.8960   133.1010   113.6930   107.9920    23.7040 
  187.5000     2.1810   -19.5000    69.5780   142.3800   122.4050   107.8030    23.6540 
  187.6250     2.1710   -19.4580    66.8610   148.3340   128.5860    99.8330    23.6910 
  187.7500     2.1640   -19.3330    65.1980   149.9750   131.1600    99.7630    23.8520 
  187.8750     2.1600   -19.3330    64.6300   146.7710   129.4400    98.4930    24.0610 
  188.0000     2.1620   -19.5000    64.5310   139.5500   123.9660    93.7620    24.1750 
  188.1250     2.1680   -19.5420    65.3560   129.8990   116.0230    82.2030    24.1900 
  188.2500     2.1770   -19.6670    66.4780   120.0200   107.7650    72.9700    24.1690 
  188.3750     2.1870   -19.6670    68.6500   111.3540   100.6170    75.9820    24.1320 
  188.5000     2.1970   -19.6670    72.5780   104.7480    95.2420    85.6820    24.1310 
  188.6250     2.2070   -19.7500    75.9500    99.8700    91.0690    88.4010    24.2060 
  188.7500     2.2210   -20.0000    76.6250    94.8850    86.4250    80.3770    24.2540 
  188.8750     2.2400   -20.1250    75.2160    88.7910    80.5830    69.2140    24.2980 
  189.0000     2.2570   -20.3330    73.5710    81.8040    74.0840    58.2250    24.4010 
  189.1250     2.2610   -20.3330    72.1240    75.5840    68.7840    53.0090    24.6200 
  189.2500     2.2490   -20.3330    69.6580    71.6170    65.9060    52.4260    24.7610 
  189.3750     2.2300   -20.3330    66.6710    70.3690    65.6230    53.5020    24.7640 
  189.5000     2.2120   -20.3330    64.6740    71.3510    67.2530    51.3870    24.6260 
  189.6250     2.2070   -20.2920    65.7080    73.6300    69.7450    51.3370    24.4120 
  189.7500     2.2170   -20.1670    68.3710    75.9430    71.9930    52.7970    24.2810 
  189.8750     2.2370   -20.1670    69.2580    77.7210    73.5760    55.8710    24.2140 
  190.0000     2.2560   -20.1670    68.6550    78.8260    74.4720    59.3850    24.1830 
  190.1250     2.2640   -19.9580    69.7510    79.3560    74.7740    66.9160    24.1000 
  190.2500     2.2610   -19.8330    71.1450    79.4590    74.5370    69.9660    24.0320 
  190.3750     2.2530   -19.8330    70.3250    78.7680    73.3570    70.7240    24.2040 
  190.5000     2.2480   -19.8330    68.6700    76.6420    70.6930    67.3240    24.5480 
  190.6250     2.2520   -19.6670    69.5410    72.2690    66.0260    62.2630    24.7350 
  190.7500     2.2610   -19.6670    71.8110    66.2560    60.0930    62.6470    24.7770 
  190.8750     2.2700   -19.5420    72.3190    59.4270    53.6740    68.2320    24.7780 
  191.0000     2.2760   -19.3330    71.2370    52.6360    47.4760    65.8380    24.7780 
  191.1250     2.2870   -19.0830    72.0940    46.6090    42.0800    51.5320    24.7780 
  191.2500     2.3080   -18.8330    76.5380    41.6100    37.7160    40.2500    24.7440 
  191.3750     2.3380   -18.7080    81.7380    38.0190    34.8010    35.3130    24.6150 
  191.5000     2.3630   -18.5000    83.7290    36.1790    33.6570    36.0830    24.3360 
  191.6250     2.3680   -18.3750    79.8770    36.2990    34.3040    41.6600    24.1760 
  191.7500     2.3590   -17.9170    75.4380    37.4090    35.6080    40.9960    24.1210 
  191.8750     2.3450   -17.5830    75.2930    38.6380    36.7100    36.2460    24.1170 
  192.0000     2.3340   -17.5000    78.9310    39.5010    37.3280    32.4860    24.1170 
  192.1250     2.3200   -17.3330    80.1060    40.5010    38.2290    33.1610    24.1170 
  192.2500     2.2970   -17.2500    76.4510    42.5900    40.3210    37.4890    24.1170 
  192.3750     2.2690   -17.3010    72.0600    45.9070    43.4930    50.6400    24.1120 
  192.5000     2.2500   -17.3710    70.2020    49.1740    46.2980    65.4730    24.0890 
  192.6250     2.2510   -17.4000    69.3630    49.0710    45.6990    71.1110    24.0330 
  192.7500     2.2610   -17.4220    68.0310    44.4690    40.9930    63.1460    23.9390 
  192.8750     2.2800   -17.4450    68.8690    36.8890    33.6530    42.2060    23.7980 
  193.0000     2.3090   -17.4620    74.5490    29.1450    26.2340    23.4090    23.6140 
  193.1250     2.3380   -17.4450    82.2460    23.5810    20.9570    19.1230    23.4530 
  193.2500     2.3470   -17.4220    85.5470    20.2010    17.8400    19.1770    23.3420 
  193.3750     2.3350   -17.4090    84.6360    18.5360    16.3980    20.9220    23.2900 
  193.5000     2.3210   -17.4190    83.9940    17.9980    15.9900    21.7180    23.2570 
  193.6250     2.3180   -17.4590    86.8950    18.0260    15.9950    20.3540    23.2430 
  193.7500     2.3230   -17.5050    90.9390    18.0450    15.8940    18.1470    23.2380 
  193.8750     2.3230   -17.5460    91.9150    17.8920    15.5940    16.6700    23.2360 
  194.0000     2.3100   -17.5840    89.9640    17.6720    15.2520    15.1880    23.2370 
  194.1250     2.2930   -17.6510    86.9000    17.6620    15.1670    14.5560    23.2570 
  194.2500     2.2900   -17.7150    84.4660    17.9910    15.4440    15.0980    23.3470 
  194.3750     2.3040   -17.7790    82.6460    18.6620    16.0620    16.9180    23.5750 
  194.5000     2.3200   -17.8220    81.6220    19.5620    16.8820    19.4950    23.9600 
  194.6250     2.3200   -17.8530    82.5890    20.4310    17.6560    21.3990    24.3470 
  194.7500     2.3080   -17.8830    84.7580    20.9900    18.1690    22.3510    24.5960 
  194.8750     2.3000   -17.9090    86.2510    21.1070    18.3540    21.6180    24.7580 
  195.0000     2.3050   -17.9380    85.6160    20.8620    18.3210    20.0720    24.9030 
  195.1250     2.3230   -17.9560    83.7030    20.5810    18.3870    19.4040    25.0420 
  195.2500     2.3410   -17.9530    83.1630    20.6700    18.9070    20.1360    25.2730 
  195.3750     2.3520   -17.9460    83.3910    21.4680    20.2290    21.4410    25.5310 
  195.5000     2.3500   -17.9440    83.6580    23.3220    22.7240    23.5780    25.5000 
  195.6250     2.3330   -17.9370    83.3540    26.8500    26.9450    28.6740    25.2090 
  195.7500     2.3050   -17.9290    80.8040    31.9510    32.5920    34.9320    25.0320 
  195.8750     2.2760   -17.9210    76.0580    38.3420    39.2080    38.4140    24.9640 
  196.0000     2.2580   -17.8890    71.7990    45.3960    46.1050    41.5740    24.9390 
  196.1250     2.2570   -17.8220    71.3540    52.2450    52.4700    46.7920    24.9310 
