~V
VERS. 2.00: Ver 2.00
~W
STRT.M 55.0000:
STOP.M 217.0000:
STEP.M 0.1250:
NULL. -999.2500:
UWI. F10537:
~C
DEPT.M :
SP.MV :
DEN.GM/CC :
GR.API :
RML.OHMM :
RI. :
RXO.OHMM :
CALI.CM :
~A
# ...
  122.5000   -12.5550     2.2730    89.2180     5.8610     4.8350     5.0490    24.4040 
  122.6250   -12.5650     2.2700    87.6960     6.4710     5.2350     5.1870    24.4090 
  122.7500   -12.6350     2.3100    83.1570     7.4760     5.9330     6.1650    24.4170 
  122.8750   -12.7690     2.4040    76.9080     8.7420     6.8740     8.6590    24.4220 
  123.0000   -12.9160     2.5260    72.5390     9.9170     7.8450    12.5430    24.4020 
  123.1250   -13.0880     2.5930    73.6810    10.3160     8.3550    13.2690    24.3600 
  123.2500   -13.2570     2.5800    77.5320     9.7400     8.1540    11.8140    24.2810 
  123.3750   -13.3950     2.5090    80.2000     8.4630     7.3430     8.7090    24.1780 
  123.5000   -13.5260     2.4280    80.9130     7.0520     6.2950     6.2750    24.1090 
  123.6250   -13.5900     2.3680    84.6470     6.0410     5.4230     5.1310    24.2040 
  123.7500   -13.6730     2.3280    92.1840     5.5040     4.8690     4.5460    24.3150 
  123.8750   -13.7230     2.3010    97.0020     5.3700     4.6300     4.5630    24.2910 
  124.0000   -13.7220     2.2870    93.4030     5.5130     4.6410     5.0120    24.0840 
  124.1250   -13.6880     2.2870    84.1410     5.8070     4.8270     5.2050    23.8820 
  124.2500   -13.6030     2.3020    77.2730     6.0880     5.0580     5.2950    23.7190 
  124.3750   -13.4990     2.3190    75.0620     6.2600     5.2510     5.3520    23.6460 
  124.5000   -13.3920     2.3230    75.6650     6.2810     5.3480     5.2380    23.6270 
  124.6250   -13.2750     2.3120    76.6230     6.1490     5.3190     5.3750    23.6270 
  124.7500   -13.1450     2.3030    76.2220     5.9540     5.2150     5.4460    23.6340 
  124.8750   -13.0200     2.3010    75.6750     5.7680     5.0900     5.1470    23.6780 
  125.0000   -12.9290     2.3030    75.3690     5.6490     4.9950     4.5740    23.8000 
  125.1250   -12.8870     2.2990    75.9430     5.6390     4.9650     4.5240    23.9690 
  125.2500   -12.8860     2.2880    76.9850     5.7010     4.9810     4.6960    24.0580 
  125.3750   -12.9300     2.2770    78.8890     5.7920     5.0150     4.9760    24.0440 
  125.5000   -12.9780     2.2710    81.3080     5.8580     5.0340     5.2510    24.0350 
  125.6250   -13.0720     2.2700    84.1660     5.8370     4.9940     5.0670    24.1850 
  125.7500   -13.1700     2.2730    88.4310     5.7190     4.8880     4.7550    24.3300 
  125.8750   -13.2770     2.2860    91.6460     5.5050     4.7160     4.5850    24.3880 
  126.0000   -13.3990     2.3120    91.9500     5.2120     4.4910     4.5540    24.3950 
  126.1250   -13.4740     2.3440    91.0280     4.8980     4.2510     4.5540    24.3950 
  126.2500   -13.5760     2.3630    92.0030     4.6980     4.0830     4.5160    24.4000 
  126.3750   -13.6780     2.3600    93.9220     4.7690     4.0890     4.2690    24.4130 
  126.5000   -13.8450     2.3460    92.3610     5.2860     4.3940     4.0000    24.4310 
  126.6250   -14.0520     2.3570    86.6130     6.5210     5.2110     4.9070    24.4050 
  126.7500   -14.2990     2.4170    79.0840     8.6260     6.5290     7.6700    24.3620 
  126.8750   -14.6110     2.5180    73.1370    11.0140     8.1900    13.3790    24.3080 
  127.0000   -14.9430     2.6090    67.5800    12.6710     9.6940    17.4180    24.2650 
  127.1250   -15.3970     2.6260    63.4940    12.6970    10.1130    16.0000    24.2110 
  127.2500   -15.9020     2.5770    63.2360    11.3590     9.4120    12.3110    24.1040 
  127.3750   -16.4660     2.4930    66.0200     9.5550     8.1490     8.7230    23.9420 
  127.5000   -17.0740     2.4070    68.4480     8.1000     6.9540     6.2480    23.7680 
  127.6250   -17.6990     2.3400    67.0970     7.3880     6.2180     5.7060    23.6500 
  127.7500   -18.3500     2.2950    65.1370     7.2080     5.8910     5.7260    23.5890 
  127.8750   -18.9720     2.2720    65.5890     7.3850     5.8840     5.8510    23.5780 
  128.0000   -19.5760     2.2640    68.9840     7.7510     6.0870     6.1550    23.5940 
  128.1250   -20.1470     2.2620    70.6670     8.1270     6.3770     6.5080    23.6120 
  128.2500   -20.6660     2.2580    67.5040     8.3820     6.6260     6.7660    23.6510 
  128.3750   -21.1340     2.2480    62.7780     8.4790     6.7770     6.9430    23.7380 
  128.5000   -21.5420     2.2320    60.3500     8.4440     6.8210     7.1120    23.8390 
  128.6250   -21.8820     2.2150    58.5660     8.3230     6.7730     7.0770    23.8860 
  128.7500   -22.1490     2.2030    55.8180     8.1840     6.6850     7.0110    23.9020 
  128.8750   -22.3520     2.1980    54.7530     8.0540     6.5810     6.9610    23.8770 
  129.0000   -22.5250     2.2000    57.1700     7.9470     6.4760     6.9000    23.7970 
  129.1250   -22.5950     2.2060    59.8300     7.8760     6.3840     6.9370    23.7360 
  129.2500   -22.6350     2.2080    60.0270     7.8330     6.3090     6.9570    23.7320 
  129.3750   -22.6240     2.2020    59.0450     7.8080     6.2540     6.9520    23.7720 
  129.5000   -22.5740     2.1930    58.5660     7.7810     6.2120     6.9830    23.8340 
  129.6250   -22.4760     2.1870    58.4830     7.7350     6.1710     7.1210    23.9420 
  129.7500   -22.3270     2.1820    58.2840     7.7140     6.1530     7.2640    24.0290 
  129.8750   -22.1860     2.1710    58.1780     7.7880     6.2090     7.3540    24.1060 
  130.0000   -22.0250     2.1570    56.1680     8.0010     6.3790     7.3450    24.2210 
  130.1250   -21.8780     2.1680    52.4410     8.3480     6.6650     7.5140    24.3830 
  130.2500   -21.7650     2.2200    51.7750     8.7050     6.9780     8.8860    24.3590 
  130.3750   -21.6850     2.3000    55.1180     8.9430     7.2120    11.6450    24.1710 
  130.5000   -21.6400     2.3640    58.3030     8.9530     7.2760    13.3530    24.0780 
  130.6250   -21.6590     2.3620    57.2170     8.7120     7.1220     9.1130    24.0890 
  130.7500   -21.7410     2.3180    54.1030     8.3910     6.8690     7.4410    24.0470 
  130.8750   -21.8690     2.2600    50.5190     8.1220     6.6170     7.0870    23.9420 
  131.0000   -22.0070     2.2140    48.7570     7.9850     6.4420     7.2310    23.8330 
  131.1250   -22.1730     2.1860    51.6370     8.0000     6.3850     7.3010    23.7920 
  131.2500   -22.3240     2.1730    55.0630     8.0580     6.3880     7.3810    23.7750 
  131.3750   -22.4710     2.1730    55.3010     8.0620     6.3860     7.4550    23.7770 
  131.5000   -22.6050     2.1840    52.5690     7.9700     6.3330     7.4540    23.7780 
  131.6250   -22.7200     2.1950    50.8590     7.8630     6.2590     7.4970    23.8780 
  131.7500   -22.8070     2.1910    51.8610     7.9280     6.2830     7.4700    23.9380 
  131.8750   -22.8300     2.1720    53.4850     8.3410     6.5420     7.4590    23.9630 
  132.0000   -22.8560     2.1560    53.2610     9.2010     7.1360     7.7240    23.9730 
  132.1250   -22.8160     2.1900    51.4250    10.4990     8.1130    10.1470    24.0300 
  132.2500   -22.7520     2.2960    51.0310    11.8360     9.2140    18.3600    24.0610 
  132.3750   -22.6830     2.4410    53.0470    12.7090    10.0590    34.5680    23.9500 
  132.5000   -22.5870     2.5370    55.4880    12.6790    10.2530    34.5010    23.7520 
  132.6250   -22.4770     2.5120    57.5040    11.6690     9.6200    19.3620    23.6530 
  132.7500   -22.3310     2.4210    58.9380    10.3910     8.6580    10.8240    23.6910 
  132.8750   -22.2210     2.3230    58.3800     9.3290     7.7550     8.2940    23.8150 
  133.0000   -22.1170     2.2550    56.1960     8.7000     7.1300     7.8390    23.8460 
  133.1250   -22.0440     2.2320    54.2960     8.5380     6.8740     7.8630    23.8860 
  133.2500   -22.0140     2.2330    54.5090     8.6030     6.8440     7.9360    23.8810 
  133.3750   -21.9880     2.2440    55.2710     8.7350     6.9210     7.9980    23.8540 
  133.5000   -21.9830     2.2500    55.0770     8.8320     7.0120     7.9950    23.8070 
  133.6250   -22.0030     2.2500    55.3560     8.8420     7.0590     7.9230    23.7840 
