~V
VERS. 2.00: Ver 2.00
~W
STRT.M 60.0000:
STOP.M 190.0000:
STEP.M 0.1250:
NULL. -999.2500:
UWI. F10561:
~C
DEPT.M :
SP.MV :
GR.API :
RML.OHMM :
RI. :
RXO.OHMM :
CALI.CM :
DEN.GM/CC :
~A
# ...
  161.2500   -20.9120    62.6440    79.8960    74.8280    37.8680    24.2710     2.3230 
  161.3750   -20.8840    64.9450    81.8340    76.1570    37.5930    24.1980     2.3180 
  161.5000   -20.7590    67.7120    86.0000    79.4840    36.2210    24.1400     2.3140 
  161.6250   -20.5580    70.0560    92.8180    85.3290    34.3840    24.0990     2.3090 
  161.7500   -20.3740    69.4480   101.2150    92.8900    35.2420    24.0570     2.3010 
  161.8750   -20.1410    65.5680   109.1410   100.6250    39.0890    24.0250     2.2880 
  162.0000   -19.8370    60.9010   113.1350   105.8430    42.2590    24.0080     2.2740 
  162.1250   -19.5400    57.6120   108.5060   104.4610    42.3190    23.9850     2.2640 
  162.2500   -19.1780    56.2810    96.8390    96.5480    41.6010    23.9820     2.2630 
  162.3750   -18.7660    57.6460    82.0300    84.2910    45.0260    24.0880     2.2720 
  162.5000   -18.3790    61.7000    68.4390    71.3210    50.5230    24.3670     2.2900 
  162.6250   -17.9670    66.3050    59.9560    61.5060    52.5460    24.6180     2.3160 
  162.7500   -17.5240    68.5790    56.0470    55.8700    47.5520    24.7250     2.3450 
  162.8750   -17.0860    69.0630    54.7270    54.1090    46.0410    24.7450     2.3680 
  163.0000   -16.6270    69.6110    54.5550    54.6230    51.5100    24.7530     2.3810 
  163.1250   -16.1280    70.7030    52.2560    53.9020    67.7990    24.7720     2.3780 
  163.2500   -15.6600    70.6890    45.5880    48.9140    86.5000    24.7860     2.3680 
  163.3750   -15.1820    69.3030    35.0560    39.4350    99.4450    24.7710     2.3580 
  163.5000   -14.6740    67.7310    24.0360    28.0790    83.1980    24.7540     2.3530 
  163.6250   -14.2240    64.6670    15.9290    18.6290    36.4560    24.7470     2.3530 
  163.7500   -13.8070    58.9510    10.8360    12.2540    14.2270    24.7460     2.3540 
  163.8750   -13.4130    54.1790     8.0120     8.5330     7.3770    24.7460     2.3530 
  164.0000   -13.1050    53.8040     6.6330     6.6010     5.8730    24.7530     2.3510 
  164.1250   -12.8840    56.5440     6.1550     5.8430     5.8130    24.7910     2.3530 
  164.2500   -12.6720    57.8920     6.0260     5.6140     5.8850    24.8610     2.3650 
  164.3750   -12.5190    55.6360     6.0630     5.6440     6.1550    24.9290     2.3870 
  164.5000   -12.4400    49.7070     6.1180     5.7330     6.3870    24.9900     2.4160 
  164.6250   -12.3960    43.0340     6.1090     5.7370     6.2990    25.0290     2.4390 
  164.7500   -12.3610    39.4840     6.0390     5.6430     6.4250    25.0220     2.4500 
  164.8750   -12.3580    38.3920     5.9080     5.4910     6.6930    24.9730     2.4530 
  165.0000   -12.3670    37.1130     5.7300     5.3370     6.6540    24.9330     2.4510 
  165.1250   -12.3350    35.6950     5.5430     5.2200     5.9480    24.9100     2.4500 
  165.2500   -12.3420    36.2400     5.3950     5.1370     5.6190    24.8970     2.4470 
  165.3750   -12.3590    37.7910     5.3050     5.0740     5.6090    24.9070     2.4390 
  165.5000   -12.3540    38.4010     5.2590     5.0330     5.9650    24.9320     2.4310 
  165.6250   -12.3610    36.7350     5.3540     5.0440     5.7860    24.8520     2.4320 
  165.7500   -12.4030    35.6610     5.5310     5.1190     5.5550    24.6740     2.4440 
  165.8750   -12.4410    36.2060     5.7360     5.2480     5.2650    24.5210     2.4580 
  166.0000   -12.4520    37.7020     5.8950     5.3780     5.4170    24.4420     2.4650 
  166.1250   -12.5070    37.7690     5.9090     5.4140     5.9550    24.4960     2.4550 
  166.2500   -12.5620    37.1980     5.7660     5.3160     6.3030    24.6100     2.4330 
  166.3750   -12.6170    35.9440     5.5120     5.0950     5.8820    24.7110     2.4090 
  166.5000   -12.7150    34.1710     5.2400     4.8120     5.2250    24.7600     2.3930 
  166.6250   -12.8440    33.6420     5.0620     4.5660     4.9850    24.7820     2.3900 
  166.7500   -12.9340    35.0600     4.9940     4.4200     4.9420    24.7820     2.3990 
  166.8750   -13.0610    37.1940     5.0090     4.3920     4.9550    24.7800     2.4150 
  167.0000   -13.2880    38.8830     5.0760     4.4630     4.9600    24.8380     2.4310 
  167.1250   -13.5290    42.0710     5.2000     4.5950     4.9900    24.9130     2.4400 
  167.2500   -13.7700    46.0050     5.3930     4.7440     5.0250    24.9400     2.4400 
  167.3750   -14.0710    49.5610     5.6570     4.8980     5.0880    24.9390     2.4320 
  167.5000   -14.3930    53.7490     5.9550     5.0530     5.2840    24.9540     2.4180 
  167.6250   -14.6780    57.4100     6.2070     5.2040     5.6990    25.0000     2.4050 
  167.7500   -15.0280    58.0090     6.3590     5.3310     6.1250    25.0380     2.4010 
  167.8750   -15.3770    56.6090     6.3950     5.4090     6.4550    25.0530     2.4060 
  168.0000   -15.6630    56.4150     6.3440     5.4200     6.4870    25.0580     2.4160 
  168.1250   -15.9880    56.4730     6.2860     5.3800     6.3130    25.0710     2.4220 
  168.2500   -16.3680    55.3830     6.3360     5.3690     6.1880    25.0920     2.4220 
  168.3750   -16.7610    56.4780     6.5950     5.4790     6.0300    25.0880     2.4190 
  168.5000   -17.2070    63.0350     7.1180     5.7800     5.9200    25.0340     2.4140 
  168.6250   -17.6900    73.5340     7.8770     6.3030     6.5910    24.9190     2.4050 
  168.7500   -18.1470    82.0320     8.6350     6.9080     8.7830    24.8360     2.3890 
  168.8750   -18.5890    85.9570     9.1720     7.4450    12.5950    24.8020     2.3680 
  169.0000   -19.0190    85.4000     9.3800     7.7950    14.8620    24.7860     2.3490 
  169.1250   -19.3610    82.6020     9.3500     7.9360    12.6450    24.7590     2.3410 
  169.2500   -19.6660    81.0560     9.4020     8.0590     9.8950    24.7190     2.3430 
  169.3750   -19.9260    82.0910     9.7630     8.3650     9.0140    24.6460     2.3550 
  169.5000   -20.0510    84.8170    10.5460     9.0170    10.0510    24.5580     2.3790 
  169.6250   -20.0890    86.5700    11.7580    10.1070    11.8180    24.5360     2.4160 
  169.7500   -20.0750    86.9130    13.0740    11.3650    13.2630    24.5410     2.4570 
  169.8750   -19.9930    87.1620    14.0830    12.4110    14.8450    24.5340     2.4860 
  170.0000   -19.8190    86.8280    14.3510    12.8290    16.2800    24.4940     2.4910 
  170.1250   -19.5790    83.7790    13.5090    12.2500    16.7680    24.4620     2.4670 
  170.2500   -19.2510    78.3980    11.9690    10.9910    15.1300    24.5580     2.4340 
  170.3750   -18.8230    72.3210    10.1970     9.4310    12.4900    24.7710     2.4120 
  170.5000   -18.4090    66.8030     8.6130     7.9410    10.1160    24.9780     2.4090 
  170.6250   -18.0640    62.6440     7.5470     6.8370     7.7910    25.0410     2.4160 
  170.7500   -17.7650    62.3640     7.0090     6.1860     6.7000    25.0540     2.4150 
  170.8750   -17.5710    66.4020     7.0390     6.0520     6.1330    25.0610     2.4000 
  171.0000   -17.5180    73.6470     7.7110     6.5130     5.8950    25.0750     2.3820 
  171.1250   -17.5330    82.6260     9.2450     7.7770     6.8460    25.0740     2.3830 
  171.2500   -17.6030    89.0410    11.4570     9.7000     9.5490    25.0420     2.4070 
  171.3750   -17.7190    90.6730    13.9080    11.9600    14.8000    24.9900     2.4450 
  171.5000   -17.7870    88.4900    15.7620    13.8940    23.0510    24.9760     2.4730 
  171.6250   -17.7380    86.4580    15.8760    14.4850    26.3250    24.9920     2.4700 
  171.7500   -17.6190    85.8980    14.4780    13.6740    22.6090    25.0260     2.4360 
  171.8750   -17.3720    84.6090    12.3260    11.9350    15.5310    25.0680     2.3850 
  172.0000   -17.0050    81.3760    10.2270     9.9710     9.6800    25.0960     2.3350 
  172.1250   -16.6310    76.1440     8.7010     8.3730     8.2990    25.0670     2.3070 
  172.2500   -16.2090    70.5720     7.6920     7.2370     8.3240    25.0030     2.3100 
  172.3750   -15.7680    65.8190     7.0910     6.4920     7.8020    24.9220     2.3420 
