~V
VERS. 2.00: Ver 2.00
~W
STRT.M 50.0000:
STOP.M 222.0000:
STEP.M 0.1250:
NULL. -999.2500:
UWI. F10580:
~C
DEPT.M :
DEN.GM/CC :
SP.MV :
GR.API :
RML.OHMM :
RI. :
RXO.OHMM :
CALI.CM :
~A
# ...
  151.2500     2.4360   -14.5170    56.7150    20.9770    18.7110    12.5770    22.1650 
  151.3750     2.4380   -14.5050    56.8440    20.8780    18.6170    12.4160    22.0560 
  151.5000     2.4370   -14.4900    56.9830    20.8730    18.6080    12.5250    21.9840 
  151.6250     2.4370   -14.4680    58.0180    20.8870    18.6300    13.4410    21.9730 
  151.7500     2.4400   -14.4530    59.8190    20.8220    18.6020    13.8820    22.0400 
  151.8750     2.4440   -14.4470    59.9650    20.6380    18.4760    13.2340    22.2600 
  152.0000     2.4420   -14.4410    58.5540    20.3700    18.2580    12.8220    22.7020 
  152.1250     2.4360   -14.4450    59.8870    20.1070    18.0060    13.1900    23.1950 
  152.2500     2.4330   -14.4650    64.5830    19.9400    17.8100    14.4710    23.6630 
  152.3750     2.4330   -14.4760    67.9700    19.9140    17.7280    15.6160    24.0860 
  152.5000     2.4310   -14.4960    66.1430    20.0110    17.7710    16.3010    24.4340 
  152.6250     2.4260   -14.5340    61.1220    20.1400    17.8790    16.2080    24.5960 
  152.7500     2.4290   -14.5750    58.3390    20.2120    17.9590    15.8240    24.6110 
  152.8750     2.4400   -14.6160    58.6320    20.2130    17.9800    15.7510    24.5360 
  153.0000     2.4520   -14.6550    59.9070    20.1520    17.9400    15.8300    24.4630 
  153.1250     2.4500   -14.7060    59.9670    20.0270    17.8390    15.3760    24.4330 
  153.2500     2.4410   -14.7520    60.0450    19.8400    17.6890    15.5240    24.4300 
  153.3750     2.4300   -14.8070    60.5310    19.5640    17.4790    16.5430    24.4330 
  153.5000     2.4180   -14.8620    60.9630    19.1590    17.1780    17.4910    24.4360 
  153.6250     2.4090   -14.8960    60.7400    18.6030    16.7490    16.2350    24.4350 
  153.7500     2.4010   -14.9110    59.9750    17.9810    16.2480    15.5550    24.4210 
  153.8750     2.3950   -14.9260    58.6940    17.3850    15.7460    14.9420    24.3760 
  154.0000     2.3910   -14.9230    57.8290    16.9090    15.3250    13.9610    24.3130 
  154.1250     2.3960   -14.8990    58.7610    16.6380    15.0590    13.5560    24.2410 
  154.2500     2.4090   -14.8680    59.9640    16.4880    14.8890    13.8700    24.2120 
  154.3750     2.4250   -14.8420    60.2630    16.3280    14.7100    14.2710    24.2050 
  154.5000     2.4390   -14.7950    59.9400    16.0090    14.4000    13.9010    24.2060 
  154.6250     2.4470   -14.7460    60.3220    15.4020    13.8510    13.1350    24.2180 
  154.7500     2.4500   -14.7060    60.4100    14.5950    13.1310    11.9860    24.2440 
  154.8750     2.4460   -14.6480    58.4850    13.7390    12.3600    10.8990    24.2700 
  155.0000     2.4350   -14.5930    55.4600    13.0260    11.6860    10.0540    24.2740 
  155.1250     2.4180   -14.5260    54.8660    12.6730    11.2890     9.7990    24.2520 
  155.2500     2.4050   -14.4590    55.9920    12.7010    11.2040    10.1010    24.2210 
  155.3750     2.4010   -14.3690    55.7350    13.0870    11.4340    10.6260    24.2070 
  155.5000     2.4050   -14.2940    54.8090    13.7190    11.9120    11.6350    24.2050 
  155.6250     2.4090   -14.2330    56.5900    14.3920    12.4930    12.7030    24.2050 
  155.7500     2.4080   -14.1810    58.8400    14.8810    12.9620    13.5840    24.2050 
  155.8750     2.4040   -14.1520    58.0840    15.0760    13.1890    13.9470    24.2050 
  156.0000     2.4000   -14.1420    55.6090    14.9970    13.1510    13.3480    24.2050 
  156.1250     2.3970   -14.1630    55.7050    14.7760    12.9280    12.4580    24.2050 
  156.2500     2.3990   -14.1910    57.5140    14.6130    12.7110    12.3620    24.2050 
  156.3750     2.4090   -14.2680    58.8780    14.6150    12.6140    12.9550    24.2050 
  156.5000     2.4210   -14.3740    59.0680    14.8170    12.6910    13.5310    24.2050 
  156.6250     2.4210   -14.4910    57.5200    15.2220    12.9660    13.7650    24.1940 
  156.7500     2.4180   -14.6210    55.1690    15.7120    13.3460    13.8000    24.1660 
  156.8750     2.4220   -14.7510    53.4580    16.1800    13.7460    13.7620    24.1330 
  157.0000     2.4340   -14.8680    54.2790    16.5320    14.0880    14.0030    24.1050 
  157.1250     2.4400   -14.9780    55.5570    16.6920    14.3030    14.2100    24.0770 
  157.2500     2.4400   -15.0940    55.7020    16.7030    14.4030    14.1210    24.0620 
  157.3750     2.4420   -15.1730    56.6090    16.6240    14.4110    13.4230    24.0540 
  157.5000     2.4480   -15.2400    59.1150    16.5140    14.3720    13.4290    24.0430 
  157.6250     2.4500   -15.3180    60.3370    16.3880    14.3070    13.9730    24.0040 
  157.7500     2.4470   -15.3720    58.4520    16.1910    14.1940    14.1880    23.9510 
  157.8750     2.4480   -15.4250    56.0830    15.8500    13.9790    13.8730    23.9120 
  158.0000     2.4560   -15.4910    55.6140    15.3280    13.6110    13.3020    23.9000 
  158.1250     2.4610   -15.5490    55.8290    14.6530    13.0770    11.9020    23.9100 
  158.2500     2.4550   -15.5970    55.7390    13.9740    12.4930    10.8540    23.9590 
  158.3750     2.4390   -15.6510    56.1940    13.4140    11.9720    10.2690    24.0930 
  158.5000     2.4210   -15.7100    57.4450    13.0350    11.5870    10.2820    24.3020 
  158.6250     2.4070   -15.7610    58.3460    12.8230    11.3580    10.5120    24.4470 
  158.7500     2.3960   -15.8320    58.5800    12.6340    11.1740    11.0010    24.4970 
  158.8750     2.3810   -15.9040    60.3910    12.3610    10.9430    11.3440    24.5050 
  159.0000     2.3620   -15.9730    65.7000    11.9750    10.6250    11.1110    24.5050 
  159.1250     2.3430   -16.0480    73.5410    11.5770    10.2820    10.2390    24.5050 
  159.2500     2.3320   -16.1130    81.1930    11.3600    10.0620     9.8380    24.5050 
  159.3750     2.3320   -16.1790    89.0340    11.4700    10.0910     9.9280    24.5050 
  159.5000     2.3400   -16.2290    95.5560    11.9460    10.4280    10.5770    24.5120 
  159.6250     2.3490   -16.2750    95.5250    12.7060    11.0560    11.8760    24.5360 
  159.7500     2.3490   -16.3150    92.4210    13.4610    11.7540    13.3300    24.5670 
  159.8750     2.3340   -16.3410    91.3620    13.9740    12.3140    14.7750    24.5800 
  160.0000     2.3020   -16.3570    91.9980    14.0960    12.5700    14.4590    24.5820 
  160.1250     2.2700   -16.3570    90.0390    13.8050    12.4470    12.3370    24.5820 
  160.2500     2.2540   -16.3540    87.6790    13.3690    12.1520    11.7870    24.5820 
  160.3750     2.2550   -16.3420    87.2780    13.0070    11.8700    12.1810    24.5820 
  160.5000     2.2680   -16.3210    87.3780    12.8930    11.7550    12.5390    24.5820 
  160.6250     2.2910   -16.2770    87.6450    13.1840    11.9590    12.8790    24.5820 
  160.7500     2.3210   -16.2110    87.3400    13.8070    12.4490    13.4900    24.5820 
  160.8750     2.3540   -16.1450    85.0660    14.6420    13.1490    14.3070    24.5810 
  161.0000     2.3790   -16.0770    81.3630    15.4780    13.9020    15.3340    24.5800 
  161.1250     2.3690   -16.0170    79.3440    15.9700    14.4200    15.6300    24.5790 
  161.2500     2.3270   -15.9670    79.7140    15.9280    14.5000    15.3370    24.5810 
  161.3750     2.2760   -15.9210    81.7350    15.3390    14.0810    13.8990    24.5820 
  161.5000     2.2400   -15.8750    84.6130    14.4160    13.3150    12.0330    24.5820 
  161.6250     2.2290   -15.8390    86.8740    13.5720    12.5330    10.8840    24.5820 
  161.7500     2.2350   -15.7990    87.7680    13.1520    12.0530    10.6000    24.5820 
  161.8750     2.2480   -15.7500    89.0620    13.3080    12.0290    10.9220    24.5820 
  162.0000     2.2590   -15.7100    90.4470    14.0300    12.4940    12.2280    24.5820 
  162.1250     2.2610   -15.6710    88.5390    15.1850    13.4030    14.0480    24.5820 
  162.2500     2.2600   -15.6250    83.1900    16.4070    14.4720    16.3670    24.5820 
  162.3750     2.2580   -15.5840    77.1500    17.4740    15.4950    17.5210    24.5820 
