~V
VERS. 2.00: Ver 2.00
~W
STRT.M 50.0000:
STOP.M 198.0000:
STEP.M 0.1250:
NULL. -999.2500:
UWI. F10574:
~C
DEPT.M :
DEN.GM/CC :
SP.MV :
GR.API :
RML.OHMM :
RI. :
RXO.OHMM :
CALI.CM :
~A
# ...
  117.5000     2.4760   -10.2840    53.1320    36.1410    35.5620    30.0290    23.8320 
  117.6250     2.4650   -10.2550    55.2620    35.8820    35.2770    30.6880    23.8390 
  117.7500     2.4580   -10.2570    55.4680    35.6790    35.0350    30.5340    23.8380 
  117.8750     2.4500   -10.2400    54.1030    35.5590    34.9000    30.4170    23.8250 
  118.0000     2.4410   -10.2290    53.5810    35.4310    34.8130    31.3370    23.7890 
  118.1250     2.4420   -10.2190    54.8680    35.0650    34.5410    31.2350    23.7320 
  118.2500     2.4620   -10.1870    55.3400    34.3530    33.9060    31.0060    23.6970 
  118.3750     2.4960   -10.1320    54.7770    33.3130    32.8810    29.6640    23.6860 
  118.5000     2.5280   -10.0710    53.0130    32.1110    31.6190    27.7740    23.6870 
  118.6250     2.5380   -10.0130    49.8680    31.0210    30.4260    27.2090    23.6880 
  118.7500     2.5320    -9.9790    48.3100    30.2040    29.5430    25.4600    23.6860 
  118.8750     2.5200    -9.9640    49.2450    29.6700    29.0420    25.5480    23.6850 
  119.0000     2.5060    -9.9360    51.1360    29.3290    28.8450    27.2840    23.6850 
  119.1250     2.4900    -9.9260    51.7490    29.0810    28.7750    27.1530    23.6850 
  119.2500     2.4800    -9.9490    51.5750    28.9280    28.7000    26.0280    23.6850 
  119.3750     2.4850    -9.9900    51.3930    29.0360    28.7160    24.7950    23.6850 
  119.5000     2.5070    -9.9850    50.3090    29.6530    29.0590    25.3560    23.6850 
  119.6250     2.5430    -9.9610    48.9710    31.1360    30.1250    27.6930    23.6800 
  119.7500     2.5790    -9.9300    49.9350    33.4340    31.9840    30.2380    23.6440 
  119.8750     2.6080    -9.9180    52.4150    36.3560    34.5510    34.7700    23.5610 
  120.0000     2.6260    -9.9360    53.4500    39.3950    37.4060    38.7130    23.4900 
  120.1250     2.6290    -9.9520    53.4730    41.4910    39.5610    41.1330    23.4630 
  120.2500     2.6240    -9.9820    53.7120    41.8900    40.1860    42.2280    23.4470 
  120.3750     2.6150   -10.0630    53.4050    40.2990    38.9310    42.3490    23.4090 
  120.5000     2.6030   -10.1990    51.4480    37.1090    36.1070    37.3370    23.3440 
  120.6250     2.5820   -10.3520    51.4280    33.2510    32.5700    29.5400    23.2320 
  120.7500     2.5540   -10.5190    52.9470    29.8450    29.3790    23.0570    23.1310 
  120.8750     2.5260   -10.7240    52.7450    27.4110    27.0270    20.0260    23.0910 
  121.0000     2.5080   -10.9310    50.0790    26.1350    25.7010    19.5420    23.0860 
  121.1250     2.5050   -11.1080    49.4070    26.1280    25.5480    20.9930    23.1130 
  121.2500     2.5130   -11.2460    51.2060    26.9830    26.2510    22.5680    23.2150 
  121.3750     2.5320   -11.3650    52.1960    28.4590    27.6130    24.4500    23.3950 
  121.5000     2.5570   -11.5170    51.8020    30.3070    29.3960    26.4220    23.5470 
  121.6250     2.5830   -11.6850    51.4930    32.0870    31.2000    27.7650    23.6000 
  121.7500     2.6070   -11.8380    50.3100    33.1230    32.3430    28.6610    23.6200 
  121.8750     2.6240   -11.9450    48.3130    32.7380    32.0910    29.5710    23.7540 
  122.0000     2.6260   -12.0360    47.4060    30.5970    30.0370    29.4050    24.1950 
  122.1250     2.6080   -12.1460    49.4860    26.9120    26.4190    25.9580    24.9840 
  122.2500     2.5850   -12.2620    52.1320    22.9040    22.5280    19.3190    25.4270 
  122.3750     2.5660   -12.3460    52.9850    19.3670    19.1680    14.2670    25.2930 
  122.5000     2.5470   -12.3960    52.0100    16.7330    16.7250    12.2540    24.8300 
  122.6250     2.5230   -12.4570    51.9360    15.2980    15.4020    11.9840    24.5920 
  122.7500     2.4990   -12.5120    53.1690    14.8580    14.9390    12.4410    24.5390 
  122.8750     2.4800   -12.5530    53.2120    15.3420    15.2520    12.8910    24.5900 
  123.0000     2.4700   -12.5850    51.7460    16.6530    16.2830    13.5650    24.6850 
  123.1250     2.4650   -12.6190    51.4520    18.6950    18.0080    15.4880    24.8130 
  123.2500     2.4630   -12.6830    52.0780    21.0240    20.0780    18.9100    24.9270 
  123.3750     2.4600   -12.7980    50.6630    23.2360    22.1620    22.7980    25.0270 
  123.5000     2.4550   -12.9270    47.3800    24.9280    23.8700    24.1740    25.2070 
  123.6250     2.4560   -13.0190    45.5560    25.7310    24.7720    23.9160    25.4390 
  123.7500     2.4750   -13.0830    46.2360    25.8490    24.9630    23.7480    25.5150 
  123.8750     2.5160   -13.1560    47.5050    25.5070    24.6190    24.7280    25.3140 
  124.0000     2.5630   -13.2140    47.7250    24.8690    23.9000    24.9660    24.9500 
  124.1250     2.5860   -13.2420    48.2060    23.9240    22.8430    23.2460    24.8310 
  124.2500     2.5810   -13.2600    48.3150    22.6960    21.5550    21.6000    24.9690 
  124.3750     2.5570   -13.2830    47.2140    21.2010    20.1060    19.8320    25.3600 
  124.5000     2.5250   -13.3000    46.5380    19.5340    18.5900    17.6600    25.8860 
  124.6250     2.4960   -13.3290    49.0160    17.8760    17.1540    16.1200    26.2890 
  124.7500     2.4780   -13.3910    51.9750    16.3880    15.8950    15.0810    26.5110 
  124.8750     2.4660   -13.4770    52.7630    15.1530    14.8440    13.8510    26.6310 
  125.0000     2.4560   -13.5800    51.5900    14.2100    14.0010    12.8900    26.7260 
  125.1250     2.4520   -13.6760    49.5130    13.6180    13.3920    13.7430    26.7680 
  125.2500     2.4550   -13.7510    47.8230    13.2670    12.9630    14.0120    26.7980 
  125.3750     2.4600   -13.7940    48.3710    13.0880    12.6920    12.7540    26.8460 
  125.5000     2.4630   -13.8060    51.4970    13.0400    12.5690    11.8420    26.9030 
  125.6250     2.4650   -13.8210    53.8090    13.1800    12.6410    12.0160    26.9670 
  125.7500     2.4680   -13.8180    53.1710    13.5660    12.9380    12.3140    27.0600 
  125.8750     2.4710   -13.7740    51.5220    14.2930    13.5290    12.6180    27.1570 
  126.0000     2.4730   -13.7270    50.8670    15.3940    14.4440    13.6710    27.2510 
  126.1250     2.4770   -13.7160    51.2280    16.7860    15.6230    16.3040    27.2860 
  126.2500     2.4810   -13.7150    52.0650    18.0910    16.7330    19.5070    27.3060 
  126.3750     2.4800   -13.6900    52.3910    18.9230    17.4070    22.4620    27.3490 
  126.5000     2.4660   -13.6720    51.6400    18.9920    17.3650    23.2020    27.4530 
  126.6250     2.4440   -13.6720    51.8840    18.2230    16.5510    19.2360    27.5260 
  126.7500     2.4280   -13.6780    55.0830    17.1440    15.4770    15.4140    27.4200 
  126.8750     2.4240   -13.6930    58.8750    16.2000    14.5550    13.5620    26.9670 
  127.0000     2.4350   -13.6960    59.7770    15.6950    14.0520    13.5110    26.1120 
  127.1250     2.4600   -13.7160    58.0800    15.8190    14.1440    14.4680    25.1800 
  127.2500     2.4860   -13.7630    56.6020    16.3850    14.6640    15.4160    24.7170 
  127.3750     2.5010   -13.8290    55.0490    17.2040    15.4260    16.5480    24.5950 
  127.5000     2.5040   -13.8670    52.3410    18.0270    16.1800    17.6630    24.5850 
  127.6250     2.5020   -13.8310    50.5200    18.5180    16.6000    17.4580    24.5840 
  127.7500     2.5000   -13.7790    51.1680    18.5500    16.5860    16.6300    24.5830 
  127.8750     2.4960   -13.7590    52.4040    18.1540    16.1720    15.8200    24.5830 
  128.0000     2.4880   -13.7510    52.1040    17.4800    15.5030    14.8150    24.5830 
  128.1250     2.4800   -13.6830    52.0330    16.7000    14.7500    14.1050    24.5830 
  128.2500     2.4740   -13.5890    53.2820    15.9390    14.0380    13.9770    24.5830 
  128.3750     2.4710   -13.5150    53.5800    15.2700    13.4240    13.8790    24.5830 
  128.5000     2.4690   -13.4580    52.6980    14.7880    12.9650    13.4240    24.5830 
  128.6250     2.4700   -13.3940    53.0080    14.6570    12.7580    12.8460    24.5830 
