~V
VERS. 2.00: Ver 2.00
~W
STRT.M 58.0000:
STOP.M 208.0000:
STEP.M 0.1250:
NULL. -999.2500:
UWI. F10592:
~C
DEPT.M :
GR.API :
RML.OHMM :
RI. :
RXO.OHMM :
CALI.CM :
DEN.GM/CC :
SP.MV :
~A
# ...
  136.7500    49.7040    17.3030    16.2790    12.5850    23.3570     2.4140    -0.6090 
  136.8750    51.3240    17.0390    16.0160    12.2940    23.3950     2.4200    -0.4830 
  137.0000    52.8430    16.9550    15.8990    12.8390    23.4670     2.4310    -0.3630 
  137.1250    52.1200    17.1400    15.9960    13.4030    23.4870     2.4430    -0.2840 
  137.2500    50.9070    17.6060    16.3140    13.9800    23.4540     2.4500    -0.2020 
  137.3750    52.5790    18.2740    16.8110    15.0790    23.4330     2.4520    -0.1060 
  137.5000    54.8450    18.9170    17.3350    16.7270    23.4090     2.4490    -0.0470 
  137.6250    55.1200    19.3630    17.7530    17.0010    23.3670     2.4430    -0.0240 
  137.7500    53.6230    19.5230    17.9600    16.0680    23.3390     2.4310     0.0100 
  137.8750    53.0180    19.3800    17.8900    15.4370    23.3580     2.4150     0.0340 
  138.0000    52.9340    19.0930    17.6610    15.4250    23.4310     2.4030     0.0220 
  138.1250    53.5900    18.7770    17.3860    15.5070    23.5090     2.4020     0.0090 
  138.2500    55.8140    18.5190    17.1620    15.4880    23.5180     2.4140     0.0150 
  138.3750    57.5020    18.3790    17.0460    14.9750    23.4250     2.4340    -0.0130 
  138.5000    56.4210    18.3330    17.0000    14.6400    23.3240     2.4510    -0.0590 
  138.6250    53.6480    18.3330    16.9840    14.8400    23.2660     2.4590    -0.0780 
  138.7500    52.1680    18.3200    16.9610    15.4430    23.2410     2.4590    -0.0900 
  138.8750    52.2990    18.2370    16.9080    15.2520    23.2090     2.4540    -0.1560 
  139.0000    51.8500    18.1120    16.8370    14.5520    23.1620     2.4480    -0.2440 
  139.1250    51.4330    17.9980    16.7650    13.8570    23.1590     2.4430    -0.3080 
  139.2500    52.3960    17.9470    16.7180    13.4000    23.2130     2.4370    -0.3660 
  139.3750    54.4390    17.9930    16.7300    13.2050    23.3280     2.4310    -0.4660 
  139.5000    54.1320    18.1160    16.8160    13.4720    23.4460     2.4280    -0.5590 
  139.6250    52.3790    18.3080    16.9850    14.3330    23.5960     2.4270    -0.6300 
  139.7500    52.0440    18.5610    17.2250    15.6070    23.7540     2.4290    -0.7220 
  139.8750    53.1510    18.8510    17.4990    16.1910    23.8250     2.4320    -0.8080 
  140.0000    53.1050    19.1100    17.7540    16.7400    23.8210     2.4340    -0.8290 
  140.1250    52.7350    19.2880    17.9570    16.9610    23.7830     2.4360    -0.8510 
  140.2500    54.2830    19.3860    18.1100    16.8930    23.7490     2.4420    -0.9000 
  140.3750    55.7260    19.4720    18.2470    16.6690    23.6930     2.4500    -0.8750 
  140.5000    54.6400    19.6230    18.4050    16.0680    23.6000     2.4580    -0.8280 
  140.6250    52.0080    19.8320    18.5790    15.3840    23.5180     2.4610    -0.8180 
  140.7500    50.0370    20.0090    18.7160    15.0750    23.4820     2.4580    -0.7800 
  140.8750    49.4740    19.9900    18.6980    15.7560    23.4750     2.4520    -0.7100 
  141.0000    49.6440    19.7330    18.4770    16.3890    23.4560     2.4450    -0.6860 
  141.1250    50.7640    19.2750    18.0580    15.2470    23.4000     2.4390    -0.6760 
  141.2500    52.0170    18.7110    17.5140    13.5900    23.3170     2.4340    -0.6470 
  141.3750    52.7290    18.1380    16.9430    13.4320    23.1800     2.4300    -0.6320 
  141.5000    52.1120    17.5950    16.4130    14.0550    23.0460     2.4270    -0.6230 
  141.6250    49.9820    17.0850    15.9410    14.2370    22.9310     2.4260    -0.6240 
  141.7500    47.8740    16.6190    15.5250    13.4530    22.8540     2.4290    -0.6550 
  141.8750    47.1380    16.2310    15.1780    12.4580    22.7920     2.4340    -0.6730 
  142.0000    48.2150    15.9290    14.9020    11.8000    22.7600     2.4410    -0.6860 
  142.1250    49.9600    15.7130    14.7060    11.7290    22.8360     2.4490    -0.7030 
  142.2500    50.5240    15.5680    14.5860    12.1890    23.0930     2.4560    -0.7110 
  142.3750    49.4790    15.4790    14.5170    12.9020    23.4680     2.4600    -0.7620 
  142.5000    48.0090    15.4150    14.4550    13.3460    23.7800     2.4600    -0.8220 
  142.6250    47.8870    15.3530    14.3800    13.4980    23.9240     2.4550    -0.8260 
  142.7500    49.8000    15.2650    14.2850    13.5750    23.9570     2.4480    -0.8040 
  142.8750    52.0180    15.1430    14.1750    13.3450    23.9240     2.4450    -0.8490 
  143.0000    53.9440    15.0310    14.0750    13.3840    23.8600     2.4470    -0.9050 
  143.1250    54.7460    14.9860    14.0090    13.5290    23.7850     2.4540    -0.9300 
  143.2500    53.0920    15.0470    14.0010    13.3790    23.7090     2.4590    -0.9950 
  143.3750    51.0370    15.2200    14.0740    13.2080    23.6650     2.4580    -1.0740 
  143.5000    50.6360    15.4180    14.1940    13.3800    23.6640     2.4530    -1.1390 
  143.6250    51.1080    15.5560    14.3050    14.1360    23.7490     2.4470    -1.1990 
  143.7500    50.0070    15.5640    14.3330    14.5460    23.9170     2.4440    -1.2710 
  143.8750    48.2710    15.3790    14.1930    14.4630    24.0870     2.4460    -1.3180 
  144.0000    48.5870    15.0530    13.9170    13.9320    24.1190     2.4510    -1.3110 
  144.1250    49.5710    14.6480    13.5740    13.2230    24.0230     2.4560    -1.3040 
  144.2500    49.9970    14.2650    13.2600    12.8920    23.8030     2.4610    -1.2910 
  144.3750    50.1870    14.0430    13.0850    13.1450    23.5790     2.4650    -1.2450 
  144.5000    51.6260    14.0350    13.0660    13.3430    23.4380     2.4670    -1.1750 
  144.6250    53.7340    14.2250    13.1860    12.7790    23.3630     2.4660    -1.1330 
  144.7500    53.1840    14.5100    13.3830    12.6930    23.3310     2.4630    -1.1330 
  144.8750    49.7450    14.7050    13.5540    12.5500    23.3250     2.4560    -1.1250 
  145.0000    47.5880    14.7030    13.6100    12.4610    23.3060     2.4490    -1.1220 
  145.1250    47.6600    14.5020    13.5240    12.6630    23.2450     2.4470    -1.1370 
  145.2500    47.3720    14.1820    13.3170    12.7140    23.1520     2.4540    -1.1650 
  145.3750    46.8430    13.8410    13.0420    11.7840    23.1140     2.4710    -1.1890 
  145.5000    48.4140    13.5380    12.7640    11.0850    23.1550     2.4910    -1.2360 
  145.6250    51.0820    13.2700    12.5000    11.0460    23.2030     2.5050    -1.3210 
  145.7500    53.1340    13.0230    12.2490    11.4450    23.3270     2.5070    -1.3740 
  145.8750    53.4600    12.7960    12.0150    11.0810    23.5950     2.4950    -1.4390 
  146.0000    52.6930    12.6060    11.8200    10.6390    23.9010     2.4770    -1.5640 
  146.1250    51.7770    12.4900    11.7110    10.5650    24.0370     2.4600    -1.6850 
  146.2500    51.8860    12.5000    11.7380    10.8820    24.0430     2.4470    -1.7660 
  146.3750    51.8380    12.7300    11.9650    11.4350    24.0080     2.4390    -1.8870 
  146.5000    51.1780    13.1590    12.3570    11.9480    23.9960     2.4340    -2.0200 
  146.6250    51.3090    13.7180    12.8550    12.5370    23.9940     2.4340    -2.0990 
  146.7500    52.4500    14.2750    13.3740    12.8540    23.9920     2.4380    -2.1890 
  146.8750    51.8040    14.6530    13.7990    13.2530    23.9860     2.4460    -2.3040 
  147.0000    49.3230    14.8100    14.0810    13.4790    23.9790     2.4540    -2.3790 
  147.1250    48.0520    14.7940    14.2190    13.4680    23.9690     2.4580    -2.4400 
  147.2500    49.8120    14.7200    14.2580    13.4100    23.9550     2.4580    -2.5380 
  147.3750    51.4480    14.7110    14.2670    13.2760    23.9300     2.4540    -2.6440 
  147.5000    51.3950    14.7680    14.2780    13.2910    23.9080     2.4510    -2.7560 
  147.6250    52.1950    14.7830    14.2450    13.7840    23.8750     2.4520    -2.8810 
  147.7500    55.0500    14.6090    14.0770    14.1590    23.8410     2.4520    -2.9980 
  147.8750    57.8110    14.1190    13.6780    14.7510    23.8880     2.4480    -3.1230 
