~V
VERS. 2.00: Ver 2.00
~W
STRT.M 60.0000:
STOP.M 200.0000:
STEP.M 0.1250:
NULL. -999.2500:
UWI. F10576:
~C
DEPT.M :
GR.API :
RML.OHMM :
RI. :
RXO.OHMM :
CALI.CM :
DEN.GM/CC :
SP.MV :
~A
# ...
  183.7500    47.4670     5.8050     5.0870     5.4960    23.9210     2.4120   -31.4880 
  183.8750    46.3610     5.6860     4.9370     5.2240    23.9200     2.3930   -31.0160 
  184.0000    44.6780     5.6410     4.8260     5.0610    23.9430     2.3870   -30.6950 
  184.1250    44.5310     5.6840     4.7750     5.1310    24.0100     2.3980   -30.5160 
  184.2500    47.4620     5.7690     4.7730     5.2670    24.1080     2.4110   -30.3500 
  184.3750    51.8080     5.8470     4.8050     5.4190    24.2030     2.4110   -30.2110 
  184.5000    53.2730     5.8790     4.8540     5.3160    24.2850     2.3900   -30.1450 
  184.6250    50.4420     5.8590     4.8980     5.0740    24.3590     2.3540   -30.1020 
  184.7500    47.2070     5.8170     4.9270     4.8960    24.3840     2.3190   -30.0660 
  184.8750    47.0240     5.7670     4.9400     4.8500    24.4360     2.2980   -29.9930 
  185.0000    49.0700     5.7130     4.9350     4.8210    24.3700     2.2990   -29.9190 
  185.1250    50.5440     5.6600     4.9050     4.8790    24.2750     2.3220   -29.9060 
  185.2500    51.3360     5.6280     4.8500     4.9590    24.0880     2.3530   -29.9530 
  185.3750    53.3570     5.6390     4.7780     4.9610    24.0000     2.3790   -30.0370 
  185.5000    57.7490     5.7080     4.7170     5.0000    23.9840     2.3930   -30.1390 
  185.6250    62.6140     5.8650     4.7300     5.0760    23.9960     2.3930   -30.3300 
  185.7500    66.5000     6.1230     4.8630     5.3420    23.9990     2.3870   -30.5600 
  185.8750    71.3460     6.5010     5.1410     5.7500    24.0210     2.3830   -30.8360 
  186.0000    77.5030     6.9890     5.5530     6.4140    24.0520     2.3800   -31.1520 
  186.1250    84.3430     7.5310     6.0480     7.7210    24.0780     2.3800   -31.3960 
  186.2500    89.6550     8.0400     6.5320     9.2120    24.0230     2.3810   -31.5610 
  186.3750    92.2840     8.4700     6.9430     9.3590    24.0080     2.3830   -31.6710 
  186.5000    91.9330     8.8010     7.2420     8.7750    24.0250     2.3870   -31.6890 
  186.6250    90.6160     8.9850     7.3750     7.9650    24.0280     2.3900   -31.5380 
  186.7500    89.9380     8.9800     7.3410     8.1070    24.0380     2.3900   -31.2770 
  186.8750    89.8970     8.7300     7.1310     8.9880    24.0550     2.3880   -30.9290 
  187.0000    88.9410     8.2350     6.7610    10.0970    24.0930     2.3860   -30.4750 
  187.1250    83.6540     7.5700     6.2840     8.0930    24.1590     2.3860   -30.0380 
  187.2500    75.2120     6.9230     5.8220     6.4670    24.1770     2.3900   -29.6660 
  187.3750    67.5420     6.4250     5.4650     5.4190    24.0200     2.3970   -29.3210 
  187.5000    64.3810     6.1600     5.2720     4.9060    23.7460     2.4040   -28.9980 
  187.6250    64.6470     6.1800     5.2750     4.8510    23.2110     2.4110   -28.7280 
  187.7500    64.7210     6.3690     5.3880     5.0500    22.3250     2.4190   -28.5190 
  187.8750    64.5690     6.5960     5.5160     5.1610    21.2950     2.4280   -28.3370 
  188.0000    65.9330     6.7160     5.5680     5.2980    20.6570     2.4370   -28.1490 
  188.1250    68.6080     6.6180     5.4740     5.3780    20.6910     2.4390   -27.9200 
  188.2500    69.1880     6.3690     5.2760     5.2780    20.9910     2.4340   -27.6400 
  188.3750    67.5390     6.0580     5.0340     4.7850    21.4160     2.4260   -27.3130 
  188.5000    65.1390     5.7660     4.8050     4.5800    21.9190     2.4200   -27.0080 
  188.6250    63.5570     5.5460     4.6350     4.4820    22.3010     2.4250   -26.7260 
  188.7500    63.6130     5.4030     4.5210     4.5400    22.7300     2.4360   -26.4530 
  188.8750    65.5530     5.3320     4.4580     4.5090    23.1490     2.4460   -26.2110 
  189.0000    67.6480     5.3050     4.4340     4.4290    23.4380     2.4440   -26.0310 
  189.1250    66.5670     5.2820     4.4430     4.3310    23.5870     2.4230   -25.9060 
  189.2500    65.1880     5.2420     4.4720     4.2710    23.6420     2.3940   -25.7990 
  189.3750    64.9140     5.2080     4.5130     4.3260    23.6630     2.3720   -25.6840 
  189.5000    64.9140     5.2170     4.5590     4.4130    23.6700     2.3750   -25.5490 
  189.6250    64.9140     5.2950     4.5950     4.6400    23.6720     2.4080   -25.4380 
  189.7500    64.9140     5.3980     4.6030     5.5000    23.6710     2.4540   -25.3420 
  189.8750    64.9140     5.4730     4.5690     6.9050    23.6740     2.4920   -25.2550 
  190.0000    64.9140     5.4800     4.4910     6.6760    23.7020     2.5110   -25.1590 
  190.1250    64.9140     5.3990     4.3850     5.2180    23.7760     2.5090   -25.0560 
  190.2500    64.9140     5.2690     4.2820     4.4820    23.8590     2.4930   -24.9630 
  190.3750    64.9140     5.1270     4.2020     4.3490    23.8940     2.4660   -24.9480 
  190.5000    64.9140     5.0180     4.1540     4.4270    23.8850     2.4280   -24.9570 
  190.6250    64.9140     5.0090     4.1480     4.5330    23.7890     2.3870   -24.9800 
  190.7500    64.9140     5.1220     4.1860     4.5840    23.7040     2.3590   -25.0270 
  190.8750    64.9140     5.3560     4.2790     4.7650    23.6580     2.3570   -25.0560 
  191.0000    64.9140     5.6850     4.4420     5.3150    23.5990     2.3790   -25.0850 
  191.1250    64.9140     6.0660     4.6930     5.6640    23.4370     2.4120   -25.1250 
  191.2500    64.9140     6.4300     5.0000     5.6720    23.2170     2.4390   -25.2040 
  191.3750    64.9140     6.7200     5.3150     6.0290    23.0690     2.4560   -25.2650 
  191.5000    64.9140     6.8810     5.5700     6.5280    23.0410     2.4650   -25.3360 
  191.6250    64.9140     6.8570     5.6720     6.6600    23.1920     2.4680   -25.4040 
  191.7500    64.9140     6.6960     5.6260     6.2550    23.4340     2.4670   -25.4360 
  191.8750    64.9140     6.4610     5.4750     5.7380    23.6300     2.4630   -25.4780 
  192.0000    64.9140     6.2370     5.3000     5.3290    23.7940     2.4570   -25.5680 
  192.1250    64.9140     6.1330     5.2000     5.4740    23.8230     2.4540   -25.6760 
  192.2500    64.9140     6.1840     5.2130     5.9780    23.6160     2.4550   -25.7540 
  192.3750    64.9140     6.3860     5.3350     6.5040    23.4650     2.4580   -25.8320 
  192.5000    64.9140     6.6860     5.5290     6.7020    23.4200     2.4620   -25.9220 
  192.6250    64.9140     6.9790     5.7320     6.6070    23.4200     2.4640   -26.0250 
  192.7500    64.9140     7.1660     5.8770     6.6110    23.4200     2.4630   -26.1170 
  192.8750    64.9140     7.2140     5.9360     6.8440    23.4200     2.4590   -26.1950 
  193.0000    64.9140     7.1480     5.9140     6.7000    23.4200     2.4470   -26.2270 
  193.1250    64.9140     7.0290     5.8440     6.1000    23.4160     2.4260   -26.2540 
  193.2500    64.9140     6.9240     5.7700     5.6770    23.4090     2.4040   -26.3000 
  193.3750    64.9140     6.8480     5.7040     5.9770    23.4030     2.3890   -26.3370 
  193.5000    64.9140     6.7930     5.6390     6.4150    23.4010     2.3850   -26.3370 
  193.6250    64.9140     6.7370     5.5650     6.0860    23.4190     2.3940   -26.2690 
  193.7500    64.9140     6.6690     5.4930     5.4040    23.4550     2.4090   -26.1750 
  193.8750    64.9140     6.5940     5.4370     5.0020    23.5180     2.4220   -26.0800 
  194.0000    64.9140     6.5230     5.4080     4.9480    23.5810     2.4290   -25.9700 
  194.1250    64.9140     6.4840     5.4040     5.0920    23.5530     2.4270   -25.8410 
  194.2500    64.9140     6.4890     5.4040     5.2080    23.4760     2.4210   -25.7140 
  194.3750    64.9140     6.5360     5.3930     5.2390    23.4340     2.4160   -25.5920 
  194.5000    64.9140     6.6030     5.3660     5.3930    23.4280     2.4140   -25.4760 
  194.6250    64.9140     6.6590     5.3290     5.3530    23.4310     2.4200   -25.3880 
  194.7500    64.9140     6.6860     5.2990     5.1580    23.4350     2.4330   -25.3230 
  194.8750    64.9140     6.6890     5.2840     4.8640    23.4350     2.4480   -25.2550 
