~V
VERS. 2.00: Ver 2.00
~W
STRT.M 58.0000:
STOP.M 214.0000:
STEP.M 0.1250:
NULL. -999.2500:
UWI. F10594:
~C
DEPT.M :
GR.API :
RML.OHMM :
RI. :
RXO.OHMM :
CALI.CM :
DEN.GM/CC :
SP.MV :
~A
# ...
  136.7500    48.8270    19.0310    15.1180    17.4730    23.7970     2.4500   -24.3770 
  136.8750    50.6340    18.6640    14.8600    15.7720    23.7020     2.4340   -24.3030 
  137.0000    53.7040    18.3810    14.6200    15.5360    23.3860     2.3990   -24.2360 
  137.1250    55.4510    18.2300    14.4680    16.2050    23.0840     2.3500   -24.1860 
  137.2500    55.5650    18.0740    14.3330    16.2500    23.0190     2.3090   -24.1540 
  137.3750    53.9910    17.7890    14.1330    16.0060    23.2230     2.2920   -24.1450 
  137.5000    51.2790    17.3300    13.8210    15.8790    23.6250     2.3060   -24.1660 
  137.6250    51.5550    16.8160    13.4450    14.9810    23.7770     2.3480   -24.2330 
  137.7500    55.2900    16.4790    13.1630    13.2310    23.6700     2.3920   -24.3390 
  137.8750    59.0990    16.4510    13.0840    12.9120    23.4050     2.4220   -24.4750 
  138.0000    58.2230    16.7200    13.2270    13.9890    23.2200     2.4330   -24.6280 
  138.1250    52.6790    17.1290    13.5140    14.8380    23.1490     2.4300   -24.7880 
  138.2500    49.8820    17.3890    13.7450    15.6520    23.1170     2.4240   -24.9430 
  138.3750    50.9270    17.2720    13.7360    15.5840    23.1040     2.4230   -25.0820 
  138.5000    51.8300    16.6830    13.3790    14.7410    23.1070     2.4310   -25.1930 
  138.6250    47.4750    15.7380    12.7030    13.3130    23.1140     2.4490   -25.2580 
  138.7500    43.6370    14.8370    11.9910    12.4390    23.1330     2.4640   -25.2770 
  138.8750    43.9720    14.2660    11.4630    11.4020    23.1610     2.4730   -25.2570 
  139.0000    45.3340    14.1990    11.2680    10.5670    23.2160     2.4660   -25.2060 
  139.1250    44.3840    14.7320    11.5180    11.0930    23.3510     2.4320   -25.1250 
  139.2500    43.8460    15.6190    12.0740    13.0970    23.6240     2.3800   -25.0260 
  139.3750    45.7290    16.6000    12.7740    14.9210    23.9680     2.3280   -24.9180 
  139.5000    47.2610    17.3870    13.4110    15.2770    24.2120     2.2940   -24.8150 
  139.6250    45.1210    17.7050    13.7620    14.2920    24.2820     2.2960   -24.7310 
  139.7500    43.1250    17.6540    13.8380    12.9410    24.1330     2.3310   -24.6670 
  139.8750    43.8000    17.4500    13.7630    12.2310    23.7340     2.3830   -24.6260 
  140.0000    45.9930    17.3450    13.7030    12.4230    23.2960     2.4270   -24.6020 
  140.1250    46.4410    17.5600    13.8210    13.1380    23.1180     2.4450   -24.5960 
  140.2500    46.2970    18.0580    14.1220    14.2960    23.0950     2.4410   -24.6000 
  140.3750    47.0450    18.7370    14.5600    15.7580    23.1260     2.4170   -24.6090 
  140.5000    47.5090    19.4400    15.0430    16.8150    23.1920     2.3840   -24.6140 
  140.6250    47.9260    19.9440    15.4330    17.3170    23.4480     2.3540   -24.6100 
  140.7500    48.2860    20.1220    15.6220    17.5720    23.9070     2.3390   -24.5980 
  140.8750    47.1160    19.9270    15.5550    17.5300    24.2820     2.3420   -24.5810 
  141.0000    45.0430    19.4170    15.2480    16.9450    24.3820     2.3620   -24.5590 
  141.1250    45.5190    18.7570    14.7900    15.9760    24.3270     2.3880   -24.5370 
  141.2500    47.0690    18.1980    14.3590    14.9590    24.2790     2.4100   -24.5210 
  141.3750    46.7860    17.9020    14.0760    14.1050    24.2260     2.4220   -24.5130 
  141.5000    46.2750    17.9440    14.0110    13.3710    24.1530     2.4220   -24.5170 
  141.6250    47.0650    18.3190    14.1950    12.8740    24.0640     2.4140   -24.5360 
  141.7500    47.1310    18.8150    14.5060    12.7570    23.9870     2.4100   -24.5620 
  141.8750    46.6070    19.2610    14.8290    13.3530    23.9490     2.4120   -24.5880 
  142.0000    47.6080    19.5600    15.0740    14.3190    23.9420     2.4190   -24.6100 
  142.1250    50.5050    19.7510    15.2320    15.3280    23.9200     2.4220   -24.6170 
  142.2500    52.1890    20.0310    15.4180    15.5850    23.8520     2.4150   -24.6060 
  142.3750    52.0920    20.5580    15.7440    15.4440    23.7460     2.4020   -24.5740 
  142.5000    51.7890    21.4010    16.2810    15.8730    23.6360     2.3890   -24.5160 
  142.6250    52.4820    22.5130    17.0370    17.8780    23.5750     2.3820   -24.4300 
  142.7500    51.7130    23.6300    17.8470    20.1750    23.5660     2.3810   -24.3210 
  142.8750    47.9250    24.5330    18.5510    21.1590    23.5930     2.3770   -24.1930 
  143.0000    44.0140    25.0890    19.0310    21.6730    23.6400     2.3660   -24.0530 
  143.1250    43.0150    25.2630    19.2300    22.5790    23.7220     2.3540   -23.9120 
  143.2500    42.5280    25.2530    19.2670    24.1500    23.8190     2.3500   -23.7820 
  143.3750    40.6440    25.1800    19.2320    20.7260    23.8590     2.3620   -23.6710 
  143.5000    39.3670    25.0880    19.1710    20.3000    23.8600     2.3870   -23.5860 
  143.6250    42.5150    24.9500    19.0740    20.6970    23.8640     2.4070   -23.5430 
  143.7500    47.8820    24.7620    18.9350    21.2450    23.8970     2.4070   -23.5390 
  143.8750    52.4010    24.5560    18.7760    21.4220    23.9530     2.3900   -23.5720 
  144.0000    52.7640    24.3600    18.6170    21.3160    23.9910     2.3720   -23.6400 
  144.1250    49.4270    24.1770    18.4720    21.0580    23.9960     2.3700   -23.7460 
  144.2500    45.9830    23.9860    18.3380    21.1830    23.9820     2.3830   -23.8820 
  144.3750    44.1840    23.7700    18.2090    21.2070    23.9280     2.4010   -24.0400 
  144.5000    44.9800    23.5270    18.0770    19.8270    23.7840     2.4110   -24.2100 
  144.6250    46.3580    23.2940    17.9450    18.4560    23.5880     2.4090   -24.3760 
  144.7500    46.0460    23.1120    17.8290    17.8830    23.3530     2.4060   -24.5270 
  144.8750    44.8810    23.0060    17.7470    16.7320    23.0010     2.4120   -24.6600 
  145.0000    45.8390    22.9870    17.7140    15.0450    22.6760     2.4280   -24.7690 
  145.1250    49.5180    23.0530    17.7430    14.0490    22.5380     2.4470   -24.8400 
  145.2500    51.3080    23.1390    17.7990    14.5030    22.6700     2.4570   -24.8700 
  145.3750    50.0610    23.1590    17.8260    15.4750    22.9040     2.4490   -24.8550 
  145.5000    47.3870    23.0190    17.7570    16.4200    23.0080     2.4240   -24.7930 
  145.6250    45.9350    22.6110    17.5080    17.1670    22.9410     2.3940   -24.6800 
  145.7500    46.3170    21.9840    17.1010    16.9640    22.8470     2.3760   -24.5360 
  145.8750    47.1830    21.2320    16.5900    16.2210    22.8380     2.3730   -24.3760 
  146.0000    46.9750    20.4960    16.0680    15.3440    22.9200     2.3820   -24.2150 
  146.1250    46.3360    19.9700    15.6690    14.8000    23.0790     2.3950   -24.0660 
  146.2500    46.7830    19.7100    15.4490    15.0170    23.2370     2.4030   -23.9290 
  146.3750    47.9920    19.6850    15.4000    15.5140    23.4330     2.4010   -23.8130 
  146.5000    49.6700    19.7710    15.4510    15.8850    23.6180     2.3930   -23.7330 
  146.6250    49.4000    19.7650    15.4670    16.2160    23.6920     2.3860   -23.7080 
  146.7500    48.7740    19.5450    15.3450    16.2580    23.7190     2.3830   -23.7250 
  146.8750    49.9840    19.1080    15.0660    16.2500    23.7410     2.3800   -23.7750 
  147.0000    51.1450    18.5560    14.6870    15.9490    23.7500     2.3730   -23.8470 
  147.1250    48.6130    18.0500    14.3110    14.9510    23.7150     2.3630   -23.9350 
  147.2500    45.3030    17.6900    14.0170    14.6210    23.6660     2.3600   -24.0330 
  147.3750    45.1130    17.4790    13.8230    15.0880    23.6300     2.3740   -24.1310 
  147.5000    46.9360    17.3540    13.6960    15.4980    23.6030     2.4020   -24.2200 
  147.6250    47.3200    17.2200    13.5780    15.1620    23.5490     2.4300   -24.2830 
  147.7500    47.5010    17.0340    13.4310    15.2380    23.5020     2.4370   -24.3180 
  147.8750    48.5100    16.8270    13.2670    14.9770    23.5050     2.4230   -24.3210 
