~V
VERS. 2.00: Ver 2.00
~W
STRT.M 58.0000:
STOP.M 208.0000:
STEP.M 0.1250:
NULL. -999.2500:
UWI. F10592:
~C
DEPT.M :
GR.API :
RML.OHMM :
RI. :
RXO.OHMM :
CALI.CM :
DEN.GM/CC :
SP.MV :
~A
# ...
  114.2500    68.8560    20.9690    19.3090    14.1100    23.5630     2.4530     1.9530 
  114.3750    60.3520    24.9300    23.1710    21.7260    23.6810     2.5240     2.1760 
  114.5000    53.9140    29.0460    27.7210    31.4110    23.7360     2.5630     2.4380 
  114.6250    52.1170    33.3690    32.2940    39.6610    23.7320     2.5690     2.7320 
  114.7500    53.3140    36.9580    36.0570    40.7340    23.6960     2.5510     3.0690 
  114.8750    54.0030    38.7570    38.1290    35.4010    23.6010     2.5360     3.4480 
  115.0000    54.7330    39.1400    38.7650    32.4170    23.4660     2.5410     3.8490 
  115.1250    57.0150    38.6660    38.4240    33.3610    23.3380     2.5600     4.2550 
  115.2500    59.5500    37.9080    37.6450    36.2920    23.2900     2.5750     4.6600 
  115.3750    58.6670    37.3620    36.9260    36.9490    23.5020     2.5650     5.0720 
  115.5000    55.7590    37.2940    36.6110    33.2300    23.9510     2.5420     5.4650 
  115.6250    54.4430    37.8360    36.8920    29.9510    24.3480     2.5280     5.8170 
  115.7500    56.3820    38.9540    37.8130    31.4920    24.3710     2.5330     6.1110 
  115.8750    59.6420    40.3890    39.2200    38.1070    24.0530     2.5450     6.3230 
  116.0000    60.5090    41.5810    40.5790    44.4500    23.9230     2.5370     6.4710 
  116.1250    58.9810    42.1350    41.4620    43.8490    24.0110     2.4960     6.5590 
  116.2500    57.4090    41.9530    41.6800    36.8580    24.2150     2.4320     6.5920 
  116.3750    58.0420    41.3140    41.3750    33.4400    24.3940     2.3770     6.5280 
  116.5000    58.2470    40.8350    41.0930    31.9830    24.4130     2.3550     6.4020 
  116.6250    55.8490    40.8510    41.1670    32.5270    24.3460     2.3670     6.2360 
  116.7500    54.3870    41.3760    41.6620    33.8700    24.2810     2.3980     6.0110 
  116.8750    56.4100    42.0650    42.3260    35.1220    24.2050     2.4270     5.7110 
  117.0000    57.6670    42.4020    42.7220    35.2930    24.1240     2.4390     5.3450 
  117.1250    56.3740    42.1340    42.6170    35.5160    24.0480     2.4310     4.9000 
  117.2500    54.9530    41.3230    42.0250    36.4840    24.0170     2.4070     4.3860 
  117.3750    54.4970    40.3570    41.2160    35.3130    24.0840     2.3800     3.8470 
  117.5000    52.5480    39.7650    40.6360    33.0910    24.2100     2.3650     3.3140 
  117.6250    51.0190    40.0140    40.5920    31.4940    24.2230     2.3740     2.7900 
  117.7500    51.5090    41.3740    41.2600    33.1000    23.9600     2.4090     2.3090 
  117.8750    51.2680    44.0580    42.7820    37.2100    23.5330     2.4640     1.9000 
  118.0000    50.7450    46.7410    44.8870    42.5810    23.2360     2.5210     1.5390 
  118.1250    52.9560    49.2780    47.2730    44.0420    23.1210     2.5650     1.2160 
  118.2500    56.2830    51.3860    49.4690    42.9340    23.1170     2.5860     0.9220 
  118.3750    55.9780    52.3970    50.7150    44.4900    23.2280     2.5740     0.6620 
  118.5000    53.0430    52.0710    50.7060    48.0060    23.4910     2.5360     0.4330 
  118.6250    52.1180    50.4800    49.4370    50.0990    23.8240     2.4810     0.2040 
  118.7500    53.5350    48.0610    47.2560    46.7770    23.9510     2.4250    -0.0440 
  118.8750    54.0170    45.4690    44.7460    37.7980    23.7360     2.3910    -0.2790 
  119.0000    52.3960    43.2780    42.5310    31.9880    23.4120     2.3850    -0.4620 
  119.1250    51.1770    41.7310    40.9160    30.5990    23.2650     2.4010    -0.5860 
  119.2500    53.3490    40.8690    39.9910    31.2980    23.3270     2.4260    -0.6680 
  119.3750    57.3880    40.6690    39.7500    32.6360    23.5260     2.4480    -0.7490 
  119.5000    58.9880    40.8440    39.9010    31.9950    23.6920     2.4610    -0.8640 
  119.6250    57.2560    41.2320    40.2860    29.1790    23.7110     2.4620    -0.9970 
  119.7500    55.7510    41.7210    40.7960    25.9680    23.5500     2.4530    -1.1330 
  119.8750    56.6880    42.2370    41.3450    26.0900    23.3290     2.4350    -1.2680 
  120.0000    58.2870    42.7080    41.8290    27.9880    23.3010     2.4190    -1.3810 
  120.1250    57.2630    43.0660    42.1770    31.9650    23.5330     2.4140    -1.4480 
  120.2500    53.3240    43.2620    42.3660    35.7100    23.7820     2.4250    -1.4880 
  120.3750    49.5960    43.2770    42.4250    37.5300    23.8130     2.4430    -1.5360 
  120.5000    48.3010    43.2170    42.4480    35.2050    23.7320     2.4490    -1.5900 
  120.6250    49.1050    43.1590    42.4790    33.9320    23.7140     2.4350    -1.5980 
  120.7500    50.0690    43.1090    42.5080    37.6940    23.8400     2.4060    -1.5510 
  120.8750    50.8850    42.9120    42.4230    40.3690    24.0100     2.3860    -1.5180 
  121.0000    52.0040    42.3990    42.0910    37.9320    24.1310     2.3940    -1.5240 
  121.1250    52.3100    41.4630    41.3860    36.4070    24.1180     2.4320    -1.5670 
  121.2500    52.3070    40.1050    40.2450    35.1520    24.0130     2.4910    -1.6070 
  121.3750    54.5130    38.3860    38.6460    32.6840    23.8910     2.5510    -1.5910 
  121.5000    57.0480    36.5230    36.8090    29.2070    23.7620     2.5990    -1.5500 
  121.6250    56.9950    34.6790    34.9230    28.3220    23.5880     2.6310    -1.5370 
  121.7500    54.0620    33.0210    33.1800    28.4420    23.4070     2.6450    -1.5170 
  121.8750    52.6120    31.7820    31.8010    25.8000    23.3180     2.6360    -1.4460 
  122.0000    53.3530    31.0020    30.8340    21.7400    23.3500     2.6070    -1.3720 
  122.1250    53.0220    30.6690    30.3060    20.2280    23.4330     2.5630    -1.3290 
  122.2500    50.9770    30.6970    30.1840    23.3220    23.5000     2.5180    -1.3540 
  122.3750    50.5040    30.9790    30.4130    25.9060    23.5340     2.4920    -1.4030 
  122.5000    52.4030    31.3450    30.7960    25.5590    23.5300     2.4910    -1.4340 
  122.6250    52.7540    31.7130    31.2090    23.2780    23.5180     2.5120    -1.4740 
  122.7500    50.3020    32.0160    31.5560    23.7000    23.4850     2.5460    -1.5750 
  122.8750    50.4430    32.1600    31.7510    23.2450    23.3590     2.5790    -1.7270 
  123.0000    52.9300    32.0980    31.7700    22.8920    23.2140     2.6040    -1.8720 
  123.1250    53.2060    31.7860    31.5640    22.8330    23.1190     2.6160    -1.9810 
  123.2500    50.7080    31.1950    31.0730    22.9940    23.0960     2.6130    -2.0410 
  123.3750    49.8470    30.2920    30.2170    22.5230    23.0820     2.5960    -2.1510 
  123.5000    50.4840    29.1910    29.1200    20.6860    23.0420     2.5740    -2.3010 
  123.6250    50.2860    28.0070    27.9250    20.0840    22.9970     2.5590    -2.4050 
  123.7500    50.6760    26.9030    26.8010    20.2640    23.0830     2.5570    -2.4690 
  123.8750    54.1660    26.1130    25.9580    19.4240    23.3450     2.5670    -2.5280 
  124.0000    55.6230    25.6840    25.4410    18.7690    23.5950     2.5790    -2.5710 
  124.1250    52.5620    25.5370    25.2020    19.0840    23.7140     2.5830    -2.6050 
  124.2500    49.0850    25.4850    25.0990    21.2340    23.7980     2.5720    -2.6660 
  124.3750    49.8420    25.3070    24.9330    21.7830    23.9380     2.5460    -2.7140 
  124.5000    51.4590    24.9760    24.6160    22.4970    24.1400     2.5150    -2.7030 
  124.6250    51.1070    24.6070    24.2100    21.3000    24.2670     2.4910    -2.6880 
  124.7500    49.7220    24.3730    23.8660    19.8690    24.2620     2.4820    -2.6860 
  124.8750    49.7760    24.4610    23.7980    19.1400    24.1810     2.4930    -2.6890 
  125.0000    51.3440    24.8730    24.0580    19.7430    24.0760     2.5140    -2.7260 
  125.1250    53.7510    25.6030    24.6510    22.4670    24.0160     2.5420    -2.7770 
  125.2500    54.8520    26.6290    25.5350    26.4590    23.9550     2.5770    -2.7850 
  125.3750    53.9400    27.9220    26.6520    25.2940    23.8580     2.6170    -2.7670 
