~V
VERS. 2.00: Ver 2.00
~W
STRT.M 40.0000:
STOP.M 191.0000:
STEP.M 0.1250:
NULL. -999.2500:
UWI. F10585:
~C
DEPT.M :
DEN.GM/CC :
SP.MV :
GR.API :
RML.OHMM :
RI. :
RXO.OHMM :
CALI.CM :
~A
# ...
  107.5000     2.0730    -4.4920    71.9560    73.3380    56.3170    54.4800    24.4460 
  107.6250     2.0750    -4.4330    68.5520    71.7420    55.5560    55.5420    24.4470 
  107.7500     2.0860    -4.4040    65.2490    69.5750    54.5370    55.9870    24.4400 
  107.8750     2.1020    -4.4170    64.8660    66.8130    53.1800    56.0600    24.4000 
  108.0000     2.1190    -4.4200    65.9060    63.7080    51.5700    55.9250    24.3030 
  108.1250     2.1200    -4.3810    65.6620    60.7490    49.9710    53.3490    24.2290 
  108.2500     2.1070    -4.3570    66.7370    58.4330    48.7170    48.3840    24.3270 
  108.3750     2.0920    -4.3700    70.8250    57.1480    48.1080    45.6820    24.4880 
  108.5000     2.0880    -4.3790    74.3740    57.0800    48.3700    47.5260    24.5750 
  108.6250     2.0920    -4.3600    74.0410    58.5010    49.7080    48.6870    24.5960 
  108.7500     2.0920    -4.3250    73.4090    61.1490    51.8260    49.4150    24.6190 
  108.8750     2.0900    -4.2900    74.0820    64.8080    54.4460    52.6530    24.6450 
  109.0000     2.0870    -4.2650    74.3030    69.0010    57.1900    56.5270    24.6570 
  109.1250     2.0860    -4.2420    72.9700    72.9190    59.6150    60.3000    24.6580 
  109.2500     2.0840    -4.2320    71.2600    75.9000    61.5250    62.0430    24.6550 
  109.3750     2.0830    -4.2310    70.0080    77.6080    62.8560    63.9490    24.6410 
  109.5000     2.0860    -4.2480    68.6950    78.0570    63.5890    65.4980    24.6110 
  109.6250     2.0900    -4.2980    68.3940    77.3140    63.5890    65.9930    24.5930 
  109.7500     2.0920    -4.3370    69.1920    75.5470    62.9800    64.6830    24.5870 
  109.8750     2.0890    -4.3570    69.8350    72.6600    61.8060    64.4070    24.5870 
  110.0000     2.0820    -4.3900    70.1550    68.8670    60.1560    62.0780    24.5880 
  110.1250     2.0760    -4.4710    71.7820    64.8010    58.2140    56.3290    24.5890 
  110.2500     2.0730    -4.5280    74.7660    61.2740    56.3180    51.4830    24.5870 
  110.3750     2.0710    -4.5480    76.7960    58.6900    54.6720    50.5740    24.5870 
  110.5000     2.0670    -4.5620    77.2950    57.1120    53.3250    51.4060    24.5880 
  110.6250     2.0620    -4.5960    78.2250    56.3110    52.2040    52.6230    24.5890 
  110.7500     2.0580    -4.6390    79.6910    55.5740    51.0820    52.8170    24.5870 
  110.8750     2.0570    -4.6500    80.1600    54.4490    49.8250    50.8740    24.5860 
  111.0000     2.0620    -4.6300    79.4790    52.7800    48.4460    48.9270    24.5860 
  111.1250     2.0740    -4.5870    79.0910    50.7160    47.1480    46.9580    24.5750 
  111.2500     2.0890    -4.5670    78.3310    48.8060    46.1240    45.8240    24.5490 
  111.3750     2.1090    -4.5610    76.6030    47.5370    45.5390    44.5100    24.5210 
  111.5000     2.1410    -4.5220    74.1040    47.2760    45.5800    44.3130    24.4880 
  111.6250     2.1920    -4.4460    73.2320    48.4350    46.6040    44.3920    24.3680 
  111.7500     2.2440    -4.3910    72.5080    50.8260    48.6200    45.3050    24.1540 
  111.8750     2.2740    -4.3780    69.3380    54.1960    51.6050    48.1010    23.9720 
  112.0000     2.2890    -4.3770    64.1210    57.9360    55.2490    57.1430    23.8950 
  112.1250     2.3190    -4.3560    62.7850    60.9380    58.6800    63.9870    23.8850 
  112.2500     2.3590    -4.3140    67.0670    62.3960    60.7880    61.9810    23.8660 
  112.3750     2.3720    -4.2760    73.0430    61.8520    60.8470    56.3040    23.8200 
  112.5000     2.3460    -4.2620    75.5460    59.3490    58.7920    48.5620    23.7690 
  112.6250     2.3130    -4.2490    73.2020    55.4850    55.1390    42.4690    23.7480 
  112.7500     2.2990    -4.2200    69.7640    51.6090    51.2370    39.4080    23.7440 
  112.8750     2.3060    -4.2100    66.4780    48.7770    48.0920    37.5220    23.7440 
  113.0000     2.3240    -4.2210    65.5190    47.9490    46.6200    36.1670    23.7440 
  113.1250     2.3440    -4.2540    68.5090    50.1770    47.9370    35.8070    23.7080 
  113.2500     2.3680    -4.3040    70.2880    54.7560    51.6900    39.1000    23.5810 
  113.3750     2.4100    -4.3780    67.3160    60.3730    56.9510    51.6990    23.3680 
  113.5000     2.4650    -4.4850    62.8620    64.7740    61.6950    80.6780    23.2270 
  113.6250     2.4800    -4.6300    64.3270    64.8270    62.5610    85.6530    23.1890 
  113.7500     2.4390    -4.7630    69.1640    60.9090    59.2570    60.8070    23.2060 
  113.8750     2.3760    -4.8420    72.6220    55.3130    53.7350    40.2810    23.2650 
  114.0000     2.3290    -4.9080    73.4650    50.7550    48.7000    35.4400    23.3740 
  114.1250     2.3020    -4.9930    74.5130    49.4480    46.5300    35.7600    23.4730 
  114.2500     2.2600    -5.0910    73.9380    51.2430    47.3910    40.9180    23.6050 
  114.3750     2.1900    -5.1710    70.1820    55.3800    50.7690    56.1470    23.8140 
  114.5000     2.1120    -5.2080    66.2950    60.1850    55.1640    66.3740    24.1150 
  114.6250     2.0650    -5.2360    65.3190    62.8670    57.8700    63.8280    24.2670 
  114.7500     2.0530    -5.2970    65.5600    62.2110    57.5960    59.3630    24.2160 
  114.8750     2.0660    -5.3770    64.9220    58.7940    54.8330    53.5090    24.0090 
  115.0000     2.0870    -5.4540    65.3950    54.4140    51.1250    46.5190    23.8210 
  115.1250     2.0960    -5.5300    67.9860    51.2280    48.2370    40.3230    23.7540 
  115.2500     2.0890    -5.6130    68.9990    50.0150    46.9070    37.9150    23.7440 
  115.3750     2.0790    -5.6960    68.2040    50.6530    47.1900    39.9300    23.7490 
  115.5000     2.0790    -5.7790    67.0830    52.5630    48.6660    42.6340    23.7960 
  115.6250     2.0940    -5.8430    66.6160    54.9920    50.5830    45.7720    23.9700 
  115.7500     2.1160    -5.9110    66.0990    56.9910    52.0110    48.3900    24.2410 
  115.8750     2.1420    -6.0280    65.2160    57.7530    52.3110    49.3810    24.4500 
  116.0000     2.1770    -6.1650    65.7780    56.4840    50.9270    48.9900    24.4960 
  116.1250     2.2340    -6.2920    68.7800    52.3940    47.2070    45.6390    24.3570 
  116.2500     2.2950    -6.4190    71.7070    46.6030    42.0460    40.6400    24.1900 
  116.3750     2.3420    -6.5780    72.5940    40.5430    36.6530    34.7910    24.0670 
  116.5000     2.3790    -6.7640    72.7360    35.6310    32.2380    29.9480    24.0150 
  116.6250     2.4290    -6.9460    75.5540    33.0300    29.9670    30.7110    23.9960 
  116.7500     2.4900    -7.1250    77.9290    32.5010    29.8460    39.0530    23.9710 
  116.8750     2.5370    -7.2860    75.0470    33.8290    31.7760    48.3670    23.9600 
  117.0000     2.5570    -7.4250    68.7980    36.7890    35.4610    51.2690    23.9590 
  117.1250     2.5610    -7.5230    65.9800    41.1640    40.4150    49.4770    23.9590 
  117.2500     2.5650    -7.5750    65.2120    45.4960    44.9750    48.3780    23.9570 
  117.3750     2.5730    -7.5810    62.5160    47.5270    46.8790    50.9750    23.9550 
  117.5000     2.5780    -7.5730    60.9440    44.8700    44.0080    55.2720    23.9540 
  117.6250     2.5660    -7.5750    64.8680    36.7010    35.9450    53.6760    23.9510 
  117.7500     2.5330    -7.5340    70.3970    26.9190    26.5320    37.2900    23.9520 
  117.8750     2.4790    -7.4330    76.0410    18.4290    18.4070    18.0590    23.9700 
  118.0000     2.4120    -7.3300    84.3270    11.3840    12.6530     9.0210    24.0230 
  118.1250     2.3490    -7.2770    95.2960     8.5080     9.3540     7.5050    24.1120 
  118.2500     2.3030    -7.2670   102.2800     7.0490     7.4920     7.1400    24.1510 
  118.3750     2.2770    -7.2610   103.5150     6.4770     6.6100     6.5620    24.1600 
  118.5000     2.2670    -7.2640   102.7520     6.4360     6.4000     6.1170    24.1580 
  118.6250     2.2740    -7.3070   103.1430     6.7050     6.6530     6.1410    24.1570 
