~V
VERS. 2.00: Ver 2.00
~W
STRT.M 50.0000:
STOP.M 198.0000:
STEP.M 0.1250:
NULL. -999.2500:
UWI. F10574:
~C
DEPT.M :
DEN.GM/CC :
SP.MV :
GR.API :
RML.OHMM :
RI. :
RXO.OHMM :
CALI.CM :
~A
# ...
   95.0000     2.2810   -20.1900    81.8690     9.0140     8.2940     9.6340    24.6700 
   95.1250     2.2990   -20.0210    80.4870     8.6070     8.0610     7.9070    24.6630 
   95.2500     2.3080   -19.8000    82.9270     8.2030     7.7420     6.6000    24.6320 
   95.3750     2.3080   -19.5690    84.2880     7.9180     7.4330     6.1340    24.5750 
   95.5000     2.3060   -19.3790    81.7730     7.7710     7.1940     6.2450    24.5340 
   95.6250     2.3130   -19.2020    80.8890     7.6880     7.0350     6.1380    24.5180 
   95.7500     2.3250   -19.0150    85.4390     7.5290     6.8810     5.9950    24.5160 
   95.8750     2.3360   -18.8290    91.1590     7.2130     6.6630     6.0020    24.5120 
   96.0000     2.3400   -18.6650    94.2940     6.7790     6.3560     5.9860    24.4990 
   96.1250     2.3380   -18.5230    94.8930     6.4430     6.0420     5.6950    24.4440 
   96.2500     2.3320   -18.3870    94.2880     6.4490     5.8970     5.3610    24.3420 
   96.3750     2.3170   -18.2190    92.4770     7.0100     6.0990     5.2690    24.2070 
   96.5000     2.2850   -18.0240    89.5410     8.3410     6.8410     5.8040    24.1070 
   96.6250     2.2350   -17.8440    84.7620    10.8010     8.4860     8.3470    24.0900 
   96.7500     2.1860   -17.6790    77.9540    14.2200    11.0570    14.2340    24.1940 
   96.8750     2.1520   -17.5140    71.8800    18.1650    14.4030    20.6450    24.5100 
   97.0000     2.1380   -17.3460    69.5700    21.6950    17.8440    21.7300    25.0060 
   97.1250     2.1360   -17.2090    69.0810    23.2980    19.8830    20.5430    25.4900 
   97.2500     2.1360   -17.1230    68.4530    22.8520    19.9960    19.7250    25.8260 
   97.3750     2.1390   -17.0790    68.2670    21.1430    18.7490    19.2060    25.9820 
   97.5000     2.1490   -17.0290    69.6500    19.3580    17.2000    18.3070    26.0220 
   97.6250     2.1610   -16.9620    72.3540    18.6650    16.3230    17.4160    26.0280 
   97.7500     2.1670   -16.9100    74.7490    19.5310    16.5060    16.7720    26.0620 
   97.8750     2.1620   -16.8850    74.5810    22.4130    18.1230    18.4600    26.1470 
   98.0000     2.1520   -16.8640    70.2280    27.7250    21.6350    24.9350    26.2620 
   98.1250     2.1440   -16.8000    64.4520    36.1180    27.9190    41.7750    26.3160 
   98.2500     2.1430   -16.7330    58.6880    46.6150    36.4930    55.5650    26.3310 
   98.3750     2.1480   -16.7070    52.8030    57.5830    46.1010    59.3660    26.3310 
   98.5000     2.1510   -16.7300    48.0550    66.4880    54.3510    58.4640    26.3220 
   98.6250     2.1440   -16.7850    49.2430    70.6330    58.4680    56.4010    26.2970 
   98.7500     2.1340   -16.8550    53.6000    71.2890    59.3160    54.9310    26.2680 
   98.8750     2.1300   -16.9710    56.2950    70.2820    58.4950    54.4740    26.2560 
   99.0000     2.1320   -17.1390    57.3230    68.8980    57.2550    54.5730    26.2540 
   99.1250     2.1340   -17.2990    57.5300    67.5830    56.0820    54.2130    26.2500 
   99.2500     2.1320   -17.4160    56.2170    66.2860    54.9330    54.5530    26.2330 
   99.3750     2.1250   -17.5110    54.0940    64.9220    53.6920    54.0770    26.2020 
   99.5000     2.1150   -17.6020    53.5570    63.5190    52.3510    51.6530    26.1780 
   99.6250     2.1110   -17.6740    55.7280    62.2680    51.0970    48.6040    26.1450 
   99.7500     2.1150   -17.7120    58.6400    61.2080    50.0900    46.5200    26.0600 
   99.8750     2.1260   -17.7090    61.1160    60.1040    49.2580    45.9730    25.9320 
  100.0000     2.1410   -17.7060    61.3080    58.5110    48.2720    46.2040    25.9330 
  100.1250     2.1600   -17.7260    60.7400    55.9450    46.6710    46.6410    26.2010 
  100.2500     2.1830   -17.7150    62.2240    52.7940    44.5650    44.7480    26.4480 
  100.3750     2.2120   -17.6590    62.9350    49.7910    42.3950    40.6770    26.5430 
  100.5000     2.2470   -17.5840    62.4630    47.7820    40.7470    36.6460    26.5540 
  100.6250     2.2660   -17.4940    63.3850    47.6610    40.3320    36.0560    26.5530 
  100.7500     2.2460   -17.3640    63.2230    49.2210    41.1780    40.9060    26.5370 
  100.8750     2.1970   -17.1800    59.8980    52.0230    43.0980    47.6040    26.4820 
  101.0000     2.1510   -16.9490    56.7710    55.2350    45.5720    51.5850    26.3590 
  101.1250     2.1310   -16.7450    58.7070    57.4610    47.6310    51.4560    26.2230 
  101.2500     2.1250   -16.5890    60.9230    57.7450    48.4000    50.9740    26.0830 
  101.3750     2.1240   -16.4430    61.3710    55.7400    47.4650    49.9330    25.9910 
  101.5000     2.1270   -16.2720    60.3570    51.8460    44.9820    47.3230    25.9530 
  101.6250     2.1360   -16.1440    58.8140    46.9400    41.5190    42.7510    25.9450 
  101.7500     2.1430   -16.1130    58.4070    42.1650    37.9820    39.6450    25.9400 
  101.8750     2.1450   -16.1470    60.4440    38.0460    34.8060    37.3060    25.9100 
  102.0000     2.1420   -16.1740    62.8660    34.7330    32.1730    32.8630    25.8340 
  102.1250     2.1340   -16.1820    63.9000    32.1820    30.0900    29.8200    25.7270 
  102.2500     2.1280   -16.1900    63.6630    29.9320    28.1990    27.8200    25.6210 
  102.3750     2.1300   -16.1930    63.3850    27.5730    26.1330    26.1150    25.5130 
  102.5000     2.1410   -16.1740    64.2300    24.7160    23.5540    23.1920    25.3840 
  102.6250     2.1630   -16.0950    65.3880    21.1530    20.3090    19.6150    25.1630 
  102.7500     2.1920   -15.9700    67.2870    17.3450    16.8540    16.4560    24.8750 
  102.8750     2.2260   -15.8540    71.1070    13.8160    13.6620    12.6500    24.5050 
  103.0000     2.2550   -15.7470    77.2300    10.9870    11.0890     8.5370    24.0530 
  103.1250     2.2670   -15.5810    81.9700     9.1980     9.4000     6.9370    23.6690 
  103.2500     2.2630   -15.3960    81.6940     8.2360     8.4260     6.5810    23.5280 
  103.3750     2.2510   -15.2390    77.9660     7.9330     8.0560     6.9000    23.5760 
  103.5000     2.2460   -15.1120    73.3660     8.0920     8.1470     7.5940    23.7380 
  103.6250     2.2580   -14.9630    72.2380     8.5240     8.5430     8.6890    23.8140 
  103.7500     2.2760   -14.7370    76.5800     8.9620     8.9870     9.5570    23.7800 
  103.8750     2.2840   -14.4520    80.8480     9.2470     9.3290     9.7160    23.5820 
  104.0000     2.2770   -14.1660    80.4300     9.3030     9.4940     9.1480    23.2250 
  104.1250     2.2650   -13.9360    80.9970     9.1260     9.4600     8.3770    22.9720 
  104.2500     2.2610   -13.7450    86.4570     8.8610     9.3060     7.6910    22.8820 
  104.3750     2.2660   -13.6180    91.6820     8.6070     9.0860     7.4270    22.8680 
  104.5000     2.2720   -13.5740    89.3930     8.4190     8.8420     7.4940    22.8790 
  104.6250     2.2670   -13.6380    83.2120     8.2980     8.5890     7.5610    23.0410 
  104.7500     2.2580   -13.7970    81.0790     8.1970     8.3450     7.3860    23.4040 
  104.8750     2.2550   -14.0010    81.5910     8.1320     8.1510     7.1160    23.7960 
  105.0000     2.2600   -14.2330    83.8660     8.1900     8.0720     6.8640    24.0110 
  105.1250     2.2600   -14.4650    86.8750     8.5520     8.2280     6.9890    24.0910 
  105.2500     2.2460   -14.6550    86.8150     9.3200     8.6920     7.5770    24.1320 
  105.3750     2.2240   -14.7520    81.5890    10.5910     9.5710     8.8060    24.1500 
  105.5000     2.2010   -14.7520    73.2540    12.3910    10.9380    11.0330    24.1730 
  105.6250     2.1850   -14.7260    67.6330    14.6450    12.8340    13.9520    24.3170 
  105.7500     2.1750   -14.7220    66.1780    16.9910    14.9610    16.9540    24.6430 
  105.8750     2.1700   -14.7170    67.7410    19.1510    16.9930    20.0780    25.0540 
  106.0000     2.1720   -14.6970    70.2010    21.0080    18.6640    22.6080    25.2920 
  106.1250     2.1780   -14.7220    69.3890    22.7600    19.9740    22.5250    25.3460 
