~V
VERS. 2.00: Ver 2.00
~W
STRT.M 58.0000:
STOP.M 215.0000:
STEP.M 0.1250:
NULL. -999.2500:
UWI. F10587:
~C
DEPT.M :
DEN.GM/CC :
GR.API :
RML.OHMM :
RI. :
RXO.OHMM :
CALI.CM :
SP.MV :
~A
# ...
  148.0000     2.2840    68.2450    13.3050     9.9360    10.9390    24.3630   -14.5960 
  148.1250     2.2630    68.8940    13.0640     9.7790    11.2930    24.3500   -14.4100 
  148.2500     2.2430    68.7920    12.9460     9.7160    11.3790    24.3680   -14.2360 
  148.3750     2.2210    68.5820    12.8420     9.6940    11.0990    24.3790   -14.1490 
  148.5000     2.2020    67.9480    12.6870     9.6590    10.6480    24.3810   -14.1200 
  148.6250     2.1980    67.2120    12.5190     9.6020    10.3730    24.3810   -14.1290 
  148.7500     2.2120    67.6520    12.4480     9.5820    10.3150    24.3810   -14.1870 
  148.8750     2.2400    71.2200    12.5360     9.6520    10.4300    24.3800   -14.2770 
  149.0000     2.2660    76.0750    12.7710     9.8280    10.6820    24.3560   -14.4010 
  149.1250     2.2750    74.5890    13.1000    10.0850    11.1630    24.2780   -14.5390 
  149.2500     2.2640    67.5590    13.4540    10.3620    11.4980    24.1700   -14.6810 
  149.3750     2.2420    60.9610    13.8080    10.6340    11.4960    24.1160   -14.8230 
  149.5000     2.2220    59.3390    14.1220    10.8720    11.2110    24.1340   -14.9740 
  149.6250     2.2260    60.9640    14.2740    10.9940    11.2090    24.1710   -15.0770 
  149.7500     2.2510    61.4590    14.2390    10.9660    11.6390    24.2080   -15.1700 
  149.8750     2.2860    62.0420    14.1090    10.8300    12.4540    24.2160   -15.2540 
  150.0000     2.3110    63.8540    14.1080    10.7220    12.7820    24.2000   -15.2490 
  150.1250     2.3140    63.1800    14.6240    10.8980    11.9510    24.1500   -15.2200 
  150.2500     2.3020    58.6010    15.8220    11.5220    11.8830    24.0920   -15.1570 
  150.3750     2.2860    53.3900    17.7050    12.6830    14.8530    24.0370   -14.9760 
  150.5000     2.2730    51.1510    19.9820    14.3020    18.8830    24.0340   -14.7420 
  150.6250     2.2590    53.8470    21.9470    16.0340    21.4440    24.0110   -14.4980 
  150.7500     2.2410    58.5310    23.0670    17.3950    21.7970    23.9600   -14.2050 
  150.8750     2.2230    61.7530    23.4230    18.2280    20.4960    23.9240   -13.9080 
  151.0000     2.2080    61.4930    23.6960    18.7990    18.1960    23.8910   -13.6930 
  151.1250     2.1960    59.7820    24.9310    19.7930    16.7310    23.8130   -13.4970 
  151.2500     2.1890    59.3760    27.3560    21.6200    18.9920    23.7200   -13.3600 
  151.3750     2.1970    58.4430    30.4330    24.1290    24.4730    23.7200   -13.3370 
  151.5000     2.2260    57.0820    32.7140    26.4110    28.6960    23.7680   -13.3510 
  151.6250     2.2760    57.0820    31.7580    26.5310    28.9170    23.7800   -13.4060 
  151.7500     2.3240    58.0550    27.7420    24.0810    25.9760    23.7350   -13.5000 
  151.8750     2.3490    58.9090    22.4230    20.0880    20.5650    23.6510   -13.5900 
  152.0000     2.3460    60.4010    17.7000    16.1000    13.9450    23.5630   -13.6620 
  152.1250     2.3200    62.5100    14.6750    13.2350    10.9990    23.5050   -13.7200 
  152.2500     2.2950    63.6250    12.9710    11.4150     9.9520    23.4170   -13.7540 
  152.3750     2.2830    64.3370    12.1880    10.3980     9.8370    23.2930   -13.7460 
  152.5000     2.2880    66.2120    11.9300     9.9170    10.0490    23.1580   -13.6990 
  152.6250     2.2920    68.6180    11.8840     9.7590    10.2370    23.0430   -13.6380 
  152.7500     2.2810    70.1980    11.9050     9.7330    10.2430    22.9280   -13.5800 
  152.8750     2.2610    72.4350    12.1440     9.8800     9.9660    22.8110   -13.5130 
  153.0000     2.2510    74.8570    12.9060    10.3750     9.6390    22.7080   -13.4240 
  153.1250     2.2750    72.0450    14.7160    11.6100    10.0490    22.6370   -13.3800 
  153.2500     2.3270    64.9350    17.6920    13.7550    11.8750    22.6340   -13.3260 
  153.3750     2.3750    58.9220    21.8530    16.9370    15.5580    22.7200   -13.2780 
  153.5000     2.3910    56.1190    26.8440    20.9970    19.6840    22.7330   -13.3200 
  153.6250     2.3730    53.0030    31.6050    25.1780    22.2960    22.4620   -13.3770 
  153.7500     2.3540    49.0960    34.9240    28.3440    22.4770    21.9800   -13.4330 
  153.8750     2.3480    46.9790    36.3060    29.8900    21.6330    21.3060   -13.5540 
  154.0000     2.3540    47.2940    36.0540    29.9050    20.5330    20.3720   -13.6930 
  154.1250     2.3620    47.9990    34.7350    28.7800    19.4590    19.2880   -13.8160 
  154.2500     2.3650    49.2430    33.0260    27.1750    18.1730    18.3430   -13.9890 
  154.3750     2.3640    49.5780    31.2180    25.4060    16.8100    17.6390   -14.1520 
  154.5000     2.3640    48.5450    29.5620    23.7490    15.6470    17.2070   -14.2780 
  154.6250     2.3610    47.3230    28.3650    22.5110    15.4170    17.2840   -14.4020 
  154.7500     2.3500    48.6330    27.7130    21.7790    16.0150    18.0320   -14.4860 
  154.8750     2.3290    52.6730    27.6230    21.5730    18.0070    19.5100   -14.5150 
  155.0000     2.3020    55.6820    28.0100    21.8380    21.0670    21.1990   -14.4800 
  155.1250     2.2770    54.2710    28.7490    22.5020    24.2220    22.5630   -14.3980 
  155.2500     2.2610    50.8740    29.5990    23.3410    26.9460    23.6870   -14.2780 
  155.3750     2.2550    50.2450    30.4160    24.2140    29.4470    24.5530   -14.1230 
  155.5000     2.2560    53.6580    31.0830    24.9930    31.1460    24.9370   -13.9240 
  155.6250     2.2610    55.8200    31.3990    25.4940    31.3680    24.8880   -13.7200 
  155.7500     2.2730    56.1150    31.1830    25.5640    31.1510    24.7060   -13.5030 
  155.8750     2.2900    55.6920    30.2370    25.0220    31.1420    24.6610   -13.2640 
  156.0000     2.3070    55.3340    28.5690    23.8350    29.6130    24.6690   -13.0820 
  156.1250     2.3230    55.0220    26.4710    22.1880    26.9710    24.6610   -12.9220 
  156.2500     2.3340    56.3510    24.5140    20.5470    23.7910    24.6670   -12.7340 
  156.3750     2.3410    59.5630    23.0620    19.2100    20.5510    24.7430   -12.5970 
  156.5000     2.3440    61.1940    22.2970    18.3620    19.5980    24.9320   -12.5270 
  156.6250     2.3370    59.4820    22.2830    18.1300    21.8820    25.1820   -12.4540 
  156.7500     2.3200    56.9280    22.6950    18.3280    23.0780    25.2980   -12.4200 
  156.8750     2.2960    54.9170    23.2990    18.8090    22.5990    25.3340   -12.4600 
  157.0000     2.2760    54.1740    23.8980    19.4120    22.5430    25.3610   -12.5450 
  157.1250     2.2710    54.0540    24.3490    19.9760    23.6450    25.4200   -12.6720 
  157.2500     2.2800    55.6730    24.6600    20.4220    24.7780    25.4660   -12.8290 
  157.3750     2.3020    58.3580    24.8260    20.7060    25.3090    25.5040   -13.0140 
  157.5000     2.3270    60.2430    24.7640    20.7590    25.4480    25.5550   -13.1800 
  157.6250     2.3400    60.6800    24.2670    20.4270    25.0390    25.5810   -13.3000 
  157.7500     2.3360    60.4930    23.3370    19.7430    24.3800    25.5820   -13.4210 
  157.8750     2.3190    60.2750    22.0400    18.7750    23.6990    25.5700   -13.5230 
  158.0000     2.2990    59.2060    20.5470    17.6490    22.3010    25.5650   -13.5460 
  158.1250     2.2860    58.1210    19.1970    16.5940    20.4540    25.5750   -13.5700 
  158.2500     2.2820    58.0000    18.3170    15.8540    19.4920    25.5730   -13.6220 
  158.3750     2.2820    56.9870    18.1310    15.6090    19.0210    25.5100   -13.6240 
  158.5000     2.2820    56.7030    18.7310    15.9630    18.4560    25.4430   -13.6010 
  158.6250     2.2790    59.8770    20.0930    16.9830    19.3320    25.4070   -13.6560 
  158.7500     2.2770    62.8060    21.6400    18.2950    23.1010    25.4070   -13.7320 
  158.8750     2.2800    60.5770    22.7020    19.3830    27.5250    25.4320   -13.7670 
  159.0000     2.2910    55.9390    22.6530    19.6650    28.1680    25.4480   -13.7960 
  159.1250     2.3090    55.5910    21.1660    18.7040    24.4030    25.4370   -13.8090 
