~V
VERS. 2.00: Ver 2.00
~W
STRT.M 42.0000:
STOP.M 223.0000:
STEP.M 0.1250:
NULL. -999.2500:
UWI. F10538:
~C
DEPT.M :
DEN.GM/CC :
SP.MV :
GR.API :
RML.OHMM :
RI. :
RXO.OHMM :
CALI.CM :
~A
# ...
  154.5000     2.2320   -31.4380   102.1990     7.2260     6.6990     6.9100    24.7550 
  154.6250     2.2160   -31.5230    99.9540     6.8910     6.3700     6.7130    24.7620 
  154.7500     2.2190   -31.5620    94.5200     6.6890     6.1280     6.6950    24.7810 
  154.8750     2.2310   -31.5040    91.3080     6.6800     6.0530     7.1810    24.8130 
  155.0000     2.2520   -31.4090    92.1540     6.8700     6.1410     7.4040    24.8270 
  155.1250     2.2910   -31.2600    94.4170     7.4100     6.4830     7.5300    24.8300 
  155.2500     2.3590   -31.0970    94.6230     8.5760     7.2830     8.8450    24.8300 
  155.3750     2.4540   -30.9630    89.8820    10.7350     8.9380    14.1570    24.8300 
  155.5000     2.5480   -30.8560    82.8260    13.5680    11.3920    24.1540    24.8300 
  155.6250     2.6130   -30.7850    77.4580    16.2780    14.1560    31.5730    24.8300 
  155.7500     2.6350   -30.7180    78.4420    17.4780    15.9770    29.2600    24.8300 
  155.8750     2.6120   -30.7160    83.5920    15.7230    15.1260    25.4120    24.8300 
  156.0000     2.5630   -30.7360    84.5150    12.4100    12.5070    20.1120    24.8300 
  156.1250     2.4930   -30.7920    82.0870     9.2080     9.6210    12.9580    24.8300 
  156.2500     2.4070   -30.8630    84.2710     7.0090     7.3980     7.9680    24.8300 
  156.3750     2.3280   -30.9060    93.0900     5.9840     6.1380     6.7710    24.8300 
  156.5000     2.2770   -30.9510    98.8940     5.6600     5.5350     6.5490    24.8300 
  156.6250     2.2560   -30.9740    98.6500     5.7870     5.4080     6.6550    24.8300 
  156.7500     2.2510   -31.0030    95.9450     6.1240     5.5700     6.9310    24.8300 
  156.8750     2.2490   -31.0110    95.9780     6.4220     5.8180     7.0430    24.8300 
  157.0000     2.2520   -31.0260    98.2040     6.5520     5.9860     6.8620    24.8300 
  157.1250     2.2630   -31.0230    99.8210     6.5390     6.0500     6.6020    24.8300 
  157.2500     2.2760   -30.9950    98.8170     6.4780     6.0530     6.5440    24.8300 
  157.3750     2.2780   -30.9780    96.0450     6.4330     6.0410     6.6730    24.8300 
  157.5000     2.2680   -30.9120    95.0760     6.3900     6.0200     6.8280    24.8300 
  157.6250     2.2550   -30.8460    96.2550     6.3040     5.9640     6.7640    24.8300 
  157.7500     2.2510   -30.7560    97.7840     6.1420     5.8480     6.6680    24.8300 
  157.8750     2.2610   -30.6690    96.6610     5.9180     5.6760     6.4530    24.8300 
  158.0000     2.2780   -30.5790    95.0360     5.7170     5.5130     6.3270    24.8300 
  158.1250     2.2950   -30.4560    96.4090     5.6080     5.4190     6.2530    24.8300 
  158.2500     2.3080   -30.3280    99.1730     5.6180     5.4280     6.4340    24.8300 
  158.3750     2.3150   -30.1960   100.6470     5.7250     5.5430     6.9860    24.8300 
  158.5000     2.3220   -30.0770   101.6090     5.8190     5.6770     7.1980    24.8300 
  158.6250     2.3240   -29.9390   102.9470     5.8090     5.7440     6.8040    24.8300 
  158.7500     2.3170   -29.8200   102.9210     5.6550     5.6830     6.4170    24.8300 
  158.8750     2.3070   -29.6720   101.1290     5.3840     5.4820     6.1470    24.8300 
  159.0000     2.3060   -29.5200    99.6400     5.0920     5.2220     6.0460    24.8290 
  159.1250     2.3190   -29.3970    97.8490     4.8230     4.9490     5.6450    24.8280 
  159.2500     2.3420   -29.2760    96.7060     4.5890     4.6860     5.0990    24.8260 
  159.3750     2.3670   -29.1870   100.7970     4.4040     4.4480     4.5840    24.8280 
  159.5000     2.3870   -29.1260   109.5980     4.2890     4.2610     4.3690    24.8290 
  159.6250     2.3980   -29.1330   119.2240     4.2780     4.1610     4.4780    24.8300 
  159.7500     2.4040   -29.1590   125.1160     4.3850     4.1720     4.7670    24.8300 
  159.8750     2.4080   -29.2410   124.2250     4.6100     4.3030     5.0450    24.8300 
  160.0000     2.4140   -29.3690   121.0840     4.9060     4.5070     5.2390    24.8300 
  160.1250     2.4160   -29.5190   117.1750     5.2940     4.7830     5.3320    24.8300 
  160.2500     2.4160   -29.7250   111.3140     5.9140     5.2010     5.5810    24.8300 
  160.3750     2.4170   -29.9230   103.0760     7.2270     6.0560     6.9340    24.8300 
  160.5000     2.4270   -30.1460    96.0530     9.5220     7.6280    10.2680    24.8300 
  160.6250     2.4380   -30.3410    91.2210    12.8670    10.1230    15.3440    24.8300 
  160.7500     2.4200   -30.5300    85.9320    16.8200    13.4070    16.5690    24.8300 
  160.8750     2.3470   -30.6790    80.3780    19.9910    16.5520    14.3670    24.8350 
  161.0000     2.2600   -30.7890    76.6790    21.2900    18.4160    14.7170    24.8630 
  161.1250     2.1990   -30.9070    75.8680    20.9450    18.8830    17.6020    24.9230 
  161.2500     2.1700   -30.9920    76.8820    20.0410    18.6890    20.1280    24.9660 
  161.3750     2.1620   -31.0680    76.1820    19.3860    18.5100    20.2070    24.9800 
  161.5000     2.1600   -31.1020    72.7170    18.8830    18.3710    19.4080    24.9800 
  161.6250     2.1620   -31.1440    70.8490    18.3020    18.0950    19.1830    24.9800 
  161.7500     2.1660   -31.1870    73.6740    17.6670    17.7030    19.2140    24.9800 
  161.8750     2.1670   -31.2410    75.9770    17.1120    17.3580    19.3310    24.9800 
  162.0000     2.1700   -31.2750    73.9470    16.5200    17.0000    19.7740    24.9800 
  162.1250     2.1750   -31.2710    71.6660    15.6440    16.3810    20.2260    24.9800 
  162.2500     2.1830   -31.2830    74.4400    14.3060    15.2690    19.9780    24.9800 
  162.3750     2.1980   -31.2770    81.1290    12.4730    13.5560    17.4970    24.9800 
  162.5000     2.2270   -31.2700    87.3580    10.4860    11.5730    13.1210    24.9800 
  162.6250     2.2680   -31.2370    92.1480     8.6730     9.6520     9.1870    24.9800 
  162.7500     2.3080   -31.1910    94.3020     7.3090     8.0830     7.3610    24.9800 
  162.8750     2.3290   -31.1580    94.7890     6.6170     7.1210     7.1180    24.9800 
  163.0000     2.3340   -31.1320    98.2650     6.4430     6.6710     7.2980    24.9800 
  163.1250     2.3320   -31.1520   103.6430     6.6460     6.6320     7.5210    24.9800 
  163.2500     2.3280   -31.1710   105.7060     7.0780     6.8730     7.5950    24.9790 
  163.3750     2.3270   -31.2320   104.4080     7.6990     7.3310     7.6090    24.9770 
  163.5000     2.3220   -31.3140   102.6220     8.6690     8.0500     7.9140    24.9790 
  163.6250     2.3070   -31.4190    97.7960    10.4370     9.3230     9.0170    24.9790 
  163.7500     2.2740   -31.5480    88.5820    13.5730    11.6460    11.8630    24.9770 
  163.8750     2.2230   -31.6660    77.8550    18.8060    15.8650    18.5100    24.9790 
  164.0000     2.1720   -31.8160    71.1570    25.4640    21.7290    25.9860    24.9740 
  164.1250     2.1350   -31.9440    69.3560    31.7400    27.9080    28.7510    24.9500 
  164.2500     2.1150   -32.0780    71.2150    34.6580    31.6760    26.4670    24.8770 
  164.3750     2.1080   -32.1850    73.2290    32.2130    30.5980    24.3820    24.7180 
  164.5000     2.1110   -32.2550    72.5960    27.8500    27.2550    23.2250    24.4990 
  164.6250     2.1270   -32.3020    71.0120    24.1140    24.0040    22.6880    24.3300 
  164.7500     2.1530   -32.3210    71.9560    21.7530    21.7890    22.3100    24.2770 
  164.8750     2.1770   -32.3450    75.1580    20.4960    20.5450    20.6550    24.3300 
  165.0000     2.1900   -32.3330    76.2360    19.6100    19.6630    19.3260    24.4400 
  165.1250     2.1920   -32.2930    75.7550    18.7740    18.8640    18.6030    24.5940 
  165.2500     2.1870   -32.1740    75.6960    17.7700    17.9520    18.5840    24.7110 
  165.3750     2.1850   -32.0160    75.0720    16.3360    16.6600    19.6510    24.7510 
  165.5000     2.1940   -31.8590    73.3170    14.4340    14.9200    21.1540    24.7390 
  165.6250     2.2130   -31.7110    75.4490    12.1410    12.7840    19.9190    24.6570 
