~V
VERS. 2.00: Ver 2.00
~W
STRT.M 59.0000:
STOP.M 201.0000:
STEP.M 0.1250:
NULL. -999.2500:
UWI. F10560:
~C
DEPT.M :
DEN.GM/CC :
SP.MV :
GR.API :
RML.OHMM :
RI. :
RXO.OHMM :
CALI.CM :
~A
# ...
  126.5000     2.3590   -26.4490    70.7700    15.1650    14.0850    15.8350    25.2840 
  126.6250     2.3730   -26.3030    69.7090    16.0660    14.7280    17.6640    25.2170 
  126.7500     2.3720   -26.2030    70.2320    17.0690    15.5130    18.5400    25.1980 
  126.8750     2.3630   -26.1160    71.5520    17.8640    16.2090    19.0830    25.1970 
  127.0000     2.3690   -26.0240    72.7660    18.2560    16.6180    19.4940    25.1600 
  127.1250     2.4030   -25.9110    75.5610    18.2540    16.6460    19.8780    24.9880 
  127.2500     2.4380   -25.7870    77.5150    18.1600    16.5100    19.1270    24.7100 
  127.3750     2.4500   -25.6710    76.2300    18.1940    16.4200    17.7430    24.5620 
  127.5000     2.4370   -25.5680    71.2440    18.5010    16.5400    18.2160    24.6320 
  127.6250     2.4170   -25.4760    66.3860    19.1210    16.9360    20.3290    24.7750 
  127.7500     2.4040   -25.4380    65.1800    19.8360    17.4290    22.2530    24.8270 
  127.8750     2.4050   -25.4640    66.6110    20.4050    17.8280    22.0220    24.8110 
  128.0000     2.4190   -25.5700    68.1700    20.6320    17.9910    19.6930    24.7510 
  128.1250     2.4340   -25.7350    68.5920    20.4520    17.8720    18.0940    24.7500 
  128.2500     2.4380   -25.9470    70.0650    20.1180    17.6220    17.6070    24.8180 
  128.3750     2.4320   -26.1990    71.1870    19.8000    17.3420    17.5890    24.9180 
  128.5000     2.4220   -26.4760    68.3330    19.5350    17.0720    18.0440    24.9770 
  128.6250     2.4080   -26.7920    64.0510    19.2280    16.7950    18.3900    25.0060 
  128.7500     2.3940   -27.1450    64.4420    18.8660    16.5190    18.1730    25.0750 
  128.8750     2.3800   -27.5300    69.0430    18.5980    16.3380    17.6040    25.2070 
  129.0000     2.3730   -27.9180    72.3660    18.6240    16.3770    17.2070    25.3340 
  129.1250     2.3830   -28.3240    73.8230    19.0190    16.6990    17.5610    25.3960 
  129.2500     2.4020   -28.7610    75.6490    19.4680    17.0920    19.0900    25.4100 
  129.3750     2.4140   -29.2720    76.6790    19.6270    17.2810    21.4200    25.4110 
  129.5000     2.4060   -29.8730    75.8000    19.2280    17.0130    22.9460    25.4090 
  129.6250     2.3780   -30.5960    75.1780    18.1090    16.1110    20.3030    25.4090 
  129.7500     2.3480   -31.3880    76.0480    16.5840    14.8150    15.4720    25.4010 
  129.8750     2.3250   -32.2030    76.2200    14.9240    13.3600    13.3650    25.3400 
  130.0000     2.3140   -33.0000    75.7190    13.3650    11.9630    13.1680    25.1730 
  130.1250     2.3210   -33.6940    78.7290    12.1940    10.8560    12.5680    24.8920 
  130.2500     2.3390   -34.2340    86.2700    11.5170    10.1180    10.9640    24.6260 
  130.3750     2.3570   -34.5410    95.6010    11.3730     9.7730     9.9160    24.4010 
  130.5000     2.3690   -34.5650   102.3970    11.6630     9.7680    10.8530    24.2590 
  130.6250     2.3720   -34.1820   105.3070    12.1240     9.9670    13.1710    24.2180 
  130.7500     2.3700   -33.5130   105.4260    12.3290    10.0750    14.3880    24.2100 
  130.8750     2.3690   -32.6380   102.0850    11.9910     9.8470    12.9160    24.2100 
  131.0000     2.3730   -31.6620    95.4890    11.0870     9.1780    10.2830    24.2100 
  131.1250     2.3860   -30.6930    84.2270     9.9050     8.1880     8.5310    24.2100 
  131.2500     2.4010   -29.8010    70.1810     8.8790     7.2180     7.3890    24.2100 
  131.3750     2.4110   -29.0280    58.4500     8.1820     6.4610     6.6450    24.2150 
  131.5000     2.4140   -28.3980    53.3350     7.8100     5.9880     6.1950    24.2310 
  131.6250     2.4070   -27.9730    51.9490     7.6970     5.8020     6.1300    24.2730 
  131.7500     2.3950   -27.7070    49.3600     7.7120     5.7740     6.1230    24.3120 
  131.8750     2.3810   -27.5680    48.4260     7.7990     5.8180     6.1210    24.3380 
  132.0000     2.3730   -27.4850    51.1880     7.9050     5.8680     6.1380    24.3480 
  132.1250     2.3800   -27.4110    53.5320     7.9750     5.8800     6.1410    24.3510 
  132.2500     2.3940   -27.3210    51.9150     7.9810     5.8520     6.1490    24.3650 
  132.3750     2.4030   -27.2000    49.0050     7.9270     5.7940     6.1440    24.4050 
  132.5000     2.4040   -27.0410    47.5490     7.8430     5.7120     6.0880    24.4610 
  132.6250     2.4020   -26.8560    48.6370     7.7510     5.6080     5.9450    24.4850 
  132.7500     2.4020   -26.6400    50.4550     7.6630     5.4910     5.8770    24.4910 
  132.8750     2.4040   -26.4100    51.7530     7.5790     5.3710     5.9320    24.4910 
  133.0000     2.4080   -26.1770    52.9910     7.5070     5.2580     6.0430    24.4910 
  133.1250     2.4120   -25.9520    54.0750     7.4750     5.1650     6.0180    24.4910 
  133.2500     2.4130   -25.7230    55.5960     7.4910     5.1080     5.9090    24.4910 
  133.3750     2.4110   -25.5130    57.8220     7.5740     5.1050     5.8170    24.4910 
  133.5000     2.4100   -25.3060    60.5440     7.7490     5.1710     5.7040    24.4910 
  133.6250     2.4130   -25.0960    64.7840     8.0370     5.3140     5.8390    24.4910 
  133.7500     2.4130   -24.8710    70.7830     8.3700     5.4990     6.1820    24.4910 
  133.8750     2.4010   -24.6320    77.4680     8.6480     5.6890     6.6170    24.4910 
  134.0000     2.3790   -24.4050    82.8290     8.7590     5.8430     6.8570    24.4910 
  134.1250     2.3620   -24.2280    85.5640     8.6370     5.9110     6.6980    24.4910 
  134.2500     2.3620   -24.1100    85.8630     8.4060     5.8980     6.5070    24.4910 
  134.3750     2.3770   -24.0330    85.6760     8.1900     5.8260     6.4010    24.4910 
  134.5000     2.3960   -24.0040    86.8800     8.0690     5.7290     6.3640    24.4910 
  134.6250     2.4100   -24.0580    87.0520     8.0360     5.6340     6.3430    24.4910 
  134.7500     2.4170   -24.1760    85.6010     8.0030     5.5430     6.4990    24.4910 
  134.8750     2.4180   -24.3400    85.5530     7.9260     5.4490     6.7000    24.4910 
  135.0000     2.4160   -24.5370    88.7850     7.8200     5.3560     6.7780    24.4910 
  135.1250     2.4120   -24.7510    91.4470     7.7700     5.2990     6.3780    24.4910 
  135.2500     2.4100   -24.9380    90.3030     7.8360     5.3170     6.2430    24.4910 
  135.3750     2.4080   -25.1160    86.4410     8.0430     5.4360     6.5580    24.4910 
  135.5000     2.4060   -25.2960    82.1570     8.3740     5.6630     7.3140    24.4910 
  135.6250     2.4000   -25.4810    80.1010     8.7620     5.9760     8.4130    24.4910 
  135.7500     2.3940   -25.6390    81.3040     9.1030     6.2990     9.3690    24.4910 
  135.8750     2.3940   -25.7870    83.5760     9.3350     6.5740     9.4090    24.4910 
  136.0000     2.4020   -25.9510    84.5160     9.4610     6.7800     8.5660    24.4910 
  136.1250     2.4120   -26.0850    86.3410     9.5560     6.9660     8.0200    24.4910 
  136.2500     2.4200   -26.2150    89.7400     9.7300     7.2160     7.8760    24.4910 
  136.3750     2.4250   -26.3630    90.4730    10.0180     7.5590     8.1970    24.4910 
  136.5000     2.4300   -26.4970    85.4550    10.3660     7.9560     8.7170    24.4910 
  136.6250     2.4270   -26.5750    80.6870    10.6280     8.2850     9.1110    24.4910 
  136.7500     2.4120   -26.6780    83.3030    10.7090     8.4600     9.4080    24.4910 
  136.8750     2.3960   -26.7620    90.3570    10.6000     8.4720     9.5280    24.4910 
  137.0000     2.3880   -26.8040    97.1680    10.3690     8.3770     9.6160    24.4910 
  137.1250     2.3850   -26.8360   102.7750    10.1180     8.2530     9.3840    24.4910 
  137.2500     2.3780   -26.8380   104.1800     9.9240     8.1550     8.6400    24.4910 
  137.3750     2.3670   -26.7990   100.3500     9.7940     8.0950     8.0660    24.4910 
  137.5000     2.3590   -26.7690    94.7290     9.7160     8.0610     7.8350    24.4910 
  137.6250     2.3550   -26.7320    93.0500     9.6780     8.0320     7.8290    24.4910 
