~V
VERS. 2.00: Ver 2.00
~W
STRT.M 50.0000:
STOP.M 198.0000:
STEP.M 0.1250:
NULL. -999.2500:
UWI. F10574:
~C
DEPT.M :
DEN.GM/CC :
SP.MV :
GR.API :
RML.OHMM :
RI. :
RXO.OHMM :
CALI.CM :
~A
# ...
   72.5000     2.1950   -22.5460    55.6390    25.1680    21.6020     9.3290    21.4100 
   72.6250     2.1740   -22.0580    53.5120    27.3230    24.1410     9.4440    21.2940 
   72.7500     2.1610   -21.5760    51.6680    26.5370    24.1770     9.4150    21.0840 
   72.8750     2.1610   -21.1260    49.7110    23.5140    22.0370     9.1100    20.8290 
   73.0000     2.1760   -20.7400    50.0860    20.0220    19.1680     8.2550    20.6260 
   73.1250     2.2040   -20.4540    56.0900    17.8210    17.0650     7.3620    20.5490 
   73.2500     2.2220   -20.2330    62.9300    17.2550    16.1800     7.4110    20.4850 
   73.3750     2.2170   -20.0260    63.9860    18.1750    16.5430     8.5230    20.3360 
   73.5000     2.1950   -19.7810    60.3270    20.1600    17.9680     9.4060    20.0320 
   73.6250     2.1870   -19.5360    56.7280    22.5270    20.0510     9.0840    19.6020 
   73.7500     2.1990   -19.3240    54.9440    24.3310    21.9100     8.4830    19.3050 
   73.8750     2.2180   -19.0840    55.2850    25.0160    22.8890     7.8300    19.1990 
   74.0000     2.2300   -18.7320    58.3850    24.5790    22.8110     7.2620    19.1880 
   74.1250     2.2280   -18.2850    63.2810    23.5240    22.0310     6.7860    19.1800 
   74.2500     2.2150   -17.8130    65.6310    22.5700    21.2280     6.5120    19.1200 
   74.3750     2.2050   -17.3100    65.4470    22.0200    20.6890     6.4060    18.9400 
   74.5000     2.2120   -16.7660    65.2250    21.9970    20.5280     6.3910    18.6770 
   74.6250     2.2320   -16.1970    63.8300    22.5620    20.8130     6.4530    18.7360 
   74.7500     2.2320   -15.6550    59.9610    23.4630    21.3730     6.5900    19.0550 
   74.8750     2.2090   -15.1730    55.8110    24.4790    22.0340     6.8250    19.4180 
   75.0000     2.1910   -14.7700    54.8890    25.3570    22.5960     7.1080    19.6390 
   75.1250     2.2030   -14.4160    55.6920    25.8460    22.8420     7.1590    19.7860 
   75.2500     2.2240   -14.0990    54.0980    25.9450    22.7830     6.9860    19.9340 
   75.3750     2.2300   -13.8550    52.2550    25.7270    22.5150     6.8240    20.0020 
   75.5000     2.2150   -13.6840    52.8350    25.3160    22.1830     6.7710    20.0140 
   75.6250     2.2020   -13.5330    53.1510    24.8370    21.9170     6.8100    20.0140 
   75.7500     2.2110   -13.4000    52.5570    24.3890    21.7390     6.8110    20.0180 
   75.8750     2.2310   -13.3320    53.8180    24.0050    21.6160     6.7640    20.0330 
   76.0000     2.2440   -13.3420    56.9330    23.6970    21.4950     6.6480    20.0680 
   76.1250     2.2410   -13.3940    58.1790    23.5090    21.3350     6.5570    20.0850 
   76.2500     2.2310   -13.4890    57.3090    23.4230    21.1470     6.5870    20.0910 
   76.3750     2.2180   -13.6520    57.0680    23.3920    20.9440     6.6170    20.0910 
   76.5000     2.1990   -13.8980    57.6790    23.3470    20.7240     6.4760    20.0910 
   76.6250     2.1790   -14.1690    56.5970    23.2010    20.4650     6.1950    20.0910 
   76.7500     2.1670   -14.3710    53.4740    22.9440    20.1680     6.0300    20.0910 
   76.8750     2.1640   -14.4940    50.2580    22.6100    19.8460     5.9670    20.0910 
   77.0000     2.1650   -14.5510    50.1640    22.2800    19.5290     5.8820    20.0910 
   77.1250     2.1680   -14.5520    53.3180    22.0680    19.2880     5.7570    20.0910 
   77.2500     2.1780   -14.4620    54.6380    22.0240    19.1740     5.6750    20.0910 
   77.3750     2.1940   -14.2620    52.9460    22.1660    19.2180     5.6430    20.0910 
   77.5000     2.2150   -13.9770    51.1270    22.4620    19.4230     5.6580    20.0910 
   77.6250     2.2300   -13.7160    52.1450    22.8170    19.7670     5.7300    20.0910 
   77.7500     2.2270   -13.5380    54.3980    23.1010    20.1390     5.8970    20.1060 
   77.8750     2.2060   -13.4140    55.6190    23.2150    20.4400     6.0950    20.1630 
   78.0000     2.1850   -13.3180    56.7680    23.1000    20.5930     6.1580    20.2910 
   78.1250     2.1820   -13.3160    58.3940    22.7610    20.5440     5.9430    20.3940 
   78.2500     2.1910   -13.3790    57.5890    22.3750    20.3630     5.8600    20.4510 
   78.3750     2.1920   -13.4600    54.1810    22.0550    20.1100     5.9170    20.4660 
   78.5000     2.1790   -13.5560    50.8020    21.8330    19.8140     5.9480    20.4680 
   78.6250     2.1630   -13.6600    50.3930    21.6200    19.4370     5.9820    20.4680 
   78.7500     2.1570   -13.7330    52.0090    21.2650    18.9490     6.0590    20.4670 
   78.8750     2.1610   -13.7420    53.6030    20.7030    18.3740     6.1470    20.4400 
   79.0000     2.1690   -13.6600    54.9480    20.0200    17.8050     6.1180    20.3340 
   79.1250     2.1800   -13.4260    56.7790    19.4580    17.4170     5.9010    20.0970 
   79.2500     2.1920   -13.0860    57.1020    19.2200    17.3010     5.6630    19.8950 
   79.3750     2.1970   -12.6770    54.1840    19.3990    17.4930     5.5430    19.8070 
   79.5000     2.1910   -12.2190    49.4240    19.9850    17.9700     5.5730    19.7820 
   79.6250     2.1770   -11.6940    49.2540    20.9020    18.6690     5.7430    19.7570 
   79.7500     2.1660   -11.1450    52.0830    21.9150    19.4220     6.0260    19.7280 
   79.8750     2.1600   -10.6190    52.7540    22.8390    20.1150     6.2970    19.7160 
   80.0000     2.1600   -10.1500    50.1270    23.5430    20.6760     6.3850    19.7080 
   80.1250     2.1720    -9.7440    48.1600    23.9690    21.0610     6.3140    19.6880 
   80.2500     2.1890    -9.4300    48.5820    24.2600    21.3160     6.3570    19.6580 
   80.3750     2.1970    -9.2070    49.9220    24.5060    21.4630     6.5230    19.6410 
   80.5000     2.1910    -9.0390    51.4510    24.7180    21.5070     6.7300    19.6370 
   80.6250     2.1830    -8.9160    53.4190    24.7720    21.4310     6.6910    19.6370 
   80.7500     2.1820    -8.8290    56.4610    24.6020    21.2800     6.5680    19.6370 
   80.8750     2.1870    -8.7740    58.5000    24.2360    21.1070     6.4220    19.6370 
   81.0000     2.1910    -8.7590    57.6070    23.8110    20.9700     6.4040    19.6370 
   81.1250     2.1920    -8.7840    55.2520    23.5190    20.9270     6.4920    19.6370 
   81.2500     2.1910    -8.8320    54.7610    23.4150    20.9680     6.5750    19.6370 
   81.3750     2.1840    -8.9250    55.7310    23.4400    21.0490     6.6340    19.6350 
   81.5000     2.1710    -9.0640    54.8580    23.4900    21.0970     6.6120    19.5980 
   81.6250     2.1610    -9.2250    51.9110    23.4440    21.0110     6.4160    19.4530 
   81.7500     2.1580    -9.3960    49.6550    23.2510    20.7610     6.0820    19.2290 
   81.8750     2.1590    -9.6040    49.7050    22.8520    20.3320     5.8970    19.0800 
   82.0000     2.1630    -9.9000    51.7910    22.2000    19.7180     5.8580    19.0360 
   82.1250     2.1810   -10.3240    55.1370    21.2400    18.9080     5.8400    19.0370 
   82.2500     2.2100   -10.8060    58.5780    20.0820    17.9760     5.7510    19.0380 
   82.3750     2.2430   -11.3020    61.1650    18.8610    17.0020     5.6770    19.0490 
   82.5000     2.2690   -11.7920    62.4150    17.7430    16.0800     5.7380    19.0810 
   82.6250     2.2840   -12.2510    63.0300    16.9100    15.3390     5.9380    19.1580 
   82.7500     2.2890   -12.6010    63.7410    16.3760    14.8240     6.1070    19.2140 
   82.8750     2.2850   -12.7530    63.7870    16.1350    14.5680     6.2410    19.2490 
   83.0000     2.2740   -12.6530    62.9420    16.1740    14.5750     6.2480    19.2600 
   83.1250     2.2630   -12.2960    62.7420    16.5160    14.8570     6.0610    19.2600 
   83.2500     2.2580   -11.8290    61.6270    17.0600    15.2980     5.8810    19.2540 
   83.3750     2.2640   -11.2880    58.7140    17.6930    15.7900     5.8250    19.2000 
   83.5000     2.2780   -10.7060    55.8820    18.2480    16.2060     5.8130    19.0540 
   83.6250     2.2870   -10.1470    55.0210    18.5210    16.4070     5.7450    18.8410 
