~V
VERS. 2.00: Ver 2.00
~W
STRT.M 54.0000:
STOP.M 217.0000:
STEP.M 0.1250:
NULL. -999.2500:
UWI. F10593:
~C
DEPT.M :
SP.MV :
GR.API :
RML.OHMM :
RI. :
RXO.OHMM :
CALI.CM :
DEN.GM/CC :
~A
# ...
  132.7500   -14.0260    56.0270    16.5610    15.3210    13.9430    22.6150     2.4590 
  132.8750   -14.0460    58.7060    16.3940    15.0250    13.5290    22.4920     2.4770 
  133.0000   -14.0580    60.7160    16.3110    14.8490    13.2070    22.3760     2.4900 
  133.1250   -14.0650    61.5750    16.2870    14.7740    13.2440    22.3250     2.4920 
  133.2500   -14.0970    63.0450    16.3250    14.7950    13.4460    22.3170     2.4820 
  133.3750   -14.1120    64.9680    16.4770    14.9330    13.8510    22.3170     2.4630 
  133.5000   -14.1110    65.9450    16.7430    15.1650    14.1070    22.3170     2.4440 
  133.6250   -14.0770    63.9700    17.0740    15.4490    14.3760    22.3170     2.4300 
  133.7500   -14.0260    59.6920    17.3740    15.7070    15.1660    22.3170     2.4240 
  133.8750   -13.9390    56.1820    17.5140    15.8390    15.7720    22.3090     2.4270 
  134.0000   -13.8760    55.9020    17.4870    15.8320    16.3510    22.2870     2.4330 
  134.1250   -13.8120    57.4680    17.3350    15.7140    16.1240    22.2570     2.4420 
  134.2500   -13.7040    58.1090    17.1360    15.5370    15.0630    22.2210     2.4510 
  134.3750   -13.6120    57.2230    16.9610    15.3500    14.4370    22.1860     2.4580 
  134.5000   -13.4970    57.2560    16.8380    15.1830    14.8370    22.1550     2.4620 
  134.6250   -13.3600    58.4750    16.7660    15.0460    15.2940    22.1440     2.4640 
  134.7500   -13.2190    58.9330    16.7420    14.9520    15.0450    22.1420     2.4680 
  134.8750   -13.1100    57.9930    16.7600    14.9100    14.2890    22.1410     2.4750 
  135.0000   -13.0160    57.5790    16.7800    14.8900    13.7430    22.1420     2.4840 
  135.1250   -12.9160    56.9110    16.7780    14.8620    13.8550    22.1610     2.4890 
  135.2500   -12.8050    56.3910    16.7600    14.8200    14.3970    22.2270     2.4870 
  135.3750   -12.7000    59.3150    16.8010    14.8150    14.4470    22.3490     2.4780 
  135.5000   -12.6510    63.8040    16.9840    14.9190    13.9940    22.4590     2.4710 
  135.6250   -12.6600    65.5150    17.3460    15.1750    13.7400    22.4950     2.4720 
  135.7500   -12.6860    63.4840    17.8390    15.5600    14.1590    22.4450     2.4790 
  135.8750   -12.7420    61.3340    18.2820    15.9540    15.7690    22.3470     2.4880 
  136.0000   -12.7950    59.9030    18.4840    16.1960    16.6970    22.2110     2.4920 
  136.1250   -12.8310    58.4340    18.3700    16.2030    15.6810    22.0580     2.4910 
  136.2500   -12.9170    57.0360    18.0270    16.0050    13.3360    21.8150     2.4880 
  136.3750   -13.0100    56.0150    17.6920    15.7430    11.8260    21.3150     2.4860 
  136.5000   -13.0750    56.0410    17.5830    15.6030    10.7860    20.7240     2.4840 
  136.6250   -13.1090    57.0840    17.7740    15.6810    10.5340    20.5270     2.4810 
  136.7500   -13.1490    58.3080    18.2170    15.9840    10.7520    20.7380     2.4760 
  136.8750   -13.1420    57.8790    18.7640    16.4380    11.1350    21.0280     2.4690 
  137.0000   -13.1420    56.7070    19.2170    16.8770    11.6300    21.2270     2.4610 
  137.1250   -13.2260    56.4600    19.4650    17.1910    12.5700    21.3960     2.4560 
  137.2500   -13.2890    57.0690    19.4700    17.3210    13.6250    21.5700     2.4560 
  137.3750   -13.3120    56.3400    19.2570    17.2500    14.2510    21.7690     2.4620 
  137.5000   -13.3530    54.4640    18.9870    17.0840    14.8060    22.1570     2.4700 
  137.6250   -13.3720    53.1030    18.7810    16.9140    15.3880    22.6580     2.4760 
  137.7500   -13.3880    52.9220    18.7150    16.8140    15.7620    22.9550     2.4770 
  137.8750   -13.3880    52.1670    18.8000    16.8210    15.8450    23.0180     2.4720 
  138.0000   -13.3770    50.7620    18.9260    16.8800    16.3170    23.0140     2.4660 
  138.1250   -13.3140    50.1980    19.0020    16.9360    17.3910    23.0100     2.4630 
  138.2500   -13.2470    50.5760    18.9710    16.9440    17.9380    23.0090     2.4640 
  138.3750   -13.2090    51.5410    18.8350    16.8840    17.3480    23.0090     2.4680 
  138.5000   -13.1600    52.2110    18.6870    16.7990    16.5710    23.0060     2.4750 
  138.6250   -13.1160    51.4040    18.6010    16.7400    16.5070    22.9950     2.4810 
  138.7500   -13.0510    50.1920    18.6160    16.7520    16.8350    22.9710     2.4830 
  138.8750   -12.9880    52.1600    18.7470    16.8700    17.1940    22.9590     2.4780 
  139.0000   -12.9170    54.7860    18.9650    17.0710    17.2390    22.9550     2.4700 
  139.1250   -12.8840    54.4280    19.2710    17.3400    17.4610    22.9390     2.4600 
  139.2500   -12.8820    52.9790    19.6850    17.6740    17.8400    22.8670     2.4530 
  139.3750   -12.8680    55.0430    20.2540    18.1040    17.3350    22.6870     2.4520 
  139.5000   -12.8790    58.2020    20.9450    18.6360    16.6270    22.5080     2.4560 
  139.6250   -12.9100    59.1620    21.6890    19.2470    16.3720    22.3860     2.4630 
  139.7500   -12.9600    58.5340    22.3580    19.8570    16.8020    22.2950     2.4710 
  139.8750   -13.0190    59.3060    22.7340    20.2940    17.0050    22.2630     2.4780 
  140.0000   -13.0610    58.9770    22.7210    20.4410    16.9740    22.2600     2.4830 
  140.1250   -13.0510    56.4790    22.3110    20.2460    16.6700    22.3220     2.4840 
  140.2500   -13.0020    54.0890    21.6120    19.7520    16.5290    22.4870     2.4820 
  140.3750   -12.9810    54.5550    20.8230    19.0880    16.3150    22.7250     2.4780 
  140.5000   -12.9310    56.0260    20.1530    18.4520    15.6500    22.8320     2.4750 
  140.6250   -12.8610    55.8320    19.6980    17.9490    15.0870    22.8570     2.4740 
  140.7500   -12.7630    54.6850    19.4720    17.6220    15.0540    22.8660     2.4780 
  140.8750   -12.6120    54.2930    19.4610    17.4900    15.1710    22.9420     2.4880 
  141.0000   -12.4540    53.5120    19.5750    17.4940    15.6850    23.1350     2.5000 
  141.1250   -12.3170    52.4280    19.7770    17.6080    16.7910    23.3970     2.5140 
  141.2500   -12.1870    51.5180    20.0480    17.8100    17.7540    23.5530     2.5240 
  141.3750   -12.0490    53.3460    20.3840    18.0890    17.4820    23.5120     2.5220 
  141.5000   -11.9100    56.1510    20.7580    18.4090    15.9460    23.4120     2.5040 
  141.6250   -11.7870    57.1940    21.1460    18.7480    16.5360    23.4580     2.4750 
  141.7500   -11.7240    57.8290    21.5200    19.0840    17.4510    23.7340     2.4440 
  141.8750   -11.7580    60.1050    21.8440    19.3960    18.3250    24.0240     2.4260 
  142.0000   -11.8540    61.7440    22.0870    19.6530    19.0070    23.8660     2.4250 
  142.1250   -11.9300    60.9500    22.2100    19.8140    19.4170    23.4180     2.4360 
  142.2500   -12.0120    58.9810    22.1960    19.8400    19.8360    23.0980     2.4510 
  142.3750   -12.1300    57.6500    22.0740    19.7310    20.0200    23.0070     2.4610 
  142.5000   -12.2650    54.4050    21.9910    19.6090    20.0160    23.0310     2.4660 
  142.6250   -12.3730    50.5470    22.1070    19.6250    18.8790    23.1510     2.4700 
  142.7500   -12.4190    49.3800    22.5640    19.9260    17.9210    23.3480     2.4760 
  142.8750   -12.4170    52.4160    23.4300    20.6160    18.4740    23.4510     2.4860 
  143.0000   -12.3520    57.4280    24.4310    21.4810    20.2270    23.4660     2.4930 
  143.1250   -12.2510    60.4700    25.2120    22.2300    22.1740    23.4690     2.4910 
  143.2500   -12.1520    58.8550    25.4140    22.5430    25.5140    23.5070     2.4770 
  143.3750   -12.0100    54.1220    24.7410    22.1260    24.8810    23.5650     2.4530 
  143.5000   -11.8260    51.3730    23.4960    21.1750    21.1610    23.6070     2.4320 
  143.6250   -11.6580    50.8150    22.0160    19.9430    17.8780    23.6390     2.4220 
  143.7500   -11.5210    50.4870    20.5950    18.6860    16.6520    23.6580     2.4260 
  143.8750   -11.4450    51.6070    19.4250    17.6000    16.2480    23.6630     2.4400 
