~V
VERS. 2.00: Ver 2.00
~W
STRT.M 47.0000:
STOP.M 236.0000:
STEP.M 0.1250:
NULL. -999.2500:
UWI. F10597:
~C
DEPT.M :
SP.MV :
DEN.GM/CC :
GR.API :
RML.OHMM :
RI. :
RXO.OHMM :
CALI.CM :
~A
# ...
  182.0000    -8.0900     2.2580    84.7450    18.2720    17.1720    18.3260    24.1900 
  182.1250    -8.1180     2.2650    85.3000    18.2250    16.5740    16.9780    24.2020 
  182.2500    -8.1270     2.2710    84.5930    18.6930    16.3990    16.5550    24.2250 
  182.3750    -8.2030     2.2730    83.0860    19.6810    16.8200    16.7630    24.2340 
  182.5000    -8.2900     2.2730    79.5500    21.2930    18.0780    17.6160    24.2340 
  182.6250    -8.3830     2.2720    75.1140    23.4330    20.0400    19.6340    24.2770 
  182.7500    -8.5540     2.2720    72.9890    26.0720    22.5690    23.4470    24.3370 
  182.8750    -8.7650     2.2740    74.4150    29.0360    25.3940    30.2640    24.3820 
  183.0000    -8.9810     2.2820    76.4390    31.7280    27.9630    34.7890    24.3890 
  183.1250    -9.2220     2.2800    76.0180    33.4850    29.7290    35.0460    24.3810 
  183.2500    -9.4730     2.2580    74.0740    34.0380    30.4580    32.7510    24.3670 
  183.3750    -9.6860     2.2270    73.1480    33.6920    30.3610    31.4720    24.3470 
  183.5000    -9.8950     2.2100    75.1340    33.1300    29.9520    31.0880    24.3360 
  183.6250   -10.0650     2.2050    76.9070    32.9430    29.7170    30.6340    24.3320 
  183.7500   -10.1930     2.2050    77.5570    33.2920    29.7680    30.1960    24.3300 
  183.8750   -10.2970     2.2060    77.7460    34.0480    30.0290    30.4720    24.3340 
  184.0000   -10.3530     2.2080    77.8370    34.8700    30.3750    31.5490    24.3490 
  184.1250   -10.3970     2.2050    76.0290    35.3870    30.6920    32.5490    24.3740 
  184.2500   -10.4640     2.1950    72.4070    35.3790    30.9090    33.5550    24.3940 
  184.3750   -10.5290     2.1810    71.7390    34.8250    30.9500    34.2380    24.4000 
  184.5000   -10.5970     2.1690    77.2810    34.0040    30.7150    34.4840    24.3850 
  184.6250   -10.6990     2.1660    83.5300    33.4780    30.2700    33.8430    24.3570 
  184.7500   -10.7970     2.1710    83.9980    33.5730    29.7940    32.2340    24.3370 
  184.8750   -10.9190     2.1830    79.6260    34.3150    29.5710    31.2520    24.3300 
  185.0000   -11.0870     2.1930    77.3450    35.5390    29.9360    32.3090    24.3300 
  185.1250   -11.2520     2.2000    77.9260    36.8790    30.8000    33.8730    24.3300 
  185.2500   -11.4120     2.2100    77.4920    38.0470    31.9290    34.9260    24.3300 
  185.3750   -11.5780     2.2230    74.5910    38.7900    33.0080    35.5490    24.3300 
  185.5000   -11.7260     2.2360    73.8640    38.9720    33.7730    36.8370    24.3300 
  185.6250   -11.8590     2.2450    76.9950    38.8940    34.3170    38.4970    24.3300 
  185.7500   -12.0100     2.2510    81.1320    38.8280    34.7850    40.0440    24.3300 
  185.8750   -12.1640     2.2570    81.7500    38.8960    35.1850    41.2900    24.3300 
  186.0000   -12.2740     2.2690    79.6800    38.7190    35.1740    42.1220    24.3300 
  186.1250   -12.3500     2.2870    78.5980    37.6410    34.3900    41.8760    24.3270 
  186.2500   -12.3670     2.3130    77.6050    35.1930    32.5470    40.2080    24.3160 
  186.3750   -12.3170     2.3440    74.9940    31.3260    29.5440    37.4030    24.2890 
  186.5000   -12.1900     2.3770    71.7840    26.2250    25.3750    37.0060    24.2750 
  186.6250   -11.9870     2.4140    69.8740    20.6570    20.6630    36.1980    24.2610 
  186.7500   -11.7020     2.4530    68.1410    15.2600    15.9520    29.1750    24.2560 
  186.8750   -11.3460     2.4820    66.7500    10.7240    11.7770    16.1470    24.2550 
  187.0000   -10.9910     2.4680    67.7530     7.7740     8.7090     9.2980    24.2550 
  187.1250   -10.6660     2.4210    68.4930     6.1420     6.7010     6.6240    24.2550 
  187.2500   -10.4050     2.3770    67.4650     5.4960     5.6400     6.0200    24.2550 
  187.3750   -10.1930     2.3610    66.1910     5.4780     5.3290     6.1040    24.2550 
  187.5000   -10.0450     2.3680    67.9430     5.8250     5.5840     6.5480    24.2550 
  187.6250    -9.9640     2.3740    69.8750     6.2490     6.0210     6.8860    24.2550 
  187.7500    -9.9200     2.3700    69.3580     6.5790     6.3820     6.8960    24.2550 
  187.8750    -9.8880     2.3580    67.6010     6.6740     6.5010     6.8100    24.2550 
  188.0000    -9.8420     2.3450    67.9480     6.4020     6.3240     6.4780    24.2550 
  188.1250    -9.7930     2.3330    69.2630     5.9070     6.0040     6.0310    24.2550 
  188.2500    -9.7350     2.3260    68.3950     5.4370     5.6800     5.6980    24.2550 
  188.3750    -9.6920     2.3260    67.5470     5.2290     5.4880     5.8070    24.2770 
  188.5000    -9.6530     2.3330    69.9090     5.4720     5.5890     5.8020    24.3590 
  188.6250    -9.6040     2.3420    74.7470     6.0850     6.0140     6.4170    24.4980 
  188.7500    -9.5640     2.3560    81.0440     6.9370     6.7700     7.6710    24.6230 
  188.8750    -9.5820     2.3750    89.5790     7.8240     7.7570     8.9400    24.6840 
  189.0000    -9.6600     2.3880    99.4330     8.5040     8.6940     8.9750    24.6980 
  189.1250    -9.7530     2.3850   107.3330     8.9050     9.2800     8.9660    24.6980 
  189.2500    -9.8690     2.3730   112.8340     9.0440     9.4220     9.0940    24.6980 
  189.3750    -9.9610     2.3640   116.0920     8.9990     9.2490     9.2990    24.6980 
  189.5000   -10.0460     2.3630   119.3140     8.8640     8.9870     9.3250    24.6980 
  189.6250   -10.1780     2.3610   124.0510     8.7150     8.7740     9.1490    24.6980 
  189.7500   -10.3180     2.3570   127.1490     8.5570     8.6000     8.8230    24.6980 
  189.8750   -10.4370     2.3510   126.9530     8.4170     8.4280     8.6010    24.6980 
  190.0000   -10.5120     2.3490   127.3630     8.3590     8.2460     8.6620    24.6980 
  190.1250   -10.5800     2.3480   128.3530     8.4080     8.0620     8.7820    24.6970 
  190.2500   -10.6580     2.3450   127.5370     8.5820     7.8950     8.6970    24.6950 
  190.3750   -10.7730     2.3400   126.3490     8.9430     7.8040     8.5140    24.6970 
  190.5000   -10.9120     2.3400   129.1170     9.7230     7.9790     8.7330    24.6980 
  190.6250   -11.0780     2.3520   127.9800    11.2590     8.6700     9.7370    24.6980 
  190.7500   -11.3130     2.3720   118.2890    14.3330    10.4510    12.0790    24.6980 
  190.8750   -11.6030     2.3980   104.6530    20.3610    14.8850    17.2220    24.6980 
  191.0000   -11.9310     2.4320    91.3650    32.9510    27.3310    30.3640    24.6980 
  191.1250   -12.2560     2.4640    78.5130    55.3060    53.1430    57.7860    24.6980 
  191.2500   -12.5720     2.4640    69.7810    91.6730    97.6870    86.6580    24.6980 
  191.3750   -12.8840     2.4140    70.2090   139.5940   155.4240    93.3260    24.6980 
  191.5000   -13.1990     2.3450    76.7840   167.5290   185.4160    96.7660    24.6980 
  191.6250   -13.4670     2.2990    79.9930   157.9290   170.3890    99.2970    24.6980 
  191.7500   -13.6860     2.2740    78.0040   134.1860   139.1120   101.3090    24.6980 
  191.8750   -13.8790     2.2470    73.9590   116.5670   116.2080    96.9840    24.6980 
  192.0000   -14.0670     2.2080    73.5850   107.8570   106.1520    98.7590    24.6980 
  192.1250   -14.2850     2.1740    76.5960   101.5500   100.0750   108.2240    24.6970 
  192.2500   -14.5260     2.1580    78.9020    94.5430    93.6780   109.5910    24.6950 
  192.3750   -14.7830     2.1570    78.2770    86.2800    85.9790    89.2510    24.6970 
  192.5000   -15.0770     2.1620    78.2220    78.3730    78.1580    67.6180    24.6980 
  192.6250   -15.3900     2.1650    80.8010    72.9220    72.2360    56.9100    24.6980 
  192.7500   -15.6840     2.1640    82.8650    71.2710    69.7080    56.0170    24.6980 
  192.8750   -15.9420     2.1610    81.9590    73.9470    71.4240    59.6300    24.6980 
  193.0000   -16.2000     2.1600    78.5900    81.0830    77.8210    67.7160    24.6980 
  193.1250   -16.4210     2.1630    74.9860    90.4230    86.6300    78.4490    24.6980 
