~V
VERS. 2.00: Ver 2.00
~W
STRT.M 46.0000:
STOP.M 208.0000:
STEP.M 0.1250:
NULL. -999.2500:
UWI. F10533:
~C
DEPT.M :
GR.API :
RML.OHMM :
RI. :
RXO.OHMM :
CALI.CM :
DEN.GM/CC :
SP.MV :
~A
# ...
   79.7500    84.6180     7.3410     5.4520     6.2330    22.1760     2.2560   -21.9450 
   79.8750    80.5070     7.3670     5.5020     6.5450    22.1000     2.2620   -21.9950 
   80.0000    76.9320     7.3760     5.5430     6.3470    22.0000     2.2690   -21.9910 
   80.1250    77.1010     7.4060     5.5930     6.1680    21.8400     2.2660   -21.9390 
   80.2500    78.5880     7.4890     5.6750     6.3920    21.7620     2.2470   -21.8570 
   80.3750    77.6430     7.6510     5.8090     6.6160    21.8920     2.2170   -21.7610 
   80.5000    74.8040     7.9120     6.0120     6.6540    22.0410     2.1850   -21.6310 
   80.6250    72.7230     8.2840     6.3020     6.7790    22.1590     2.1620   -21.5000 
   80.7500    69.3480     8.7040     6.6490     6.9040    22.2940     2.1490   -21.3710 
   80.8750    65.2910     9.0760     6.9940     7.0690    22.5400     2.1460   -21.2570 
   81.0000    64.2990     9.2600     7.2390     7.0950    22.6950     2.1510   -21.1730 
   81.1250    67.9410     9.0500     7.2270     7.3110    22.6260     2.1660   -21.1170 
   81.2500    72.7910     8.4570     6.9350     7.5380    22.4830     2.1870   -21.0940 
   81.3750    78.3880     7.5890     6.4140     7.2490    22.5510     2.2140   -21.1030 
   81.5000    86.7220     6.6500     5.7850     6.1160    22.9740     2.2440   -21.1610 
   81.6250    97.1170     5.8860     5.2060     5.3620    23.4230     2.2780   -21.2280 
   81.7500   103.9450     5.3870     4.7650     4.9880    23.7260     2.3130   -21.3200 
   81.8750   104.3550     5.1480     4.4790     4.8140    23.8640     2.3450   -21.4250 
   82.0000   100.2960     5.1020     4.3230     4.8250    23.9010     2.3660   -21.5700 
   82.1250    97.2090     5.1440     4.2510     4.9050    23.9450     2.3720   -21.7220 
   82.2500    98.0200     5.1440     4.1880     4.8890    23.9660     2.3700   -21.8630 
   82.3750   101.2000     5.0410     4.0930     4.7870    23.9670     2.3670   -21.9760 
   82.5000   103.0120     4.8310     3.9550     4.7440    23.9670     2.3670   -22.0460 
   82.6250   101.7300     4.5760     3.7980     4.7660    23.9670     2.3650   -22.0700 
   82.7500   101.1400     4.4180     3.6950     4.7800    23.9480     2.3560   -22.0550 
   82.8750   103.6140     4.5240     3.7430     4.7950    23.9100     2.3400   -21.9850 
   83.0000   105.1520     5.1190     4.0780     5.0630    23.8960     2.3310   -21.8380 
   83.1250   100.9110     6.7500     5.0240     6.4800    23.8900     2.3520   -21.6260 
   83.2500    91.1900     9.8380     6.8540    10.3940    23.8760     2.4070   -21.3780 
   83.3750    78.5630    14.8840     9.9860    19.7230    23.8380     2.4900   -21.1060 
   83.5000    66.6600    21.9580    14.7070    30.9750    23.7890     2.5790   -20.8310 
   83.6250    60.6510    29.5530    20.4490    38.9900    23.7680     2.6510   -20.5780 
   83.7500    59.0690    33.8290    24.4570    43.7830    23.7410     2.6820   -20.3640 
   83.8750    58.7270    32.1120    24.3100    47.1490    23.6540     2.6540   -20.2150 
   84.0000    59.6820    25.7770    20.4500    38.6060    23.4680     2.5680   -20.1170 
   84.1250    60.0350    19.0040    15.6500    22.3500    23.2580     2.4420   -20.0880 
   84.2500    58.6260    14.1240    11.8710    12.5500    23.2190     2.3180   -20.1170 
   84.3750    57.9580    11.1590     9.3440     8.4570    23.3580     2.2170   -20.2100 
   84.5000    59.7030     9.5870     7.8360     7.2020    23.4780     2.1560   -20.3490 
   84.6250    60.8850     9.0140     7.1450     6.9810    23.4390     2.1440   -20.5370 
   84.7500    58.8920     8.9200     6.9000     6.9480    23.3450     2.1530   -20.7150 
   84.8750    56.9700     9.0620     6.9180     6.9890    23.3250     2.1590   -20.8890 
   85.0000    58.3750     9.2620     7.0480     7.0920    23.4140     2.1520   -21.0570 
   85.1250    61.6030     9.3800     7.1730     7.1680    23.5030     2.1360   -21.2070 
   85.2500    64.0960     9.3760     7.2350     7.2040    23.5250     2.1260   -21.3380 
   85.3750    65.1350     9.2520     7.2190     7.2430    23.4840     2.1300   -21.4320 
   85.5000    65.0310     9.0450     7.1340     7.1350    23.4190     2.1460   -21.4970 
   85.6250    62.9750     8.8190     6.9990     6.9590    23.3780     2.1640   -21.5100 
   85.7500    60.7540     8.6260     6.8510     6.7690    23.3570     2.1740   -21.5060 
   85.8750    60.6720     8.4830     6.7090     6.6770    23.3590     2.1710   -21.4690 
   86.0000    62.9300     8.3900     6.5830     6.6980    23.3410     2.1570   -21.4050 
   86.1250    64.8140     8.3440     6.4830     6.7820    23.2570     2.1330   -21.3210 
   86.2500    64.7480     8.3380     6.4120     6.8630    23.2020     2.1100   -21.2010 
   86.3750    64.9600     8.3750     6.3780     7.0670    23.1810     2.0980   -21.0660 
   86.5000    66.5430     8.4520     6.3860     7.4530    23.1860     2.1040   -20.9040 
   86.6250    67.3320     8.5690     6.4420     7.7620    23.2070     2.1240   -20.7340 
   86.7500    64.0780     8.7080     6.5270     7.1740    23.2200     2.1410   -20.5660 
   86.8750    58.6840     8.8560     6.6250     6.9350    23.2240     2.1460   -20.4250 
   87.0000    56.9250     8.9980     6.7160     6.9240    23.2170     2.1400   -20.3120 
   87.1250    59.8780     9.1110     6.7850     6.9580    23.1570     2.1340   -20.2190 
   87.2500    62.7540     9.1920     6.8320     7.1090    23.0290     2.1370   -20.1630 
   87.3750    62.8170     9.2410     6.8590     7.2180    22.8760     2.1460   -20.1340 
   87.5000    60.1670     9.2650     6.8660     7.1900    22.8030     2.1550   -20.1600 
   87.6250    58.4480     9.2680     6.8530     7.1710    22.8430     2.1600   -20.2220 
   87.7500    59.5500     9.2490     6.8230     7.2220    22.9200     2.1620   -20.3190 
   87.8750    62.0770     9.2030     6.7800     7.1980    22.9180     2.1620   -20.4060 
   88.0000    63.5820     9.1370     6.7320     7.0800    22.8390     2.1590   -20.4890 
   88.1250    63.5630     9.0650     6.6910     6.9240    22.8720     2.1520   -20.5660 
   88.2500    63.4550     9.0080     6.6640     6.8040    23.0220     2.1430   -20.6330 
   88.3750    62.4040     8.9810     6.6530     6.7520    23.1820     2.1350   -20.6820 
   88.5000    60.3630     8.9880     6.6560     6.8040    23.2750     2.1290   -20.6970 
   88.6250    58.6610     9.0170     6.6680     6.9510    23.3100     2.1270   -20.6820 
   88.7500    57.2540     9.0420     6.6780     7.0000    23.3020     2.1270   -20.6210 
   88.8750    55.8010     9.0520     6.6790     7.0410    23.2510     2.1280   -20.5280 
   89.0000    55.3950     9.0460     6.6680     7.0980    23.1820     2.1290   -20.4040 
   89.1250    56.5800     9.0150     6.6380     7.0880    23.1520     2.1300   -20.2590 
   89.2500    57.8300     8.9600     6.5910     7.0220    23.1440     2.1310   -20.1110 
   89.3750    57.8600     8.8900     6.5360     6.9840    23.1440     2.1320   -19.9680 
   89.5000    57.1680     8.8310     6.4860     6.9490    23.1440     2.1310   -19.8300 
   89.6250    57.3850     8.8330     6.4670     6.9240    23.1440     2.1330   -19.6990 
   89.7500    57.8500     8.9160     6.4890     6.8760    23.1280     2.1370   -19.5950 
   89.8750    58.9880     9.0760     6.5520     6.8800    23.0670     2.1440   -19.5190 
   90.0000    61.5690     9.2740     6.6460     7.1700    22.9360     2.1510   -19.4760 
   90.1250    64.3490     9.4480     6.7470     7.3960    22.8740     2.1530   -19.4720 
   90.2500    65.8160     9.5520     6.8280     7.4620    22.8560     2.1490   -19.4950 
   90.3750    66.3950     9.5740     6.8700     7.3710    22.8500     2.1420   -19.5540 
   90.5000    66.2380     9.5280     6.8700     7.2810    22.8040     2.1370   -19.6350 
   90.6250    64.0740     9.4650     6.8450     7.2700    22.7730     2.1410   -19.7600 
   90.7500    61.3670     9.4460     6.8370     7.2330    22.7560     2.1520   -19.8760 
   90.8750    59.6430     9.4930     6.8700     7.1930    22.7580     2.1680   -19.9970 
