~V
VERS. 2.00: Ver 2.00
~W
STRT.M 55.0000:
STOP.M 217.0000:
STEP.M 0.1250:
NULL. -999.2500:
UWI. F10537:
~C
DEPT.M :
SP.MV :
DEN.GM/CC :
GR.API :
RML.OHMM :
RI. :
RXO.OHMM :
CALI.CM :
~A
# ...
  156.2500   -11.6530     2.4250    91.2880     4.4580     3.9680     3.5690    24.0780 
  156.3750   -11.5340     2.4220    93.1870     4.4480     3.9190     3.5940    24.1230 
  156.5000   -11.4330     2.4130    93.5420     4.6050     4.0230     3.7760    24.1460 
  156.6250   -11.3510     2.4100    90.9510     5.0400     4.3660     4.1080    24.0810 
  156.7500   -11.3050     2.4110    87.4350     5.8080     4.9950     4.6580    24.0840 
  156.8750   -11.2360     2.4070    81.4730     6.9870     5.9820     6.0370    24.0680 
  157.0000   -11.1650     2.3880    72.9360     8.5940     7.3720     9.0230    24.1090 
  157.1250   -11.1520     2.3490    65.8650    10.5250     9.1420    11.7910    24.2750 
  157.2500   -11.1590     2.3010    62.3820    12.3650    10.9500    13.8710    24.3600 
  157.3750   -11.2060     2.2570    62.6030    13.6650    12.3660    14.4260    24.3420 
  157.5000   -11.3050     2.2260    65.4560    14.0990    13.0020    15.0580    24.3240 
  157.6250   -11.4240     2.2100    66.1890    13.6400    12.7130    14.9390    24.3130 
  157.7500   -11.5800     2.2030    63.8570    12.9240    12.0520    13.9840    24.2810 
  157.8750   -11.7720     2.2120    61.4520    12.4050    11.4480    12.4510    24.2860 
  158.0000   -11.9520     2.2530    60.2800    12.3900    11.2050    10.7510    24.2500 
  158.1250   -12.1360     2.3490    58.6990    13.1660    11.6020    10.8100    24.0250 
  158.2500   -12.3000     2.4670    58.1250    14.6510    12.6180    13.9460    23.6930 
  158.3750   -12.4100     2.5470    59.7550    16.7520    14.2110    17.1670    23.2900 
  158.5000   -12.4710     2.5370    61.2540    19.2870    16.2580    17.1130    23.0740 
  158.6250   -12.4850     2.4400    58.5550    22.0070    18.5710    17.4700    23.6470 
  158.7500   -12.4380     2.3230    53.0620    24.6140    20.8650    18.7830    24.8730 
  158.8750   -12.3400     2.2230    47.5240    26.9400    22.9780    22.6030    26.0840 
  159.0000   -12.2270     2.1590    45.0600    28.8950    24.8310    27.7840    26.5810 
  159.1250   -12.0370     2.1430    48.4510    30.3420    26.3000    29.0030    26.5290 
  159.2500   -11.8190     2.1530    52.2130    31.3190    27.3730    27.3420    26.2230 
  159.3750   -11.5910     2.1760    53.2540    31.8530    28.0450    26.8770    25.7390 
  159.5000   -11.3490     2.1970    53.6150    31.9660    28.3470    28.5550    25.1980 
  159.6250   -11.1230     2.2100    54.4260    31.5260    28.1950    30.8240    24.9110 
  159.7500   -10.9150     2.2190    54.5750    30.6070    27.6400    31.5720    24.8270 
  159.8750   -10.7220     2.2290    54.5870    29.3900    26.7900    30.5120    24.8240 
  160.0000   -10.5370     2.2410    56.4050    28.1750    25.8550    27.5620    24.8010 
  160.1250   -10.4170     2.2490    58.0740    27.1880    25.0340    24.0530    24.7550 
  160.2500   -10.3330     2.2450    57.7210    26.2670    24.2600    21.8320    24.7720 
  160.3750   -10.2810     2.2310    57.2330    25.0830    23.2970    21.0750    24.7800 
  160.5000   -10.2930     2.2140    57.3460    23.2920    21.8410    19.7490    24.6780 
  160.6250   -10.2840     2.2060    60.7900    20.6340    19.5930    19.0270    24.5340 
  160.7500   -10.2870     2.2070    66.3230    17.5100    16.8330    17.2510    24.3360 
  160.8750   -10.3180     2.2140    70.5100    14.3920    13.9630    14.9980    23.9990 
  161.0000   -10.3360     2.2240    70.8120    11.7080    11.3880    12.5070    23.7410 
  161.1250   -10.3410     2.2430    70.6020     9.8370     9.4860     9.8290    23.7560 
  161.2500   -10.3360     2.2690    73.6320     8.7420     8.2730     7.2610    23.6790 
  161.3750   -10.3090     2.2950    78.0250     8.3880     7.7490     6.4520    23.5710 
  161.5000   -10.2260     2.3090    80.3170     8.6840     7.8570     6.3890    23.4360 
  161.6250   -10.1580     2.2990    77.9390     9.5060     8.5320     7.0880    23.3620 
  161.7500   -10.0190     2.2770    71.1660    10.3970     9.3870     8.9720    23.4580 
  161.8750    -9.8120     2.2540    63.5070    10.8810     9.9840    12.0510    23.6520 
  162.0000    -9.6040     2.2430    61.2970    10.5800     9.9140    13.6470    23.6370 
  162.1250    -9.3510     2.2490    68.2620     9.4630     9.0360    10.5560    23.3410 
  162.2500    -9.0980     2.2670    77.0100     8.1640     7.8810     7.1480    23.1400 
  162.3750    -8.8490     2.2910    81.2850     7.0970     6.8390     5.5370    23.1140 
  162.5000    -8.6090     2.3170    81.9280     6.4340     6.1150     5.0500    23.2320 
  162.6250    -8.4140     2.3400    83.8010     6.1940     5.7830     5.1940    23.4680 
  162.7500    -8.2890     2.3570    85.7720     6.1700     5.6840     5.3300    23.5650 
  162.8750    -8.2370     2.3680    86.4010     6.2260     5.6980     5.4700    23.5750 
  163.0000    -8.2490     2.3740    87.4970     6.2540     5.7190     5.6730    23.5740 
  163.1250    -8.3350     2.3710    91.1590     6.1900     5.6750     5.4840    23.5920 
  163.2500    -8.4720     2.3590    93.7220     6.0660     5.5760     5.1270    23.7210 
  163.3750    -8.6510     2.3420    92.6740     5.9260     5.4560     4.8640    23.9750 
  163.5000    -8.8480     2.3250    90.8610     5.8170     5.3510     4.9770    24.2300 
  163.6250    -9.0480     2.3110    90.8940     5.7740     5.2970     5.1500    24.3530 
  163.7500    -9.2480     2.3110    92.3760     5.7840     5.2870     5.1520    24.3870 
  163.8750    -9.4340     2.3240    93.4290     5.8200     5.3020     5.1330    24.3970 
  164.0000    -9.5990     2.3410    92.6180     5.8440     5.3160     5.2070    24.4010 
  164.1250    -9.7180     2.3540    90.3720     5.8310     5.3060     5.4720    24.3970 
  164.2500    -9.8000     2.3610    90.0920     5.7970     5.2840     5.6300    24.3990 
  164.3750    -9.8140     2.3670    92.8790     5.7710     5.2730     5.4070    24.4060 
  164.5000    -9.8190     2.3760    95.1110     5.7850     5.2950     5.2000    24.4230 
  164.6250    -9.7730     2.3900    93.7890     5.8660     5.3770     5.4110    24.4240 
  164.7500    -9.6690     2.4000    91.0280     5.9840     5.4990     5.9140    24.4140 
  164.8750    -9.5610     2.3970    88.6010     6.0930     5.6280     6.3740    24.4020 
  165.0000    -9.3920     2.3800    86.2050     6.1380     5.7150     6.0730    24.4250 
  165.1250    -9.2250     2.3580    85.7190     6.0650     5.7030     5.8160    24.4430 
  165.2500    -9.0530     2.3410    87.7780     5.8910     5.5910     5.5840    24.4470 
  165.3750    -8.8710     2.3350    90.1560     5.6530     5.4030     5.2740    24.4380 
  165.5000    -8.7140     2.3370    91.0590     5.4000     5.1750     4.9890    24.4340 
  165.6250    -8.6000     2.3430    92.5060     5.1730     4.9490     4.8200    24.4410 
  165.7500    -8.5220     2.3490    95.9630     4.9920     4.7500     4.7790    24.4380 
  165.8750    -8.4860     2.3560    97.1610     4.8790     4.6010     4.6050    24.4150 
  166.0000    -8.5440     2.3690    94.3510     4.8660     4.5340     4.3700    24.3910 
  166.1250    -8.6380     2.3870    90.6660     4.9850     4.5890     4.2740    24.3480 
  166.2500    -8.7850     2.4050    88.8680     5.1960     4.7390     4.1950    24.3380 
  166.3750    -9.0230     2.4180    88.3230     5.4410     4.9420     4.4450    24.3580 
  166.5000    -9.2700     2.4180    85.6050     5.6400     5.1310     5.3190    24.3940 
  166.6250    -9.5420     2.4010    81.4460     5.7420     5.2510     6.3250    24.4430 
  166.7500    -9.8290     2.3740    78.1450     5.8460     5.3620     6.0570    24.4770 
  166.8750   -10.0930     2.3500    77.0150     6.1440     5.6000     5.5200    24.5070 
  167.0000   -10.2900     2.3470    77.3500     6.8920     6.1610     5.4550    24.5400 
  167.1250   -10.4590     2.3830    74.8360     8.5510     7.4220     7.4430    24.4770 
  167.2500   -10.5610     2.4510    70.0480    12.3100     9.5760    12.6310    24.3440 
  167.3750   -10.5860     2.5340    64.8690    17.5000    12.7750    19.3920    24.1940 
