~V
VERS. 2.00: Ver 2.00
~W
STRT.M 59.0000:
STOP.M 201.0000:
STEP.M 0.1250:
NULL. -999.2500:
UWI. F10560:
~C
DEPT.M :
DEN.GM/CC :
SP.MV :
GR.API :
RML.OHMM :
RI. :
RXO.OHMM :
CALI.CM :
~A
# ...
  115.2500     2.5420   -24.7730    61.0190    58.4970    57.2390    54.0570    24.0360 
  115.3750     2.5530   -24.9170    61.2940    60.3330    58.9460    59.6790    24.1500 
  115.5000     2.5420   -25.0850    63.9790    61.9290    60.6020    64.3540    24.2650 
  115.6250     2.5080   -25.2440    63.0340    62.0640    61.1420    70.2860    24.2930 
  115.7500     2.4690   -25.3820    59.4710    60.5050    60.1830    68.8160    24.3110 
  115.8750     2.4410   -25.5110    57.8410    57.7230    57.9530    59.1070    24.3470 
  116.0000     2.4290   -25.6300    59.9970    54.7180    55.2290    50.3480    24.3960 
  116.1250     2.4260   -25.7240    61.5430    52.7170    53.1130    45.9300    24.4210 
  116.2500     2.4190   -25.7630    60.5690    52.1890    52.2250    44.4300    24.4320 
  116.3750     2.4100   -25.7510    60.4530    53.1350    52.7360    43.9300    24.4490 
  116.5000     2.4160   -25.7120    62.5080    55.0140    54.3010    44.0980    24.4720 
  116.6250     2.4540   -25.6690    64.4190    56.5840    55.9030    45.1610    24.3870 
  116.7500     2.5000   -25.6090    63.5910    56.6360    56.3060    50.3380    24.1790 
  116.8750     2.5120   -25.5300    62.2430    54.6780    54.8640    57.2700    24.0150 
  117.0000     2.4690   -25.4270    62.0700    51.1050    51.7480    51.8480    24.0560 
  117.1250     2.4030   -25.2870    61.2020    47.1430    47.9560    44.6010    24.2680 
  117.2500     2.3610   -25.1440    60.4720    44.1890    44.8860    40.5820    24.3570 
  117.3750     2.3510   -25.0010    60.5860    43.0150    43.3470    38.9140    24.3210 
  117.5000     2.3700   -24.8490    61.2730    43.9760    43.7700    39.5110    24.2520 
  117.6250     2.4100   -24.6880    61.5900    47.2560    46.5090    43.0020    24.2230 
  117.7500     2.4610   -24.5420    61.9640    51.7200    50.6460    51.2270    24.2120 
  117.8750     2.5140   -24.4100    61.2570    56.0810    55.0430    61.6460    24.1940 
  118.0000     2.5560   -24.3080    59.3750    58.8500    58.2030    68.0540    24.1530 
  118.1250     2.5810   -24.2520    59.3500    58.5090    58.3940    65.0670    24.1130 
  118.2500     2.6030   -24.2450    61.7910    55.7530    55.9880    57.0350    24.0850 
  118.3750     2.6290   -24.2840    63.2330    51.7080    51.9990    49.0890    24.0760 
  118.5000     2.6570   -24.3590    60.2790    47.5100    47.6320    42.7080    24.0750 
  118.6250     2.6650   -24.4800    54.5730    43.8730    43.7830    37.4470    24.0750 
  118.7500     2.6560   -24.6130    51.7760    40.6980    40.5120    37.2950    24.0740 
  118.8750     2.6440   -24.7740    53.8190    37.7380    37.6010    37.2590    24.0730 
  119.0000     2.6420   -24.9530    58.3540    34.8680    34.8440    33.5050    24.0710 
  119.1250     2.6480   -25.1700    60.8020    32.3040    32.3210    28.9010    24.0730 
  119.2500     2.6430   -25.3690    59.6740    30.3360    30.2750    24.8930    24.0740 
  119.3750     2.6200   -25.5360    57.3070    29.1660    28.9310    22.7150    24.0750 
  119.5000     2.5910   -25.6880    56.8080    28.8220    28.3760    24.7300    24.0750 
  119.6250     2.5700   -25.8060    57.7130    29.2450    28.6210    27.4200    24.0750 
  119.7500     2.5540   -25.9080    56.7170    29.9750    29.2540    30.8910    24.0680 
  119.8750     2.5360   -25.9740    53.8040    30.6000    29.8840    31.9700    24.0360 
  120.0000     2.5260   -26.0070    52.7160    30.7580    30.1370    30.1900    23.9590 
  120.1250     2.5280   -25.9800    54.7970    30.2740    29.7710    29.0410    23.8580 
  120.2500     2.5390   -25.9410    56.4140    29.5240    29.0620    27.7710    23.7480 
  120.3750     2.5570   -25.8790    56.3220    28.8840    28.3300    24.6680    23.6410 
  120.5000     2.5810   -25.8080    56.8870    28.6320    27.8730    22.8050    23.5850 
  120.6250     2.6010   -25.7580    60.5150    28.9270    27.9150    23.8820    23.5790 
  120.7500     2.5950   -25.7420    63.7900    29.5200    28.2860    27.8010    23.6090 
  120.8750     2.5610   -25.7440    64.6290    30.0760    28.6930    30.6030    23.7220 
  121.0000     2.5190   -25.7670    63.5320    30.1890    28.7780    30.9590    23.9310 
  121.1250     2.4850   -25.8030    60.1370    29.4320    28.1830    29.5730    24.1230 
  121.2500     2.4560   -25.8410    56.7880    28.0520    27.0760    28.0790    24.1810 
  121.3750     2.4270   -25.9030    57.8310    26.5330    25.7960    24.7940    24.1270 
  121.5000     2.4140   -25.9770    63.9280    25.4110    24.7410    21.7620    23.9640 
  121.6250     2.4330   -26.0320    68.5220    25.1010    24.2650    21.2040    23.8100 
  121.7500     2.4720   -26.0600    67.0810    25.3720    24.2880    22.5960    23.6810 
  121.8750     2.5100   -26.0650    62.5580    25.9020    24.6220    25.3990    23.5970 
  122.0000     2.5300   -26.0700    59.5660    26.3620    25.0120    27.4620    23.6410 
  122.1250     2.5150   -26.0950    60.9600    26.4920    25.2090    28.3840    23.9260 
  122.2500     2.4820   -26.1440    63.6330    26.3520    25.1910    27.7020    24.3370 
  122.3750     2.4530   -26.2080    64.5220    26.0920    25.0570    27.9080    24.6970 
  122.5000     2.4400   -26.2680    62.9720    25.8370    24.9080    27.7250    24.9010 
  122.6250     2.4350   -26.3170    61.4670    25.5210    24.7030    28.7520    25.0230 
  122.7500     2.4300   -26.3690    60.5100    24.9520    24.2940    28.0500    25.1300 
  122.8750     2.4360   -26.4400    58.8450    24.0240    23.5550    25.9370    25.1600 
  123.0000     2.4670   -26.5080    56.9520    22.8010    22.4540    22.7430    25.0780 
  123.1250     2.5220   -26.5710    55.6720    21.4820    21.0870    19.4310    24.8910 
  123.2500     2.5780   -26.6220    55.6130    20.2970    19.7400    17.7650    24.6930 
  123.3750     2.6160   -26.6590    57.1170    19.3580    18.6150    16.9870    24.5890 
  123.5000     2.6210   -26.6990    59.0330    18.6750    17.7950    16.2060    24.5850 
  123.6250     2.5920   -26.7700    60.5430    18.1780    17.2480    15.3210    24.6760 
  123.7500     2.5500   -26.8710    61.2090    17.6830    16.7730    15.7460    24.8560 
  123.8750     2.5100   -27.0040    61.5760    17.0690    16.2350    17.4670    25.0570 
  124.0000     2.4830   -27.1590    61.2130    16.3160    15.6070    17.3350    25.2090 
  124.1250     2.4770   -27.3390    59.8430    15.6220    15.0370    15.1470    25.2450 
  124.2500     2.4850   -27.5230    59.9930    15.2810    14.7310    13.1860    25.1920 
  124.3750     2.5030   -27.7300    64.2020    15.4760    14.8300    12.9010    25.0520 
  124.5000     2.5200   -27.9360    70.3400    16.2150    15.3800    14.3510    24.8120 
  124.6250     2.5210   -28.1210    73.5270    17.3630    16.3540    16.6460    24.4690 
  124.7500     2.5040   -28.2850    72.3330    18.5090    17.4300    18.1300    24.1050 
  124.8750     2.4780   -28.4260    69.4920    19.2860    18.2760    18.1200    23.9540 
  125.0000     2.4490   -28.5610    68.3750    19.4270    18.6070    17.0810    24.0970 
  125.1250     2.4150   -28.6650    68.3940    18.8650    18.2700    16.4370    24.5150 
  125.2500     2.3810   -28.7570    67.8200    17.7700    17.5780    17.0820    24.8890 
  125.3750     2.3590   -28.7900    66.6150    16.7370    16.7960    17.4690    24.9780 
  125.5000     2.3610   -28.7460    65.7460    16.1980    16.1120    17.1510    24.7820 
  125.6250     2.3820   -28.6120    65.6040    15.9100    15.6160    16.9930    24.3810 
  125.7500     2.4040   -28.3870    65.3960    15.7030    15.2250    17.6230    24.0680 
  125.8750     2.4100   -28.0930    65.8310    15.4680    14.8530    18.2130    23.9830 
  126.0000     2.3930   -27.7410    66.2990    15.1620    14.4520    17.5870    24.1250 
  126.1250     2.3620   -27.3800    66.8950    14.8320    14.0630    14.4440    24.5540 
  126.2500     2.3430   -27.0250    68.8580    14.6200    13.8050    13.4170    25.0630 
  126.3750     2.3440   -26.6970    70.7380    14.6910    13.7880    14.2090    25.3180 
