~V
VERS. 2.00: Ver 2.00
~W
STRT.M 55.0000:
STOP.M 217.0000:
STEP.M 0.1250:
NULL. -999.2500:
UWI. F10537:
~C
DEPT.M :
SP.MV :
DEN.GM/CC :
GR.API :
RML.OHMM :
RI. :
RXO.OHMM :
CALI.CM :
~A
# ...
  178.7500    -6.1590     2.5100    55.9380    10.3590     8.6140     8.3300    24.1090 
  178.8750    -6.3680     2.5060    56.4820    10.6740     8.7470     8.4220    23.9810 
  179.0000    -6.5470     2.4990    56.9540    11.3010     9.1640     8.7860    23.8600 
  179.1250    -6.7110     2.4930    56.7530    12.2110     9.8640     9.8030    23.8510 
  179.2500    -6.7760     2.4990    56.7600    13.1970    10.6830    11.4240    23.9010 
  179.3750    -6.7980     2.5220    57.3850    14.0520    11.4510    12.7970    23.9540 
  179.5000    -6.7670     2.5590    58.3340    14.5970    12.0000    13.6220    24.0120 
  179.6250    -6.6370     2.5940    59.1060    14.7060    12.1960    13.5800    24.0630 
  179.7500    -6.4980     2.6100    58.7940    14.5580    12.1540    13.2100    24.0240 
  179.8750    -6.3270     2.6060    57.9490    14.3230    12.0070    12.8750    23.9660 
  180.0000    -6.1380     2.5870    57.6040    14.1410    11.8720    13.1480    23.9580 
  180.1250    -5.9640     2.5650    58.6100    14.0860    11.8180    13.9860    23.9650 
  180.2500    -5.8390     2.5490    58.7770    14.1190    11.8340    14.8140    23.9890 
  180.3750    -5.7600     2.5430    57.1700    14.1860    11.8910    15.0090    23.9880 
  180.5000    -5.7600     2.5470    54.7180    14.2480    11.9580    14.0090    23.9780 
  180.6250    -5.8290     2.5530    53.0900    14.2950    12.0210    13.2470    23.9190 
  180.7500    -5.9460     2.5580    52.6670    14.3460    12.0800    13.5900    23.9210 
  180.8750    -6.1090     2.5590    54.3460    14.4260    12.1490    14.3060    23.9910 
  181.0000    -6.3090     2.5560    57.7770    14.5710    12.2560    14.1320    24.1420 
  181.1250    -6.5410     2.5450    59.4450    14.8330    12.4530    13.7740    24.2310 
  181.2500    -6.7850     2.5330    58.6860    15.1910    12.7370    13.4690    24.2620 
  181.3750    -7.0210     2.5300    56.7630    15.5930    13.0720    13.4340    24.2490 
  181.5000    -7.2370     2.5410    55.0840    15.9450    13.3870    14.3630    24.1890 
  181.6250    -7.4200     2.5600    56.0470    16.0950    13.5580    15.5260    24.1250 
  181.7500    -7.5670     2.5750    60.4280    16.0090    13.5400    15.3310    24.1490 
  181.8750    -7.7000     2.5800    65.6590    15.7430    13.3580    13.2480    24.2620 
  182.0000    -7.7930     2.5780    66.5800    15.4300    13.1040    11.8260    24.3160 
  182.1250    -7.8020     2.5780    63.7210    15.2460    12.9140    11.6110    24.2820 
  182.2500    -7.7960     2.5830    63.6570    15.2850    12.8830    12.0800    24.2370 
  182.3750    -7.7990     2.5910    67.5520    15.5890    13.0630    12.5260    24.2400 
  182.5000    -7.7750     2.6010    71.1160    16.1450    13.4610    12.6070    24.2840 
  182.6250    -7.7210     2.6140    69.7990    16.9020    14.0600    13.0180    24.3140 
  182.7500    -7.6160     2.6250    66.8030    17.6870    14.7270    14.6420    24.2900 
  182.8750    -7.4790     2.6310    66.1070    18.3310    15.3310    16.9240    24.2480 
  183.0000    -7.3720     2.6270    67.8190    18.6750    15.7360    17.0300    24.2160 
  183.1250    -7.3250     2.6070    66.5540    18.5760    15.7930    16.2650    24.3030 
  183.2500    -7.2930     2.5760    62.6200    18.1700    15.5710    15.4080    24.3790 
  183.3750    -7.2290     2.5380    61.0950    17.6340    15.1890    14.7960    24.4260 
  183.5000    -7.1590     2.5020    62.4170    17.1620    14.8100    14.2860    24.4310 
  183.6250    -7.1480     2.4800    62.8800    16.9180    14.5950    13.4440    24.4130 
  183.7500    -7.2080     2.4740    61.6690    16.8760    14.5610    13.0450    24.3870 
  183.8750    -7.3220     2.4840    61.7240    16.9810    14.6810    12.9680    24.3720 
  184.0000    -7.4700     2.4980    61.8350    17.1750    14.9080    13.6800    24.3270 
  184.1250    -7.6500     2.5080    60.2990    17.4330    15.2080    14.3430    24.2690 
  184.2500    -7.8550     2.5080    60.8410    17.7390    15.5470    14.1380    24.2940 
  184.3750    -8.0820     2.4970    64.2070    18.0900    15.9110    13.3340    24.3800 
  184.5000    -8.3430     2.4790    67.7770    18.4500    16.2650    13.9760    24.4280 
  184.6250    -8.6510     2.4600    68.6710    18.7220    16.5330    15.3780    24.4350 
  184.7500    -8.9660     2.4480    70.0840    18.8370    16.6610    15.9290    24.4280 
  184.8750    -9.2530     2.4420    72.8020    18.7680    16.6150    16.0020    24.3750 
  185.0000    -9.5210     2.4400    74.3110    18.5900    16.4310    16.2860    24.2780 
  185.1250    -9.8050     2.4420    72.8420    18.6120    16.3130    16.1370    24.3790 
  185.2500   -10.0980     2.4490    70.7290    19.2530    16.5850    16.1340    24.4370 
  185.3750   -10.4000     2.4560    69.2670    21.0280    17.6280    15.0990    24.4090 
  185.5000   -10.6990     2.4440    67.0100    24.5350    19.9120    14.3790    24.3570 
  185.6250   -10.9630     2.3900    62.4640    30.7150    24.3250    18.4780    24.4700 
  185.7500   -11.2180     2.3110    57.8290    39.1440    30.8550    28.7770    24.6560 
  185.8750   -11.5010     2.2340    55.7540    48.6940    38.9250    44.6270    24.7100 
  186.0000   -11.8170     2.1850    56.5720    57.0610    46.7940    61.6670    24.5480 
  186.1250   -12.1200     2.1910    57.0360    60.9630    51.4180    66.6190    24.4570 
  186.2500   -12.4210     2.2320    57.2760    60.9310    52.4160    56.5810    24.4110 
  186.3750   -12.7400     2.2820    61.5310    59.3870    51.3810    45.9620    24.3480 
  186.5000   -13.0860     2.3180    68.7640    59.0930    50.6190    42.2190    24.2820 
  186.6250   -13.4460     2.3330    70.5500    62.6480    52.5110    43.2320    24.2080 
  186.7500   -13.8250     2.3340    65.9540    70.6700    57.9670    47.1840    24.1300 
  186.8750   -14.2450     2.3250    63.5400    83.9640    67.8760    53.8380    24.0650 
  187.0000   -14.6980     2.3070    65.4780   103.2360    82.9990    59.2960    24.0110 
  187.1250   -15.1560     2.2820    64.0400   129.3200   104.1310    81.3160    24.0610 
  187.2500   -15.6130     2.2560    59.5000   158.5780   128.1330   110.9580    24.2190 
  187.3750   -16.0620     2.2320    57.9410   185.3960   150.5340   133.4990    24.3890 
  187.5000   -16.5050     2.2130    58.8520   203.0470   166.1860   131.6950    24.5270 
  187.6250   -16.9760     2.2080    56.4100   207.0900   171.2360   127.4170    24.6980 
  187.7500   -17.4660     2.2140    52.1670   204.5460   170.3230   109.6380    24.8770 
  187.8750   -17.9100     2.2200    50.4580   201.9320   168.4080    96.8010    25.0310 
  188.0000   -18.2870     2.2160    52.1680   203.1320   169.0450    80.7040    25.3010 
  188.1250   -18.6080     2.1990    54.5670   209.5330   173.8880    60.8020    25.6120 
  188.2500   -18.8880     2.1780    54.6170   219.4330   181.8360    53.0270    25.5620 
  188.3750   -19.1370     2.1640    52.8050   231.7500   192.2760    69.9960    25.0790 
  188.5000   -19.3610     2.1640    51.1450   244.4220   204.0060   109.0950    24.6120 
  188.6250   -19.5780     2.1730    50.1860   249.5740   211.6450   137.3920    24.4490 
  188.7500   -19.7700     2.1790    48.4960   238.8770   207.8510   147.0520    24.4200 
  188.8750   -19.9490     2.1820    47.8840   211.6170   189.5460   152.4900    24.4530 
  189.0000   -20.1310     2.1870    50.8460   177.9140   162.3110   136.9730    24.5340 
  189.1250   -20.3400     2.2050    55.6290   152.4420   138.1620    97.5880    24.5830 
  189.2500   -20.5700     2.2300    56.7440   140.9920   125.1170    74.3830    24.5780 
  189.3750   -20.8420     2.2480    53.1820   145.3170   126.7590    75.9660    24.5430 
  189.5000   -21.1320     2.2470    49.0830   165.2790   143.9690    90.9560    24.6060 
  189.6250   -21.3880     2.2270    48.4980   198.7550   174.8050   112.1610    24.7020 
  189.7500   -21.6320     2.2020    50.0390   230.1340   205.0180   127.3520    24.7380 
  189.8750   -21.8900     2.1830    51.0140   238.8480   217.2970   138.3460    24.7100 
