~V
VERS. 2.00: Ver 2.00
~W
STRT.M 46.0000:
STOP.M 208.0000:
STEP.M 0.1250:
NULL. -999.2500:
UWI. F10533:
~C
DEPT.M :
GR.API :
RML.OHMM :
RI. :
RXO.OHMM :
CALI.CM :
DEN.GM/CC :
SP.MV :
~A
# ...
  102.2500    58.8710     9.1340     7.1610     7.7520    23.1950     2.1680   -18.5730 
  102.3750    59.6820     9.1420     7.1680     7.8640    23.2110     2.1590   -18.6430 
  102.5000    60.2910     9.1100     7.1730     7.8060    23.2030     2.1530   -18.7500 
  102.6250    60.5140     9.0360     7.1570     7.5860    23.1780     2.1510   -18.8960 
  102.7500    60.6140     8.9290     7.1130     7.4250    23.1260     2.1540   -19.0610 
  102.8750    60.6400     8.7860     7.0340     7.3180    23.0240     2.1550   -19.2310 
  103.0000    61.0980     8.6060     6.9230     7.1640    22.8310     2.1540   -19.4030 
  103.1250    61.6430     8.4030     6.7920     7.1210    22.7160     2.1520   -19.5530 
  103.2500    60.0960     8.2120     6.6600     7.0930    22.6760     2.1510   -19.6870 
  103.3750    58.1380     8.0560     6.5440     6.9540    22.6740     2.1510   -19.8030 
  103.5000    59.2950     7.9440     6.4510     6.9000    22.6770     2.1470   -19.8790 
  103.6250    62.9520     7.8800     6.3910     7.0700    22.6760     2.1410   -19.8960 
  103.7500    64.1690     7.8520     6.3560     7.3700    22.6620     2.1330   -19.8700 
  103.8750    63.1930     7.8550     6.3510     7.6690    22.6400     2.1300   -19.7980 
  104.0000    62.6690     7.8880     6.3770     7.5660    22.6340     2.1370   -19.6840 
  104.1250    64.7450     7.9330     6.4340     7.2810    22.6510     2.1530   -19.5360 
  104.2500    66.5500     7.9670     6.4960     7.1510    22.6730     2.1650   -19.3660 
  104.3750    65.7040     7.9670     6.5290     7.0830    22.6880     2.1670   -19.1880 
  104.5000    62.6360     7.9060     6.4970     6.9810    22.6990     2.1590   -19.0190 
  104.6250    60.2590     7.7400     6.3680     6.9140    22.7160     2.1470   -18.8670 
  104.7500    61.4510     7.4850     6.1670     6.8020    22.7410     2.1390   -18.7260 
  104.8750    65.1080     7.1850     5.9330     6.4800    22.7790     2.1390   -18.6020 
  105.0000    66.9390     6.8950     5.7090     6.1640    22.8470     2.1460   -18.5000 
  105.1250    66.0010     6.6810     5.5400     6.0670    22.9110     2.1550   -18.4330 
  105.2500    65.4410     6.5480     5.4310     6.1000    22.9610     2.1610   -18.3780 
  105.3750    66.2980     6.4830     5.3760     6.1510    23.0110     2.1640   -18.3270 
  105.5000    66.1890     6.4640     5.3620     6.1780    23.0430     2.1640   -18.2800 
  105.6250    64.5080     6.4940     5.3820     6.2270    23.0520     2.1650   -18.2390 
  105.7500    63.6770     6.5710     5.4270     6.2870    23.0550     2.1690   -18.2190 
  105.8750    64.4300     6.6950     5.4950     6.3790    23.0560     2.1720   -18.2040 
  106.0000    65.5480     6.8520     5.5810     6.4710    23.0560     2.1720   -18.1880 
  106.1250    66.4520     7.0110     5.6720     6.5830    23.0560     2.1680   -18.1670 
  106.2500    66.2250     7.1320     5.7450     6.7030    23.0560     2.1610   -18.1490 
  106.3750    66.0580     7.1840     5.7840     6.7460    23.0570     2.1540   -18.1210 
  106.5000    65.7130     7.1530     5.7750     6.6860    23.0590     2.1490   -18.0850 
  106.6250    66.4860     7.0500     5.7170     6.7770    23.0630     2.1530   -18.0330 
  106.7500    69.6920     6.9420     5.6410     6.5830    23.0660     2.1670   -17.9500 
  106.8750    73.5420     6.8840     5.5770     6.2610    23.0680     2.1850   -17.8450 
  107.0000    75.4950     6.9120     5.5550     5.9490    23.0400     2.1980   -17.7250 
  107.1250    72.3340     7.0410     5.6050     6.2060    22.9450     2.1940   -17.5810 
  107.2500    66.5270     7.2210     5.7160     6.7710    22.8270     2.1790   -17.4100 
  107.3750    62.6930     7.4090     5.8660     7.1740    22.7730     2.1620   -17.2300 
  107.5000    63.3620     7.5680     6.0210     7.2810    22.7570     2.1510   -17.0350 
  107.6250    66.2930     7.6630     6.1350     7.2770    22.7530     2.1500   -16.8370 
  107.7500    66.7660     7.7000     6.1930     7.3140    22.7510     2.1560   -16.6470 
  107.8750    64.4180     7.6890     6.2010     7.3540    22.7510     2.1660   -16.4720 
  108.0000    62.9890     7.6530     6.1800     7.3630    22.7520     2.1770   -16.3090 
  108.1250    64.1290     7.6250     6.1630     7.4380    22.7550     2.1890   -16.1710 
  108.2500    66.0790     7.6300     6.1690     7.4080    22.7600     2.1960   -16.0710 
  108.3750    65.7470     7.6760     6.2030     7.2070    22.7730     2.1940   -15.9970 
  108.5000    62.4860     7.7450     6.2510     7.1180    22.8070     2.1810   -15.9550 
  108.6250    59.6430     7.7840     6.2800     7.2340    22.8740     2.1630   -15.9360 
  108.7500    59.9530     7.7320     6.2480     7.2500    22.9180     2.1510   -15.9330 
  108.8750    63.2920     7.5240     6.1120     7.0380    22.9600     2.1550   -15.9480 
  109.0000    68.3000     7.1200     5.8450     6.6550    23.0240     2.1750   -15.9850 
  109.1250    73.8530     6.5350     5.4480     6.1590    23.1690     2.2030   -16.0580 
  109.2500    80.2580     5.9290     5.0220     5.9790    23.3570     2.2230   -16.1590 
  109.3750    85.7380     5.4540     4.6620     5.6340    23.5050     2.2280   -16.2780 
  109.5000    86.5390     5.2280     4.4480     5.2090    23.4900     2.2200   -16.4060 
  109.6250    81.4950     5.3630     4.4640     5.1480    23.2520     2.2040   -16.5420 
  109.7500    75.8180     5.7760     4.6710     5.8670    22.9730     2.1910   -16.6720 
  109.8750    71.1070     6.3580     5.0160     6.8560    22.8250     2.1850   -16.7830 
  110.0000    65.6030     6.9540     5.4130     7.3020    22.7950     2.1880   -16.8460 
  110.1250    59.7100     7.3760     5.7500     7.1150    22.8060     2.1900   -16.8370 
  110.2500    57.9560     7.5820     5.9720     6.9620    22.8470     2.1850   -16.7750 
  110.3750    60.1970     7.6190     6.0820     6.9470    22.9400     2.1750   -16.6640 
  110.5000    63.6060     7.5810     6.1250     6.9510    23.0240     2.1660   -16.5220 
  110.6250    65.5860     7.5470     6.1470     6.9220    23.0570     2.1650   -16.3540 
  110.7500    64.7530     7.5260     6.1710     6.8450    23.0620     2.1680   -16.1860 
  110.8750    60.9770     7.4960     6.1930     6.7260    23.0650     2.1670   -16.0280 
  111.0000    57.6180     7.4580     6.2080     6.6430    23.0660     2.1570   -15.8940 
  111.1250    58.9400     7.4440     6.2150     6.6670    23.0720     2.1440   -15.7970 
  111.2500    62.3530     7.4770     6.2220     6.7380    23.1170     2.1400   -15.7200 
  111.3750    63.3580     7.5480     6.2320     6.7320    23.2440     2.1460   -15.6740 
  111.5000    61.6370     7.6010     6.2260     6.7140    23.4730     2.1570   -15.6550 
  111.6250    61.1200     7.4970     6.1300     6.6700    23.6940     2.1620   -15.6740 
  111.7500    62.3480     7.1590     5.8910     6.5580    23.8910     2.1660   -15.7100 
  111.8750    64.8400     6.5970     5.5050     6.1960    23.9620     2.1780   -15.7700 
  112.0000    68.6070     5.9280     5.0340     5.5860    23.8740     2.2060   -15.8630 
  112.1250    75.1740     5.3560     4.6040     4.8620    23.6570     2.2440   -15.9820 
  112.2500    81.6640     5.0270     4.3160     4.5550    23.4600     2.2710   -16.1190 
  112.3750    84.4220     5.0010     4.2210     4.6570    23.1830     2.2730   -16.2570 
  112.5000    81.9250     5.2590     4.3280     5.2340    22.8310     2.2510   -16.3570 
  112.6250    75.6190     5.7380     4.6300     5.6970    22.6440     2.2190   -16.4120 
  112.7500    70.3210     6.2800     5.0260     5.9200    22.5890     2.1920   -16.4250 
  112.8750    68.2700     6.7790     5.4380     6.1150    22.5840     2.1750   -16.3960 
  113.0000    68.2410     7.1590     5.7920     6.3480    22.5840     2.1680   -16.3090 
  113.1250    67.6110     7.3810     6.0270     6.6000    22.5750     2.1650   -16.1540 
  113.2500    67.4040     7.4950     6.1580     6.8230    22.5710     2.1610   -15.9550 
  113.3750    67.5810     7.5320     6.2060     6.9460    22.6240     2.1510   -15.7320 
