~V
VERS. 2.00: Ver 2.00
~W
STRT.M 52.0000:
STOP.M 224.0000:
STEP.M 0.1250:
NULL. -999.2500:
UWI. F10595:
~C
DEPT.M :
GR.API :
RML.OHMM :
RI. :
RXO.OHMM :
CALI.CM :
DEN.GM/CC :
SP.MV :
~A
# ...
   85.7500    64.3280    10.5040     7.9330     9.7950    23.9870     2.1570   -16.0860 
   85.8750    64.8710    10.0100     7.6720     9.8150    24.0050     2.1590   -15.9630 
   86.0000    67.9430     9.0630     7.0210     9.3120    23.9960     2.1800   -15.7840 
   86.1250    72.6560     7.8810     6.1410     8.3850    23.9260     2.2200   -15.5620 
   86.2500    76.0640     6.7730     5.2770     6.9280    23.8520     2.2680   -15.3190 
   86.3750    77.9420     5.9340     4.5920     5.6180    23.7940     2.3060   -15.0920 
   86.5000    78.9610     5.4340     4.1430     5.1850    23.7490     2.3260   -14.9130 
   86.6250    78.2740     5.2870     3.9450     5.3130    23.7280     2.3260   -14.8100 
   86.7500    75.0020     5.5450     4.0480     5.5960    23.7180     2.3080   -14.8260 
   86.8750    71.2000     6.1690     4.4260     5.9830    23.7170     2.2780   -14.9480 
   87.0000    68.0620     7.1630     5.0880     7.0440    23.7190     2.2450   -15.1660 
   87.1250    66.1930     8.4540     6.0120     8.3250    23.7150     2.2130   -15.4650 
   87.2500    65.5850     9.8400     7.1120    10.5040    23.7110     2.1880   -15.8250 
   87.3750    62.6760    10.9950     8.1500    11.8730    23.7120     2.1700   -16.2000 
   87.5000    56.9660    11.7000     8.9100    12.3440    23.7160     2.1600   -16.5540 
   87.6250    52.8150    11.9120     9.2710    12.3340    23.7220     2.1560   -16.8560 
   87.7500    54.1720    11.7500     9.2380    12.4580    23.7130     2.1570   -17.0740 
   87.8750    55.4860    11.4970     9.0590    12.4250    23.7060     2.1550   -17.2090 
   88.0000    53.2410    11.3260     8.9130    12.0860    23.7070     2.1440   -17.2680 
   88.1250    51.7460    11.4510     8.9530    11.9330    23.7100     2.1260   -17.2540 
   88.2500    57.1870    12.2350     9.3850    12.1310    23.6910     2.1310   -17.1660 
   88.3750    63.5220    13.6830    10.2320    12.8420    23.6210     2.1860   -17.0280 
   88.5000    64.2960    15.5150    11.3910    14.7740    23.5000     2.2960   -16.8520 
   88.6250    60.0580    17.0330    12.4920    19.2780    23.4130     2.4220   -16.6480 
   88.7500    57.5420    16.9980    12.7430    28.4020    23.3110     2.4770   -16.4230 
   88.8750    60.3580    15.2800    11.8740    29.0310    23.0620     2.4530   -16.1900 
   89.0000    66.5710    12.6070    10.2030    18.5010    22.7690     2.3890   -15.9570 
   89.1250    72.2020    10.0410     8.3640    10.2770    22.5900     2.3280   -15.7380 
   89.2500    73.2250     8.3360     6.9140     8.3220    22.5460     2.3020   -15.5500 
   89.3750    71.7300     7.4020     5.9550     7.9750    22.5410     2.3000   -15.4000 
   89.5000    71.8400     7.0940     5.4820     8.1060    22.5430     2.3040   -15.2940 
   89.6250    74.1690     7.2880     5.4600     7.9710    22.5500     2.2970   -15.2390 
   89.7500    76.0070     7.9640     5.9030     7.9030    22.5640     2.2730   -15.2350 
   89.8750    75.4470     8.9730     6.6620     8.5460    22.5770     2.2420   -15.2710 
   90.0000    72.4860    10.1860     7.6150     9.9470    22.5940     2.2120   -15.3360 
   90.1250    68.5330    11.3750     8.5730    11.4420    22.6070     2.1910   -15.4180 
   90.2500    65.6100    12.1630     9.2450    12.0050    22.6140     2.1820   -15.5010 
   90.3750    64.3240    12.4250     9.5240    11.6550    22.6160     2.1810   -15.5730 
   90.5000    63.4650    12.2080     9.4520    10.8500    22.6070     2.1810   -15.6310 
   90.6250    62.0370    11.6530     9.1340    10.5220    22.5800     2.1810   -15.6770 
   90.7500    60.7640    10.9100     8.6450    10.8220    22.5540     2.1830   -15.7170 
   90.8750    60.0160    10.2050     8.1180    11.3250    22.5440     2.1920   -15.7620 
   91.0000    60.2380     9.7700     7.6940    11.2860    22.5490     2.2070   -15.8170 
   91.1250    62.1160     9.8590     7.5380    10.2630    22.5670     2.2190   -15.8860 
   91.2500    66.2990    10.8330     7.8720     9.4530    22.5890     2.2180   -15.9760 
   91.3750    69.4270    12.6210     8.7090    11.2490    22.5750     2.2050   -16.0850 
   91.5000    69.2210    15.0100    10.0190    17.0670    22.5260     2.1860   -16.2130 
   91.6250    65.9450    17.5320    11.6280    22.4880    22.5270     2.1650   -16.3520 
   91.7500    62.7600    19.4930    13.1730    20.6330    22.6140     2.1420   -16.4880 
   91.8750    60.2540    20.6550    14.3420    17.6820    22.6640     2.1150   -16.6030 
   92.0000    57.2490    21.1350    15.0560    17.2480    22.5870     2.0890   -16.6850 
   92.1250    54.0200    21.1770    15.3890    19.0080    22.5290     2.0740   -16.7180 
   92.2500    52.7290    20.7800    15.3530    20.4180    22.5950     2.0810   -16.6840 
   92.3750    54.2340    19.8620    14.9470    21.0060    22.7160     2.1030   -16.5810 
   92.5000    57.6640    18.4570    14.1630    19.7200    22.7740     2.1280   -16.4000 
   92.6250    60.8980    16.9360    13.1830    16.7130    22.7750     2.1470   -16.1370 
   92.7500    62.0180    15.8710    12.3510    14.3210    22.7700     2.1580   -15.7800 
   92.8750    61.4370    15.3510    11.8270    12.8190    22.7670     2.1630   -15.3460 
   93.0000    61.4120    15.1210    11.5420    12.7960    22.7650     2.1670   -14.8480 
   93.1250    63.3570    14.7460    11.2680    13.7160    22.7400     2.1730   -14.2940 
   93.2500    66.6010    13.7630    10.6730    14.4650    22.6690     2.1830   -13.7010 
   93.3750    68.8130    12.3050     9.7240    13.7880    22.5750     2.1950   -13.0950 
   93.5000    71.0240    10.7200     8.5880    11.3320    22.5190     2.2050   -12.5010 
   93.6250    74.8380     9.3590     7.5050     8.5920    22.5250     2.2120   -11.9350 
   93.7500    78.8220     8.4570     6.6920     7.7620    22.5530     2.2240   -11.4320 
   93.8750    81.7810     7.9160     6.1530     7.5270    22.5870     2.2460   -11.0010 
   94.0000    84.7510     7.6470     5.8560     7.1010    22.6040     2.2810   -10.6570 
   94.1250    86.9110     7.5660     5.7460     6.7280    22.6030     2.3140   -10.4060 
   94.2500    88.2180     7.6000     5.7730     6.6080    22.5670     2.3240   -10.2600 
   94.3750    89.2930     7.6660     5.8580     6.8940    22.4870     2.3110   -10.1940 
   94.5000    88.3030     7.7300     5.9590     7.0700    22.3710     2.2880   -10.1960 
   94.6250    84.5990     7.7500     6.0380     7.2210    22.2310     2.2740   -10.2540 
   94.7500    82.8770     7.6470     6.0350     7.4050    22.1270     2.2800   -10.3500 
   94.8750    86.1220     7.4200     5.9340     7.4720    22.0900     2.3030   -10.4600 
   95.0000    89.5060     7.1310     5.7590     7.0950    22.0820     2.3340   -10.5670 
   95.1250    89.7050     6.8920     5.5680     6.6710    22.0310     2.3600   -10.6620 
   95.2500    88.5460     6.8580     5.4590     6.7170    21.9220     2.3670   -10.7320 
   95.3750    86.6400     7.0670     5.4940     7.0670    21.8150     2.3540   -10.7780 
   95.5000    83.7840     7.5360     5.7210     7.5130    21.6710     2.3370   -10.7960 
   95.6250    80.9700     8.2280     6.1510     8.0300    21.3980     2.3350   -10.7870 
   95.7500    80.1350     9.0000     6.7180     8.4090    20.9460     2.3580   -10.7480 
   95.8750    79.1390     9.5690     7.1990     8.9540    20.4440     2.3850   -10.6900 
   96.0000    76.7850     9.6740     7.3660     9.4800    19.8790     2.3900   -10.6180 
   96.1250    74.5210     9.2150     7.1000     8.7810    19.1220     2.3670   -10.5350 
   96.2500    75.9730     8.3270     6.4700     8.0200    18.4360     2.3330   -10.4500 
   96.3750    81.0880     7.4280     5.7880     6.8950    18.0850     2.3150   -10.3710 
   96.5000    86.5160     6.7520     5.2370     6.2790    18.0950     2.3210   -10.3040 
   96.6250    88.8770     6.3840     4.8970     6.0950    18.3530     2.3380   -10.2540 
   96.7500    87.9880     6.3400     4.7940     6.1830    18.7950     2.3460   -10.2300 
   96.8750    88.6180     6.4790     4.8360     6.3980    19.4140     2.3400   -10.2300 
