~V
VERS. 2.00: Ver 2.00
~W
STRT.M 47.0000:
STOP.M 254.0000:
STEP.M 0.1250:
NULL. -999.2500:
UWI. F10599:
~C
DEPT.M :
DEN.GM/CC :
SP.MV :
GR.API :
RML.OHMM :
RI. :
RXO.OHMM :
CALI.CM :
~A
# ...
  227.0000     2.3150    -5.9110    71.6680     5.1740     4.3860     5.7110    25.1390 
  227.1250     2.3100    -5.8070    69.3720     5.1060     4.2500     5.7650    25.1390 
  227.2500     2.3110    -5.7010    70.4100     5.0560     4.2480     5.8250    25.1390 
  227.3750     2.3140    -5.6060    74.2850     5.0250     4.3550     5.8790    25.1390 
  227.5000     2.3170    -5.4900    76.5840     5.0200     4.4710     5.9170    25.1390 
  227.6250     2.3210    -5.3600    76.5930     5.0460     4.5480     5.8470    25.1390 
  227.7500     2.3230    -5.2310    74.4480     5.0910     4.5910     5.7490    25.1350 
  227.8750     2.3290    -5.1070    70.6630     5.1300     4.6330     5.7700    25.1060 
  228.0000     2.3440    -5.0200    66.2570     5.1310     4.6850     5.9410    25.0540 
  228.1250     2.3670    -4.9700    61.7040     5.0900     4.7410     6.1410    25.0070 
  228.2500     2.3960    -4.9560    58.7840     5.0600     4.8040     6.3730    24.9890 
  228.3750     2.4180    -4.9700    59.8100     5.1520     4.8920     6.6280    24.9890 
  228.5000     2.4290    -5.0140    62.9750     5.3530     5.0140     6.8880    24.9890 
  228.6250     2.4300    -5.0630    65.5850     5.5710     5.1670     7.1560    24.9890 
  228.7500     2.4260    -5.1330    66.7670     5.7220     5.3340     7.4790    24.9890 
  228.8750     2.4230    -5.2510    66.7310     5.8170     5.5170     7.7660    24.9890 
  229.0000     2.4180    -5.3800    65.4790     6.0060     5.7380     8.3590    24.9890 
  229.1250     2.4100    -5.5050    64.5940     6.3960     5.9990     9.2350    24.9840 
  229.2500     2.4030    -5.6270    65.9000     6.9470     6.2500    10.5100    24.9680 
  229.3750     2.3990    -5.7400    69.3210     7.4060     6.3830    11.0260    24.9240 
  229.5000     2.3930    -5.8530    71.5110     7.5380     6.3600    10.5750    24.8770 
  229.6250     2.3780    -5.9940    71.4220     7.2900     6.1900     8.7560    24.8230 
  229.7500     2.3590    -6.1520    69.0910     6.7610     5.9360     7.2210    24.7500 
  229.8750     2.3480    -6.2670    67.8650     6.1490     5.6540     6.5290    24.6760 
  230.0000     2.3500    -6.3480    69.2800     5.6570     5.3840     6.3250    24.6340 
  230.1250     2.3560    -6.4100    70.7560     5.3810     5.1470     6.1950    24.6230 
  230.2500     2.3550    -6.4510    70.9390     5.3380     4.9560     6.1130    24.6330 
  230.3750     2.3430    -6.4800    70.3920     5.4660     4.8430     6.1690    24.7270 
  230.5000     2.3270    -6.5030    70.5920     5.6090     4.8300     6.4140    24.9700 
  230.6250     2.3110    -6.5220    71.6780     5.6890     4.9260     6.7790    25.3050 
  230.7500     2.3000    -6.5190    73.3580     5.7030     5.0890     7.2120    25.5160 
  230.8750     2.3020    -6.5090    74.7710     5.7090     5.2370     7.6710    25.5700 
  231.0000     2.3120    -6.5220    77.2360     5.7380     5.3170     7.9620    25.5720 
  231.1250     2.3230    -6.5250    82.1720     5.7700     5.3210     7.7940    25.5730 
  231.2500     2.3300    -6.5000    87.1000     5.7640     5.2840     7.3460    25.5810 
  231.3750     2.3400    -6.4610    87.2340     5.7050     5.2610     7.3540    25.6000 
  231.5000     2.3560    -6.4060    82.8160     5.6460     5.2590     7.4540    25.6130 
  231.6250     2.3750    -6.3370    76.1000     5.6330     5.2460     7.3930    25.5970 
  231.7500     2.3910    -6.2620    69.9420     5.6940     5.2070     7.3440    25.5790 
  231.8750     2.4030    -6.1830    66.6220     5.8230     5.1660     7.5820    25.5720 
  232.0000     2.4120    -6.1000    66.2450     5.9700     5.1690     7.8380    25.5720 
  232.1250     2.4170    -6.0320    66.6150     6.1180     5.2440     7.9160    25.5720 
  232.2500     2.4180    -5.9630    67.7920     6.2740     5.3930     7.9650    25.5720 
  232.3750     2.4210    -5.9100    70.5090     6.4420     5.5740     8.1390    25.5720 
  232.5000     2.4270    -5.8530    71.9870     6.5810     5.7280     8.3630    25.5720 
  232.6250     2.4300    -5.7920    70.2860     6.6320     5.8170     8.4810    25.5730 
  232.7500     2.4290    -5.7370    66.3120     6.5460     5.8200     8.4890    25.5810 
  232.8750     2.4240    -5.6880    65.3780     6.2960     5.7180     8.2750    25.6040 
  233.0000     2.4150    -5.6580    67.7090     5.9960     5.5350     7.7760    25.6340 
  233.1250     2.4000    -5.6320    69.1610     5.7470     5.2870     7.0760    25.6520 
  233.2500     2.3800    -5.6270    67.3310     5.5800     4.9990     6.3040    25.6810 
  233.3750     2.3630    -5.5970    61.7810     5.4490     4.7190     5.7950    25.7470 
  233.5000     2.3530    -5.5820    55.6860     5.2990     4.5080     5.5810    25.8120 
  233.6250     2.3520    -5.5940    52.6430     5.1510     4.3980     5.5470    25.8140 
  233.7500     2.3560    -5.6090    54.5830     5.0750     4.3860     5.6560    25.7960 
  233.8750     2.3600    -5.6260    58.2690     5.1580     4.4520     5.8430    25.7890 
  234.0000     2.3580    -5.6090    60.0530     5.3510     4.5520     6.0600    25.7890 
  234.1250     2.3480    -5.5830    62.1520     5.5460     4.6750     6.1660    25.7890 
  234.2500     2.3270    -5.5660    64.9370     5.6290     4.8200     6.1230    25.7890 
  234.3750     2.3030    -5.6000    64.8820     5.5420     4.9730     5.9850    25.7820 
  234.5000     2.2910    -5.6270    61.5590     5.3710     5.0960     6.0260    25.7430 
  234.6250     2.3040    -5.6180    57.8000     5.2040     5.1610     6.2110    25.6560 
  234.7500     2.3370    -5.6150    56.0920     5.0960     5.1570     6.4780    25.5910 
  234.8750     2.3670    -5.6050    57.2100     5.0520     5.0770     6.7600    25.5690 
  235.0000     2.3720    -5.6180    58.4340     4.9980     4.9420     6.6820    25.5710 
  235.1250     2.3510    -5.6500    58.1970     4.8960     4.7810     6.2640    25.5720 
  235.2500     2.3170    -5.7130    57.7670     4.7680     4.6430     5.8980    25.5720 
  235.3750     2.2970    -5.8010    60.3090     4.7250     4.6020     5.7500    25.5720 
  235.5000     2.2990    -5.9750    63.3840     4.8600     4.6810     5.9720    25.5720 
  235.6250     2.3090    -6.2360    67.5260     5.2090     4.8870     6.5750    25.5720 
  235.7500     2.3110    -6.5550    76.7150     5.7290     5.2130     7.6070    25.5720 
  235.8750     2.3050    -6.9210    88.7970     6.2830     5.6270     8.7150    25.5710 
  236.0000     2.3060    -7.2330    94.7450     6.6730     6.0100     9.3990    25.5720 
  236.1250     2.3160    -7.4520    92.2880     6.7900     6.2270     9.3640    25.6130 
  236.2500     2.3300    -7.5380    86.9700     6.6430     6.1870     8.5490    25.7590 
  236.3750     2.3420    -7.4710    83.2400     6.3220     5.8830     7.5670    26.0930 
  236.5000     2.3470    -7.2910    80.1170     5.9730     5.4930     7.1020    26.4060 
  236.6250     2.3460    -7.0330    76.7140     5.6410     5.1430     6.8270    26.5530 
  236.7500     2.3410    -6.6960    73.1100     5.3400     4.8940     6.4700    26.3770 
  236.8750     2.3390    -6.3480    70.2710     5.1190     4.7480     6.1610    25.8120 
  237.0000     2.3490    -6.0700    66.6120     5.0310     4.6730     6.0960    25.2440 
  237.1250     2.3730    -5.8750    60.5990     5.1130     4.6750     6.2880    25.0520 
  237.2500     2.4050    -5.7490    54.4140     5.3530     4.7760     6.6790    25.1310 
  237.3750     2.4330    -5.6690    53.4530     5.7000     4.9960     7.0160    25.2340 
  237.5000     2.4530    -5.5970    54.0950     6.0330     5.2730     7.3820    25.2710 
  237.6250     2.4600    -5.5160    52.4450     6.2740     5.5280     7.9360    25.2770 
  237.7500     2.4520    -5.4440    49.2740     6.3950     5.6860     8.4820    25.2770 
  237.8750     2.4280    -5.3820    49.5880     6.3880     5.7120     8.0210    25.2750 
  238.0000     2.4070    -5.3100    53.3020     6.3150     5.6700     7.3650    25.2780 
  238.1250     2.3990    -5.2520    56.8270     6.2340     5.6100     7.0440    25.2960 
