~V
VERS. 2.00: Ver 2.00
~W
STRT.M 60.0000:
STOP.M 207.0000:
STEP.M 0.1250:
NULL. -999.2500:
UWI. F10577:
~C
DEPT.M :
DEN.GM/CC :
SP.MV :
GR.API :
RML.OHMM :
RI. :
RXO.OHMM :
CALI.CM :
~A
# ...
  105.0000     2.1220   -14.7700    79.5040    26.9510    21.2790    17.4210    23.4340 
  105.1250     2.1110   -14.7670    79.3090    26.4340    20.4640    16.4110    23.4320 
  105.2500     2.0940   -14.7550    81.5810    27.4490    20.7640    16.7430    23.4300 
  105.3750     2.0780   -14.7480    83.0300    30.0090    22.2940    19.2370    23.4300 
  105.5000     2.0690   -14.7340    82.1030    34.0760    25.0970    22.7110    23.4290 
  105.6250     2.0660   -14.6880    80.4230    39.6940    29.2770    24.7230    23.4300 
  105.7500     2.0650   -14.6120    78.3770    46.2340    34.3350    26.0540    23.4320 
  105.8750     2.0630   -14.5450    74.8940    53.1300    39.8270    28.7840    23.4320 
  106.0000     2.0610   -14.4780    71.4790    59.7390    45.2280    34.1130    23.4340 
  106.1250     2.0590   -14.4120    70.8950    65.2410    49.9070    40.5490    23.4290 
  106.2500     2.0590   -14.3490    71.7490    69.3270    53.6040    42.9490    23.3970 
  106.3750     2.0600   -14.2780    70.8800    71.8460    56.1930    40.5790    23.3260 
  106.5000     2.0570   -14.2270    68.9450    72.9450    57.7840    37.0280    23.2520 
  106.6250     2.0490   -14.2010    68.9820    72.8030    58.5910    35.1620    23.2230 
  106.7500     2.0410   -14.2000    70.1460    71.7730    58.9420    35.0450    23.2180 
  106.8750     2.0350   -14.2120    71.0630    69.7770    58.7440    36.3030    23.2180 
  107.0000     2.0350   -14.2460    72.2710    66.7500    57.7590    38.8730    23.2180 
  107.1250     2.0410   -14.3130    74.7600    62.7540    55.6610    41.8180    23.2140 
  107.2500     2.0500   -14.4260    77.1050    58.2190    52.6400    42.4380    23.1800 
  107.3750     2.0620   -14.5800    78.6570    53.0920    48.6760    39.5730    23.0510 
  107.5000     2.0800   -14.7220    79.3220    46.9590    43.5080    34.8280    22.7510 
  107.6250     2.1120   -14.8540    77.9830    39.2910    36.7640    29.6940    22.1670 
  107.7500     2.1560   -15.0090    78.6810    30.8720    29.3520    24.6540    21.4810 
  107.8750     2.1980   -15.1530    84.0670    22.9700    22.3980    18.6780    20.9050 
  108.0000     2.2220   -15.2470    91.5420    16.7030    16.7600    12.7630    20.5930 
  108.1250     2.2180   -15.2680    98.3950    12.7860    12.9680     8.6480    20.5810 
  108.2500     2.2010   -15.1980   103.1060    10.5690    10.5530     7.3030    20.7780 
  108.3750     2.1880   -15.0730   103.6570     9.5840     9.2220     7.1710    21.2070 
  108.5000     2.1810   -14.9350    98.8930     9.4400     8.7350     7.4280    21.8350 
  108.6250     2.1770   -14.7860    94.6930     9.9640     9.0260     7.8490    22.3740 
  108.7500     2.1710   -14.6090    95.4690    10.9330     9.8510     8.6210    22.6420 
  108.8750     2.1620   -14.4230    97.3400    12.2820    11.0910     9.9930    22.7150 
  109.0000     2.1530   -14.2580    96.4290    13.8750    12.5920    12.1960    22.7280 
  109.1250     2.1490   -14.1620    92.5750    15.4270    14.1310    13.4080    22.7570 
  109.2500     2.1460   -14.1170    88.0600    16.6270    15.4250    13.3770    22.8280 
  109.3750     2.1400   -14.0960    85.2910    17.3210    16.2820    13.0320    22.9590 
  109.5000     2.1330   -14.0930    83.2280    17.5720    16.6780    13.0480    23.1620 
  109.6250     2.1290   -14.1140    80.3520    17.6550    16.7710    13.4800    23.4060 
  109.7500     2.1280   -14.1230    78.4480    17.8970    16.8810    14.2750    23.5720 
  109.8750     2.1260   -14.1370    78.4250    18.4420    17.1990    15.5590    23.6260 
  110.0000     2.1220   -14.1600    80.5970    19.3630    17.8440    16.8980    23.5960 
  110.1250     2.1170   -14.1860    82.5000    20.8490    19.0040    18.2510    23.4430 
  110.2500     2.1190   -14.2610    82.5950    22.9960    20.7400    18.4260    23.1790 
  110.3750     2.1380   -14.3490    81.8380    25.9170    23.1370    19.1820    22.9040 
  110.5000     2.1810   -14.4530    81.7280    29.5300    26.1570    21.6610    22.7120 
  110.6250     2.2390   -14.5610    80.7810    33.2870    29.4510    25.9620    22.6290 
  110.7500     2.2890   -14.7250    76.8050    35.9530    32.0170    30.5440    22.5940 
  110.8750     2.3190   -14.9150    73.0720    36.0900    32.5310    30.8980    22.5840 
  111.0000     2.3380   -15.1240    70.9290    32.8160    30.0490    25.5040    22.5630 
  111.1250     2.3540   -15.3290    69.2320    26.6830    24.9560    22.2120    22.4530 
  111.2500     2.3590   -15.5030    69.5710    20.4160    19.6400    18.4750    22.2000 
  111.3750     2.3420   -15.6860    75.1390    15.5570    15.4210    13.7240    21.8500 
  111.5000     2.3120   -15.8690    84.0790    12.6730    12.7690     9.0550    21.5060 
  111.6250     2.3040   -16.0690    89.4470    12.1070    11.9660     8.3760    21.3910 
  111.7500     2.3300   -16.2260    88.0260    13.5300    12.7770     9.9630    21.5480 
  111.8750     2.3790   -16.3510    80.2510    17.1150    15.4650    14.4440    21.9980 
  112.0000     2.4340   -16.4490    70.7070    22.9840    20.4350    20.2920    22.5000 
  112.1250     2.4830   -16.4900    66.9600    30.6470    27.9450    29.0310    22.6420 
  112.2500     2.5110   -16.4920    67.4540    37.1950    35.4110    34.8660    22.5650 
  112.3750     2.4990   -16.4380    67.2080    38.9940    38.6220    39.2330    22.4800 
  112.5000     2.4440   -16.3450    64.6860    34.3300    34.9320    39.3190    22.4350 
  112.6250     2.3740   -16.2090    64.8680    25.8180    26.7940    27.1700    22.3470 
  112.7500     2.3240   -16.0520    72.6720    18.4280    19.4780    16.4920    22.2740 
  112.8750     2.3100   -15.9090    85.4990    13.7590    14.5800    10.5220    22.2600 
  113.0000     2.3320   -15.7900    98.1830    11.7910    12.0780     8.3470    22.3010 
  113.1250     2.3850   -15.7320   103.7460    12.4680    11.8780     8.6490    22.3380 
  113.2500     2.4510   -15.7350    99.9820    15.2530    13.5340    11.2500    22.3310 
  113.3750     2.5120   -15.7790    89.6950    20.1450    17.2320    16.8170    22.3040 
  113.5000     2.5510   -15.8390    78.4290    26.8350    23.0560    23.1740    22.2810 
  113.6250     2.5520   -15.9130    71.2410    33.9960    30.2780    26.4560    22.2410 
  113.7500     2.5280   -16.0190    67.4270    39.2730    36.3480    25.1290    22.2000 
  113.8750     2.4940   -16.1330    66.4870    41.3760    39.4090    22.3700    22.1760 
  114.0000     2.4670   -16.2540    67.0510    40.9130    39.5700    20.6660    22.1940 
  114.1250     2.4610   -16.3790    65.0880    39.8170    38.4790    20.1270    22.2980 
  114.2500     2.4710   -16.4790    61.9770    39.6470    37.8520    21.0400    22.4670 
  114.3750     2.4820   -16.5800    61.7190    40.6710    38.1440    24.8470    22.6520 
  114.5000     2.4770   -16.6810    65.1930    42.5290    39.2080    30.7270    22.7810 
  114.6250     2.4520   -16.7250    66.1300    44.5230    40.5650    32.0150    22.9030 
  114.7500     2.4180   -16.7020    63.5870    46.0680    41.6730    27.6430    23.0650 
  114.8750     2.3850   -16.5880    61.1670    47.0390    42.3780    24.2560    23.1820 
  115.0000     2.3540   -16.3940    60.4160    47.5800    42.7870    24.0840    23.2230 
  115.1250     2.3240   -16.1820    59.9440    47.8900    43.1310    27.2610    23.2070 
  115.2500     2.3000   -15.9580    60.7530    48.1390    43.5650    30.5140    23.1130 
  115.3750     2.2920   -15.6780    63.6890    48.3990    44.0930    30.8750    22.8240 
  115.5000     2.3070   -15.3750    65.9340    48.7600    44.6780    27.9360    22.3590 
  115.6250     2.3380   -15.1150    64.1260    49.3820    45.3200    25.3150    21.7980 
  115.7500     2.3650   -14.9110    62.3060    50.3170    46.0990    23.6540    21.4080 
  115.8750     2.3790   -14.7930    62.9110    51.5670    47.1340    21.8870    21.1750 
  116.0000     2.3790   -14.7460    64.2750    53.0550    48.4610    20.6520    21.0450 
  116.1250     2.3740   -14.7080    63.8640    54.5810    49.9470    19.6280    20.9360 
