~V
VERS. 2.00: Ver 2.00
~W
STRT.M 52.0000:
STOP.M 220.0000:
STEP.M 0.1250:
NULL. -999.2500:
UWI. F10539:
~C
DEPT.M :
SP.MV :
DEN.GM/CC :
GR.API :
RML.OHMM :
RI. :
RXO.OHMM :
CALI.CM :
~A
# ...
  209.5000   -16.7030     2.2660    74.3820    93.8430    84.2640   151.4920    23.7130 
  209.6250   -16.6690     2.2460    74.3820    92.2970    83.3990   138.3220    24.1250 
  209.7500   -16.6080     2.2330    74.3820    86.5080    78.9390   101.9300    24.3760 
  209.8750   -16.5330     2.2320    74.3820    77.5910    71.5930    78.3560    24.2280 
  210.0000   -16.4390     2.2390    74.3820    68.0560    63.3760    72.2990    23.8690 
  210.1250   -16.3160     2.2470    74.3820    60.8080    56.8410    67.1050    23.8560 
  210.2500   -16.1890     2.2530    74.3820    56.6340    52.9310    52.1450    24.1410 
  210.3750   -16.0750     2.2610    74.3820    55.3170    51.6440    45.5380    24.2310 
  210.5000   -15.9500     2.2720    74.3820    55.9680    52.3480    53.9870    23.9250 
  210.6250   -15.7800     2.2780    74.3820    57.2370    53.9730    73.0880    23.6730 
  210.7500   -15.6500     2.2710    74.3820    57.6670    55.0690    85.7920    23.7090 
  210.8750   -15.5340     2.2540    74.3820    56.6710    54.8800    79.6830    23.8410 
  211.0000   -15.4420     2.2380    74.3820    54.4830    53.3820    62.6180    23.8270 
  211.1250   -15.3920     2.2360    74.3820    51.9430    51.1930    50.5690    23.5900 
  211.2500   -15.3590     2.2430    74.3820    49.7980    49.1390    52.3120    23.4470 
  211.3750   -15.3320     2.2500    74.3820    48.1060    47.4010    58.8430    23.3770 
  211.5000   -15.3010     2.2520    74.3820    46.5450    45.7720    58.9670    23.3300 
  211.6250   -15.2890     2.2530    74.3820    44.6490    43.8600    49.2310    23.3100 
  211.7500   -15.1910     2.2540    74.3820    42.4560    41.6810    42.8860    23.3370 
  211.8750   -15.0560     2.2560    74.3820    40.5500    39.7300    40.0240    23.4330 
  212.0000   -14.9220     2.2570    74.3820    39.9920    38.9060    36.8950    23.5400 
  212.1250   -14.6800     2.2620    74.3820    42.8780    41.0070    38.7810    23.5120 
  212.2500   -14.3630     2.2850    74.3820    50.7670    47.5770    47.0880    23.4680 
  212.3750   -13.9810     2.3370    74.3820    66.3510    61.5820    68.5860    23.4490 
  212.5000   -13.5900     2.4250    74.3820    94.0610    87.9210   116.5950    23.4480 
  212.6250   -13.1530     2.5400    74.3820   165.8640   138.2200   186.0390    23.4560 
  212.7500   -12.7750     2.6520    74.3820   261.5370   217.9480   237.4080    23.4810 
  212.8750   -12.4370     2.7320    74.3820   394.6300   328.8590   224.4340    23.5100 
  213.0000   -12.1000     2.7630    74.3820   546.3010   455.2510   163.3840    23.5510 
  213.1250   -11.8120     2.7390    74.3820   662.1890   551.8240    67.8830    23.6360 
  213.2500   -11.5650     2.6830    74.3820   717.9590   598.2990    25.5700    23.7920 
  213.3750   -11.3680     2.6160    74.3820   732.5130   610.4280    10.6290    23.9530 
  213.5000   -11.1770     2.5560    74.3820   734.0910   611.7430     6.8490    23.9700 
  213.6250   -11.0840     2.5160    74.3820   734.6590   612.2160     7.3520    23.9550 
  213.7500   -11.0180     2.4900    74.3820   735.0970   612.5810     7.9440    23.9440 
  213.8750   -10.9610     2.4730    74.3820   735.3140   612.7620     8.8500    23.9610 
  214.0000   -10.9260     2.4660    74.3820   735.3300   612.7750    10.7410    23.9830 
  214.1250   -10.9560     2.4840    74.3820   735.2660   612.7210    15.7590    23.9650 
  214.2500   -11.0290     2.5370    74.3820   735.3300   612.7750    25.5180    23.8400 
  214.3750   -11.1570     2.6190    74.3820   735.6610   613.0510    30.8450    23.7320 
  214.5000   -11.3580     2.7060    74.3820   736.2730   613.5610    21.7710    23.6710 
  214.6250   -11.5650     2.7610    74.3820   737.0850   614.2370    19.3120    23.6070 
  214.7500   -11.7450     2.7920    74.3820   737.9150   614.9290    18.5250    23.4960 
  214.8750   -11.9250     2.8210    74.3820   738.6650   615.5540    16.9540    23.4150 
  215.0000   -12.0950     2.8500    74.3820   739.3050   616.0870    12.4460    23.3750 
  215.1250   -12.2580     2.8440    74.3820   739.3050   616.0870     8.0930    23.4640 
  215.2500   -12.3910     2.7920    74.3820   739.3050   616.0870     5.2460    23.6570 
  215.3750   -12.4870     2.7060    74.3820   739.3050   616.0870     4.5080    23.8710 
  215.5000   -12.5280     2.6090    74.3820   739.3050   616.0870     4.3650    23.9430 
  215.6250   -12.5600     2.5260    74.3820   739.3050   616.0870     4.2180    24.0610 
  215.7500   -12.5940     2.4690    74.3820   739.3050   616.0870     4.2780    24.0110 
  215.8750   -12.6150     2.4280    74.3820   739.3050   616.0870     4.4370    23.8230 
  216.0000   -12.6430     2.3950    74.3820   739.3050   616.0870     4.4240    23.6310 
  216.1250   -12.6650     2.3710    74.3820   739.3050   616.0870     4.2280    23.4830 
  216.2500   -12.6910     2.3600    74.3820   739.3050   616.0870     4.1170    23.1110 
  216.3750   -12.7070     2.3600    74.3820   739.3050   616.0870     4.2570    22.5610 
  216.5000   -12.7270     2.3680    74.3820   739.3050   616.0870     4.3760    22.0660 
  216.6250   -12.7440     2.3810    74.3820   739.3050   616.0870     4.4250    21.4520 
  216.7500   -12.7750     2.3990    74.3820   739.3050   616.0870     4.5780    20.7700 
  216.8750   -12.8030     2.4230    74.3820   739.3050   616.0870     4.9540    19.9830 
  217.0000   -12.8180     2.4430    74.3820   739.3050   616.0870     5.5460    19.3890 
  217.1250  -999.2500     2.4400    74.3820   739.3050   616.0870     5.5610    18.8620 
  217.2500  -999.2500     2.4050    74.3820   739.3050   616.0870     5.5890    18.2910 
  217.3750  -999.2500     2.3440    74.3820   739.3050   616.0870     5.4110    17.6730 
  217.5000  -999.2500     2.2740    74.3820   739.3050   616.0870     5.0760    16.8650 
  217.6250  -999.2500     2.2130    74.3820   739.3050   616.0870     5.0760    15.7100 
  217.7500  -999.2500     2.1690    74.3820   739.3050   616.0870     5.4910    14.3090 
  217.8750  -999.2500     2.1410    74.3820   739.3050   616.0870     5.9250    13.2080 
  218.0000  -999.2500     2.1240    74.3820   739.3050   616.0870     6.1010    12.7400 
  218.1250  -999.2500     2.1170    74.3820   739.3050   616.0870     6.0960    12.6910 
  218.2500  -999.2500     2.1160    74.3820   739.3050   616.0870     6.0950    12.6900 
  218.3750  -999.2500     2.1170    74.3820   739.3050   616.0870     6.0950    12.6910 
  218.5000  -999.2500     2.1180    74.3820   739.3050   616.0870     6.0950    12.6920 
  218.6250  -999.2500     2.1180    74.3820   739.3050   616.0870     6.0940    12.6950 
  218.7500  -999.2500     2.1180    74.3820   739.3050   616.0870     6.0920    12.6960 
  218.8750  -999.2500     2.1180    74.3820   739.3050   616.0870     6.0910    12.6970 
  219.0000  -999.2500     2.1190    74.3820   739.3050   616.0870     6.0910    12.6970 
  219.1250  -999.2500     2.1200    74.3820   739.3050   616.0870     6.0910    12.6970 
  219.2500  -999.2500     2.1200    74.3820   739.3050   616.0870     6.0910    12.6940 
  219.3750  -999.2500     2.1190    74.3820   739.3050   616.0870     6.0930    12.6910 
  219.5000  -999.2500     2.1180    74.3820   739.3050   616.0870     6.0960    12.6920 
  219.6250  -999.2500     2.1150    74.3820   739.3050   616.0870     6.0970    12.6950 
  219.7500  -999.2500     2.1100    74.3820   739.3050   616.0870     6.0970    12.6970 
  219.8750  -999.2500     2.1040  -999.2500  -999.2500  -999.2500  -999.2500  -999.2500 
  220.0000  -999.2500     2.0980  -999.2500  -999.2500  -999.2500  -999.2500  -999.2500 
