~V
VERS. 2.00: Ver 2.00
~W
STRT.M 58.0000:
STOP.M 208.0000:
STEP.M 0.1250:
NULL. -999.2500:
UWI. F10592:
~C
DEPT.M :
GR.API :
RML.OHMM :
RI. :
RXO.OHMM :
CALI.CM :
DEN.GM/CC :
SP.MV :
~A
# ...
  170.5000   113.1540     9.6080     8.8110     8.9660    24.1080     2.3900    -5.6060 
  170.6250   104.3120    10.7200     9.5730     8.9440    24.0450     2.3840    -5.8380 
  170.7500    92.4060    12.5660    10.9590     9.4290    23.9000     2.3900    -6.0850 
  170.8750    82.0580    15.3090    13.3110    12.5990    23.8230     2.4130    -6.3220 
  171.0000    73.8090    18.8000    16.6010    18.9690    23.8780     2.4400    -6.5460 
  171.1250    68.1800    23.0900    20.6950    27.2220    24.0130     2.4560    -6.7200 
  171.2500    66.6900    27.6020    25.1570    34.4460    24.1340     2.4500    -6.8850 
  171.3750    68.5340    31.4470    29.1900    37.4620    24.1800     2.4170    -7.0250 
  171.5000    69.4700    34.3410    32.3060    36.9080    24.2150     2.3710    -7.1230 
  171.6250    68.0330    36.4800    34.5280    36.9660    24.2720     2.3250    -7.2300 
  171.7500    66.0630    38.4180    36.3240    37.9150    24.3320     2.2910    -7.3120 
  171.8750    64.4140    40.9380    38.4840    38.1080    24.3520     2.2790    -7.3520 
  172.0000    61.9850    44.3840    41.5010    39.4540    24.3600     2.2860    -7.3700 
  172.1250    59.6080    48.7380    45.4610    44.5430    24.3750     2.3030    -7.3740 
  172.2500    59.0910    53.5440    50.0110    55.5010    24.3910     2.3160    -7.3360 
  172.3750    59.6440    57.6490    54.1850    70.1550    24.3960     2.3130    -7.2880 
  172.5000    60.0810    59.9210    56.9240    69.9330    24.3870     2.2970    -7.2170 
  172.6250    60.1720    59.7160    57.5570    63.3570    24.3480     2.2750    -7.1330 
  172.7500    60.2750    57.2260    56.0730    58.9250    24.2530     2.2610    -7.0560 
  172.8750    61.6120    53.4440    53.1000    56.3340    24.0920     2.2650    -6.9980 
  173.0000    65.2680    50.1100    50.0950    50.3390    23.8950     2.2780    -6.9520 
  173.1250    69.2490    48.2940    48.0490    42.2150    23.6910     2.2930    -6.9150 
  173.2500    68.6180    48.2370    47.6760    36.6300    23.5540     2.3030    -6.9030 
  173.3750    62.8700    50.3460    49.7960    36.7090    23.4990     2.3030    -6.9150 
  173.5000    59.1360    54.4550    54.1670    46.4990    23.4740     2.2950    -6.9520 
  173.6250    59.4190    61.2620    60.5500    52.5350    23.4630     2.2800    -7.0020 
  173.7500    61.7460    70.6480    68.3810    55.7960    23.4780     2.2620    -7.0620 
  173.8750    63.4160    81.9800    76.6240    70.2530    23.5470     2.2500    -7.1140 
  174.0000    64.1090    90.1600    83.7200    82.4100    23.7130     2.2530    -7.1650 
  174.1250    62.6510    94.3850    88.2920    82.0820    23.9630     2.2710    -7.2260 
  174.2500    60.0710    94.4590    89.3860    74.6060    24.0750     2.2950    -7.2630 
  174.3750    59.6340    90.4350    86.4410    68.3670    23.9510     2.3070    -7.2830 
  174.5000    60.3950    84.4700    81.2790    61.2260    23.7520     2.2990    -7.2690 
  174.6250    60.5670    78.4860    75.6520    51.1090    23.7450     2.2750    -7.1960 
  174.7500    60.2120    74.1460    71.2370    43.4780    23.9370     2.2460    -7.1170 
  174.8750    60.3620    72.8700    69.5960    47.0670    24.1490     2.2270    -7.0690 
  175.0000    60.3770    74.2130    70.5650    50.2120    24.2190     2.2190    -6.9760 
  175.1250    60.3280    77.3400    73.5310    50.0830    24.2300     2.2220    -6.8970 
  175.2500    60.8940    80.7420    77.2010    59.5920    24.2720     2.2310    -6.8110 
  175.3750    61.2100    82.2130    79.5670    73.8120    24.3740     2.2450    -6.6740 
  175.5000    60.9900    81.0660    79.6920    81.3530    24.4540     2.2580    -6.5830 
  175.6250    60.9040    77.9370    77.8550    78.5830    24.4820     2.2680    -6.4960 
  175.7500    61.4260    74.7550    75.2610    69.7510    24.4730     2.2720    -6.3900 
  175.8750    63.3620    73.9170    73.6070    62.8640    24.5170     2.2680    -6.2680 
  176.0000    64.5530    75.5520    73.6300    61.2340    24.5540     2.2580    -6.1430 
  176.1250    63.1610    77.6660    75.0960    71.1700    24.5490     2.2460    -5.9770 
  176.2500    60.9670    79.4740    76.9000    80.5350    24.4790     2.2360    -5.8040 
  176.3750    62.5980    79.2930    76.8800    81.4650    24.2530     2.2310    -5.6730 
  176.5000    65.2200    76.7150    73.6700    78.0090    23.8710     2.2280    -5.4960 
  176.6250    66.3320    69.2550    67.0270    64.3640    23.4630     2.2250    -5.3420 
  176.7500    68.2420    55.9100    58.1120    48.9210    23.2330     2.2220    -5.2000 
  176.8750    73.7920    46.8750    49.2550    39.3250    23.3390     2.2210    -5.0340 
  177.0000    79.1290    42.9290    42.4930    30.4800    23.5680     2.2230    -4.9160 
  177.1250    80.1260    41.3530    38.8050    24.2040    23.7170     2.2290    -4.8260 
  177.2500    75.5060    41.5460    38.5970    22.2600    23.7540     2.2370    -4.7360 
  177.3750    68.3650    46.3840    42.6310    26.4780    23.7560     2.2440    -4.6660 
  177.5000    63.7880    55.6570    50.1710    42.4670    23.7680     2.2460    -4.6600 
  177.6250    61.7200    65.5150    60.5630    69.8730    23.7580     2.2460    -4.6450 
  177.7500    59.8590    73.9960    72.4880    87.7440    23.7240     2.2470    -4.6510 
  177.8750    58.7470    81.2710    83.9050    79.8210    23.6580     2.2530    -4.7190 
  178.0000    59.2860    88.9800    93.2490    86.4760    23.6130     2.2660    -4.7520 
  178.1250    59.9750    95.3980    99.8540    88.3440    23.6560     2.2860    -4.7930 
  178.2500    59.9660    99.7310   103.6620    89.3590    23.8210     2.3060    -4.8280 
  178.3750    61.6020   101.5900   104.5620   100.7170    24.0340     2.3170    -4.8140 
  178.5000    64.5030   101.6850   103.5300   106.2720    24.1610     2.3100    -4.7640 
  178.6250    66.4330   100.7120   101.4320    91.3150    24.2290     2.2850    -4.6900 
  178.7500    65.5390    99.7170    99.4100    69.2510    24.3010     2.2480    -4.5960 
  178.8750    64.9410    99.9300    98.7510    79.4480    24.3520     2.2150    -4.4540 
  179.0000    67.8770   101.5390    99.6310    92.3000    24.3850     2.1950    -4.2880 
  179.1250    72.1640   104.1350   101.6810   104.1100    24.4200     2.1900    -4.1080 
  179.2500    73.9280   106.8610   104.1310   111.7330    24.4440     2.1940    -3.9240 
  179.3750    72.5390   108.4340   105.8730   114.9120    24.4520     2.2000    -3.7290 
  179.5000    72.8340   108.2070   106.2170   120.9340    24.4510     2.2090    -3.5580 
  179.6250    74.9690   105.8870   104.7740   126.5130    24.4470     2.2210    -3.3920 
  179.7500    76.9060   101.4550   101.3450   117.1780    24.4290     2.2400    -3.2040 
  179.8750    77.4420    94.8930    95.6410   113.3370    24.4030     2.2610    -3.0180 
  180.0000    76.4330    87.1160    88.4330   103.3050    24.3980     2.2770    -2.8110 
  180.1250    73.2140    78.5160    80.1670    84.6520    24.4100     2.2850    -2.5890 
  180.2500    69.3360    68.8420    70.7390    68.3510    24.4020     2.2810    -2.3680 
  180.3750    67.7340    57.2050    59.2530    56.4630    24.3800     2.2670    -2.1290 
  180.5000    67.7210    44.3150    46.2780    51.4070    24.3640     2.2560    -1.8800 
  180.6250    68.0100    31.8130    33.4250    59.4440    24.3430     2.2560    -1.6400 
  180.7500    67.8680    21.4860    22.6160    44.0750    24.2930     2.2720    -1.3920 
  180.8750    66.6060    14.7570    15.4520    19.8240    24.2110     2.2990    -1.1860 
  181.0000    61.9320    10.8110    11.1680     9.3130    24.0410     2.3250    -1.0470 
  181.1250    53.2180     8.9220     9.0100     6.4710    23.8020     2.3440    -0.9220 
  181.2500    42.7530     8.3970     8.2460     5.8160    23.7140     2.3570    -0.8610 
  181.3750    34.8350     8.7200     8.3720     5.8120    23.9760     2.3770    -0.8530 
  181.5000    33.8110     9.2100     8.7530     5.9930    24.1900     2.4080    -0.8610 
  181.6250    39.7700     9.4550     9.0200     6.2590    24.3230     2.4430    -0.9090 
