~V
VERS. 2.00: Ver 2.00
~W
STRT.M 50.0000:
STOP.M 198.0000:
STEP.M 0.1250:
NULL. -999.2500:
UWI. F10574:
~C
DEPT.M :
DEN.GM/CC :
SP.MV :
GR.API :
RML.OHMM :
RI. :
RXO.OHMM :
CALI.CM :
~A
# ...
  185.0000     2.4300   -15.8020    31.2350     5.4900     4.0010     4.1120    26.5290 
  185.1250     2.4310   -15.8100    28.0400     5.6550     4.1190     3.8450    26.5230 
  185.2500     2.4390   -15.8540    27.5100     5.8020     4.2460     3.7800    26.2960 
  185.3750     2.4430   -15.9160    29.8550     5.9220     4.3660     3.9960    25.8300 
  185.5000     2.4340   -15.9970    31.9550     5.9880     4.4550     4.4590    25.1660 
  185.6250     2.4120   -16.0690    31.9100     5.9390     4.4780     4.6390    25.1410 
  185.7500     2.3930   -16.1500    31.3830     5.7750     4.4270     4.4870    25.8610 
  185.8750     2.3850   -16.2030    31.5200     5.5380     4.3130     4.1510    26.8590 
  186.0000     2.3860   -16.2660    31.4120     5.3050     4.1720     3.9310    27.0480 
  186.1250     2.3840   -16.3940    30.8830     5.2220     4.0860     3.9260    26.2620 
  186.2500     2.3740   -16.5590    30.8830     5.3670     4.1170     4.0130    25.6760 
  186.3750     2.3630   -16.7600    30.8830     5.7350     4.2780     4.3150    25.3780 
  186.5000     2.3530   -17.0100    30.8830     6.2150     4.5290     5.1860    25.1590 
  186.6250     2.3360   -17.3160    30.8830     6.6050     4.7850     6.2720    25.0320 
  186.7500     2.3110   -17.6240    30.8830     6.7610     4.9720     6.4410    25.1280 
  186.8750     2.2900   -17.9460    30.8830     6.6840     5.0710     5.5090    25.3710 
  187.0000     2.2840   -18.2620    30.8830     6.5210     5.1220     5.2400    25.3790 
  187.1250     2.2890   -18.5930    30.8830     6.5380     5.2460     5.9620    24.9730 
  187.2500     2.2950   -18.9360    30.8830     6.8910     5.5610     7.0680    24.6710 
  187.3750     2.3030   -19.2790    30.8830     7.6340     6.1430     8.8970    24.5700 
  187.5000     2.3160   -19.5860    30.8830     8.7010     6.9790    11.4450    24.5600 
  187.6250     2.3240   -19.7630    30.8830     9.8310     7.9060    12.9580    24.5610 
  187.7500     2.3190   -19.8670    30.8830    10.6260     8.6110    13.1760    24.5590 
  187.8750     2.3020   -19.8840    30.8830    10.8330     8.8670    11.9080    24.5570 
  188.0000     2.2840   -19.7690    30.8830    10.4230     8.6260     9.9080    24.5610 
  188.1250     2.2800   -19.4840    30.8830     9.5630     7.9890     8.1070    24.5920 
  188.2500     2.2940   -19.1010    30.8830     8.6190     7.2280     6.7830    24.6600 
  188.3750     2.3170   -18.6450    30.8830     7.7610     6.4790     6.4380    24.7390 
  188.5000     2.3360   -18.1460    30.8830     7.0510     5.8120     6.0900    24.9610 
  188.6250     2.3450   -17.6820    30.8830     6.5010     5.2690     5.3010    25.6160 
  188.7500     2.3480   -17.2270    30.8830     6.0440     4.8290     4.6040    26.5280 
  188.8750     2.3470   -16.8230    30.8830     5.6620     4.4930     4.3260    27.0050 
  189.0000     2.3400   -16.5040    30.8830     5.3720     4.2540     4.1620    27.0000 
  189.1250     2.3240   -16.2540    30.8830     5.2180     4.1190     4.2700    26.7600 
  189.2500     2.3020   -16.0580    30.8830     5.1840     4.0560     4.4170    26.3750 
  189.3750     2.2810   -15.9090    30.8830     5.2460     4.0430     3.9630    26.1100 
  189.5000     2.2620   -15.8020    30.8830     5.3540     4.0540     3.4990    26.2050 
  189.6250     2.2520   -15.7490    30.8830     5.4400     4.0670     3.4220    26.5800 
  189.7500     2.2540   -15.7380    30.8830     5.4560     4.0700     3.5270    27.5470 
  189.8750     2.2760   -15.7550    30.8830     5.3970     4.0580     3.5070    28.8150 
  190.0000     2.3150   -15.7780    30.8830     5.2820     4.0300     3.4590    29.2860 
  190.1250     2.3560   -15.8070    30.8830     5.1540     4.0020     3.4830    28.4660 
  190.2500     2.3830   -15.8260    30.8830     5.0760     3.9950     3.6210    27.2980 
  190.3750     2.3930   -15.8600    30.8830     5.0640     4.0150     3.8630    26.4860 
  190.5000     2.3950   -15.8940    30.8830     5.1070     4.0510     4.1000    26.0490 
  190.6250     2.3940   -15.8750    30.8830     5.1810     4.0840     4.0600    25.7850 
  190.7500     2.3920   -15.8450    30.8830     5.2620     4.1090     3.9250    25.4310 
  190.8750     2.3890   -15.7870    30.8830     5.3540     4.1350     3.8910    25.2940 
  191.0000     2.3830   -15.6680    30.8830     5.4540     4.1670     3.7480    25.8320 
  191.1250     2.3730   -15.5550    30.8830     5.5310     4.1970     3.5870    27.0190 
  191.2500     2.3670   -15.4300    30.8830     5.5470     4.2100     3.4220    27.5050 
  191.3750     2.3680   -15.2590    30.8830     5.4860     4.2050     3.5210    26.7680 
  191.5000     2.3750   -15.0880    30.8830     5.3800     4.1910     3.8840    25.8070 
  191.6250     2.3850   -14.9630    30.8830     5.2680     4.1780     4.1560    26.1600 
  191.7500     2.3920   -14.9510    30.8830     5.1710     4.1690     4.0540    27.5620 
  191.8750     2.3960   -14.9930    30.8830     5.0980     4.1650     3.8440    28.9270 
  192.0000     2.4010   -15.0880    30.8830     5.0520     4.1640     4.0210    28.8260 
  192.1250     2.4070   -15.2180    30.8830     5.0520     4.1640     4.7940    27.2560 
  192.2500     2.4100   -15.3750    30.8830     5.0520     4.1640     5.4730    25.4890 
  192.3750     2.4100   -15.5910    30.8830     5.0520     4.1640     5.5260    24.5300 
  192.5000     2.4090   -15.8320    30.8830     5.0520     4.1640     5.4070    24.2860 
  192.6250     2.4140   -16.0460    30.8830     5.0520     4.1640     5.3540    24.3670 
  192.7500     2.4220   -16.0460    30.8830     5.0520     4.1640     5.1820    24.6660 
  192.8750     2.4350   -16.0460    30.8830     5.0520     4.1640     4.8850    25.4110 
  193.0000     2.4540  -999.2500    30.8830     5.0520     4.1640     4.9460    26.3070 
  193.1250     2.4850  -999.2500    30.8830     5.0520     4.1640     6.5420    26.0830 
  193.2500     2.5090  -999.2500    30.8830     5.0520     4.1640     8.8620    25.2620 
  193.3750     2.5000  -999.2500    30.8830     5.0520     4.1640     9.1680    24.7550 
  193.5000     2.4600  -999.2500    30.8830     5.0520     4.1640     7.3730    24.6670 
  193.6250     2.4170  -999.2500    30.8830     5.0520     4.1640     6.2680    24.7470 
  193.7500     2.3920  -999.2500    30.8830     5.0520     4.1640     5.8920    24.8350 
  193.8750     2.3810  -999.2500    30.8830     5.0520     4.1640     5.4660    24.9340 
  194.0000     2.3810  -999.2500    30.8830     5.0520     4.1640     5.1090    25.1250 
  194.1250     2.3880  -999.2500    30.8830     5.0520     4.1640     4.8880    25.3600 
  194.2500     2.3950  -999.2500    30.8830     5.0520     4.1640     4.9720    25.5060 
  194.3750     2.3990  -999.2500    30.8830     5.0520     4.1640     5.4300    25.5250 
  194.5000     2.3990  -999.2500    30.8830     5.0520     4.1640     6.0420    25.4630 
  194.6250     2.3940  -999.2500    30.8830     5.0520     4.1640     6.3770    25.3280 
  194.7500     2.3770  -999.2500    30.8830     5.0520     4.1640     6.4070    25.2070 
  194.8750     2.3410  -999.2500    30.8830     5.0520     4.1640     6.4740    25.1830 
  195.0000     2.2860  -999.2500    30.8830     5.0520     4.1640     6.6380    25.2690 
  195.1250     2.2130  -999.2500    30.8830     5.0520     4.1640     6.0820    25.1800 
  195.2500     2.1330  -999.2500    30.8830     5.0520     4.1640     4.7060    23.4450 
  195.3750     2.0610  -999.2500    30.8830     5.0520     4.1640     3.1150    19.2290 
  195.5000     2.0140  -999.2500    30.8830     5.0520     4.1640     2.3300    15.6150 
  195.6250     1.9990  -999.2500    30.8830     5.0520     4.1640     2.1780    14.3130 
  195.7500     1.9960  -999.2500    30.8830     5.0520     4.1640     2.1770    14.1980 
  195.8750     1.9950  -999.2500    30.8830     5.0520     4.1640     2.1770    14.1980 
  196.0000     1.9930  -999.2500    30.8830     5.0520     4.1640     2.1770    14.1980 
  196.1250     1.9920  -999.2500    30.8830     5.0520     4.1640     2.1770    14.1980 
