~V
VERS. 2.00: Ver 2.00
~W
STRT.M 61.0000:
STOP.M 190.0000:
STEP.M 0.1250:
NULL. -999.2500:
UWI. F10559:
~C
DEPT.M :
SP.MV :
DEN.GM/CC :
GR.API :
RML.OHMM :
RI. :
RXO.OHMM :
CALI.CM :
~A
# ...
   94.7500   -15.0370     2.3950    91.2890     7.4580     7.0110     6.3840    26.4580 
   94.8750   -15.2240     2.3970    91.4360     7.6390     7.1310     6.1930    26.4220 
   95.0000   -15.3190     2.3780    93.1740     7.9240     7.3860     6.5350    26.3960 
   95.1250   -15.3960     2.3490    91.6390     8.2020     7.6880     8.4370    26.4200 
   95.2500   -15.3960     2.3210    87.8130     8.3600     7.9100     9.6600    26.4610 
   95.3750   -15.3610     2.2990    83.3100     8.3300     7.9650     8.2210    26.4720 
   95.5000   -15.2650     2.2840    80.6170     8.1040     7.8180     6.8080    26.4640 
   95.6250   -15.1880     2.2780    84.0490     7.7290     7.4860     6.5980    26.4720 
   95.7500   -15.0980     2.2800    91.1850     7.3380     7.0970     6.5290    26.4750 
   95.8750   -15.0020     2.2900    96.4870     7.0200     6.7480     6.3240    26.4650 
   96.0000   -14.9100     2.3000    96.2840     6.8240     6.4960     6.0920    26.4370 
   96.1250   -14.8010     2.3040    94.4060     6.7800     6.3690     5.7590    26.4180 
   96.2500   -14.6810     2.3050    93.5050     6.8400     6.3430     5.6370    26.3930 
   96.3750   -14.5320     2.3120    91.6200     6.9650     6.4000     6.0050    26.3840 
   96.5000   -14.4130     2.3330    88.8920     7.1010     6.4940     6.5380    26.3800 
   96.6250   -14.2620     2.3670    90.9700     7.2030     6.5650     6.4470    26.2740 
   96.7500   -14.0870     2.3930    95.1830     7.2840     6.5950     6.5090    26.0070 
   96.8750   -13.8820     2.3960    95.2460     7.4110     6.6200     6.6470    25.6930 
   97.0000   -13.6270     2.3710    90.5140     7.6880     6.7210     6.5760    25.5310 
   97.1250   -13.3370     2.3270    87.2870     8.2780     7.0380     6.2600    25.5870 
   97.2500   -13.0300     2.2820    87.1660     9.2040     7.6300     6.5540    25.7230 
   97.3750   -12.7280     2.2450    85.5470    10.4650     8.5350     7.6600    25.8520 
   97.5000   -12.4520     2.2200    80.9510    12.0260     9.7520    10.1840    25.9980 
   97.6250   -12.1640     2.2080    79.1730    13.9190    11.2950    13.3080    26.1950 
   97.7500   -11.8950     2.2000    81.7290    16.1920    13.1170    15.1820    26.4070 
   97.8750   -11.6570     2.1860    83.2760    19.0630    15.3140    15.5980    26.4980 
   98.0000   -11.4790     2.1640    78.4930    22.7880    18.0850    18.0530    26.5320 
   98.1250   -11.3210     2.1390    70.0050    27.5880    21.8000    21.2320    26.5970 
   98.2500   -11.2000     2.1240    65.1700    32.8460    26.2980    29.7050    26.6940 
   98.3750   -11.0940     2.1230    63.4910    37.5850    31.0560    39.7920    26.7680 
   98.5000   -10.9820     2.1360    61.9750    40.5420    35.0230    43.0670    26.7470 
   98.6250   -10.8880     2.1510    63.7500    40.1230    36.3880    38.9330    26.6580 
   98.7500   -10.8110     2.1600    68.0890    36.7260    34.7140    36.0260    26.5500 
   98.8750   -10.7390     2.1670    71.5460    31.2750    30.4550    34.5310    26.5000 
   99.0000   -10.7000     2.1780    73.8010    25.1100    24.8770    32.8920    26.4550 
   99.1250   -10.6680     2.2020    77.1320    19.5720    19.4480    26.4370    26.4000 
   99.2500   -10.6500     2.2330    79.9930    15.1840    14.9800    16.9990    26.3530 
   99.3750   -10.6360     2.2640    81.4440    12.0280    11.6710    11.2640    26.3150 
   99.5000   -10.6260     2.2870    85.7770     9.9620     9.4290     9.5890    26.2640 
   99.6250   -10.5960     2.2930    92.8800     8.8450     8.1490    10.0800    26.1920 
   99.7500   -10.5860     2.2890    95.0710     8.2450     7.4380     7.7460    26.0580 
   99.8750   -10.5710     2.2810    93.4310     7.9260     7.0850     5.8620    25.8930 
  100.0000   -10.5250     2.2770    92.6380     7.6970     6.8950     5.7010    25.7300 
  100.1250   -10.4770     2.2830    95.9940     7.4290     6.7090     6.3690    25.5910 
  100.2500   -10.4350     2.2930   101.0590     7.1100     6.4710     6.1470    25.3910 
  100.3750   -10.3980     2.3030   103.5120     6.7900     6.2060     5.6170    25.2050 
  100.5000   -10.3640     2.3070   101.8570     6.5340     5.9640     5.4020    25.0620 
  100.6250   -10.3930     2.3030    98.0190     6.4120     5.8090     5.4150    24.9990 
  100.7500   -10.4010     2.2960    97.3590     6.4080     5.7480     5.4630    25.0060 
  100.8750   -10.4000     2.2910    98.2290     6.4920     5.7660     5.5990    25.0590 
  101.0000   -10.3710     2.2910    96.4930     6.6190     5.8330     5.7340    25.0800 
  101.1250   -10.3740     2.2970    92.8820     6.7490     5.9130     5.7420    25.0420 
  101.2500   -10.3580     2.3060    91.1800     6.8530     5.9780     5.6680    24.9940 
  101.3750   -10.3160     2.3160    90.9110     6.9240     6.0190     5.6080    24.9550 
  101.5000   -10.2640     2.3210    92.3880     6.9700     6.0370     5.6940    24.9710 
  101.6250   -10.1660     2.3190    96.6010     7.0140     6.0530     5.6460    25.0030 
  101.7500   -10.0450     2.3090    98.8350     7.0870     6.0950     5.6090    25.0320 
  101.8750    -9.8690     2.2920    96.2740     7.2110     6.1880     5.7050    25.0210 
  102.0000    -9.6530     2.2720    89.8690     7.3950     6.3410     5.9390    24.9680 
  102.1250    -9.3690     2.2530    86.4650     7.6410     6.5620     6.3520    24.9010 
  102.2500    -9.0790     2.2370    86.0670     7.9170     6.8190     6.5680    24.8940 
  102.3750    -8.8080     2.2280    86.6700     8.2000     7.0840     6.6490    24.9560 
  102.5000    -8.5110     2.2240    87.7220     8.4630     7.3300     6.7520    25.0720 
  102.6250    -8.2190     2.2260    88.1370     8.6720     7.5230     6.9830    25.1650 
  102.7500    -7.9440     2.2320    86.8410     8.8030     7.6470     7.2170    25.2450 
  102.8750    -7.7440     2.2410    83.7910     8.8370     7.6840     7.2870    25.3270 
  103.0000    -7.6180     2.2510    82.3280     8.7630     7.6230     7.1040    25.4230 
  103.1250    -7.5460     2.2610    84.4560     8.5890     7.4600     6.8610    25.5440 
  103.2500    -7.4940     2.2680    86.5570     8.3930     7.2520     6.7240    25.6980 
  103.3750    -7.4320     2.2720    86.5500     8.2770     7.0670     6.6590    25.8660 
  103.5000    -7.3770     2.2730    85.0970     8.3880     7.0100     6.6420    26.0500 
  103.6250    -7.2980     2.2700    84.0870     9.0470     7.2970     6.8350    26.1860 
  103.7500    -7.2220     2.2580    83.8180    10.4980     8.0820     7.2060    26.2490 
  103.8750    -7.1170     2.2360    83.1680    13.0470     9.5930     8.1400    26.2970 
  104.0000    -6.9810     2.2040    80.2240    16.8860    12.0980    10.9700    26.4080 
  104.1250    -6.8400     2.1720    74.9680    22.0180    16.0170    20.7620    26.6330 
  104.2500    -6.6820     2.1460    70.5420    27.5260    20.9520    32.8120    26.8000 
  104.3750    -6.5440     2.1310    67.3890    32.4080    26.0390    36.9360    26.9190 
  104.5000    -6.4300     2.1230    65.1990    35.7640    29.9810    33.8980    27.0340 
  104.6250    -6.3580     2.1180    64.8500    37.1570    31.7130    31.8720    27.1470 
  104.7500    -6.2820     2.1160    65.0560    37.7280    32.2260    31.4470    27.2110 
  104.8750    -6.2220     2.1180    63.8670    38.3950    32.6040    31.7700    27.2360 
  105.0000    -6.1680     2.1250    61.1820    39.4430    33.5160    32.8630    27.2480 
  105.1250    -6.0960     2.1310    59.9920    40.1690    34.8980    33.9140    27.2590 
  105.2500    -6.0170     2.1330    60.5980    39.4670    35.6190    35.0940    27.2640 
  105.3750    -5.9480     2.1300    59.8880    36.5840    34.3640    37.9590    27.2670 
  105.5000    -5.8730     2.1250    58.2980    31.5910    30.5280    42.0350    27.2540 
  105.6250    -5.8270     2.1250    59.7130    25.5710    24.9490    39.2410    27.0450 
  105.7500    -5.7620     2.1340    66.0510    20.1680    19.6550    24.6080    26.4910 
  105.8750    -5.6920     2.1490    75.7020    16.0970    15.5440    13.2770    25.6620 
