~V
VERS. 2.00: Ver 2.00
~W
STRT.M 50.0000:
STOP.M 214.0000:
STEP.M 0.1250:
NULL. -999.2500:
UWI. F10534:
~C
DEPT.M :
DEN.GM/CC :
SP.MV :
GR.API :
RML.OHMM :
RI. :
RXO.OHMM :
CALI.CM :
~A
# ...
  117.5000     2.2000   -21.8090   106.1990     6.6560     5.6170     6.2420    23.3450 
  117.6250     2.2010   -21.8400   107.9910     6.4860     5.4640     5.9850    23.3440 
  117.7500     2.2090   -21.9220   109.1520     6.3260     5.3200     5.6570    23.3340 
  117.8750     2.2190   -22.0600   110.1610     6.2040     5.2110     5.5610    23.2970 
  118.0000     2.2230   -22.2370   108.8090     6.1600     5.1660     5.6320    23.1990 
  118.1250     2.2150   -22.4530   103.8250     6.2300     5.2090     5.7370    23.0900 
  118.2500     2.2020   -22.6790   100.5690     6.3720     5.3040     5.7330    22.9840 
  118.3750     2.1920   -22.9000   101.8020     6.5250     5.4090     5.9440    22.9270 
  118.5000     2.1860   -23.0970   104.4100     6.6170     5.4800     6.1570    22.9260 
  118.6250     2.1820   -23.2480   104.7480     6.5780     5.4720     6.0040    22.9570 
  118.7500     2.1820   -23.3380   104.2010     6.4540     5.4030     5.7750    22.9710 
  118.8750     2.1880   -23.3550   104.6300     6.3130     5.3100     5.7400    22.9750 
  119.0000     2.1970   -23.2930   106.9990     6.2140     5.2320     5.9010    22.9750 
  119.1250     2.2040   -23.1460   108.1540     6.1720     5.1880     6.2070    22.9920 
  119.2500     2.2090   -22.9540   107.6180     6.1240     5.1450     6.1950    23.1090 
  119.3750     2.2170   -22.7300   108.2170     6.0250     5.0610     5.8550    23.3830 
  119.5000     2.2310   -22.4870   110.8770     5.8910     4.9340     5.4860    23.6180 
  119.6250     2.2440   -22.2540   109.9750     5.8140     4.8200     5.5130    23.7030 
  119.7500     2.2470   -22.0480   105.9290     5.8430     4.7780     5.7210    23.7110 
  119.8750     2.2370   -21.8830   102.3210     5.9520     4.8100     5.8780    23.7110 
  120.0000     2.2260   -21.7610    99.6680     6.0630     4.8750     5.9240    23.7110 
  120.1250     2.2270   -21.6870    97.9470     6.0850     4.9020     5.7490    23.7110 
  120.2500     2.2340   -21.6720    97.8320     6.0430     4.8840     5.4850    23.7110 
  120.3750     2.2420   -21.6980   100.2050     6.0250     4.8640     5.3210    23.7110 
  120.5000     2.2480   -21.7550   103.9930     6.1120     4.9000     5.4160    23.7100 
  120.6250     2.2430   -21.8110   107.4050     6.3340     5.0320     5.6040    23.6890 
  120.7500     2.2300   -21.8340   107.9800     6.5910     5.2130     5.8350    23.6390 
  120.8750     2.2170   -21.8110   104.9170     6.7650     5.3740     6.0880    23.5860 
  121.0000     2.2100   -21.7610   102.0190     6.7660     5.4410     6.0600    23.5620 
  121.1250     2.2120   -21.7210   102.8450     6.5710     5.3590     5.7970    23.5600 
  121.2500     2.2210   -21.6810   104.8130     6.3150     5.1970     5.6150    23.5600 
  121.3750     2.2300   -21.6550   104.6890     6.1110     5.0360     5.6290    23.5600 
  121.5000     2.2290   -21.6390   105.1600     6.0270     4.9450     5.7060    23.5600 
  121.6250     2.2180   -21.6520   108.0690     6.1050     4.9780     5.7150    23.5600 
  121.7500     2.2120   -21.6970   108.6550     6.3030     5.1090     5.7780    23.5600 
  121.8750     2.2090   -21.7640   104.1850     6.5900     5.3160     5.9990    23.5600 
  122.0000     2.2040   -21.8340    96.0060     6.9170     5.5710     6.2830    23.5600 
  122.1250     2.1930   -21.8550    88.2670     7.1860     5.8230     6.6090    23.5600 
  122.2500     2.1800   -21.8160    84.3540     7.2910     5.9900     6.8020    23.5600 
  122.3750     2.1730   -21.7120    86.6430     7.1540     5.9960     6.7330    23.5600 
  122.5000     2.1760   -21.5290    92.6670     6.7780     5.8050     6.4400    23.5600 
  122.6250     2.1920   -21.2950    96.9800     6.2650     5.4550     5.9000    23.5600 
  122.7500     2.2150   -21.0340   100.0760     5.8170     5.1010     5.4440    23.5600 
  122.8750     2.2340   -20.7640   102.3590     5.5610     4.8550     5.3040    23.5600 
  123.0000     2.2460   -20.4910   102.9590     5.5260     4.7730     5.4320    23.5600 
  123.1250     2.2510   -20.2100   102.5660     5.6460     4.8390     5.7350    23.5600 
  123.2500     2.2570   -19.9420   101.6960     5.7350     4.9170     5.7210    23.5600 
  123.3750     2.2680   -19.6870   100.7450     5.6700     4.8990     5.3990    23.5600 
  123.5000     2.2840   -19.4780   100.8650     5.4330     4.7410     5.1110    23.5600 
  123.6250     2.2960   -19.2810   103.6160     5.1150     4.4830     4.8770    23.5600 
  123.7500     2.3020   -19.1150   105.7860     4.8490     4.2360     4.6950    23.5600 
  123.8750     2.2960   -19.0080   105.8850     4.6850     4.0560     4.5970    23.5600 
  124.0000     2.2840   -18.9710   106.9460     4.6260     3.9600     4.5830    23.5590 
  124.1250     2.2810   -19.0350   108.7980     4.6570     3.9520     4.8180    23.5580 
  124.2500     2.2990   -19.2030   107.4340     4.7440     4.0060     4.7570    23.5570 
  124.3750     2.3300   -19.4760   103.7810     4.8810     4.1150     4.7230    23.5580 
  124.5000     2.3570   -19.8690   103.0090     5.0710     4.2750     4.6580    23.5510 
  124.6250     2.3670   -20.4060   103.9260     5.3360     4.4960     4.7660    23.5250 
  124.7500     2.3650   -21.0250   100.4750     5.6730     4.7750     5.1240    23.4850 
  124.8750     2.3510   -21.6680    92.5630     6.0710     5.1100     6.0800    23.4470 
  125.0000     2.3270   -22.2920    84.8600     6.4790     5.4670     7.8260    23.4250 
  125.1250     2.2950   -22.8470    81.0820     6.7630     5.7420     9.2600    23.4170 
  125.2500     2.2690   -23.3140    78.6320     6.8230     5.8490     7.8780    23.4160 
  125.3750     2.2530   -23.7120    78.3930     6.6370     5.7610     6.1080    23.4150 
  125.5000     2.2430   -24.0190    82.5350     6.3010     5.5400     5.3120    23.4150 
  125.6250     2.2330   -24.2140    87.6400     6.0370     5.3470     5.2690    23.4080 
  125.7500     2.2270   -24.3180    87.1070     6.0380     5.3360     5.8980    23.3750 
  125.8750     2.2280   -24.3580    82.0920     6.3710     5.5840     7.2250    23.2840 
  126.0000     2.2300   -24.3490    78.4130     6.9680     6.0760     7.4880    23.1380 
  126.1250     2.2160   -24.3090    77.2520     7.6390     6.7030     7.6330    23.0700 
  126.2500     2.1870   -24.2570    74.9690     8.1460     7.2580     7.8420    23.0500 
  126.3750     2.1600   -24.1680    73.8150     8.3860     7.6170     8.0540    23.0680 
  126.5000     2.1500   -24.0250    79.3590     8.3770     7.7470     8.3370    23.1250 
  126.6250     2.1650   -23.7900    91.2220     8.1540     7.6410     8.9000    23.2170 
  126.7500     2.1890   -23.5150    98.7160     7.7340     7.3270     8.6060    23.2570 
  126.8750     2.2120   -23.2220    96.5380     7.0690     6.7720     8.0240    23.2660 
  127.0000     2.2180   -22.9570    89.6260     6.1910     6.0010     7.3740    23.2740 
  127.1250     2.2030   -22.7660    86.9070     5.2860     5.1470     6.8730    23.3280 
  127.2500     2.1840   -22.6610    88.4110     4.6050     4.4230     5.9490    23.4500 
  127.3750     2.1660   -22.6470    92.0030     4.3360     3.9860     4.4140    23.6090 
  127.5000     2.1470   -22.7430    95.8550     4.6470     3.9750     4.0880    23.7290 
  127.6250     2.1410   -22.9950    98.0830     5.8340     4.6260     4.8730    23.7360 
  127.7500     2.1590   -23.3410    98.3540     7.8460     5.9530     6.1790    23.6280 
  127.8750     2.1940   -23.7700    97.7870    10.4770     7.9150     7.7220    23.4320 
  128.0000     2.2270   -24.2330    95.2470    13.0630    10.1410     9.1200    23.2620 
  128.1250     2.2510   -24.7010    90.7630    14.2350    11.6180    10.0830    23.1950 
  128.2500     2.2730   -25.1450    87.0030    13.6210    11.7410    10.8750    23.1430 
  128.3750     2.2900   -25.5480    85.1210    11.8080    10.7230    10.4470    23.0430 
  128.5000     2.2870   -25.9110    83.8030     9.7500     9.2340     8.4360    22.9090 
  128.6250     2.2540   -26.2180    83.9630     8.1870     7.8870     7.2400    22.8430 
