~V
VERS. 2.00: Ver 2.00
~W
STRT.M 58.0000:
STOP.M 208.0000:
STEP.M 0.1250:
NULL. -999.2500:
UWI. F10592:
~C
DEPT.M :
GR.API :
RML.OHMM :
RI. :
RXO.OHMM :
CALI.CM :
DEN.GM/CC :
SP.MV :
~A
   58.0000    86.1170     1.4440     1.0680     5.0950    24.7380     2.3280    23.8100 
   58.1250    92.9580     2.2320     1.5920     6.0440    24.3910     2.2620    20.1290 
   58.2500    96.9670     3.0980     2.3310     6.3500    24.0390     2.2480    16.7720 
   58.3750    97.5900     3.8260     3.2520     6.3570    23.7970     2.2690    13.8810 
   58.5000    95.6030     4.3720     4.2220     6.3830    23.6790     2.2850    11.4330 
   58.6250    91.4420     4.8680     5.1800     6.4500    23.6200     2.2740     9.4150 
   58.7500    85.6270     5.4730     6.1350     6.7070    23.6200     2.2360     7.7850 
   58.8750    79.6970     6.2670     7.1000     7.4630    23.7190     2.1990     6.4640 
   59.0000    75.1980     7.1030     7.9860     8.9790    23.9120     2.1940     5.3210 
   59.1250    72.7860     7.7580     8.6110    11.0720    24.0640     2.2330     4.2730 
   59.2500    74.6340     7.9970     8.7840    10.0350    24.0430     2.2990     3.3080 
   59.3750    84.1370     7.6480     8.3630     8.2030    23.9510     2.3550     2.4150 
   59.5000    95.8660     6.9780     7.6090     6.6610    24.0750     2.3740     1.5580 
   59.6250   102.5110     6.2520     6.7850     5.8270    24.3810     2.3530     0.7840 
   59.7500   102.0110     5.7330     6.1160     5.5270    24.6500     2.3100     0.1080 
   59.8750    97.8580     5.6190     5.7720     5.6060    24.7610     2.2670    -0.4650 
   60.0000    94.3730     5.8000     5.7000     5.8820    24.7950     2.2350    -0.9590 
   60.1250    92.7650     6.0700     5.8220     6.0680    24.7910     2.2150    -1.3740 
   60.2500    90.9830     6.4260     6.0270     6.1030    24.7460     2.2070    -1.7570 
   60.3750    85.7240     6.7580     6.1980     6.3350    24.6490     2.2120    -2.0840 
   60.5000    81.6200     6.9260     6.2700     6.4030    24.5420     2.2250    -2.3350 
   60.6250    83.0230     6.9000     6.2310     6.3890    24.4210     2.2410    -2.5440 
   60.7500    88.0210     6.7310     6.1070     6.2190    24.3390     2.2540    -2.7300 
   60.8750    89.1860     6.4850     5.9560     5.9640    24.4150     2.2640    -2.8720 
   61.0000    87.8620     6.2560     5.8560     5.8330    24.5920     2.2750    -2.9750 
   61.1250    87.9360     6.1340     5.8640     5.9400    24.6970     2.2920    -3.0500 
   61.2500    88.9110     6.2010     6.0100     6.3480    24.6460     2.3130    -3.0740 
   61.3750    88.9440     6.5190     6.3030     7.2780    24.4980     2.3350    -3.0580 
   61.5000    87.3090     6.9680     6.6640     8.4870    24.3480     2.3520    -3.0480 
   61.6250    83.6600     7.4020     7.0120     9.1780    24.2660     2.3600    -3.0280 
   61.7500    79.2280     7.6730     7.2600     9.8650    24.1890     2.3580    -3.0090 
   61.8750    76.8280     7.6790     7.3140     9.1190    24.0740     2.3490    -3.0280 
   62.0000    78.0070     7.5310     7.1960     7.4670    24.0300     2.3380    -3.0870 
   62.1250    81.3440     7.3640     6.9630     6.6900    24.0380     2.3310    -3.1820 
   62.2500    83.9770     7.3030     6.7030     6.4260    24.0620     2.3300    -3.3110 
   62.3750    84.4410     7.4370     6.5230     6.2710    24.1000     2.3260    -3.4670 
   62.5000    81.7470     7.7100     6.4690     6.2120    24.1430     2.3110    -3.6260 
   62.6250    77.6100     8.0430     6.5450     6.3040    24.1970     2.2830    -3.8130 
   62.7500    74.6690     8.3560     6.7230     6.6070    24.2500     2.2460    -4.0090 
   62.8750    74.7710     8.5830     6.9540     6.8480    24.2710     2.2140    -4.1850 
   63.0000    75.4440     8.7110     7.1610     7.0150    24.2760     2.1950    -4.3340 
   63.1250    74.0280     8.7150     7.2870     7.0650    24.2750     2.1910    -4.4500 
   63.2500    71.9720     8.5630     7.2970     7.1890    24.2760     2.2000    -4.5240 
   63.3750    73.5410     8.2550     7.1850     7.1880    24.2770     2.2240    -4.5570 
   63.5000    78.4780     7.9260     7.0290     7.0340    24.2780     2.2560    -4.5680 
   63.6250    82.7440     7.7130     6.9080     6.6800    24.2810     2.2880    -4.5610 
   63.7500    81.4180     7.7120     6.8890     6.4390    24.2770     2.3110    -4.5510 
   63.8750    76.6880     7.9640     7.0240     6.4860    24.2500     2.3170    -4.5430 
   64.0000    75.8030     8.3330     7.2670     6.7620    24.1960     2.3100    -4.5500 
   64.1250    80.3190     8.6690     7.5520     7.1540    24.1300     2.2970    -4.5790 
   64.2500    84.4180     8.8220     7.7990     7.4320    24.0420     2.2830    -4.6090 
   64.3750    83.0110     8.6840     7.9030     7.2520    23.9750     2.2720    -4.6540 
   64.5000    79.0270     8.3720     7.8490     7.0860    23.9330     2.2610    -4.7020 
   64.6250    76.0620     8.0050     7.6540     6.9810    23.9180     2.2510    -4.7360 
   64.7500    76.8160     7.6600     7.3510     6.8550    23.9140     2.2440    -4.7640 
   64.8750    79.2380     7.3350     6.9690     6.5650    23.8960     2.2450    -4.8260 
   65.0000    80.0610     6.9770     6.5490     6.2890    23.8540     2.2540    -4.8810 
   65.1250    80.2940     6.5840     6.1150     5.8810    23.8020     2.2680    -4.9050 
   65.2500    82.1180     6.2070     5.6990     5.6490    23.7450     2.2810    -4.9560 
   65.3750    85.2380     5.9400     5.3500     5.4640    23.6800     2.2870    -5.0400 
   65.5000    86.2980     5.8130     5.1040     5.3240    23.6340     2.2900    -5.1950 
   65.6250    85.3110     5.8650     5.0040     5.4670    23.6200     2.2930    -5.4270 
   65.7500    84.0160     6.1760     5.1130     5.7160    23.6240     2.3010    -5.7090 
   65.8750    81.9080     6.9450     5.5710     5.9550    23.6430     2.3220    -5.9990 
   66.0000    76.5420     8.1850     6.4040     6.6690    23.6990     2.3570    -6.3240 
   66.1250    68.9250     9.8160     7.6030     9.3270    23.8340     2.3980    -6.6890 
   66.2500    62.9200    11.5440     9.0140    16.0520    24.0800     2.4300    -7.0420 
   66.3750    62.5040    12.7480    10.2310    23.5680    24.4120     2.4260    -7.3680 
   66.5000    63.0090    13.0570    10.8550    21.7630    24.6820     2.3830    -7.6410 
   66.6250    62.0000    12.4850    10.7340    14.2060    24.9310     2.3120    -7.8560 
   66.7500    60.6370    11.4170    10.0320     9.9900    25.2000     2.2330    -8.0330 
   66.8750    60.7150    10.3940     9.1270     8.7450    25.4390     2.1740    -8.1670 
   67.0000    62.2590     9.7010     8.3780     8.3540    25.5610     2.1410    -8.2510 
   67.1250    63.3430     9.3340     7.8920     8.1120    25.5670     2.1320    -8.3130 
   67.2500    63.1790     9.1670     7.6340     7.9470    25.4790     2.1380    -8.3650 
   67.3750    62.8290     9.0570     7.5110     7.8300    25.3390     2.1500    -8.4070 
   67.5000    63.0030     8.9180     7.4000     7.7190    25.2240     2.1600    -8.4370 
   67.6250    63.5730     8.7470     7.2600     7.5750    25.1190     2.1670    -8.4480 
   67.7500    63.7030     8.5760     7.0950     7.4620    25.0100     2.1740    -8.4410 
   67.8750    66.7460     8.4470     6.9390     7.4260    24.8640     2.1830    -8.4250 
   68.0000    72.4490     8.3610     6.8210     7.2730    24.7020     2.1930    -8.4150 
   68.1250    76.4120     8.3070     6.7510     7.1140    24.5810     2.2010    -8.3960 
   68.2500    74.9610     8.2800     6.7280     7.0620    24.5300     2.2050    -8.3640 
   68.3750    69.2220     8.2930     6.7560     7.1190    24.5230     2.2060    -8.3300 
   68.5000    65.5640     8.3480     6.8220     7.2270    24.5310     2.2090    -8.2920 
   68.6250    66.1520     8.4430     6.9220     7.3940    24.5460     2.2140    -8.2690 
   68.7500    69.3590     8.5650     7.0450     7.5860    24.5680     2.2190    -8.2510 
   68.8750    70.8390     8.6840     7.1670     7.6740    24.6110     2.2150    -8.2330 
   69.0000    70.0150     8.7690     7.2640     7.4760    24.6680     2.2010    -8.2120 
   69.1250    69.0750     8.8050     7.3240     7.4310    24.7440     2.1780    -8.1830 
