~V
VERS. 2.00: Ver 2.00
~W
STRT.M 57.0000:
STOP.M 205.0000:
STEP.M 0.1250:
NULL. -999.2500:
UWI. F10591:
~C
DEPT.M :
SP.MV :
GR.API :
RML.OHMM :
RI. :
RXO.OHMM :
CALI.CM :
DEN.GM/CC :
~A
# ...
   79.5000   -18.5610    87.2490     6.7650     4.9530     5.5810    24.4510     2.3080 
   79.6250   -18.4660    86.7830     6.7810     4.9690     5.7400    24.4500     2.3070 
   79.7500   -18.3930    84.9360     6.7800     4.9920     5.7250    24.4530     2.2980 
   79.8750   -18.3330    83.2380     6.7550     5.0030     5.5310    24.4200     2.2850 
   80.0000   -18.2980    83.1340     6.7470     5.0180     5.3280    24.3970     2.2720 
   80.1250   -18.2830    82.6090     6.8640     5.1110     5.4660    24.2930     2.2670 
   80.2500   -18.3070    79.5830     7.1720     5.3390     5.8240    24.0680     2.2650 
   80.3750   -18.3460    76.1380     7.6870     5.7240     6.3870    24.0000     2.2600 
   80.5000   -18.3960    75.4410     8.3520     6.2320     7.1940    24.2390     2.2450 
   80.6250   -18.4450    75.3290     8.9700     6.7310     9.5360    24.4150     2.2190 
   80.7500   -18.4780    72.8060     9.2870     7.0300    11.3940    24.5270     2.1920 
   80.8750   -18.5210    72.1140     9.1480     6.9990    10.3250    24.6140     2.1730 
   81.0000   -18.5670    75.4840     8.5950     6.6360     7.5860    24.5910     2.1730 
   81.1250   -18.6030    78.3340     7.8380     6.0630     6.4050    24.3980     2.1950 
   81.2500   -18.6280    77.8460     7.1560     5.4920     5.5580    24.2690     2.2270 
   81.3750   -18.6430    78.1780     6.6680     5.0300     5.0180    24.2460     2.2620 
   81.5000   -18.6770    81.8170     6.3930     4.7190     4.7610    24.2790     2.2900 
   81.6250   -18.6740    83.5230     6.2900     4.5570     4.6650    24.2730     2.3070 
   81.7500   -18.6860    82.8530     6.2580     4.4740     4.5620    24.2460     2.3140 
   81.8750   -18.6710    84.4770     6.2490     4.4320     4.5700    24.2270     2.3130 
   82.0000   -18.6400    88.0550     6.2420     4.4100     4.5810    24.2230     2.3080 
   82.1250   -18.6050    88.7290     6.2390     4.4070     4.5720    24.2240     2.3030 
   82.2500   -18.5790    85.9110     6.2570     4.4330     4.6470    24.2270     2.2980 
   82.3750   -18.5440    82.7480     6.3190     4.4970     4.7670    24.2330     2.2920 
   82.5000   -18.5180    79.3840     6.4500     4.6120     4.9850    24.2490     2.2870 
   82.6250   -18.5320    76.4630     6.7150     4.8090     5.2190    24.2740     2.2780 
   82.7500   -18.5580    76.2580     7.1340     5.0990     5.3210    24.3320     2.2630 
   82.8750   -18.6390    78.0950     7.7200     5.4940     5.4960    24.4450     2.2350 
   83.0000   -18.7320    78.7020     8.4520     5.9880     6.0070    24.6000     2.1960 
   83.1250   -18.8380    75.7250     9.2370     6.5390     7.1380    24.7630     2.1570 
   83.2500   -18.9120    70.1130     9.9030     7.0390     7.9730    24.8240     2.1280 
   83.3750   -18.9940    64.4220    10.3180     7.3970     8.2390    24.7870     2.1160 
   83.5000   -19.0430    61.9210    10.4460     7.5730     8.2990    24.6460     2.1250 
   83.6250   -19.0690    63.7370    10.3620     7.5800     8.2990    24.4410     2.1430 
   83.7500   -19.0830    65.6950    10.3300     7.5660     8.2660    24.2260     2.1530 
   83.8750   -19.0550    65.8280    10.6070     7.6960     8.8570    23.9960     2.1500 
   84.0000   -19.0250    65.3910    11.3820     8.1180    10.7520    23.6840     2.1470 
   84.1250   -18.9740    64.7690    12.6830     8.9310    12.8690    23.3850     2.1790 
   84.2500   -18.9360    63.6390    14.0520     9.9080    13.3960    23.2220     2.2600 
   84.3750   -18.8930    63.9230    14.8830    10.6620    14.6070    23.1230     2.3750 
   84.5000   -18.8720    67.2000    14.5870    10.7300    15.2670    23.0500     2.4690 
   84.6250   -18.8600    71.2110    12.9460     9.8140    12.0510    22.9740     2.4790 
   84.7500   -18.8450    74.2650    10.8900     8.4650     7.9630    22.9220     2.4310 
   84.8750   -18.8340    78.0520     9.1370     7.1770     5.9460    22.9060     2.3640 
   85.0000   -18.8050    81.9910     8.0160     6.2330     5.4120    22.9110     2.3050 
   85.1250   -18.7640    82.4210     7.6120     5.7750     5.6120    22.9160     2.2680 
   85.2500   -18.7130    79.4290     7.6410     5.6690     5.8780    22.9030     2.2480 
   85.3750   -18.6450    77.0880     7.8950     5.7970     6.2680    22.8850     2.2380 
   85.5000   -18.5180    76.7810     8.1830     6.0240     6.5620    22.8740     2.2310 
   85.6250   -18.3620    78.1060     8.3670     6.2220     6.4020    22.8970     2.2210 
   85.7500   -18.2130    78.8900     8.4330     6.3340     6.2700    22.9120     2.2110 
   85.8750   -18.0500    78.4540     8.3850     6.3420     6.5010    22.9340     2.2050 
   86.0000   -17.9020    77.2640     8.2170     6.2390     6.5880    22.9920     2.2120 
   86.1250   -17.7660    76.9290     7.9140     6.0140     6.2900    23.1550     2.2370 
   86.2500   -17.6730    80.9400     7.5340     5.7100     5.9130    23.4100     2.2670 
   86.3750   -17.6120    87.2320     7.1270     5.3650     5.4720    23.7910     2.2970 
   86.5000   -17.6450    91.3420     6.7620     5.0250     5.2680    24.1370     2.3250 
   86.6250   -17.7790    92.5080     6.5550     4.7790     5.0720    24.1220     2.3490 
   86.7500   -17.9560    92.7690     6.5740     4.6890     4.9260    23.7990     2.3610 
   86.8750   -18.2070    93.4150     6.8800     4.8030     4.9140    23.4450     2.3490 
   87.0000   -18.4940    91.8070     7.5100     5.1540     5.2550    23.2610     2.3080 
   87.1250   -18.8320    83.9620     8.4900     5.7770     6.3730    23.3460     2.2450 
   87.2500   -19.1440    71.9270     9.6330     6.5700     7.9710    23.7400     2.1840 
   87.3750   -19.4500    59.8590    10.7260     7.4080     9.0320    24.3540     2.1400 
   87.5000   -19.7020    53.5960    11.5470     8.1370     9.3370    24.9410     2.1170 
   87.6250   -19.8790    53.4070    11.9130     8.5860     9.3800    25.1990     2.1100 
   87.7500   -19.9980    53.7690    11.9750     8.7880     9.5630    25.1660     2.1070 
   87.8750   -20.0350    52.3150    11.9150     8.8290     9.9630    25.1230     2.1040 
   88.0000   -20.0130    50.1810    11.8800     8.8100    10.3030    25.2680     2.1010 
   88.1250   -19.9200    50.3710    11.9340     8.7920    10.4970    25.4690     2.0980 
   88.2500   -19.8060    52.0330    12.0310     8.7840    10.5810    25.6250     2.0980 
   88.3750   -19.6590    53.8130    12.1330     8.7810    10.6780    25.7590     2.1020 
   88.5000   -19.5250    54.7000    12.2280     8.7850    10.7330    26.0130     2.1080 
   88.6250   -19.3370    53.2790    12.3280     8.8140    10.6040    26.3710     2.1130 
   88.7500   -19.1530    50.9430    12.4510     8.8800    10.4100    26.6400     2.1150 
   88.8750   -18.9960    50.2780    12.6010     8.9930    10.4300    26.5860     2.1160 
   89.0000   -18.8540    51.9450    12.7620     9.1500    10.9090    26.2440     2.1160 
   89.1250   -18.7500    52.9370    12.9100     9.3410    11.1730    25.9440     2.1170 
   89.2500   -18.6430    52.8200    13.0330     9.5480    11.1780    25.7270     2.1180 
   89.3750   -18.5730    52.0870    13.1290     9.7630    11.0810    25.4560     2.1200 
   89.5000   -18.5000    50.9610    13.2070     9.9800    11.1870    25.1320     2.1240 
   89.6250   -18.4430    49.6460    13.2970    10.2030    11.3880    24.9480     2.1290 
   89.7500   -18.3900    49.9920    13.4250    10.4400    11.6050    24.9680     2.1310 
   89.8750   -18.3090    52.0500    13.5740    10.6820    11.8410    25.2100     2.1260 
   90.0000   -18.2070    53.4030    13.6500    10.8670    12.1540    25.5410     2.1100 
   90.1250   -18.0340    52.0130    13.3960    10.8050    12.0920    25.7030     2.0870 
   90.2500   -17.8560    50.0710    12.6600    10.3530    11.8250    25.7650     2.0710 
   90.3750   -17.6090    50.2720    11.4210     9.4590    11.1770    25.7900     2.0790 
   90.5000   -17.3580    56.0830     9.8660     8.2420     9.8000    25.7450     2.1200 
   90.6250   -17.1200    68.3400     8.3490     6.9600     7.6000    25.5650     2.1940 
