~V
VERS. 2.00: Ver 2.00
~W
STRT.M 50.0000:
STOP.M 214.0000:
STEP.M 0.1250:
NULL. -999.2500:
UWI. F10534:
~C
DEPT.M :
DEN.GM/CC :
SP.MV :
GR.API :
RML.OHMM :
RI. :
RXO.OHMM :
CALI.CM :
~A
# ...
   72.5000     2.1030   -33.5650    75.2890     8.5490     6.6340     6.4450    22.7760 
   72.6250     2.0900   -33.5630    74.3090     8.6100     6.6560     6.4600    22.7760 
   72.7500     2.0870   -33.5680    75.9040     8.6350     6.6640     6.5080    22.7760 
   72.8750     2.0900   -33.5820    80.1600     8.6390     6.6660     6.5470    22.7760 
   73.0000     2.0980   -33.5710    84.1280     8.6530     6.6730     6.4870    22.7760 
   73.1250     2.1090   -33.5560    81.5740     8.7220     6.7050     6.3540    22.7760 
   73.2500     2.1180   -33.5500    78.0290     8.8680     6.7790     6.3560    22.7760 
   73.3750     2.1250   -33.5660    80.8820     9.0910     6.9020     6.5720    22.7760 
   73.5000     2.1290   -33.5890    86.2190     9.3560     7.0580     6.8180    22.7750 
   73.6250     2.1240   -33.6180    82.2210     9.5830     7.1990     7.0620    22.7510 
   73.7500     2.1110   -33.6660    72.1020     9.6990     7.2820     7.2930    22.6980 
   73.8750     2.0980   -33.7130    65.7000     9.6720     7.2950     7.3770    22.6470 
   74.0000     2.0930   -33.7720    66.4780     9.5100     7.2600     7.4350    22.6250 
   74.1250     2.0930   -33.8590    69.0870     9.2610     7.2100     7.5480    22.6120 
   74.2500     2.0860   -33.9520    69.8260     9.0060     7.1650     7.5760    22.5690 
   74.3750     2.0750   -34.0360    71.3480     8.7990     7.1170     7.3990    22.4990 
   74.5000     2.0660   -34.1020    75.0790     8.6780     7.0590     7.1820    22.4350 
   74.6250     2.0620   -34.1490    77.5780     8.6730     7.0020     7.0330    22.4130 
   74.7500     2.0620   -34.1720    75.7980     8.7410     6.9760     6.9160    22.4080 
   74.8750     2.0680   -34.1950    72.5240     8.8460     6.9980     6.8240    22.4080 
   75.0000     2.0820   -34.2240    73.6470     8.9680     7.0640     6.7200    22.4080 
   75.1250     2.1080   -34.2330    79.3390     9.0880     7.1460     6.5660    22.4080 
   75.2500     2.1380   -34.2150    83.1660     9.1760     7.2000     6.4510    22.4080 
   75.3750     2.1570   -34.1830    84.4400     9.1990     7.1960     6.4960    22.4070 
   75.5000     2.1490   -34.1630    83.7760     9.1320     7.1290     6.7170    22.4060 
   75.6250     2.1120   -34.1490    81.5930     8.9780     7.0180     6.8130    22.4050 
   75.7500     2.0760   -34.1320    79.5770     8.8280     6.9100     6.7240    22.4070 
   75.8750     2.0580   -34.0930    77.8320     8.7510     6.8370     6.6430    22.4080 
   76.0000     2.0550   -34.0350    76.5770     8.7590     6.8130     6.6610    22.4080 
   76.1250     2.0580   -33.9740    75.8440     8.8160     6.8410     6.6890    22.4080 
   76.2500     2.0590   -33.9430    75.8630     8.8780     6.8960     6.8130    22.4080 
   76.3750     2.0610   -33.9170    75.2110     8.9550     6.9670     6.9390    22.4080 
   76.5000     2.0690   -33.8820    72.8490     9.0780     7.0550     7.0050    22.4080 
   76.6250     2.0840   -33.8430    71.1750     9.2830     7.1650     7.0900    22.4080 
   76.7500     2.1010   -33.8030    71.1430     9.5300     7.2910     7.2580    22.4080 
   76.8750     2.1190   -33.7680    72.3700     9.7540     7.4160     7.4510    22.4080 
   77.0000     2.1300   -33.7170    73.0130     9.8990     7.5090     7.7830    22.4080 
   77.1250     2.1300   -33.6640    72.7910     9.9020     7.5110     8.0530    22.4080 
   77.2500     2.1240   -33.5830    74.0330     9.7770     7.4060     8.1040    22.4080 
   77.3750     2.1180   -33.4890    77.7380     9.5550     7.1970     7.6740    22.4070 
   77.5000     2.1190   -33.3760    81.3610     9.2980     6.9320     7.0230    22.4060 
   77.6250     2.1300   -33.2490    82.7430     9.0990     6.7020     6.5340    22.4050 
   77.7500     2.1430   -33.1010    82.7550     8.9950     6.5770     6.5320    22.4070 
   77.8750     2.1510   -32.9480    82.3610     8.9950     6.5740     6.7000    22.4080 
   78.0000     2.1520   -32.8080    80.7140     9.0800     6.6600     6.8660    22.4080 
   78.1250     2.1490   -32.6290    79.2840     9.2090     6.7590     6.9080    22.4080 
   78.2500     2.1470   -32.4360    79.5690     9.3180     6.8030     6.8370    22.4150 
   78.3750     2.1430   -32.2280    80.5260     9.3660     6.7790     6.7490    22.4430 
   78.5000     2.1420   -32.0020    80.7220     9.3330     6.7220     6.7340    22.5160 
   78.6250     2.1430   -31.7510    82.4630     9.2440     6.6830     6.7490    22.5820 
   78.7500     2.1480   -31.4590    83.7440     9.1490     6.6900     6.7470    22.6460 
   78.8750     2.1530   -31.1360    80.7130     9.0500     6.7400     6.7740    22.6890 
   79.0000     2.1590   -30.7450    75.9530     8.9290     6.8040     6.8380    22.7450 
   79.1250     2.1660   -30.3270    76.8220     8.7480     6.8310     6.9200    22.8700 
   79.2500     2.1730   -29.8630    81.0190     8.4900     6.7770     7.0050    23.0210 
   79.3750     2.1810   -29.3670    83.0420     8.1420     6.6090     7.0870    23.1210 
   79.5000     2.1910   -28.8530    82.3020     7.7040     6.3100     7.0260    23.2020 
   79.6250     2.2060   -28.3480    83.1080     7.1700     5.8780     6.5370    23.3800 
   79.7500     2.2250   -27.9040    88.0740     6.5950     5.3960     5.8820    23.5970 
   79.8750     2.2420   -27.4960   100.0660     6.0480     4.9420     5.3800    23.7240 
   80.0000     2.2530   -27.1870   114.6030     5.6170     4.5850     5.1550    23.7180 
   80.1250     2.2620   -26.9470   122.2840     5.4110     4.3810     4.9520    23.6570 
   80.2500     2.2750   -26.7930   122.9530     5.4250     4.3000     4.8430    23.6110 
   80.3750     2.2910   -26.7260   121.3520     5.6200     4.3160     4.8210    23.5800 
   80.5000     2.3010   -26.7350   119.2490     5.9030     4.3960     4.9730    23.5530 
   80.6250     2.2980   -26.8020   114.8700     6.1350     4.5070     5.2350    23.5210 
   80.7500     2.2880   -26.8820   111.3210     6.2370     4.6050     5.3490    23.5070 
   80.8750     2.2830   -27.0020   111.2340     6.2220     4.6910     5.0510    23.4970 
   81.0000     2.2880   -27.1010   113.4250     6.2340     4.8280     4.7950    23.4720 
   81.1250     2.3010   -27.1970   114.0560     6.5870     5.1870     5.0760    23.4170 
   81.2500     2.3100   -27.2600   110.0170     7.4350     5.8700     6.1950    23.3770 
   81.3750     2.3180   -27.2720   101.7030     8.7470     6.9000     8.3410    23.3630 
   81.5000     2.3340   -27.2170    90.5590    10.1760     8.1180    12.8340    23.3620 
   81.6250     2.3540   -27.0910    82.6460    10.8690     8.9830    16.9800    23.3620 
   81.7500     2.3520   -26.9150    78.9350    10.3650     9.0170    13.8010    23.3620 
   81.8750     2.3100   -26.6530    79.4580     8.8910     8.2010     9.0760    23.3700 
   82.0000     2.2550   -26.3630    85.4560     7.1610     6.9550     6.8630    23.4200 
   82.1250     2.2360   -26.0640    97.0440     5.8620     5.8020     5.9050    23.5960 
   82.2500     2.2560   -25.7770   111.1860     5.1060     4.9690     5.1540    23.8390 
   82.3750     2.2950   -25.5400   122.4240     4.8010     4.4690     4.7970    24.0170 
   82.5000     2.3320   -25.3560   128.4940     4.8060     4.2370     4.7690    24.0490 
   82.6250     2.3510   -25.2400   129.9560     4.9990     4.2030     4.6630    23.9450 
   82.7500     2.3600   -25.1790   130.0220     5.2070     4.2470     4.6180    23.8020 
   82.8750     2.3660   -25.2140   130.0920     5.3120     4.2920     4.7050    23.7360 
   83.0000     2.3710   -25.2950   129.7790     5.2590     4.2800     4.7340    23.7270 
   83.1250     2.3740   -25.4360   128.9880     5.1030     4.1870     4.6260    23.7280 
   83.2500     2.3760   -25.6270   127.5700     5.0110     4.0820     4.4350    23.7250 
   83.3750     2.3750   -25.8360   128.2840     5.1240     4.0620     4.3830    23.7220 
   83.5000     2.3720   -26.0940   130.8070     5.6020     4.2540     4.5820    23.7210 
   83.6250     2.3710   -26.3750   130.6730     6.8790     4.9260     5.2170    23.7210 
