~V
VERS. 2.00: Ver 2.00
~W
STRT.M 58.0000:
STOP.M 197.0000:
STEP.M 0.1250:
NULL. -999.2500:
UWI. F10573:
~C
DEPT.M :
SP.MV :
GR.API :
RML.OHMM :
RI. :
RXO.OHMM :
CALI.CM :
DEN.GM/CC :
~A
   58.0000    18.3340    80.7070     1.7660     1.4490     5.2970    24.0620     2.4420 
   58.1250    10.9970    76.9110     2.9420     2.2410     6.3910    23.9680     2.3520 
   58.2500     4.1950    73.0510     3.9560     3.1170     6.6030    23.9850     2.2980 
   58.3750    -1.6140    71.6770     4.4540     3.8830     6.0580    24.0830     2.2750 
   58.5000    -6.2210    72.8470     4.5830     4.4340     5.7960    24.1130     2.2750 
   58.6250    -9.5270    74.3560     4.6760     4.8080     5.9650    23.9920     2.2910 
   58.7500   -11.9610    74.9900     4.9010     5.1550     6.0020    23.7790     2.3100 
   58.8750   -13.7720    75.0310     5.2850     5.5530     5.7430    23.5150     2.3200 
   59.0000   -15.1620    75.2490     5.8010     6.0240     5.5210    23.2050     2.3170 
   59.1250   -16.2030    75.0030     6.3360     6.4950     6.4260    23.0040     2.3000 
   59.2500   -17.0300    73.1110     6.7060     6.8140     7.5010    22.9680     2.2790 
   59.3750   -17.7650    70.8010     6.7960     6.8670     7.7940    23.0710     2.2640 
   59.5000   -18.4400    69.9740     6.6160     6.6430     6.8450    23.1530     2.2560 
   59.6250   -19.0560    70.5670     6.3030     6.2420     5.9920    23.1450     2.2600 
   59.7500   -19.6640    72.1800     6.0630     5.8710     5.8160    23.0900     2.2790 
   59.8750   -20.2660    74.6290     5.9910     5.6480     5.6690    23.0230     2.3190 
   60.0000   -20.8570    75.9240     6.1130     5.6240     5.4520    22.9480     2.3690 
   60.1250   -21.4400    73.1380     6.4100     5.8120     5.5910    22.8580     2.4000 
   60.2500   -22.0260    69.1060     6.7870     6.1120     5.7880    22.7820     2.3950 
   60.3750   -22.5660    66.0940     7.1720     6.4460     5.9580    22.7390     2.3600 
   60.5000   -23.0240    64.4010     7.5010     6.7450     5.9970    22.7350     2.3140 
   60.6250   -23.4280    65.8020     7.6970     6.9330     6.0710    22.7440     2.2770 
   60.7500   -23.7770    68.2600     7.7590     7.0010     6.3550    22.7800     2.2500 
   60.8750   -24.0440    70.5930     7.6990     6.9560     6.5370    22.9840     2.2320 
   61.0000   -24.2440    71.6580     7.5530     6.8250     6.5430    23.3740     2.2220 
   61.1250   -24.3650    69.9130     7.3810     6.6470     6.4940    23.7940     2.2260 
   61.2500   -24.3910    66.9370     7.2720     6.5040     6.4690    23.9890     2.2460 
   61.3750   -24.3480    66.1080     7.2960     6.4630     6.1580    23.9230     2.2740 
   61.5000   -24.3110    69.3010     7.5000     6.5760     5.6560    23.7000     2.2940 
   61.6250   -24.3040    70.8340     7.9200     6.8840     5.7570    23.5160     2.2910 
   61.7500   -24.2530    67.1370     8.4590     7.3170     6.8510    23.5220     2.2700 
   61.8750   -24.1850    62.2790     9.0170     7.7930     8.2910    23.7930     2.2430 
   62.0000   -24.1160    59.6650     9.4920     8.2320     8.7930    24.0250     2.2230 
   62.1250   -24.0980    60.9050     9.8260     8.5670     8.3730    23.9270     2.2170 
   62.2500   -24.1500    63.0980    10.0900     8.8320     8.0600    23.6550     2.2150 
   62.3750   -24.2520    64.9480    10.3700     9.0800     8.2650    23.3630     2.2150 
   62.5000   -24.3480    68.0710    10.7210     9.3570     8.7920    23.1730     2.2190 
   62.6250   -24.4090    71.7800    11.1190     9.6610     8.9030    23.1960     2.2340 
   62.7500   -24.5310    73.1210    11.4570     9.9240     8.9970    23.2830     2.2510 
   62.8750   -24.7260    69.9460    11.6700    10.0920     9.2700    23.4480     2.2600 
   63.0000   -24.9280    64.0670    11.7600    10.1500     9.4440    23.5990     2.2540 
   63.1250   -25.0760    59.1800    11.7890    10.1310     9.5730    23.7160     2.2380 
   63.2500   -25.2060    56.8170    11.8340    10.1060     9.6940    23.7980     2.2250 
   63.3750   -25.3260    58.1470    11.9090    10.1090     9.8210    23.8310     2.2190 
   63.5000   -25.4280    60.3470    11.9920    10.1420    10.1280    23.8210     2.2180 
   63.6250   -25.5610    59.7810    12.1180    10.2360    10.4630    23.7860     2.2110 
   63.7500   -25.6880    57.8280    12.4390    10.4820    10.5080    23.7020     2.1870 
   63.8750   -25.7500    56.4770    13.1730    11.0390    10.2440    23.6310     2.1540 
   64.0000   -25.7880    57.5820    14.4630    12.0520     9.8960    23.5390     2.1410 
   64.1250   -25.8390    61.3540    16.3540    13.6250    10.2530    23.3190     2.2080 
   64.2500   -25.8770    62.5570    18.4410    15.4570    14.0280    22.9600     2.3560 
   64.3750   -25.9330    60.0340    20.1150    17.0780    24.5090    22.7220     2.5130 
   64.5000   -26.0330    58.0870    20.5960    17.8470    31.0800    22.6960     2.5650 
   64.6250   -26.1180    59.4430    19.2280    17.1070    21.6120    22.8320     2.4900 
   64.7500   -26.1880    59.8170    16.8150    15.3210    14.3630    23.1390     2.3780 
   64.8750   -26.3090    57.9330    14.1560    13.0820    12.8510    23.5690     2.2790 
   65.0000   -26.5150    57.9840    11.7800    10.9030    12.1530    23.9690     2.2220 
   65.1250   -26.8150    62.0930     9.9640     9.1270     9.5300    24.0950     2.2200 
   65.2500   -27.1680    67.1780     8.5890     7.7450     7.2280    24.0580     2.2460 
   65.3750   -27.5290    73.0730     7.5540     6.6960     6.2480    23.9960     2.2780 
   65.5000   -27.8820    78.3690     6.7870     5.9130     5.7390    23.9880     2.3010 
   65.6250   -28.2620    79.8400     6.2890     5.3950     5.2660    23.9740     2.3110 
   65.7500   -28.6660    78.8090     5.9870     5.0700     5.1410    23.9500     2.3140 
   65.8750   -29.0340    79.8830     5.8440     4.9050     4.9630    23.9340     2.3190 
   66.0000   -29.2920    83.3680     5.8350     4.8770     4.7440    23.9450     2.3320 
   66.1250   -29.4520    82.5890     5.9620     4.9910     4.6290    23.9850     2.3520 
   66.2500   -29.5510    79.4750     6.1760     5.2050     4.9290    24.0130     2.3660 
   66.3750   -29.5590    78.8510     6.4460     5.4890     5.3050    24.0120     2.3650 
   66.5000   -29.5120    78.4740     6.7400     5.8050     5.8680    24.0080     2.3490 
   66.6250   -29.4200    73.6820     7.0280     6.1100     6.3750    23.9490     2.3290 
   66.7500   -29.2280    69.5680     7.2900     6.3740     6.5030    23.8640     2.3140 
   66.8750   -28.9530    71.9100     7.5170     6.5820     6.4940    23.8640     2.3030 
   67.0000   -28.6820    78.6450     7.6900     6.7200     6.3150    24.0630     2.2940 
   67.1250   -28.4080    81.8070     7.7450     6.7450     6.6760    24.2880     2.2870 
   67.2500   -28.1080    79.0390     7.6440     6.6370     7.0270    24.3650     2.2850 
   67.3750   -27.7980    75.3780     7.3680     6.3790     7.2110    24.3400     2.2910 
   67.5000   -27.4730    77.3120     6.9520     5.9930     6.8690    24.2570     2.3050 
   67.6250   -27.1500    84.6900     6.4990     5.5540     6.2570    24.2230     2.3250 
   67.7500   -26.8470    89.0060     6.1380     5.1710     5.6010    24.1490     2.3470 
   67.8750   -26.5450    89.1750     5.9440     4.9180     4.9610    24.0450     2.3670 
   68.0000   -26.2340    89.1110     5.9650     4.8390     4.7050    23.9490     2.3790 
   68.1250   -25.9140    89.3120     6.2740     4.9960     4.9360    23.7790     2.3780 
   68.2500   -25.5900    84.6890     6.8490     5.3750     5.5900    23.6330     2.3680 
   68.3750   -25.2620    75.4190     7.6770     5.9780     6.3970    23.6170     2.3550 
   68.5000   -24.9400    67.1420     8.6970     6.7770     6.9100    23.6440     2.3370 
   68.6250   -24.6330    66.4840     9.7450     7.6800     8.1280    23.6530     2.3130 
   68.7500   -24.3630    70.0940    10.5850     8.4940     9.9660    23.7500     2.2830 
   68.8750   -24.1300    71.3740    11.0610     9.0670    11.7430    24.0360     2.2540 
   69.0000   -23.9510    67.9660    11.1920     9.3580    12.5880    24.3190     2.2300 
   69.1250   -23.8090    64.7410    11.2220     9.4990    10.6610    24.4170     2.2200 
