~V
VERS. 2.00: Ver 2.00
~W
STRT.M 58.0000:
STOP.M 193.0000:
STEP.M 0.1250:
NULL. -999.2500:
UWI. F10563:
~C
DEPT.M :
GR.API :
RML.OHMM :
RI. :
RXO.OHMM :
CALI.CM :
DEN.GM/CC :
SP.MV :
~A
# ...
  136.7500    91.3850     9.3300     8.8060     8.0090    24.3920     2.4090    -8.7830 
  136.8750    92.3120     9.7840     9.1440     9.0560    24.3920     2.3930    -8.7750 
  137.0000    90.5870    10.1810     9.4710    11.5230    24.3920     2.3660    -8.5820 
  137.1250    86.7730    10.3260     9.6470    14.5540    24.3900     2.3380    -8.3080 
  137.2500    84.8140    10.2120     9.6410    14.2090    24.3760     2.3180    -8.1910 
  137.3750    86.5560     9.9640     9.5090    11.6730    24.3390     2.3100    -8.1830 
  137.5000    89.8320     9.8470     9.4040    10.2130    24.2960     2.3150    -8.1300 
  137.6250    89.2470    10.3770     9.6670     9.2090    24.2780     2.3350    -7.9420 
  137.7500    84.4030    12.1520    10.6670     9.7680    24.2590     2.3730    -7.7540 
  137.8750    77.1590    15.8990    12.9270    12.9070    24.1960     2.4260    -7.6630 
  138.0000    69.4200    21.9620    17.0780    21.3570    24.0650     2.4850    -7.6660 
  138.1250    62.9080    30.7050    24.0660    30.9160    23.9520     2.5300    -7.6140 
  138.2500    59.8560    41.5260    33.1580    52.6070    23.9120     2.5410    -7.4070 
  138.3750    60.7490    52.7440    42.8000    71.4730    23.9360     2.5100    -7.2040 
  138.5000    63.6190    61.4930    50.7180    70.0580    24.0590     2.4450    -7.1900 
  138.6250    66.5540    64.8840    54.6030    65.6820    24.3090     2.3660    -7.3010 
  138.7500    68.2250    64.5040    55.3270    59.3160    24.5270     2.3000    -7.2810 
  138.8750    67.7850    62.4810    54.3190    54.7620    24.5960     2.2570    -7.1200 
  139.0000    65.2090    60.4630    52.9170    53.0710    24.5670     2.2360    -6.9400 
  139.1250    64.4770    59.2630    51.9730    54.3690    24.5580     2.2310    -6.9290 
  139.2500    65.2400    58.7840    51.6180    54.0620    24.5750     2.2310    -7.0370 
  139.3750    64.3760    58.8700    51.7910    50.5180    24.5920     2.2340    -7.0680 
  139.5000    63.2150    59.2520    52.3030    48.4390    24.5850     2.2380    -6.9400 
  139.6250    64.2800    59.2340    52.6360    49.0280    24.5150     2.2420    -6.8480 
  139.7500    66.0230    57.9990    52.1020    51.6540    24.4620     2.2470    -6.8080 
  139.8750    66.5170    55.0810    50.2160    55.1440    24.4190     2.2570    -6.7550 
  140.0000    66.8220    50.7760    47.0160    52.8800    24.3930     2.2720    -6.7630 
  140.1250    67.3460    46.2360    43.1990    43.7130    24.3870     2.2950    -6.7870 
  140.2500    67.0000    42.7810    39.9490    32.6040    24.3890     2.3170    -6.7380 
  140.3750    66.4610    41.0970    38.0290    27.9810    24.3980     2.3290    -6.6760 
  140.5000    66.5450    41.3620    37.8070    27.7650    24.4190     2.3210    -6.6100 
  140.6250    65.1590    43.5320    39.4690    35.0210    24.4670     2.2880    -6.4530 
  140.7500    62.5680    46.6530    42.2490    39.0340    24.5160     2.2440    -6.4210 
  140.8750    61.9040    49.9990    45.5160    41.7840    24.5690     2.2040    -6.5440 
  141.0000    63.9460    53.0140    48.7020    42.5670    24.5970     2.1830    -6.5800 
  141.1250    64.0340    55.4920    51.4830    43.3870    24.5910     2.1940    -6.4410 
  141.2500    62.0530    57.8140    54.0640    48.4580    24.5800     2.2230    -6.3960 
  141.3750    61.3470    60.2280    56.6390    55.4910    24.5770     2.2570    -6.5310 
  141.5000    61.9550    62.6300    59.1490    58.2160    24.5810     2.2810    -6.7020 
  141.6250    60.1720    64.3530    61.0480    61.0760    24.5850     2.2870    -6.7700 
  141.7500    58.3190    64.8740    61.8700    64.2310    24.5780     2.2830    -6.7140 
  141.8750    58.3040    63.9980    61.3830    62.1760    24.5670     2.2790    -6.6710 
  142.0000    59.7550    61.9810    59.7320    57.0500    24.5450     2.2780    -6.8050 
  142.1250    62.7850    59.4190    57.3720    46.1400    24.4780     2.2810    -7.0460 
  142.2500    64.5660    57.1330    55.1090    36.8590    24.3830     2.2820    -7.1260 
  142.3750    62.5920    55.6020    53.4770    33.4730    24.3600     2.2810    -7.0310 
  142.5000    58.3260    55.0600    52.8000    36.5770    24.3940     2.2820    -7.0500 
  142.6250    57.0270    55.7070    53.2660    42.0910    24.4110     2.2850    -7.2680 
  142.7500    58.7290    57.5380    54.4490    46.0900    24.3610     2.2890    -7.3910 
  142.8750    59.9530    60.4660    56.0040    48.4710    24.2810     2.2900    -7.3870 
  143.0000    59.3040    63.0070    57.5920    53.9440    24.2340     2.2850    -7.3360 
  143.1250    57.9330    64.3140    58.8360    56.4900    24.2290     2.2750    -7.3650 
  143.2500    58.0110    64.5210    59.5310    56.3440    24.2350     2.2640    -7.5260 
  143.3750    59.3990    63.9670    59.5820    57.2360    24.2410     2.2550    -7.7410 
  143.5000    59.7920    62.9220    59.0870    58.1050    24.2440     2.2500    -7.7940 
  143.6250    58.7350    61.9760    58.4330    55.6450    24.2440     2.2480    -7.7040 
  143.7500    59.1290    61.7660    58.2390    50.6990    24.2440     2.2450    -7.7940 
  143.8750    61.5890    62.7190    58.9830    48.1960    24.2440     2.2400    -8.0490 
  144.0000    65.7290    64.9750    60.9060    52.8100    24.2440     2.2340    -8.2210 
  144.1250    69.2620    68.2990    63.9590    60.1700    24.2440     2.2280    -8.1940 
  144.2500    70.5260    71.5070    67.1980    68.6790    24.2440     2.2260    -8.2150 
  144.3750    68.7030    73.3120    69.5430    73.4760    24.2440     2.2260    -8.3560 
  144.5000    65.3910    72.6430    69.9420    74.7630    24.2430     2.2270    -8.6180 
  144.6250    63.0260    68.9420    67.5260    69.8030    24.2410     2.2290    -8.8960 
  144.7500    61.3950    63.7500    63.3180    61.7270    24.2400     2.2310    -9.0300 
  144.8750    61.1830    58.5360    58.5600    51.6560    24.2420     2.2310    -9.0360 
  145.0000    63.3910    54.5810    54.5760    42.6060    24.2440     2.2310    -9.1550 
  145.1250    65.3930    53.1390    52.7770    38.6310    24.2440     2.2300    -9.4880 
  145.2500    65.3310    54.1650    53.3410    40.7110    24.2440     2.2310    -9.6680 
  145.3750    65.5770    57.4580    56.1600    46.1020    24.2440     2.2340    -9.6970 
  145.5000    67.1270    62.3280    60.6440    53.4100    24.2450     2.2370    -9.7840 
  145.6250    66.1000    67.3820    65.6010    62.7550    24.2500     2.2370    -9.9640 
  145.7500    63.0670    70.9930    69.4710    72.5900    24.2610     2.2350   -10.1010 
  145.8750    61.8410    72.3910    71.3900    73.5750    24.2710     2.2310   -10.3070 
  146.0000    64.0150    71.8660    71.3820    66.5940    24.2770     2.2270   -10.5530 
  146.1250    67.0200    70.6520    70.3590    58.8290    24.2820     2.2230   -10.6410 
  146.2500    67.6970    70.2710    69.8540    56.7950    24.2970     2.2160   -10.7060 
  146.3750    65.5420    71.4180    70.7140    60.1650    24.3170     2.2070   -10.7880 
  146.5000    63.5500    74.0860    73.1050    72.8440    24.3200     2.1990   -10.7970 
  146.6250    65.2980    77.6270    76.5290    81.4050    24.2960     2.1960   -10.8610 
  146.7500    68.4320    80.7810    79.7390    82.6810    24.2760     2.1990   -11.1300 
  146.8750    69.3690    82.7060    81.8670    82.1950    24.2690     2.2040   -11.3340 
  147.0000    67.7040    83.0520    82.4700    82.9400    24.2690     2.2110   -11.2910 
  147.1250    65.8720    81.8830    81.4710    79.3250    24.2690     2.2180   -11.2300 
  147.2500    66.1170    80.0390    79.6620    74.4210    24.2730     2.2240   -11.3590 
  147.3750    67.8360    78.0020    77.5640    73.4720    24.2920     2.2240   -11.6060 
  147.5000    68.8540    76.0410    75.5070    72.4600    24.3470     2.2180   -11.7550 
  147.6250    68.3480    74.2120    73.5750    68.5990    24.4120     2.2080   -11.6960 
  147.7500    67.2870    72.3190    71.5640    65.9740    24.4630     2.2070   -11.6270 
  147.8750    66.7350    70.1470    69.2480    65.5710    24.4720     2.2210   -11.6410 
