~V
VERS. 2.00: Ver 2.00
~W
STRT.M 47.0000:
STOP.M 236.0000:
STEP.M 0.1250:
NULL. -999.2500:
UWI. F10597:
~C
DEPT.M :
SP.MV :
DEN.GM/CC :
GR.API :
RML.OHMM :
RI. :
RXO.OHMM :
CALI.CM :
~A
# ...
   58.2500    43.8000     2.4600    61.7270     3.6480     0.3600     4.2410    25.1130 
   58.3750    33.1790     2.4580    67.7560     7.2970     0.9550     3.5050    24.9360 
   58.5000    22.5370     2.3770    75.0840    16.2540     3.0340     4.4890    24.7470 
   58.6250    12.3230     2.2660    83.3840    36.8420     9.1900     6.6870    24.6340 
   58.7500     2.9010     2.1730    91.3680    76.8240    25.1500     8.4350    24.5160 
   58.8750    -5.2920     2.1230    94.9740    79.0280    44.9910     8.8970    24.4220 
   59.0000   -11.5770     2.1110    90.7730    36.4750    34.4830     8.8680    24.3890 
   59.1250   -16.1320     2.1050    83.6520    18.2750    20.0230     8.7790    24.4250 
   59.2500   -19.2860     2.0930    79.5480    11.4630    12.1120     8.6670    24.5340 
   59.3750   -21.4970     2.0790    79.4350     8.5290     8.3260     8.6310    24.6610 
   59.5000   -23.0610     2.0670    80.3790     7.1680     6.9330     8.6640    24.6510 
   59.6250   -24.3040     2.0600    80.5380     6.4100     6.5650     8.7030    24.5390 
   59.7500   -25.3510     2.0620    80.2700     6.0880     6.6140     8.7490    24.4690 
   59.8750   -26.2510     2.0710    80.7990     6.0940     6.7420     8.7660    24.4530 
   60.0000   -26.9700     2.0810    79.4910     6.2380     6.8550     8.7210    24.4530 
   60.1250   -27.5600     2.0860    75.7580     6.3550     6.9320     8.6930    24.4480 
   60.2500   -28.0040     2.0850    73.2140     6.4680     6.9620     8.7440    24.4090 
   60.3750   -28.2960     2.0820    75.1490     6.6550     6.9370     8.7800    24.2400 
   60.5000   -28.4120     2.0780    81.8910     6.9170     6.8620     8.8400    23.8340 
   60.6250   -28.3540     2.0750    86.9650     7.1590     6.7640     8.8090    23.3530 
   60.7500   -28.1400     2.0690    87.9420     7.2770     6.6510     8.6540    23.0760 
   60.8750   -27.8200     2.0580    85.5770     7.2710     6.5340     8.4040    23.0950 
   61.0000   -27.4380     2.0460    83.4130     7.2990     6.4130     8.2000    23.4680 
   61.1250   -27.0110     2.0380    83.0780     7.4770     6.2960     7.9570    23.9980 
   61.2500   -26.5880     2.0350    83.0660     7.7050     6.1850     7.7730    24.3380 
   61.3750   -26.2450     2.0380    83.3200     7.7930     6.0740     7.4420    24.4230 
   61.5000   -25.9860     2.0510    84.5110     7.6160     5.9450     7.1090    24.3660 
   61.6250   -25.8270     2.0700    84.1660     7.3030     5.8010     6.7900    24.3210 
   61.7500   -25.7780     2.0880    81.1310     7.0050     5.6640     6.6350    24.3040 
   61.8750   -25.7990     2.1000    78.8220     6.8380     5.5680     6.5840    24.3020 
   62.0000   -25.9150     2.1060    81.8780     6.8320     5.5390     6.3750    24.3020 
   62.1250   -26.1230     2.1090    87.9760     6.9480     5.5510     6.2490    24.3020 
   62.2500   -26.3900     2.1090    92.7060     7.1830     5.5690     6.1490    24.3020 
   62.3750   -26.6720     2.1080    93.4760     7.5040     5.5780     6.0670    24.3020 
   62.5000   -26.9520     2.1040    91.7180     7.8120     5.5870     6.0640    24.3030 
   62.6250   -27.2000     2.0990    90.8160     8.0270     5.6240     6.2220    24.3220 
   62.7500   -27.4120     2.0950    91.0680     8.1460     5.7040     6.5050    24.3820 
   62.8750   -27.6180     2.0950    90.5110     8.1940     5.8240     6.6950    24.4820 
   63.0000   -27.7650     2.1000    87.2190     8.1850     5.9530     6.8710    24.5610 
   63.1250   -27.8930     2.1070    84.6170     8.1110     6.0520     7.0190    24.5900 
   63.2500   -28.0210     2.1120    84.0840     7.9960     6.1100     7.0970    24.5950 
   63.3750   -28.1550     2.1130    82.3950     7.9660     6.1400     7.1330    24.5940 
   63.5000   -28.3430     2.1130    78.7770     8.2310     6.1720     7.1730    24.5910 
   63.6250   -28.5580     2.1140    77.0660     8.7500     6.2180     7.2270    24.5870 
   63.7500   -28.7870     2.1160    77.9910     9.3240     6.2630     7.3050    24.5860 
   63.8750   -29.0040     2.1150    78.7290     9.7060     6.2810     7.4010    24.5880 
   64.0000   -29.2360     2.1090    77.3270     9.7090     6.2570     7.4910    24.5920 
   64.1250   -29.4250     2.1010    76.0190     9.4570     6.2100     7.5290    24.5940 
   64.2500   -29.5640     2.0970    74.6150     9.0800     6.1610     7.4710    24.5950 
   64.3750   -29.6630     2.0990    73.6310     8.6220     6.1220     7.3610    24.5950 
   64.5000   -29.7210     2.1050    73.9790     8.0060     6.1000     7.2790    24.5950 
   64.6250   -29.7480     2.1030    74.9350     7.2870     6.0900     7.3240    24.5950 
   64.7500   -29.7350     2.0930    76.4990     6.6310     6.0970     7.4580    24.5950 
   64.8750   -29.7120     2.0850    78.7380     6.2280     6.1120     7.6310    24.5950 
   65.0000   -29.6800     2.0930    81.4870     6.2460     6.1210     7.5400    24.5950 
   65.1250   -29.6750     2.1090    81.2880     6.5800     6.1240     7.2530    24.5950 
   65.2500   -29.6390     2.1220    78.6460     7.0740     6.1340     7.0760    24.5950 
   65.3750   -29.5230     2.1230    75.8340     7.5550     6.1640     7.0970    24.5950 
   65.5000   -29.2310     2.1120    75.4440     7.9250     6.2110     7.3090    24.5950 
   65.6250   -28.8150     2.1000    78.1740     8.2100     6.2430     7.6130    24.5950 
   65.7500   -28.2970     2.0940    81.5180     8.4170     6.2070     7.9150    24.5950 
   65.8750   -27.7340     2.0940    84.5650     8.5200     6.0420     7.8690    24.5950 
   66.0000   -27.2480     2.1060    87.0820     8.4060     5.6890     7.0550    24.5780 
   66.1250   -26.8460     2.1340    89.3770     8.0730     5.2270     5.9450    24.5290 
   66.2500   -26.6140     2.1750    90.9250     7.6520     4.7880     5.2720    24.4590 
   66.3750   -26.5690     2.2140    90.8740     7.4040     4.5340     5.1320    24.3950 
   66.5000   -26.8290     2.2350    91.4340     7.6570     4.6670     5.2450    24.3740 
   66.6250   -27.3040     2.2430    91.7020     8.4660     5.2200     5.7430    24.3730 
   66.7500   -27.9200     2.2590    88.9700     9.7570     6.1800     6.7080    24.3900 
   66.8750   -28.5340     2.2940    82.2540    11.1700     7.3780     8.0890    24.4230 
   67.0000   -28.9930     2.3150    75.8640    11.9190     8.3540     8.9080    24.4390 
   67.1250   -29.2390     2.2780    74.4290    11.6510     8.7200     9.2210    24.4430 
   67.2500   -29.1960     2.1970    76.7690    10.6430     8.4690     9.3230    24.4430 
   67.3750   -28.8570     2.1240    78.6990     9.5900     7.9140     9.3590    24.4430 
   67.5000   -28.1510     2.0880    80.3520     9.1150     7.4360     9.2880    24.4430 
   67.6250   -27.2120     2.0800    83.5810     9.1310     7.1400     9.2220    24.4430 
   67.7500   -26.1410     2.0980    86.8820     9.3200     6.9200     9.2290    24.4430 
   67.8750   -25.0490     2.1360    87.4080     9.3260     6.6090     8.8470    24.4430 
   68.0000   -24.0360     2.1750    87.2490     8.8970     6.0960     7.5860    24.4430 
   68.1250   -23.1380     2.1990    90.0510     8.1990     5.4910     6.1840    24.4430 
   68.2500   -22.4010     2.2130    95.2130     7.4630     4.9550     5.6040    24.4420 
   68.3750   -21.8510     2.2230   100.1140     6.9000     4.6200     5.6580    24.4400 
   68.5000   -21.4970     2.2310   102.5480     6.6920     4.5860     5.7210    24.4420 
   68.6250   -21.2580     2.2370   101.4850     6.8070     4.7640     5.7360    24.4430 
   68.7500   -21.1300     2.2400    96.8000     7.1450     5.0450     5.9310    24.4430 
   68.8750   -21.0940     2.2400    92.6470     7.5050     5.3010     5.9620    24.4430 
   69.0000   -21.1290     2.2360    94.7220     7.6840     5.4110     5.6200    24.4430 
   69.1250   -21.2310     2.2280    97.7450     7.6730     5.3910     5.3580    24.4390 
   69.2500   -21.3740     2.2170    96.0400     7.5250     5.2940     5.5970    24.4260 
   69.3750   -21.5940     2.2090    92.1160     7.3250     5.1690     6.1370    24.4090 
