~V
VERS. 2.00: Ver 2.00
~W
STRT.M 50.0000:
STOP.M 214.0000:
STEP.M 0.1250:
NULL. -999.2500:
UWI. F10534:
~C
DEPT.M :
DEN.GM/CC :
SP.MV :
GR.API :
RML.OHMM :
RI. :
RXO.OHMM :
CALI.CM :
~A
# ...
   61.2500     1.8700   -24.0890    85.5830     6.1490     9.2900     4.0890    31.9980 
   61.3750     1.8870   -24.5000    95.2780     4.5390     5.5920     4.2570    28.1630 
   61.5000     1.9700   -24.8370   106.8840     4.0030     4.2850     4.4640    25.0160 
   61.6250     2.1040   -25.1560   112.8990     4.0350     4.2230     4.5820    23.7640 
   61.7500     2.2240   -25.4840   111.6980     4.2400     4.4000     4.6390    23.3700 
   61.8750     2.2900   -25.8480   107.2970     4.5090     4.6080     4.8980    23.2070 
   62.0000     2.3080   -26.2530   104.2040     4.8090     4.8220     5.1170    23.0660 
   62.1250     2.3080   -26.7050   104.2580     5.1070     5.0250     5.1670    23.0100 
   62.2500     2.3010   -27.2080   105.9020     5.3610     5.1920     5.1350    22.9940 
   62.3750     2.2890   -27.7570   105.7370     5.5650     5.3170     5.0870    22.9880 
   62.5000     2.2700   -28.3520   102.1400     5.7840     5.4340     5.0630    22.9710 
   62.6250     2.2390   -28.9480    97.4360     6.1570     5.6300     5.3310    22.9370 
   62.7500     2.2010   -29.5150    92.6040     6.6830     5.9300     6.0470    22.9220 
   62.8750     2.1630   -30.0100    88.0060     7.2310     6.2830     6.5070    22.9180 
   63.0000     2.1320   -30.4340    84.0730     7.6070     6.5800     6.5570    22.9180 
   63.1250     2.1120   -30.7790    80.9080     7.6260     6.6780     6.4790    22.9180 
   63.2500     2.1010   -31.0380    79.9470     7.4110     6.5970     6.4210    22.9180 
   63.3750     2.0970   -31.2060    80.5380     7.1470     6.4230     6.3700    22.9180 
   63.5000     2.0950   -31.2700    80.9550     6.9860     6.2640     6.3040    22.9180 
   63.6250     2.0920   -31.2460    79.0060     6.9920     6.2040     6.2430    22.9180 
   63.7500     2.0900   -31.1780    76.5310     7.0740     6.2290     6.2030    22.9180 
   63.8750     2.0920   -31.0790    75.0290     7.1670     6.3050     6.1570    22.9180 
   64.0000     2.0990   -30.9460    74.2610     7.2300     6.3930     6.1480    22.9180 
   64.1250     2.1120   -30.7390    73.4530     7.2130     6.4310     6.3110    22.9310 
   64.2500     2.1250   -30.4830    73.6900     7.0960     6.3790     6.5100    22.9800 
   64.3750     2.1330   -30.1900    75.6590     6.8740     6.2230     6.6230    23.0970 
   64.5000     2.1360   -29.8660    79.8090     6.5540     5.9740     6.5000    23.3500 
   64.6250     2.1410   -29.5140    85.8080     6.1530     5.6500     5.9600    23.7570 
   64.7500     2.1560   -29.1460    93.6560     5.7420     5.2990     5.3280    24.0990 
   64.8750     2.1810   -28.7830   102.7510     5.3830     4.9590     5.1210    24.1690 
   65.0000     2.2110   -28.4500   111.6740     5.1180     4.6610     5.1300    24.1200 
   65.1250     2.2390   -28.1780   119.0320     4.9620     4.4420     4.9210    24.0860 
   65.2500     2.2650   -27.9770   125.0560     4.8820     4.2990     4.8120    24.0640 
   65.3750     2.2870   -27.8580   129.1050     4.8700     4.2330     4.7660    24.0140 
   65.5000     2.3000   -27.8210   131.2850     4.9280     4.2390     4.7010    23.9540 
   65.6250     2.2990   -27.8790   129.9230     5.0910     4.3350     4.6230    23.8650 
   65.7500     2.2850   -28.0140   125.3280     5.3720     4.5290     4.6680    23.6490 
   65.8750     2.2630   -28.2030   120.0730     5.7670     4.8300     4.8620    23.3170 
   66.0000     2.2350   -28.4260   114.7910     6.2530     5.2320     5.3440    23.0760 
   66.1250     2.2070   -28.6730   106.2010     6.7870     5.7040     5.4970    23.0210 
   66.2500     2.1830   -28.9140    96.3850     7.2750     6.1560     5.8860    23.0610 
   66.3750     2.1650   -29.1050    90.0060     7.6400     6.5110     6.0600    23.1140 
   66.5000     2.1550   -29.2560    88.0380     7.8310     6.7190     6.2450    23.1410 
   66.6250     2.1570   -29.3630    86.9150     7.8020     6.7400     6.4080    23.1450 
   66.7500     2.1700   -29.4270    86.0700     7.5920     6.6110     6.6550    23.1630 
   66.8750     2.1960   -29.4630    88.7790     7.1970     6.3310     6.8630    23.2610 
   67.0000     2.2300   -29.4880    95.3710     6.6470     5.9080     6.5720    23.5070 
   67.1250     2.2540   -29.5350   100.8480     6.0750     5.4030     5.8190    23.7680 
   67.2500     2.2630   -29.6190   102.8930     5.6650     4.9560     5.3470    23.8100 
   67.3750     2.2640   -29.7810   102.3660     5.5380     4.6770     4.9970    23.6200 
   67.5000     2.2700   -30.0060   100.8180     5.7220     4.6290     4.8380    23.2990 
   67.6250     2.2770   -30.2600    97.9100     6.1630     4.8340     4.9480    23.0600 
   67.7500     2.2710   -30.5190    94.9180     6.6810     5.1750     5.1420    22.8360 
   67.8750     2.2400   -30.7650    92.5980     7.1670     5.5570     5.7150    22.6840 
   68.0000     2.1910   -30.9830    88.2840     7.5630     5.8910     6.2190    22.6290 
   68.1250     2.1520   -31.1160    83.0310     7.8160     6.0940     6.4270    22.6270 
   68.2500     2.1340   -31.1600    81.1320     7.9120     6.1480     6.4050    22.6260 
   68.3750     2.1330   -31.1040    82.0570     7.8280     6.0610     6.3120    22.6250 
   68.5000     2.1410   -30.9650    84.5760     7.5910     5.8740     6.2240    22.6250 
   68.6250     2.1560   -30.7890    88.9050     7.2870     5.6540     6.0540    22.6250 
   68.7500     2.1750   -30.6200    92.6750     7.0460     5.4780     5.7440    22.6250 
   68.8750     2.1970   -30.4730    92.4010     6.9420     5.3890     5.4560    22.6250 
   69.0000     2.2140   -30.3360    89.1620     6.9970     5.4020     5.6680    22.6250 
   69.1250     2.2170   -30.2410    88.5960     7.1910     5.5170     5.8640    22.6270 
   69.2500     2.2110   -30.1740    89.6640     7.4190     5.6790     6.1460    22.6400 
   69.3750     2.1970   -30.1070    90.2530     7.5950     5.8370     6.3620    22.6710 
   69.5000     2.1830   -30.0250    89.4920     7.6540     5.9390     6.5610    22.6930 
   69.6250     2.1710   -29.8940    89.6240     7.5580     5.9370     6.6520    22.7010 
   69.7500     2.1710   -29.7070    91.2500     7.3810     5.8520     6.5410    22.7010 
   69.8750     2.1890   -29.4750    93.3040     7.2130     5.7280     6.2370    22.7010 
   70.0000     2.2250   -29.2370    95.1060     7.1240     5.6220     5.9680    22.7010 
   70.1250     2.2670   -29.0180    95.9050     7.1300     5.5790     5.7860    22.7010 
   70.2500     2.2910   -28.8560    95.4790     7.1390     5.5730     5.8680    22.7010 
   70.3750     2.2800   -28.7900    94.4240     7.0730     5.5590     6.0480    22.7010 
   70.5000     2.2470   -28.8470    96.0110     6.9210     5.4990     6.0650    22.7140 
   70.6250     2.2240   -29.0670   103.4420     6.7520     5.3850     5.8600    22.8080 
   70.7500     2.2230   -29.4110   112.3000     6.6770     5.2740     5.2580    22.9620 
   70.8750     2.2310   -29.8660   116.2390     6.7770     5.2380     5.0090    23.0160 
   71.0000     2.2330   -30.3970   111.0490     7.0850     5.3390     5.3360    22.8920 
   71.1250     2.2190   -30.9710    98.9150     7.6150     5.6260     5.8600    22.8030 
   71.2500     2.1940   -31.5140    87.9540     8.2480     6.0330     6.1900    22.7760 
   71.3750     2.1670   -32.0210    81.2980     8.8310     6.4620     6.3150    22.7760 
   71.5000     2.1450   -32.4660    79.3450     9.1860     6.7820     6.3050    22.7760 
   71.6250     2.1370   -32.8190    81.4650     9.1630     6.8750     6.2180    22.7760 
   71.7500     2.1400   -33.0830    83.3540     8.9130     6.8090     6.1420    22.7760 
   71.8750     2.1500   -33.2640    80.9480     8.6070     6.6790     6.1400    22.7760 
   72.0000     2.1630   -33.4000    76.8440     8.3800     6.5680     6.2230    22.7760 
   72.1250     2.1670   -33.4750    77.4880     8.3130     6.5330     6.3630    22.7760 
   72.2500     2.1550   -33.5310    79.0510     8.3560     6.5520     6.4140    22.7760 
   72.3750     2.1290   -33.5560    77.9340     8.4520     6.5940     6.4360    22.7760 
