~V
VERS. 2.00: Ver 2.00
~W
STRT.M 55.0000:
STOP.M 318.0000:
STEP.M 0.1250:
NULL. -999.2500:
UWI. F10558:
~C
DEPT.M :
DEN.GM/CC :
GR.API :
RML.OHMM :
RI. :
RXO.OHMM :
CALI.CM :
SP.MV :
~A
# ...
  257.5000     2.2470    83.3040    23.8450    22.2830    19.5800    23.3040   -12.6280 
  257.6250     2.2170    82.0490    27.3990    24.8240    22.6260    23.2110   -12.8200 
  257.7500     2.1980    84.8230    31.8270    28.1900    26.7480    23.1960   -13.0230 
  257.8750     2.1930    87.9720    36.5070    32.0210    31.1190    23.2270   -13.2360 
  258.0000     2.1960    85.9670    40.5980    35.6830    35.0070    23.2970   -13.4680 
  258.1250     2.1930    82.9260    43.1770    38.3630    37.5070    23.3600   -13.6990 
  258.2500     2.1860    83.1190    44.5240    40.1000    40.3190    23.4130   -13.9120 
  258.3750     2.1830    83.6790    45.4200    41.3920    41.8340    23.5000   -14.1110 
  258.5000     2.1840    83.6930    46.8260    42.9420    43.3610    23.7050   -14.2950 
  258.6250     2.1860    86.7250    49.6860    45.4620    44.5020    24.0250   -14.4370 
  258.7500     2.1860    90.1870    53.9070    48.9630    46.8400    24.2940   -14.5370 
  258.8750     2.1850    90.2630    59.0620    53.2070    53.6010    24.4150   -14.6140 
  259.0000     2.1830    86.3750    64.2400    57.5330    67.2020    24.4420   -14.6580 
  259.1250     2.1790    80.3450    67.6210    60.4460    76.1660    24.4420   -14.6620 
  259.2500     2.1790    77.3820    68.0400    60.9050    70.9740    24.4420   -14.6410 
  259.3750     2.1820    80.8590    65.5050    58.7740    55.7560    24.4420   -14.5930 
  259.5000     2.1860    86.9090    61.5220    55.1570    45.6130    24.4340   -14.5390 
  259.6250     2.1840    88.1660    58.4470    52.0410    47.6940    24.4110   -14.4830 
  259.7500     2.1770    85.4370    57.4320    50.6460    50.9890    24.3780   -14.4490 
  259.8750     2.1730    83.3140    58.6030    51.1480    52.4710    24.3510   -14.4100 
  260.0000     2.1770    83.5020    61.4520    53.0860    52.2390    24.3090   -14.3710 
  260.1250     2.1870    83.9160    65.1510    55.7500    51.6420    24.2270   -14.3290 
  260.2500     2.2000    83.2060    68.6700    58.2860    51.5550    24.1130   -14.2960 
  260.3750     2.2210    82.8850    71.4010    60.2130    50.5640    24.0510   -14.2360 
  260.5000     2.2620    81.7670    72.8650    61.2080    49.8120    24.0780   -14.1420 
  260.6250     2.3390    78.5550    72.3780    60.7720    56.9100    24.1720   -14.0000 
  260.7500     2.4320    77.5670    69.9160    58.7770    72.7450    24.2120   -13.8270 
  260.8750     2.5150    82.8210    65.1240    54.8760    81.3730    24.2150   -13.6120 
  261.0000     2.5850    89.0570    57.9010    48.9710    68.3760    24.1830   -13.3400 
  261.1250     2.6590    87.6120    48.7790    41.4480    68.2940    24.0950   -12.9940 
  261.2500     2.7260    82.8930    39.3030    33.5740    72.2810    23.9930   -12.5970 
  261.3750     2.7470    79.9130    30.4310    26.1840    53.3650    23.8950   -12.1670 
  261.5000     2.6880    81.2540    22.7990    19.8540    32.2430    23.7610   -11.7320 
  261.6250     2.5530    83.5480    16.9440    15.0160    21.4460    23.6100   -11.3190 
  261.7500     2.4140    82.6070    12.6140    11.3850    15.2700    23.4800   -10.9180 
  261.8750     2.3240    77.2440     9.7100     8.8270     9.6680    23.3590   -10.5680 
  262.0000     2.2940    68.5120     8.0370     7.1990     6.4090    23.2410   -10.2760 
  262.1250     2.3160    62.0510     7.3900     6.4370     5.5110    23.1910   -10.0780 
  262.2500     2.3550    59.7600     7.3130     6.2180     5.5910    23.1920    -9.9540 
  262.3750     2.3970    61.3060     7.6350     6.3730     5.7820    23.2790    -9.9260 
  262.5000     2.4330    64.7030     8.1740     6.7310     6.0230    23.5350    -9.9430 
  262.6250     2.4530    64.8510     8.6690     7.1100     6.3880    23.9350   -10.0080 
  262.7500     2.4620    62.2790     8.8670     7.3750     6.8510    24.2280   -10.1010 
  262.8750     2.4620    59.3470     8.6240     7.4850     7.2210    24.3440   -10.2020 
  263.0000     2.4520    57.4720     7.9620     7.4350     7.2860    24.3650   -10.3010 
  263.1250     2.4320    57.1800     7.1000     7.2090     6.9600    24.3450   -10.3960 
  263.2500     2.4090    57.6980     6.3540     6.8550     6.6360    24.2870   -10.4760 
  263.3750     2.3890    59.4780     5.8420     6.4100     6.1920    24.2050   -10.5520 
  263.5000     2.3770    61.9650     5.5620     5.9360     5.5590    24.1630   -10.6520 
  263.6250     2.3730    63.9800     5.4870     5.5610     5.3370    24.1760   -10.7470 
  263.7500     2.3740    66.6570     5.5520     5.3950     5.5200    24.2060   -10.8240 
  263.8750     2.3770    68.6050     5.7690     5.4970     6.0520    24.2200   -10.8830 
  264.0000     2.3770    69.7060     6.1280     5.8220     6.7080    24.2220   -10.9360 
  264.1250     2.3700    70.4560     6.5020     6.1860     7.1010    24.2220   -10.9760 
  264.2500     2.3550    69.7210     6.6720     6.3410     7.1010    24.2220   -11.0230 
  264.3750     2.3380    66.2620     6.5510     6.1770     6.9070    24.2220   -11.0460 
  264.5000     2.3240    63.7680     6.2000     5.7610     6.5420    24.2220   -11.0550 
  264.6250     2.3180    66.5710     5.8240     5.2980     6.0530    24.2220   -11.0680 
  264.7500     2.3210    73.2020     5.6900     5.0010     5.3590    24.2310   -11.1050 
  264.8750     2.3370    81.5110     5.9760     5.0020     5.2880    24.2740   -11.1420 
  265.0000     2.3660    89.7760     6.7470     5.3840     6.1190    24.3740   -11.1860 
  265.1250     2.3930    97.4960     7.9400     6.2010     7.8570    24.4720   -11.2510 
  265.2500     2.4010   105.2260     9.1150     7.1940     8.6620    24.5110   -11.3370 
  265.3750     2.3870   114.4960     9.8150     8.0090     8.3660    24.5180   -11.4370 
  265.5000     2.3640   121.5190     9.7660     8.3240     7.6520    24.5270   -11.5310 
  265.6250     2.3460   122.1000     9.1530     8.0930     7.5610    24.5610   -11.6290 
  265.7500     2.3380   122.5490     8.6030     7.7540     7.9690    24.6160   -11.7280 
  265.8750     2.3400   123.6170     8.3910     7.5770     8.5500    24.6510   -11.8400 
  266.0000     2.3480   122.7850     8.5560     7.6630     8.8010    24.6620   -11.9610 
  266.1250     2.3580   122.2710     9.1710     8.0570     8.8840    24.6620   -12.0860 
  266.2500     2.3710   124.9270    10.2630     8.7250     9.2630    24.6620   -12.1920 
  266.3750     2.3900   125.4030    11.9080     9.7190     9.9770    24.6620   -12.2980 
  266.5000     2.4080   117.1600    14.0610    11.0980    11.2420    24.6620   -12.3920 
  266.6250     2.4010   104.8360    16.4880    12.9080    13.5200    24.6590   -12.4610 
  266.7500     2.3660    96.2450    18.6330    14.8510    16.7750    24.6240   -12.5030 
  266.8750     2.3200    94.0360    19.9070    16.4610    18.9760    24.5150   -12.5360 
  267.0000     2.2840    98.6310    19.9570    17.2360    18.5720    24.3330   -12.5600 
  267.1250     2.2640   106.1570    18.8640    16.9150    17.4450    24.2470   -12.5650 
  267.2500     2.2520   109.1760    17.4570    16.1110    16.8170    24.2200   -12.5640 
  267.3750     2.2430   107.4870    16.3620    15.3570    16.2210    24.2180   -12.5500 
  267.5000     2.2400   104.8400    16.0950    15.0490    15.7290    24.2200   -12.5380 
  267.6250     2.2410   102.6350    17.1830    15.5550    16.0890    24.2200   -12.5280 
  267.7500     2.2430    99.8560    19.4640    16.8580    17.4230    24.2190   -12.5180 
  267.8750     2.2520    97.0630    22.6870    18.9410    19.3790    24.2190   -12.5180 
  268.0000     2.2750    93.5900    26.3980    21.6830    21.9830    24.2190   -12.5290 
  268.1250     2.3090    87.5300    29.9360    24.7880    25.1990    24.2170   -12.5480 
  268.2500     2.3230    81.6280    32.8620    27.6840    28.2030    24.2170   -12.5860 
  268.3750     2.3060    79.8930    35.0410    29.9670    31.2010    24.2170   -12.6230 
  268.5000     2.2720    83.0300    36.5360    31.4950    33.6200    24.2160   -12.6730 
  268.6250     2.2420    85.9190    37.4950    32.3630    35.2910    24.2170   -12.7410 
