~V
VERS. 2.00: Ver 2.00
~W
STRT.M 50.0000:
STOP.M 236.0000:
STEP.M 0.1250:
NULL. -999.2500:
UWI. F10596:
~C
DEPT.M :
DEN.GM/CC :
SP.MV :
GR.API :
RML.OHMM :
RI. :
RXO.OHMM :
CALI.CM :
~A
# ...
  218.7500     2.3270   -19.5710    53.6650     5.0160     4.6820     6.5080    23.7980 
  218.8750     2.3240   -19.5460    49.7630     4.9760     4.6470     6.6410    23.7390 
  219.0000     2.3240   -19.4820    48.3940     5.0660     4.7000     6.7380    23.6710 
  219.1250     2.3290   -19.4150    49.1400     5.2560     4.8150     6.7870    23.6010 
  219.2500     2.3380   -19.2990    50.1270     5.4510     4.9260     6.8040    23.5270 
  219.3750     2.3460   -19.1190    50.3530     5.5770     4.9910     6.7640    23.4390 
  219.5000     2.3500   -18.9210    49.8970     5.5920     4.9930     6.6690    23.3310 
  219.6250     2.3500   -18.6950    50.2380     5.5020     4.9410     6.5550    23.2170 
  219.7500     2.3480   -18.4020    50.6090     5.3830     4.8740     6.4680    23.0700 
  219.8750     2.3440   -18.0860    50.2550     5.2850     4.8080     6.4390    22.8910 
  220.0000     2.3400   -17.7860    50.5320     5.2280     4.7560     6.4230    22.6800 
  220.1250     2.3340   -17.5340    51.6750     5.2030     4.7240     6.3720    22.5220 
  220.2500     2.3260   -17.3640    51.8570     5.1780     4.6990     6.2230    22.4970 
  220.3750     2.3180   -17.2360    50.8100     5.1470     4.6740     6.0430    22.6230 
  220.5000     2.3170   -17.1330    50.7990     5.1290     4.6450     6.0200    22.9080 
  220.6250     2.3250   -17.1230    51.3290     5.1680     4.6330     6.1100    23.3110 
  220.7500     2.3340   -17.2000    49.8610     5.2630     4.6610     6.3000    23.5890 
  220.8750     2.3420   -17.3720    47.7290     5.4020     4.7420     6.5930    23.7150 
  221.0000     2.3460   -17.6090    46.6010     5.5670     4.8730     6.9440    23.7640 
  221.1250     2.3490   -17.8570    46.8900     5.7230     5.0360     7.1800    23.8150 
  221.2500     2.3520   -18.0850    47.2560     5.8370     5.1970     7.3100    23.8700 
  221.3750     2.3540   -18.2940    48.0420     5.8990     5.3370     7.3180    23.9380 
  221.5000     2.3540   -18.4810    50.2920     5.9210     5.4440     7.4080    23.9960 
  221.6250     2.3510   -18.5940    52.5860     5.9190     5.5000     7.5440    24.0260 
  221.7500     2.3450   -18.6650    52.9060     5.8900     5.4920     7.6710    24.0350 
  221.8750     2.3370   -18.7070    50.7660     5.8020     5.4010     7.5270    24.0370 
  222.0000     2.3300   -18.7130    47.9310     5.6260     5.2240     7.0430    24.0370 
  222.1250     2.3260   -18.7220    46.6230     5.3800     4.9840     6.4270    24.0150 
  222.2500     2.3240   -18.7440    46.6230     5.1760     4.7520     6.0320    23.9680 
  222.3750     2.3250   -18.7880    46.6230     5.0900     4.5840     5.9630    23.9340 
  222.5000     2.3300   -18.8540    46.6230     5.1390     4.5150     5.9800    23.9420 
  222.6250     2.3330   -18.9450    46.6230     5.3060     4.5690     6.0550    23.9570 
  222.7500     2.3340   -19.0670    46.6230     5.5180     4.7110     6.2980    23.9610 
  222.8750     2.3370   -19.1800    46.6230     5.7370     4.9120     6.6520    23.9610 
  223.0000     2.3420   -19.2750    46.6230     5.9450     5.1400     7.0180    23.9540 
  223.1250     2.3490   -19.3250    46.6230     6.1370     5.3640     7.3200    23.9310 
  223.2500     2.3580   -19.4000    46.6230     6.3110     5.5650     7.7110    23.9010 
  223.3750     2.3680   -19.4610    46.6230     6.4630     5.7360     8.1920    23.8880 
  223.5000     2.3750   -19.4820    46.6230     6.6030     5.8800     8.6630    23.8860 
  223.6250     2.3790   -19.4950    46.6230     6.7340     5.9990     8.9580    23.8860 
  223.7500     2.3850   -19.4760    46.6230     6.8530     6.0980     9.0520    23.8860 
  223.8750     2.3930   -19.4210    46.6230     6.9540     6.1810     9.2010    23.8860 
  224.0000     2.4000   -19.3790    46.6230     7.0300     6.2580     9.5990    23.8860 
  224.1250     2.4040   -19.3530    46.6230     7.0570     6.3380     9.8930    23.8860 
  224.2500     2.4130   -19.3110    46.6230     7.0270     6.4120     9.8420    23.8860 
  224.3750     2.4350   -19.2520    46.6230     6.9490     6.4570     9.4310    23.8860 
  224.5000     2.4550   -19.1650    46.6230     6.8640     6.4570     8.9090    23.8860 
  224.6250     2.4480   -19.0580    46.6230     6.8380     6.4080     8.2310    23.8860 
  224.7500     2.4180   -18.9670    46.6230     6.8550     6.3390     8.0370    23.8860 
  224.8750     2.3870   -18.8980    46.6230     6.8600     6.2760     8.1280    23.8860 
  225.0000     2.3680   -18.8170    46.6230     6.8040     6.2270     8.2950    23.8860 
  225.1250     2.3500   -18.7270    46.6230     6.6640     6.1940     8.3290    23.8860 
  225.2500     2.3270   -18.6100    46.6230     6.4900     6.1660     8.1320    23.8840 
  225.3750     2.3040   -18.5150    46.6230     6.3220     6.1450     7.7730    23.8820 
  225.5000     2.2860   -18.4690    46.6230     6.1710     6.1310     7.2640    23.8720 
  225.6250     2.2810   -18.4230    46.6230     6.0380     6.1280     6.8870    23.8090 
  225.7500     2.2840   -18.3810    46.6230     5.9490     6.1300     7.0960    23.6890 
  225.8750     2.2940   -18.3330    46.6230     5.9550     6.1330     7.9250    23.5760 
  226.0000     2.3020   -18.2800    46.6230     6.0760     6.1320     8.6560    23.5240 
  226.1250     2.3000   -18.2480    46.6230     6.2800     6.1260     8.0640    23.5180 
  226.2500     2.2910   -18.2010    46.6230     6.4700     6.1170     6.8110    23.5180 
  226.3750     2.2840   -18.1440    46.6230     6.5800     6.1090     6.3270    23.5180 
  226.5000     2.2850   -18.1030    46.6230     6.5920     6.1050     6.2220    23.5180 
  226.6250     2.2950   -18.0720    46.6230     6.5350     6.1050     6.1830    23.5160 
  226.7500     2.3090   -18.0420    46.6230     6.4760     6.1060     6.3350    23.5140 
  226.8750     2.3280   -18.0110    46.6230     6.4410     6.1060     6.5870    23.5130 
  227.0000     2.3520   -17.9690    46.6230     6.4290     6.1050     6.8380    23.5100 
  227.1250     2.3760   -17.9320    46.6230     6.4140     6.1050     7.2990    23.5090 
  227.2500     2.3990   -17.9350    46.6230     6.3780     6.1050     8.5410    23.5080 
  227.3750     2.4180   -17.9200    46.6230     6.3360     6.1050    10.5850    23.5140 
  227.5000     2.4270   -17.8890    46.6230     6.3010     6.1030    11.5140    23.5310 
  227.6250     2.4240   -17.8850    46.6230     6.2800     6.0960    10.8280    23.5250 
  227.7500     2.4180   -17.8470    46.6230     6.2740     6.0890    12.0300    23.4330 
  227.8750     2.4100   -17.8040    46.6230     6.2720     6.0830    15.6270    23.3010 
  228.0000     2.3970   -17.7790    46.6230     6.2680     6.0810    18.5420    23.2280 
  228.1250     2.3710   -17.7320    46.6230     6.2680     6.0810    16.6260    23.2150 
  228.2500     2.3430   -17.6790    46.6230     6.2680     6.0810    12.9700    23.2150 
  228.3750     2.3220   -17.6300    46.6230     6.2680     6.0810    10.2390    23.2150 
  228.5000     2.3100   -17.5660    46.6230     6.2680     6.0810     9.0370    23.2150 
  228.6250     2.3050   -17.4820    46.6230     6.2680     6.0810     8.5210    23.2150 
  228.7500     2.2930   -17.3950    46.6230     6.2680     6.0810     8.2290    23.2150 
  228.8750     2.2650   -17.3030    46.6230     6.2680     6.0810     7.8200    23.2150 
  229.0000     2.2190   -17.2300    46.6230     6.2680     6.0810     7.3520    23.2130 
  229.1250     2.1550   -17.1490    46.6230     6.2680     6.0810     6.8660    23.1940 
  229.2500     2.0780   -17.0590    46.6230     6.2680     6.0810     6.7050    23.0500 
  229.3750     1.9850   -16.9740    46.6230     6.2680     6.0810     6.7770    22.4210 
  229.5000     1.8770   -16.8640    46.6230     6.2680     6.0810     6.9960    20.9360 
  229.6250     1.7740   -16.7620    46.6230     6.2680     6.0810     6.9920    19.1460 
  229.7500     1.7040   -16.6840    46.6230     6.2680     6.0810     6.9660    18.2220 
  229.8750     1.6720   -16.6150    46.6230     6.2680     6.0810     6.9470    17.9720 
