~V
VERS. 2.00: Ver 2.00
~W
STRT.M 50.0000:
STOP.M 199.0000:
STEP.M 0.1250:
NULL. -999.2500:
UWI. F10575:
~C
DEPT.M :
DEN.GM/CC :
SP.MV :
GR.API :
RML.OHMM :
RI. :
RXO.OHMM :
CALI.CM :
~A
# ...
  162.5000     2.3270   -15.5820   109.9210    12.6720    13.7820    21.4340    23.7580 
  162.6250     2.3170   -16.3330    92.3660    16.6310    18.4920    31.5620    23.7580 
  162.7500     2.3090   -17.1480    75.1890    22.2090    24.5230    42.6440    23.7580 
  162.8750     2.3040   -17.9900    65.7660    28.8980    31.0200    49.5230    23.7560 
  163.0000     2.3000   -18.7990    64.3500    35.4300    36.6650    52.8680    23.7540 
  163.1250     2.2950   -19.5220    67.2900    39.9630    40.0220    54.2220    23.7550 
  163.2500     2.2910   -20.1600    69.0670    42.3400    41.6020    53.9340    23.7520 
  163.3750     2.2870   -20.7290    66.9820    43.2530    42.4320    52.1380    23.7440 
  163.5000     2.2820   -21.2280    62.9660    43.7110    43.4380    51.6510    23.7200 
  163.6250     2.2800   -21.6830    60.9630    44.6930    45.1520    54.5440    23.7150 
  163.7500     2.2800   -22.0790    61.7790    46.6070    47.4870    56.8470    23.7360 
  163.8750     2.2820   -22.4580    63.1400    49.5480    50.3410    59.1980    23.7840 
  164.0000     2.2820   -22.8150    62.3460    53.3530    53.6080    62.3080    23.8150 
  164.1250     2.2790   -23.1380    58.7260    57.6550    57.1530    64.1790    23.8050 
  164.2500     2.2730   -23.4590    55.3080    61.9600    60.7660    65.5790    23.7760 
  164.3750     2.2640   -23.7430    53.7400    65.9690    64.2770    69.3160    23.7540 
  164.5000     2.2520   -24.0050    53.7360    69.3030    67.2380    71.6180    23.7310 
  164.6250     2.2390   -24.1960    56.5050    71.0890    68.4940    72.7720    23.6980 
  164.7500     2.2310   -24.3410    58.5800    70.9440    67.5480    74.8820    23.6800 
  164.8750     2.2270   -24.4310    57.3900    68.8800    64.5060    77.1310    23.6610 
  165.0000     2.2290   -24.4870    54.9180    65.6230    60.3900    74.3660    23.6200 
  165.1250     2.2350   -24.5240    55.4350    62.6280    56.9820    65.1470    23.5810 
  165.2500     2.2400   -24.5090    58.0920    61.2550    55.5190    58.4840    23.5440 
  165.3750     2.2400   -24.4570    59.5490    62.2190    56.4480    58.0100    23.5360 
  165.5000     2.2350   -24.3650    58.8260    65.3930    59.2730    63.7270    23.5740 
  165.6250     2.2260   -24.2640    57.8260    68.8510    61.5840    71.8200    23.6780 
  165.7500     2.2180   -24.1420    57.5090    68.8200    59.9520    80.0460    23.7750 
  165.8750     2.2100   -23.9930    58.1900    62.9540    53.1100    84.4470    23.8030 
  166.0000     2.1980   -23.8340    60.2790    52.5560    43.2680    77.0040    23.8280 
  166.1250     2.1830   -23.6750    64.9350    42.1170    34.6210    50.7140    23.8760 
  166.2500     2.1760   -23.5780    69.1320    34.9140    29.2640    31.7100    23.9840 
  166.3750     2.1800   -23.5210    68.8230    31.6360    27.4460    28.0310    24.1510 
  166.5000     2.1740   -23.4920    63.8130    31.9610    28.6560    35.8710    24.2940 
  166.6250     2.1460   -23.5150    57.9530    35.5420    32.1010    47.2770    24.1990 
  166.7500     2.1230   -23.5440    55.2470    40.3680    35.6720    54.6490    23.9060 
  166.8750     2.1290   -23.5960    55.9130    44.0200    37.4260    60.3780    23.6490 
  167.0000     2.1660   -23.6630    58.4660    44.2500    36.2940    54.9710    23.5330 
  167.1250     2.2230   -23.7490    61.4860    40.9050    33.0960    41.5640    23.4800 
  167.2500     2.2760   -23.7940    65.3390    37.0530    30.1660    34.5880    23.4080 
  167.3750     2.3040   -23.8270    68.5240    34.3690    28.4640    31.5040    23.3430 
  167.5000     2.3060   -23.8520    68.3390    33.3870    28.1150    30.6430    23.3110 
  167.6250     2.2940   -23.8690    66.0150    34.1610    28.9330    39.0300    23.2670 
  167.7500     2.2820   -23.9350    64.3150    35.8170    30.2340    48.1710    23.1240 
  167.8750     2.2750   -24.0140    62.8900    37.7460    31.6790    42.2870    22.9200 
  168.0000     2.2660   -24.0600    61.7010    39.6130    33.2560    33.6530    22.8890 
  168.1250     2.2480   -24.0200    62.2320    41.4470    35.2490    35.3810    23.1090 
  168.2500     2.2350   -23.9260    61.2570    43.3810    37.6140    45.7520    23.2600 
  168.3750     2.2440   -23.7720    56.5300    45.3100    40.0020    55.0540    23.2010 
  168.5000     2.2760   -23.5840    51.9840    46.8530    41.7650    53.0690    23.0330 
  168.6250     2.3100   -23.3580    53.0030    47.2680    41.9000    51.8010    23.0810 
  168.7500     2.3290   -23.0710    56.8650    46.4680    40.5390    48.2970    23.2790 
  168.8750     2.3350   -22.7800    59.2650    44.8370    38.4020    41.0810    23.4230 
  169.0000     2.3390   -22.5340    59.2630    43.0490    36.3530    37.9690    23.4210 
  169.1250     2.3410   -22.3330    58.8910    41.7890    34.9980    36.8070    23.2620 
  169.2500     2.3370   -22.1560    59.1270    41.2470    34.3490    34.8980    22.9900 
  169.3750     2.3260   -21.9830    59.3160    41.3550    34.1800    31.9250    22.7450 
  169.5000     2.3200   -21.7770    59.5760    41.5560    33.8310    31.7800    22.6830 
  169.6250     2.3220   -21.5070    60.5910    39.9770    31.8790    30.8040    22.7230 
  169.7500     2.3290   -21.2160    61.9420    35.1980    27.6830    32.3020    22.6540 
  169.8750     2.3390   -20.8650    64.0400    27.6260    21.7280    31.7710    22.5170 
  170.0000     2.3440   -20.4530    65.0740    19.5020    15.4900    26.7720    22.6830 
  170.1250     2.3300   -20.0180    59.4650    13.2670    10.6060    16.3100    23.6640 
  170.2500     2.3120   -19.5920    50.1540     9.1560     7.3190     8.9680    25.1220 
  170.3750     2.3140   -19.1990    44.4340     6.7640     5.3870     5.4440    26.0920 
  170.5000     2.3370   -18.8780    45.7140     5.5650     4.4270     4.5420    26.1560 
  170.6250     2.3460   -18.6690    48.3940     5.2070     4.1640     4.6490    26.0900 
  170.7500     2.3350   -18.5330    48.9100     5.2340     4.2330     4.8060    26.3500 
  170.8750     2.3250   -18.4940    49.0620     5.4310     4.4760     4.9060    26.7980 
  171.0000     2.3250   -18.5420    48.7080     5.6650     4.7570     4.9630    27.2390 
  171.1250     2.3360   -18.6870    48.4410     5.9070     4.9660     5.0730    27.2690 
  171.2500     2.3510   -18.9090    50.8130     6.1870     5.1120     5.2880    26.2450 
  171.3750     2.3600   -19.1570    55.2710     6.5110     5.2570     5.6370    24.8150 
  171.5000     2.3470   -19.3790    59.6630     6.8390     5.4480     5.9800    23.9950 
  171.6250     2.3130   -19.5600    60.5620     7.0800     5.6810     6.3800    23.8260 
  171.7500     2.2790   -19.6870    59.0590     7.1600     5.8880     6.6870    23.8290 
  171.8750     2.2520   -19.7630    55.5580     7.0330     5.9990     6.7390    23.9120 
  172.0000     2.2300   -19.7940    50.4520     6.7020     5.9650     6.4340    24.2780 
  172.1250     2.2220   -19.7480    44.9860     6.2160     5.7730     6.0170    25.3460 
  172.2500     2.2410   -19.6200    39.9720     5.7050     5.5030     5.5830    26.7420 
  172.3750     2.2830   -19.4590    36.6570     5.2490     5.2170     5.2110    28.0180 
  172.5000     2.3200   -19.3180    35.1390     4.9770     4.9050     4.7960    29.0320 
  172.6250     2.3260   -19.2000    35.4580     4.8600     4.7260     4.6060    29.8200 
  172.7500     2.3200   -19.1500    37.8210     4.8830     4.6930     4.5600    29.7870 
  172.8750     2.3230   -19.1310    41.9110     5.0350     4.7940     4.6830    28.8230 
  173.0000     2.3330   -19.1470    47.1730     5.2730     4.9950     4.9760    27.4290 
  173.1250     2.3310   -19.2140    52.6750     5.5400     5.2380     5.4430    26.0310 
  173.2500     2.3030   -19.3150    56.8540     5.7800     5.4480     5.7080    25.0990 
  173.3750     2.2580   -19.4290    57.8870     5.9400     5.5810     5.7340    25.2910 
  173.5000     2.2270   -19.5430    55.4410     5.9700     5.6170     5.4690    26.5440 
  173.6250     2.2310   -19.6430    51.5500     5.8420     5.5550     5.1680    27.7460 
