~V
VERS. 2.00: Ver 2.00
~W
STRT.M 47.0000:
STOP.M 236.0000:
STEP.M 0.1250:
NULL. -999.2500:
UWI. F10597:
~C
DEPT.M :
SP.MV :
DEN.GM/CC :
GR.API :
RML.OHMM :
RI. :
RXO.OHMM :
CALI.CM :
~A
# ...
  215.7500    -8.3950     2.3380    59.7270     7.5810     5.4310     6.8230    24.8000 
  215.8750    -8.2950     2.3380    62.9390     7.6200     5.4680     6.9890    24.9280 
  216.0000    -8.2170     2.3430    66.0590     7.6270     5.5070     6.9290    25.0550 
  216.1250    -8.1630     2.3480    65.8800     7.5930     5.5360     6.8820    25.0250 
  216.2500    -8.1190     2.3530    62.8620     7.5110     5.5430     6.9290    24.7890 
  216.3750    -8.0440     2.3570    61.0050     7.3390     5.5120     7.0170    24.5980 
  216.5000    -7.9420     2.3610    61.7990     6.9530     5.4130     6.7720    24.5330 
  216.6250    -7.8310     2.3630    61.6900     6.4050     5.2510     6.4720    24.5300 
  216.7500    -7.7330     2.3570    59.2770     5.8630     5.0430     6.1440    24.5290 
  216.8750    -7.6230     2.3390    55.2010     5.4930     4.8280     5.7860    24.5300 
  217.0000    -7.5180     2.3130    51.5490     5.3880     4.6560     5.4440    24.5440 
  217.1250    -7.4370     2.2940    49.3940     5.4490     4.5640     5.3780    24.6300 
  217.2500    -7.4070     2.2890    48.6740     5.5930     4.5660     5.5830    24.8180 
  217.3750    -7.4460     2.2930    49.6140     5.7880     4.6520     5.7950    24.9620 
  217.5000    -7.5550     2.3000    51.7720     6.0830     4.7840     5.9320    24.8720 
  217.6250    -7.6690     2.3060    52.6680     6.4530     4.8990     5.9560    24.7880 
  217.7500    -7.7700     2.3150    52.3770     6.7600     4.9540     5.8690    24.7570 
  217.8750    -7.8740     2.3250    53.3400     6.8260     4.9420     5.7470    24.7560 
  218.0000    -7.9220     2.3330    56.8490     6.5690     4.8890     5.6590    24.7900 
  218.1250    -7.8980     2.3360    59.2030     6.1780     4.8330     5.5670    24.8670 
  218.2500    -7.8140     2.3310    59.3270     5.8220     4.7810     5.4670    24.9410 
  218.3750    -7.6970     2.3220    60.5240     5.6240     4.7250     5.4080    24.9690 
  218.5000    -7.5330     2.3130    63.0410     5.6170     4.6600     5.4180    24.9000 
  218.6250    -7.3910     2.3020    61.9550     5.6740     4.5930     5.4270    24.7250 
  218.7500    -7.2490     2.2850    55.9510     5.7030     4.5370     5.3540    24.5160 
  218.8750    -7.1350     2.2660    49.2770     5.6510     4.4980     5.1680    24.3890 
  219.0000    -7.1200     2.2600    46.4260     5.5380     4.4800     5.0240    24.3040 
  219.1250    -7.2020     2.2720    45.6890     5.4450     4.4890     5.0260    24.1970 
  219.2500    -7.3900     2.2930    44.9660     5.4340     4.5380     5.1850    24.1360 
  219.3750    -7.6660     2.3100    45.2420     5.5510     4.6340     5.3830    24.1430 
  219.5000    -8.0260     2.3200    47.2900     5.8250     4.7740     5.5880    24.2030 
  219.6250    -8.3920     2.3290    49.0700     6.2010     4.9210     5.8220    24.2290 
  219.7500    -8.7540     2.3400    49.0680     6.6090     5.0480     6.0800    24.2360 
  219.8750    -9.0640     2.3530    49.5120     6.9500     5.1490     6.3610    24.2360 
  220.0000    -9.3250     2.3650    53.7270     7.1070     5.2400     6.6500    24.2360 
  220.1250    -9.5340     2.3710    58.9930     7.0820     5.3300     6.9220    24.2360 
  220.2500    -9.6420     2.3750    62.1540     6.9510     5.4020     7.0660    24.2360 
  220.3750    -9.6370     2.3760    62.6770     6.8010     5.4140     7.0020    24.2360 
  220.5000    -9.5290     2.3730    61.4090     6.6350     5.3040     6.6920    24.2360 
  220.6250    -9.3930     2.3600    59.8410     6.3750     5.0920     6.2480    24.2360 
  220.7500    -9.3120     2.3340    58.3950     5.9860     4.8310     5.8360    24.2360 
  220.8750    -9.3140     2.3000    58.9330     5.5450     4.5890     5.5460    24.2290 
  221.0000    -9.3870     2.2740    61.8800     5.2660     4.4450     5.4410    24.2060 
  221.1250    -9.5150     2.2650    63.9160     5.2610     4.4200     5.6720    24.1640 
  221.2500    -9.6570     2.2730    64.1740     5.5120     4.5180     6.0960    24.1220 
  221.3750    -9.8140     2.2890    63.7460     5.8970     4.7170     6.3640    24.0970 
  221.5000   -10.0070     2.3070    61.1520     6.3310     4.9820     6.2270    24.0910 
  221.6250   -10.1810     2.3230    57.8240     6.8170     5.2550     6.3400    24.0910 
  221.7500   -10.2810     2.3380    57.1820     7.3680     5.4990     6.6660    24.0920 
  221.8750   -10.3150     2.3500    59.9970     7.9040     5.7020     7.1200    24.0920 
  222.0000   -10.2230     2.3610    62.4150     8.1980     5.8530     7.4570    24.0910 
  222.1250   -10.0710     2.3690    63.0630     8.1540     5.9550     7.5750    24.0880 
  222.2500    -9.9180     2.3690    64.8100     7.8410     6.0000     7.4010    24.0880 
  222.3750    -9.7350     2.3620    67.8950     7.4570     5.9950     7.1920    24.0870 
  222.5000    -9.5140     2.3540    68.8760     7.2140     5.9630     7.2140    24.0890 
  222.6250    -9.2990     2.3530    68.2370     7.0980     5.9280     7.4000    24.0900 
  222.7500    -9.1020     2.3570    68.0990     7.0210     5.8900     7.4640    24.0880 
  222.8750    -8.9050     2.3620    69.2650     6.9410     5.8360     7.4610    24.0860 
  223.0000    -8.7620     2.3640    68.2850     6.8560     5.7560     7.5390    24.0850 
  223.1250    -8.6520     2.3610    65.0970     6.7630     5.6610     7.4300    24.0850 
  223.2500    -8.5510     2.3560    64.1240     6.6630     5.5700     7.0980    24.0850 
  223.3750    -8.5020     2.3520    66.6050     6.5550     5.5020     6.9190    24.0850 
  223.5000    -8.4820     2.3560    68.3080     6.4720     5.4900     7.0140    24.0850 
  223.6250    -8.4630     2.3630    66.7780     6.4770     5.5410     7.1920    24.0850 
  223.7500    -8.3970     2.3680    65.1190     6.5920     5.6500     7.5330    24.0850 
  223.8750    -8.3190     2.3690    66.1930     6.7250     5.7870     8.0820    24.0850 
  224.0000    -8.2410     2.3670    68.2450     6.6690     5.8580     8.3890    24.0850 
  224.1250    -8.1510     2.3660    68.2450     6.3650     5.7870     7.7820    24.0850 
  224.2500    -8.0520     2.3650    68.2450     5.9130     5.5550     6.8080    24.0840 
  224.3750    -7.9710     2.3610    68.2450     5.4800     5.2190     6.0560    24.0830 
  224.5000    -7.9270     2.3560    68.2450     5.2290     4.8980     5.7120    24.0810 
  224.6250    -7.9070     2.3530    68.2450     5.1190     4.6840     5.5590    24.0830 
  224.7500    -7.9330     2.3500    68.2450     5.0790     4.6050     5.5080    24.0840 
  224.8750    -7.9830     2.3420    68.2450     5.1030     4.6420     5.4870    24.0850 
  225.0000    -8.0460     2.3260    68.2450     5.2880     4.7490     5.5000    24.0850 
  225.1250    -8.1510     2.3080    68.2450     5.6350     4.8630     5.4650    24.0850 
  225.2500    -8.3430     2.2930    68.2450     6.0820     4.9550     5.3820    24.0850 
  225.3750    -8.5630     2.2850    68.2450     6.5210     5.0160     5.3520    24.0850 
  225.5000    -8.8090     2.2880    68.2450     6.8300     5.0530     5.4480    24.0970 
  225.6250    -9.1030     2.2920    68.2450     6.9880     5.0910     5.5210    24.1450 
  225.7500    -9.4340     2.2940    68.2450     6.9880     5.1480     5.4940    24.2290 
  225.8750    -9.7960     2.2980    68.2450     6.8240     5.2340     5.6310    24.2860 
  226.0000   -10.1580     2.3090    68.2450     6.4940     5.3590     6.0400    24.3020 
  226.1250   -10.4800     2.3260    68.2450     6.1250     5.5150     6.6180    24.3020 
  226.2500   -10.7380     2.3470    68.2450     5.8450     5.6850     7.0870    24.3020 
  226.3750   -10.9250     2.3670    68.2450     5.7640     5.8400     7.2600    24.3020 
  226.5000   -11.0520     2.3770    68.2450     5.9720     5.9260     7.0590    24.2910 
  226.6250   -11.1790     2.3760    68.2450     6.3190     5.9450     7.1210    24.2600 
  226.7500   -11.3190     2.3690    68.2450     6.6240     5.9320     7.5130    24.2140 
  226.8750   -11.4440     2.3640    68.2450     6.7620     5.9420     7.9620    24.1540 
