~V
VERS. 2.00: Ver 2.00
~W
STRT.M 58.0000:
STOP.M 214.0000:
STEP.M 0.1250:
NULL. -999.2500:
UWI. F10594:
~C
DEPT.M :
GR.API :
RML.OHMM :
RI. :
RXO.OHMM :
CALI.CM :
DEN.GM/CC :
SP.MV :
~A
# ...
  170.5000    49.4140    42.8710    33.1770    42.3270    24.2980     2.2870   -29.4620 
  170.6250    50.2200    42.1930    32.6450    40.3230    24.3330     2.2420   -29.5860 
  170.7500    51.4800    41.3280    31.9810    37.1040    24.4180     2.2170   -29.6940 
  170.8750    53.1440    40.5870    31.4000    35.7780    24.5160     2.2200   -29.7850 
  171.0000    55.7340    40.1760    31.0590    35.9170    24.5670     2.2390   -29.8560 
  171.1250    57.4250    40.1790    31.0360    36.2160    24.5280     2.2520   -29.9060 
  171.2500    56.5940    40.3780    31.1870    36.8440    24.4520     2.2450   -29.9450 
  171.3750    54.5780    40.5510    31.3590    37.7010    24.3840     2.2220   -29.9740 
  171.5000    54.2790    40.4950    31.4000    35.9530    24.3680     2.1960   -29.9880 
  171.6250    54.5500    40.0290    31.1660    34.5730    24.3850     2.1830   -29.9880 
  171.7500    52.8890    39.1820    30.6560    34.1720    24.4060     2.1830   -29.9760 
  171.8750    50.3840    37.9780    29.8690    34.8370    24.4360     2.1930   -29.9590 
  172.0000    50.0090    36.5000    28.8460    34.7330    24.4490     2.2090   -29.9410 
  172.1250    53.7530    34.9530    27.7140    33.0870    24.4330     2.2280   -29.9220 
  172.2500    58.4290    33.6730    26.7170    30.3410    24.3840     2.2420   -29.9070 
  172.3750    61.3740    32.9790    26.0890    27.4260    24.3350     2.2490   -29.9050 
  172.5000    59.7770    33.1100    26.0130    26.6890    24.2990     2.2450   -29.9290 
  172.6250    57.0390    34.2240    26.6410    26.8010    24.2910     2.2360   -29.9910 
  172.7500    57.2720    35.8030    27.6720    29.2030    24.3520     2.2370   -30.0900 
  172.8750    57.9370    37.1310    28.6430    32.8620    24.4230     2.2590   -30.2240 
  173.0000    54.8710    37.3760    28.9470    35.5010    24.4730     2.3000   -30.3920 
  173.1250    51.5040    35.8760    28.0410    35.4540    24.4730     2.3380   -30.5970 
  173.2500    54.4390    33.4120    26.4070    33.2950    24.3910     2.3520   -30.8280 
  173.3750    60.7540    30.9470    24.7050    29.5130    24.3040     2.3350   -31.0790 
  173.5000    64.0390    29.3360    23.5520    25.8030    24.2820     2.3000   -31.3420 
  173.6250    63.8220    29.3120    23.5270    26.4100    24.2920     2.2630   -31.6150 
  173.7500    62.9040    30.7820    24.6260    30.9870    24.2960     2.2330   -31.8910 
  173.8750    62.3790    33.7890    26.8980    36.6500    24.2830     2.2140   -32.1660 
  174.0000    63.0500    38.3980    30.4250    39.8720    24.2180     2.2170   -32.4360 
  174.1250    63.1490    44.3500    35.2220    41.0160    24.0340     2.2750   -32.6840 
  174.2500    61.2300    49.5250    39.8610    44.7310    23.7700     2.3900   -32.8950 
  174.3750    57.4770    50.6630    41.7740    50.6100    23.5490     2.5330   -33.0550 
  174.5000    53.5350    44.9020    38.2640    58.1360    23.4840     2.6390   -33.1570 
  174.6250    51.0430    33.0070    29.3020    62.5920    23.5080     2.6530   -33.1760 
  174.7500    50.8520    21.3760    19.9600    47.0660    23.4420     2.6090   -33.1120 
  174.8750    52.2610    13.1290    12.9040    22.3190    23.3670     2.5500   -32.9670 
  175.0000    53.4330     8.4140     8.5040     8.3840    23.4050     2.5040   -32.7400 
  175.1250    53.9880     6.3440     6.2950     5.6050    23.4510     2.4750   -32.4350 
  175.2500    54.0200     5.4930     5.2140     5.1180    23.4830     2.4510   -32.0930 
  175.3750    52.3580     5.3810     4.8970     5.2750    23.5420     2.4260   -31.7450 
  175.5000    51.5540     5.7570     5.1350     5.8360    23.6390     2.4030   -31.4120 
  175.6250    57.0670     6.4670     5.8210     6.9430    23.6670     2.3950   -31.1130 
  175.7500    64.4620     7.2570     6.7100     8.2070    23.7440     2.4030   -30.8630 
  175.8750    68.1770     7.9520     7.6170     8.7260    24.0520     2.4190   -30.6720 
  176.0000    70.4190     8.4300     8.3610     9.0280    24.3040     2.4270   -30.5400 
  176.1250    75.9620     8.6220     8.7800     9.2700    24.3930     2.4210   -30.4760 
  176.2500    81.2270     8.6420     8.9310     9.5580    24.4240     2.4130   -30.4680 
  176.3750    83.5340     8.5880     8.9000     9.6150    24.4510     2.4120   -30.5010 
  176.5000    86.2310     8.5300     8.7670     9.5160    24.3850     2.4200   -30.5600 
  176.6250    92.5840     8.4950     8.5720     9.4910    24.3340     2.4280   -30.6460 
  176.7500    98.9220     8.4560     8.3410     9.4290    24.3100     2.4290   -30.7470 
  176.8750   105.3280     8.3980     8.0870     9.3270    24.3090     2.4270   -30.8500 
  177.0000   111.4470     8.3510     7.8530     9.0480    24.3090     2.4290   -30.9520 
  177.1250   113.3260     8.4240     7.7280     8.8590    24.3080     2.4340   -31.0550 
  177.2500   109.9380     8.6820     7.7570     8.8810    24.2980     2.4310   -31.1510 
  177.3750   102.8790     9.1450     7.9550     9.1970    24.2740     2.4170   -31.2440 
  177.5000    94.0080     9.8100     8.3230    10.1190    24.2570     2.3970   -31.3390 
  177.6250    86.8060    10.7590     8.9300    11.9660    24.2600     2.3940   -31.4430 
  177.7500    84.7120    12.1210     9.8420    12.9150    24.2550     2.4220   -31.5570 
  177.8750    87.7960    14.1940    11.2350    12.9300    24.2400     2.4730   -31.6810 
  178.0000    89.4870    17.3960    13.3880    13.8090    24.1910     2.5140   -31.8270 
  178.1250    83.2400    22.4510    16.9030    20.4390    24.0200     2.5020   -32.0110 
  178.2500    72.0580    29.2860    21.9230    36.8770    23.7800     2.4470   -32.2300 
  178.3750    62.3110    37.6090    28.4230    52.4880    23.6910     2.3800   -32.4780 
  178.5000    57.4250    46.6390    35.8660    53.5900    23.7070     2.3260   -32.7530 
  178.6250    57.5980    55.2200    43.1420    53.1850    23.6660     2.3060   -33.0540 
  178.7500    60.6720    63.0660    49.6470    53.9440    23.6350     2.3060   -33.3760 
  178.8750    64.2270    70.8100    55.7610    57.7800    23.5390     2.3060   -33.7250 
  179.0000    65.1290    79.2580    62.2000    64.9660    23.4090     2.2940   -34.0930 
  179.1250    62.5480    88.5750    69.2520    73.2070    23.2920     2.2680   -34.4580 
  179.2500    59.7800    97.6100    76.2220    82.3190    23.4390     2.2380   -34.8120 
  179.3750    57.9040   104.7760    82.0740   100.7670    23.8180     2.2080   -35.1550 
  179.5000    55.9810   108.2080    85.5250   126.5170    24.1420     2.1850   -35.4730 
  179.6250    53.4020   105.7060    84.8580   133.8160    24.2730     2.1760   -35.7530 
  179.7500    50.7530    98.7130    80.7010   115.6400    24.2610     2.1790   -35.9940 
  179.8750    50.7550    89.3130    74.2470    92.2650    24.1250     2.1900   -36.1810 
  180.0000    54.1990    79.9830    67.2300    66.8810    23.8040     2.2040   -36.3090 
  180.1250    58.9060    73.1310    61.6180    49.8400    23.4270     2.2160   -36.3840 
  180.2500    61.9800    69.1780    58.1320    41.7160    23.1620     2.2210   -36.4150 
  180.3750    62.5400    67.9240    56.8050    37.6900    23.0700     2.2190   -36.4030 
  180.5000    61.1490    68.8190    57.2960    36.3440    23.0640     2.2160   -36.3620 
  180.6250    59.5030    71.3460    59.2430    39.7170    23.1320     2.2160   -36.3070 
  180.7500    59.1390    74.6710    61.9030    48.3220    23.3330     2.2220   -36.2530 
  180.8750    60.9290    78.6390    65.0550    58.3320    23.5950     2.2330   -36.2120 
  181.0000    63.7310    83.4900    68.8130    63.7630    23.7650     2.2420   -36.1980 
  181.1250    64.5520    89.8960    73.7150    63.3600    23.8860     2.2290   -36.2220 
  181.2500    62.2000    97.7320    79.7950    68.9690    24.0360     2.1970   -36.2780 
  181.3750    58.8650   106.4220    86.7490    82.9070    24.1610     2.1710   -36.3700 
  181.5000    58.0830   114.6940    93.6990    93.6920    24.1480     2.1760   -36.4940 
  181.6250    59.7760   120.1880    98.8660    99.0450    24.1130     2.2240   -36.6350 
