~V
VERS. 2.00: Ver 2.00
~W
STRT.M 52.0000:
STOP.M 220.0000:
STEP.M 0.1250:
NULL. -999.2500:
UWI. F10539:
~C
DEPT.M :
SP.MV :
DEN.GM/CC :
GR.API :
RML.OHMM :
RI. :
RXO.OHMM :
CALI.CM :
~A
# ...
  175.7500   -12.9680     2.5410    54.0250    14.7180    13.2970    12.2320    23.7060 
  175.8750   -12.9080     2.5460    49.6560    14.8680    13.4290    12.3170    23.5430 
  176.0000   -12.8790     2.5590    45.6280    15.2040    13.7100    12.8220    23.5490 
  176.1250   -12.9180     2.5700    45.0020    15.7440    14.1390    13.4620    23.7050 
  176.2500   -12.9760     2.5730    45.2100    16.4460    14.6860    14.3130    23.8530 
  176.3750   -13.0570     2.5680    45.5590    17.2360    15.3130    16.0650    23.9280 
  176.5000   -13.1160     2.5610    46.6700    17.9460    15.9120    17.7610    23.9530 
  176.6250   -13.1870     2.5560    46.9490    18.3000    16.2690    18.5660    23.9670 
  176.7500   -13.2250     2.5560    46.4830    18.2360    16.3010    18.6580    23.9770 
  176.8750   -13.2400     2.5640    48.7480    17.8240    16.0320    18.2770    23.9580 
  177.0000   -13.2430     2.5740    54.6580    17.2450    15.5770    16.4980    23.9330 
  177.1250   -13.2040     2.5800    59.7700    16.7260    15.1060    15.2160    23.9160 
  177.2500   -13.1570     2.5770    60.8520    16.3880    14.7400    14.3310    23.9280 
  177.3750   -13.0860     2.5640    58.6820    16.2360    14.5110    14.6180    23.9380 
  177.5000   -13.0340     2.5460    56.2060    16.2100    14.3960    14.8310    23.9390 
  177.6250   -12.9650     2.5310    57.0520    16.2000    14.3450    14.3020    23.9310 
  177.7500   -12.9120     2.5260    59.4490    16.0980    14.2680    14.7000    23.9270 
  177.8750   -12.8860     2.5300    59.0440    15.8620    14.1070    15.5620    23.8930 
  178.0000   -12.8680     2.5400    55.5640    15.5250    13.8490    14.5110    23.8280 
  178.1250   -12.9000     2.5490    53.5160    15.1960    13.5490    14.2990    23.8110 
  178.2500   -12.9500     2.5520    52.4130    14.9800    13.2950    13.9590    23.8390 
  178.3750   -13.0460     2.5470    50.2650    14.9210    13.1410    13.2050    23.8080 
  178.5000   -13.1480     2.5380    48.7500    15.0240    13.1190    13.2230    23.7240 
  178.6250   -13.3160     2.5290    48.7660    15.3140    13.2740    14.7800    23.7900 
  178.7500   -13.5050     2.5230    48.7360    15.7770    13.6010    16.2900    23.8860 
  178.8750   -13.7120     2.5200    49.1290    16.4240    14.1070    16.1060    23.9100 
  179.0000   -13.9350     2.5220    51.1980    17.2320    14.7660    15.2680    23.8160 
  179.1250   -14.1340     2.5340    53.3900    18.0960    15.4940    16.2690    23.6360 
  179.2500   -14.3250     2.5560    54.2410    18.8290    16.1370    18.9560    23.4900 
  179.3750   -14.4920     2.5840    54.6770    19.2990    16.5840    20.2270    23.4710 
  179.5000   -14.6480     2.6130    55.3970    19.4710    16.7910    19.4050    23.4380 
  179.6250   -14.7480     2.6280    56.8330    19.3880    16.7660    17.2800    23.4620 
  179.7500   -14.8120     2.6260    58.8370    19.2130    16.6300    17.0450    23.5760 
  179.8750   -14.8210     2.6120    60.3200    19.0280    16.4470    17.4260    23.8130 
  180.0000   -14.7810     2.5910    60.3490    18.8490    16.2460    18.5960    24.0240 
  180.1250   -14.7010     2.5750    59.0950    18.6400    16.0260    18.9910    24.1030 
  180.2500   -14.5730     2.5720    58.6940    18.4290    15.8150    18.0770    23.9830 
  180.3750   -14.4120     2.5790    58.8650    18.3150    15.6790    16.9280    23.7520 
  180.5000   -14.2060     2.5890    57.5210    18.4130    15.6960    16.9000    23.5250 
  180.6250   -13.9770     2.5930    55.2240    18.8040    15.9400    18.1340    23.6910 
  180.7500   -13.7480     2.5890    53.8410    19.3620    16.3430    19.7070    23.7360 
  180.8750   -13.5320     2.5830    53.5070    19.9700    16.8360    20.8990    23.7630 
  181.0000   -13.3440     2.5760    53.7010    20.5540    17.3620    21.5770    23.8900 
  181.1250   -13.1960     2.5710    54.6320    21.1180    17.8920    20.6590    23.9450 
  181.2500   -13.1060     2.5670    56.2850    21.7040    18.4160    19.8400    23.9500 
  181.3750   -13.0610     2.5650    59.0420    22.3040    18.9180    20.3710    23.9490 
  181.5000   -13.0810     2.5680    62.4830    22.8330    19.3580    22.7010    23.9520 
  181.6250   -13.1460     2.5770    63.2720    23.1040    19.6230    24.1370    23.9430 
  181.7500   -13.2730     2.5910    59.8660    23.0470    19.6410    23.6310    23.9200 
  181.8750   -13.4220     2.6040    57.0730    22.6580    19.3860    21.7100    23.8910 
  182.0000   -13.6050     2.6110    60.0820    22.0270    18.9090    22.0530    23.8680 
  182.1250   -13.7890     2.6040    64.5940    21.3130    18.3300    24.1580    23.8670 
  182.2500   -13.9800     2.5890    64.1840    20.6760    17.8060    24.0910    23.9230 
  182.3750   -14.1470     2.5710    61.1970    20.1870    17.4120    20.2450    24.0230 
  182.5000   -14.3060     2.5580    60.0440    19.8570    17.1670    18.8900    24.0520 
  182.6250   -14.4140     2.5550    59.7710    19.6860    17.0720    19.2050    24.1280 
  182.7500   -14.4490     2.5630    57.3580    19.6010    17.0750    19.0930    24.1450 
  182.8750   -14.4380     2.5770    55.4160    19.5400    17.1350    18.9590    24.1190 
  183.0000   -14.3720     2.5920    56.1370    19.4470    17.1980    18.9160    24.1020 
  183.1250   -14.2390     2.6010    57.0670    19.2770    17.2050    19.5630    24.0270 
  183.2500   -14.0420     2.6010    57.4870    19.0360    17.1350    19.6640    23.9780 
  183.3750   -13.8030     2.5940    58.7730    18.6930    16.9570    18.4210    23.9280 
  183.5000   -13.5340     2.5860    60.1370    18.2000    16.6410    15.8800    23.8620 
  183.6250   -13.2660     2.5820    60.3850    17.5420    16.1840    14.8320    23.8220 
  183.7500   -13.0330     2.5810    61.3050    16.8480    15.6960    14.8700    23.9140 
  183.8750   -12.8240     2.5810    63.5400    16.2620    15.2950    14.6990    24.0540 
  184.0000   -12.6550     2.5770    64.8560    15.9070    15.0760    13.7990    24.0790 
  184.1250   -12.5540     2.5610    64.3470    15.8710    15.1130    12.7140    23.9400 
  184.2500   -12.5440     2.5340    63.9460    16.0620    15.3430    13.2330    23.8320 
  184.3750   -12.5990     2.5010    63.8670    16.4140    15.7140    14.3910    23.8510 
  184.5000   -12.7210     2.4750    63.7570    16.8550    16.1640    15.1250    23.8680 
  184.6250   -12.9320     2.4680    64.0840    17.2750    16.5780    15.3510    23.8590 
  184.7500   -13.1600     2.4780    63.9000    17.5480    16.8290    15.1820    23.8360 
  184.8750   -13.4420     2.4960    64.8550    17.5900    16.8400    16.0020    23.8480 
  185.0000   -13.7330     2.5080    67.4800    17.4270    16.6300    17.2840    23.9060 
  185.1250   -14.0480     2.5010    69.2540    17.3330    16.4210    16.5630    23.9480 
  185.2500   -14.3360     2.4870    67.4770    17.8430    16.6210    15.4440    23.9330 
  185.3750   -14.6060     2.4720    63.8010    19.6330    17.7140    16.0610    23.8920 
  185.5000   -14.8360     2.4550    61.3340    23.5800    20.3580    19.4060    23.8700 
  185.6250   -14.9870     2.4220    59.6110    31.6040    26.2360    26.4330    23.8730 
  185.7500   -15.0800     2.3730    57.3960    44.7040    36.6910    46.9640    24.0410 
  185.8750   -15.1040     2.3130    55.8930    64.1900    53.4460    84.7410    24.2020 
  186.0000   -15.0800     2.2600    55.9300    90.7580    77.4500   117.1670    24.2660 
  186.1250   -14.9710     2.2310    55.8090   124.6080   108.5670   117.8400    24.2580 
  186.2500   -14.8170     2.2230    53.5650   161.8840   142.4990   130.3160    24.2450 
  186.3750   -14.6210     2.2230    49.8450   198.6490   175.5520   170.5740    24.2580 
  186.5000   -14.3890     2.2200    46.4520   229.6690   203.4830   214.6180    24.2910 
  186.6250   -14.1660     2.2120    44.8680   246.1460   219.0950   218.1040    24.2810 
  186.7500   -13.9340     2.2060    45.5980   247.5560   221.3890   194.2580    24.2700 
  186.8750   -13.7060     2.2070    48.0940   239.5720   214.1460   177.9980    24.2670 
