~V
VERS. 2.00: Ver 2.00
~W
STRT.M 58.0000:
STOP.M 215.0000:
STEP.M 0.1250:
NULL. -999.2500:
UWI. F10587:
~C
DEPT.M :
DEN.GM/CC :
GR.API :
RML.OHMM :
RI. :
RXO.OHMM :
CALI.CM :
SP.MV :
~A
# ...
  193.0000     2.3780    46.5670     5.3840     4.7130     5.7420    24.6370   -16.0420 
  193.1250     2.3740    46.5830     5.3870     4.7150     5.6670    24.5510   -15.9200 
  193.2500     2.3620    46.5970     5.3610     4.6920     5.7400    24.5530   -15.8380 
  193.3750     2.3540    46.8790     5.3120     4.6470     5.8040    24.6630   -15.7650 
  193.5000     2.3570    48.1620     5.2580     4.5980     5.7910    24.7420   -15.6700 
  193.6250     2.3750    50.2230     5.2430     4.5850     5.7340    24.8240   -15.5530 
  193.7500     2.3940    51.4520     5.2950     4.6320     5.8530    24.9340   -15.4200 
  193.8750     2.4070    51.6030     5.4130     4.7400     6.1380    25.0270   -15.2780 
  194.0000     2.4060    51.2320     5.5580     4.8710     6.7360    25.0880   -15.1270 
  194.1250     2.3900    50.0170     5.6430     4.9480     8.0610    25.1490   -14.9640 
  194.2500     2.3720    47.0880     5.6140     4.9220     9.0560    25.2200   -14.7880 
  194.3750     2.3610    43.3760     5.4780     4.7980     7.8030    25.2030   -14.6220 
  194.5000     2.3620    41.5240     5.2980     4.6340     6.0460    25.0900   -14.4680 
  194.6250     2.3780    42.5340     5.1670     4.5150     5.1540    24.9960   -14.3240 
  194.7500     2.4010    44.7260     5.1320     4.4830     4.9960    25.0890   -14.1930 
  194.8750     2.4220    46.7350     5.1980     4.5430     5.2700    25.2090   -14.0890 
  195.0000     2.4290    49.4390     5.3360     4.6690     5.7450    25.2630   -14.0220 
  195.1250     2.4160    51.6940     5.4960     4.8150     6.1000    25.2710   -14.0080 
  195.2500     2.3920    51.9850     5.6310     4.9370     6.2130    25.2770   -14.0440 
  195.3750     2.3650    51.5770     5.7330     5.0300     6.3190    25.2950   -14.1150 
  195.5000     2.3420    52.3470     5.8120     5.1020     6.4130    25.3490   -14.2360 
  195.6250     2.3310    55.3560     5.8790     5.1630     6.5750    25.4190   -14.4190 
  195.7500     2.3310    59.0350     5.9260     5.2060     6.6430    25.3840   -14.6390 
  195.8750     2.3360    63.6560     5.9320     5.2110     6.7340    25.2360   -14.8630 
  196.0000     2.3400    68.8180     5.8800     5.1630     6.9100    25.0520   -15.0600 
  196.1250     2.3420    71.4230     5.7680     5.0620     6.7470    24.9260   -15.1960 
  196.2500     2.3440    68.2390     5.6390     4.9440     6.2730    24.8340   -15.2860 
  196.3750     2.3450    60.4500     5.5290     4.8450     5.8750    24.7510   -15.3480 
  196.5000     2.3440    54.7670     5.4660     4.7870     5.6980    24.7340   -15.3830 
  196.6250     2.3370    54.5530     5.4660     4.7870     5.7960    24.7940   -15.3860 
  196.7500     2.3240    54.8070     5.5020     4.8200     6.0430    24.7980   -15.3680 
  196.8750     2.3100    52.3270     5.5420     4.8560     6.2110    24.6850   -15.3360 
  197.0000     2.3020    49.6650     5.5560     4.8690     6.1710    24.4730   -15.3100 
  197.1250     2.3050    50.3780     5.5220     4.8380     5.8060    24.2670   -15.3340 
  197.2500     2.3180    51.1030     5.4580     4.7800     5.5330    24.2010   -15.4170 
  197.3750     2.3360    49.6700     5.3830     4.7120     5.3870    24.2230   -15.5720 
  197.5000     2.3530    46.3390     5.3080     4.6440     5.3210    24.1990   -15.8100 
  197.6250     2.3610    43.9130     5.2270     4.5700     5.3420    24.2690   -16.1220 
  197.7500     2.3550    41.7590     5.1300     4.4810     5.4770    24.5450   -16.4510 
  197.8750     2.3390    38.7010     5.0180     4.3800     5.6100    24.8690   -16.7530 
  198.0000     2.3220    36.1590     4.9130     4.2850     5.4110    25.0750   -16.9880 
  198.1250     2.3190    36.7230     4.8560     4.2330     5.1450    25.1430   -17.1040 
  198.2500     2.3370    39.8790     4.8640     4.2400     4.9520    25.1970   -17.1440 
  198.3750     2.3670    41.6860     4.9460     4.3140     4.9670    25.2290   -17.1110 
  198.5000     2.3960    41.5610     5.0930     4.4480     5.3260    25.2070   -17.0010 
  198.6250     2.4090    40.7220     5.2810     4.6190     5.8280    25.1670   -16.8270 
  198.7500     2.4070    40.0520     5.4640     4.7860     6.0870    25.1780   -16.6340 
  198.8750     2.3990    39.8280     5.6080     4.9160     6.1920    25.2020   -16.4650 
  199.0000     2.3930    40.1390     5.6900     4.9910     6.3090    25.1910   -16.3410 
  199.1250     2.3940    41.3080     5.7020     5.0020     6.5320    25.1760   -16.2940 
  199.2500     2.4010    42.4950     5.6830     4.9850     6.6730    25.1780   -16.2680 
  199.3750     2.4140    43.6920     5.6690     4.9720     6.5990    25.2030   -16.2330 
  199.5000     2.4260    44.1410     5.6920     4.9920     6.3510    25.2440   -16.1770 
  199.6250     2.4330    42.8040     5.7920     5.0830     6.3970    25.2380   -16.1050 
  199.7500     2.4370    43.3530     5.9680     5.2440     6.8570    25.1750   -16.0580 
  199.8750     2.4400    45.7710     6.2020     5.4560     7.7400    25.1220   -16.0290 
  200.0000     2.4410    47.2580     6.4500     5.6820     8.1270    25.1140   -16.0060 
  200.1250     2.4400    46.8070     6.6350     5.8500     8.3160    25.1500   -15.9630 
  200.2500     2.4360    46.6010     6.7130     5.9210     8.4130    25.1660   -15.8930 
  200.3750     2.4310    47.3290     6.6920     5.9010     8.6290    25.1630   -15.7950 
  200.5000     2.4190    47.6010     6.6420     5.8560     8.8800    25.1760   -15.6950 
  200.6250     2.3970    46.6160     6.6720     5.8840     8.3700    25.2030   -15.6200 
  200.7500     2.3690    45.9860     6.8020     6.0010     7.7030    25.2370   -15.5570 
  200.8750     2.3440    47.6120     6.9660     6.1510     7.4110    25.2380   -15.5220 
  201.0000     2.3300    51.7940     7.0420     6.2200     8.1750    25.1660   -15.5300 
  201.1250     2.3290    54.1950     6.8520     6.0480     9.4680    25.0600   -15.5570 
  201.2500     2.3330    52.0350     6.4140     5.6490     8.9320    25.0690   -15.5570 
  201.3750     2.3340    45.9770     5.8410     5.1280     6.8180    25.1800   -15.5210 
  201.5000     2.3360    39.2970     5.2850     4.6220     5.4770    25.1960   -15.4500 
  201.6250     2.3450    35.6920     4.8820     4.2560     5.1460    25.0500   -15.3250 
  201.7500     2.3620    34.3230     4.6450     4.0410     5.0340    24.9350   -15.1820 
  201.8750     2.3740    34.0570     4.5480     3.9530     5.0220    24.9650   -14.9970 
  202.0000     2.3720    34.5680     4.5330     3.9390     4.9800    25.0590   -14.7480 
  202.1250     2.3550    35.4440     4.5420     3.9470     4.8960    25.1250   -14.5070 
  202.2500     2.3360    35.5540     4.5440     3.9500     4.8580    25.1700   -14.3270 
  202.3750     2.3310    34.9630     4.5370     3.9430     4.8580    25.1510   -14.2020 
  202.5000     2.3450    34.4660     4.5220     3.9290     4.8810    25.0330   -14.1080 
  202.6250     2.3700    34.4670     4.5030     3.9120     4.8560    24.9660   -14.0070 
  202.7500     2.3810    35.0100     4.4870     3.8980     4.7600    24.9940   -13.8880 
  202.8750     2.3720    35.7100     4.4820     3.8930     4.7120    25.0760   -13.7690 
  203.0000     2.3460    35.4110     4.4900     3.9000     4.7250    25.1510   -13.6860 
  203.1250     2.3220    33.8680     4.5110     3.9190     4.7800    25.1970   -13.5930 
  203.2500     2.3140    33.2910     4.5350     3.9410     4.8570    25.2260   -13.5000 
  203.3750     2.3260    34.5570     4.5500     3.9550     4.9720    25.1820   -13.4350 
  203.5000     2.3480    36.0350     4.5510     3.9560     5.0630    25.1160   -13.4000 
  203.6250     2.3620    35.5360     4.5340     3.9400     5.0410    25.0600   -13.4190 
  203.7500     2.3640    34.4900     4.5060     3.9140     4.9170    25.0560   -13.4790 
  203.8750     2.3560    34.6000     4.4690     3.8810     4.8630    25.1250   -13.5840 
  204.0000     2.3460    35.3970     4.4210     3.8370     4.8930    25.2170   -13.7230 
  204.1250     2.3430    35.3690     4.3490     3.7720     4.9840    25.2690   -13.8950 
