~V
VERS. 2.00: Ver 2.00
~W
STRT.M 50.0000:
STOP.M 214.0000:
STEP.M 0.1250:
NULL. -999.2500:
UWI. F10534:
~C
DEPT.M :
DEN.GM/CC :
SP.MV :
GR.API :
RML.OHMM :
RI. :
RXO.OHMM :
CALI.CM :
~A
# ...
  140.0000     2.1080   -26.0030    74.3170     7.3800     6.9980     6.7630    21.8880 
  140.1250     2.1360   -25.9450    79.8980     7.0920     6.6900     6.5600    21.9510 
  140.2500     2.1620   -25.9110    85.8870     6.7020     6.2970     6.5170    22.1190 
  140.3750     2.1800   -25.9320    89.8460     6.2410     5.8410     6.4130    22.5180 
  140.5000     2.1880   -26.0150    94.3360     5.7710     5.3660     5.9840    23.0430 
  140.6250     2.1880   -26.2010   100.9940     5.4400     4.9700     5.1790    23.2580 
  140.7500     2.1830   -26.4540   103.2470     5.3780     4.7690     4.8680    23.0910 
  140.8750     2.1710   -26.7580    96.5540     5.6800     4.8680     5.2380    22.6090 
  141.0000     2.1550   -27.0710    84.2020     6.3540     5.3110     6.1220    22.1440 
  141.1250     2.1360   -27.3900    74.8050     7.2740     6.0490     6.6140    21.9690 
  141.2500     2.1190   -27.7020    72.0410     8.0920     6.7990     6.8240    21.9390 
  141.3750     2.1040   -27.9880    72.8220     8.5310     7.3180     7.0090    21.9370 
  141.5000     2.0920   -28.2000    72.1990     8.5150     7.4950     7.2030    21.9360 
  141.6250     2.0880   -28.2610    69.8540     8.2150     7.4120     7.2140    21.9360 
  141.7500     2.0920   -28.1940    68.4220     7.9320     7.2920     7.1560    21.9360 
  141.8750     2.1010   -28.0030    68.2900     7.7700     7.2190     7.0560    21.9360 
  142.0000     2.1110   -27.6990    68.9340     7.7230     7.1950     6.9570    21.9360 
  142.1250     2.1220   -27.2780    72.1530     7.7290     7.1860     6.8950    21.8790 
  142.2500     2.1390   -26.7690    75.3170     7.6960     7.1430     6.9240    21.7080 
  142.3750     2.1670   -26.2090    76.5320     7.5300     6.9960     7.0030    21.4910 
  142.5000     2.2120   -25.6360    79.4790     7.1450     6.6750     6.8940    21.4810 
  142.6250     2.2690   -25.1110    89.5660     6.5150     6.1370     6.3560    21.8580 
  142.7500     2.3080   -24.6420   100.5620     5.8510     5.5340     5.6830    22.3750 
  142.8750     2.3130   -24.2310   105.5090     5.3690     5.0410     5.2550    22.7900 
  143.0000     2.2930   -23.8910   103.7710     5.2080     4.7930     5.3430    22.9100 
  143.1250     2.2650   -23.6240    98.3160     5.4020     4.8650     5.7870    22.7780 
  143.2500     2.2390   -23.3990    95.0730     5.7290     5.1030     6.1130    22.7350 
  143.3750     2.2260   -23.2070    96.7200     5.9850     5.3410     6.1540    22.9520 
  143.5000     2.2350   -23.0550   101.0900     6.0350     5.4450     5.9650    23.2140 
  143.6250     2.2570   -22.9220   102.0830     5.8830     5.3830     5.7260    23.3180 
  143.7500     2.2740   -22.8200   100.1250     5.7130     5.2800     5.5550    23.3330 
  143.8750     2.2820   -22.7540    99.2850     5.6320     5.2220     5.5690    23.3330 
  144.0000     2.2890   -22.7250   101.4220     5.6700     5.2370     5.7400    23.3330 
  144.1250     2.3000   -22.7170   104.4200     5.7660     5.2810     5.8740    23.3330 
  144.2500     2.3000   -22.7430   105.4520     5.7990     5.2710     5.5440    23.3330 
  144.3750     2.2840   -22.7830   105.3840     5.7050     5.1690     5.2700    23.3330 
  144.5000     2.2660   -22.8290   105.9760     5.5100     4.9990     5.1260    23.3330 
  144.6250     2.2600   -22.8730   107.7260     5.3240     4.8320     5.0560    23.3330 
  144.7500     2.2640   -22.9020   110.1580     5.2480     4.7320     5.0030    23.3330 
  144.8750     2.2730   -22.9130   111.9060     5.3020     4.7210     4.9840    23.3330 
  145.0000     2.2810   -22.9200   110.9260     5.4420     4.7840     5.0740    23.3330 
  145.1250     2.2840   -22.9710   105.2400     5.5860     4.8830     5.1910    23.3330 
  145.2500     2.2860   -23.0420    99.4390     5.6890     4.9770     5.2450    23.3330 
  145.3750     2.2940   -23.1320    97.7840     5.7610     5.0570     5.2430    23.3330 
  145.5000     2.3080   -23.2680   101.7720     5.8480     5.1330     5.3410    23.3330 
  145.6250     2.3180   -23.4570   109.4190     6.0160     5.2500     5.5590    23.3330 
  145.7500     2.3160   -23.6860   114.8760     6.2900     5.4450     5.7710    23.3330 
  145.8750     2.2980   -23.9560   114.7470     6.6770     5.7360     6.3110    23.3330 
  146.0000     2.2690   -24.2510   109.6950     7.1480     6.1110     7.1730    23.3330 
  146.1250     2.2420   -24.5410   103.1430     7.6200     6.5150     8.0460    23.3330 
  146.2500     2.2180   -24.8340    98.3370     7.9820     6.8590     8.0290    23.3280 
  146.3750     2.1970   -25.1270    96.3980     8.1640     7.0820     7.8080    23.3110 
  146.5000     2.1810   -25.3980    95.7710     8.1620     7.1620     7.5400    23.2790 
  146.6250     2.1750   -25.6200    93.8370     8.0380     7.1190     7.3410    23.2630 
  146.7500     2.1740   -25.7950    90.5150     7.9120     7.0310     7.2540    23.2580 
  146.8750     2.1730   -25.9390    88.0550     7.8350     6.9410     7.1470    23.2580 
  147.0000     2.1730   -26.0640    87.1470     7.8060     6.8670     7.1470    23.2580 
  147.1250     2.1690   -26.1720    88.0730     7.7990     6.8070     7.1170    23.2580 
  147.2500     2.1640   -26.2960    90.9650     7.7940     6.7580     7.0940    23.2580 
  147.3750     2.1620   -26.4420    93.4630     7.7960     6.7250     7.0530    23.2570 
  147.5000     2.1640   -26.6070    93.8100     7.8230     6.7240     6.9260    23.2470 
  147.6250     2.1650   -26.7790    93.1140     7.9180     6.7920     6.7950    23.1830 
  147.7500     2.1610   -26.9670    92.9670     8.0990     6.9400     6.8150    23.0290 
  147.8750     2.1540   -27.1360    92.9600     8.3760     7.1670     6.9380    22.7930 
  148.0000     2.1470   -27.2720    92.2050     8.7140     7.4400     7.1350    22.4990 
  148.1250     2.1430   -27.3450    88.6790     9.0050     7.6780     7.3380    22.3670 
  148.2500     2.1450   -27.3610    83.4360     9.1430     7.8090     7.3840    22.3300 
  148.3750     2.1490   -27.3210    80.7950     9.0940     7.8080     7.2300    22.2650 
  148.5000     2.1530   -27.1990    82.8410     8.9240     7.7130     7.0810    22.0760 
  148.6250     2.1520   -27.0300    86.3260     8.7590     7.6080     7.1180    21.8790 
  148.7500     2.1460   -26.8240    88.7650     8.6840     7.5550     7.1810    21.7990 
  148.8750     2.1370   -26.6130    90.9270     8.6990     7.5620     7.1990    21.7850 
  149.0000     2.1300   -26.3930    91.3050     8.7570     7.6030     7.2080    21.7770 
  149.1250     2.1280   -26.1800    89.0440     8.7860     7.6380     7.2270    21.7540 
  149.2500     2.1270   -25.9540    86.6650     8.7670     7.6490     7.2570    21.7280 
  149.3750     2.1190   -25.7140    85.2350     8.7160     7.6470     7.3370    21.7300 
  149.5000     2.1060   -25.5140    82.8740     8.6550     7.6460     7.3970    21.7450 
  149.6250     2.0940   -25.3530    78.9940     8.5830     7.6400     7.3850    21.6810 
  149.7500     2.0920   -25.2150    76.0610     8.4730     7.6010     7.2900    21.5490 
  149.8750     2.1000   -25.0730    74.4610     8.2880     7.4900     7.2340    21.4500 
  150.0000     2.1170   -24.9280    73.8980     7.9990     7.2800     7.1810    21.4170 
  150.1250     2.1350   -24.8030    75.4270     7.6000     6.9570     7.0240    21.5410 
  150.2500     2.1480   -24.7030    80.9190     7.1460     6.5700     6.6770    21.9650 
  150.3750     2.1560   -24.6160    88.4200     6.6860     6.1640     6.2720    22.6960 
  150.5000     2.1640   -24.5260    94.5670     6.2670     5.7840     6.1000    23.3720 
  150.6250     2.1770   -24.4230    98.1740     5.9540     5.4900     6.1360    23.6780 
  150.7500     2.1920   -24.3090   100.9550     5.7670     5.3050     6.2050    23.7580 
  150.8750     2.2060   -24.2080   103.3540     5.7100     5.2380     6.2290    23.7630 
  151.0000     2.2170   -24.1350   102.8720     5.7650     5.2730     6.2940    23.7470 
  151.1250     2.2160   -24.0750    98.5930     5.8840     5.3730     6.2760    23.6950 
