~V
VERS. 2.00: Ver 2.00
~W
STRT.M 52.0000:
STOP.M 224.0000:
STEP.M 0.1250:
NULL. -999.2500:
UWI. F10595:
~C
DEPT.M :
GR.API :
RML.OHMM :
RI. :
RXO.OHMM :
CALI.CM :
DEN.GM/CC :
SP.MV :
~A
# ...
  142.0000    48.1470    15.2300    13.9850    14.6200    23.7020     2.4480    -6.9060 
  142.1250    47.5360    15.5780    14.2700    15.3540    23.6990     2.4720    -6.4740 
  142.2500    47.0660    15.7040    14.4420    15.7220    23.7110     2.4880    -6.0610 
  142.3750    45.3880    15.6380    14.4610    15.7320    23.7500     2.4880    -5.6870 
  142.5000    44.3110    15.4560    14.3430    14.9510    23.8220     2.4730    -5.3580 
  142.6250    45.9790    15.2520    14.1340    14.6680    23.9520     2.4550    -5.0760 
  142.7500    49.5940    15.1150    13.9080    14.9480    24.1620     2.4420    -4.8460 
  142.8750    50.5260    15.1310    13.7630    14.8770    24.3080     2.4360    -4.6560 
  143.0000    48.6160    15.4280    13.8020    14.6900    24.3310     2.4360    -4.5020 
  143.1250    47.1680    16.1230    14.1210    14.5500    24.3740     2.4410    -4.3720 
  143.2500    48.7080    17.3570    14.8630    15.7590    24.4220     2.4560    -4.2580 
  143.3750    49.9190    19.0290    16.0060    18.1880    24.3910     2.4760    -4.1450 
  143.5000    49.7660    21.0250    17.5150    22.1030    24.2650     2.4950    -4.0290 
  143.6250    49.8620    23.1270    19.2540    25.7080    24.1470     2.5040    -3.9140 
  143.7500    51.2570    25.0050    20.9740    27.5010    24.0740     2.4950    -3.8020 
  143.8750    52.6900    26.5090    22.4630    28.2870    24.0230     2.4760    -3.7000 
  144.0000    53.5790    27.6560    23.6570    29.8340    24.0040     2.4590    -3.6090 
  144.1250    54.6180    28.5690    24.6010    30.5200    24.0300     2.4510    -3.5380 
  144.2500    54.6300    29.3990    25.3720    29.9390    24.0920     2.4550    -3.4920 
  144.3750    52.7700    30.1690    26.0280    31.0120    24.0880     2.4620    -3.4750 
  144.5000    50.4500    30.6670    26.4620    33.6930    24.0210     2.4650    -3.4850 
  144.6250    48.6520    30.5590    26.4530    34.7190    23.9120     2.4620    -3.5220 
  144.7500    48.5590    29.4510    25.6910    34.0400    23.8910     2.4520    -3.5920 
  144.8750    49.5570    27.5960    24.3180    34.0620    23.8560     2.4400    -3.6850 
  145.0000    50.8640    25.4010    22.6010    30.3340    23.8030     2.4320    -3.7960 
  145.1250    51.2890    23.3560    20.8970    23.6340    23.7230     2.4310    -3.9170 
  145.2500    49.5270    21.9520    19.5970    19.7110    23.6360     2.4360    -4.0390 
  145.3750    48.5870    21.2180    18.7970    18.6930    23.5410     2.4420    -4.1480 
  145.5000    48.7040    21.0570    18.4790    19.4020    23.4720     2.4430    -4.2420 
  145.6250    47.8930    21.3030    18.5420    19.9810    23.4880     2.4390    -4.3180 
  145.7500    45.1200    21.7920    18.8660    20.5450    23.5040     2.4330    -4.3640 
  145.8750    42.8060    22.3010    19.2450    20.7080    23.4860     2.4300    -4.3800 
  146.0000    42.7560    22.6790    19.5580    20.1250    23.4520     2.4280    -4.3660 
  146.1250    43.3140    22.8200    19.7390    19.3350    23.3770     2.4270    -4.3190 
  146.2500    42.5740    22.6470    19.7480    19.6290    23.2620     2.4250    -4.2450 
  146.3750    42.0220    22.2680    19.6300    20.2980    23.1610     2.4270    -4.1580 
  146.5000    44.0630    21.8300    19.4420    19.8460    23.1050     2.4320    -4.0630 
  146.6250    48.6660    21.5270    19.2860    19.1330    23.0340     2.4400    -3.9630 
  146.7500    52.6470    21.5490    19.2960    19.1760    22.9630     2.4500    -3.8600 
  146.8750    53.0000    21.8240    19.4800    19.4580    22.9330     2.4590    -3.7590 
  147.0000    50.7950    22.2100    19.7720    19.7010    22.9420     2.4640    -3.6670 
  147.1250    49.2180    22.4980    20.0320    19.8460    22.9530     2.4620    -3.5880 
  147.2500    48.8970    22.4360    20.0490    19.8980    22.9310     2.4480    -3.5270 
  147.3750    48.9160    22.0790    19.8020    19.4450    22.9200     2.4320    -3.4820 
  147.5000    49.5510    21.6430    19.4070    18.5900    22.9160     2.4250    -3.4550 
  147.6250    51.0180    21.4070    19.0620    17.6320    22.9310     2.4380    -3.4490 
  147.7500    51.0790    21.6190    19.0020    17.2430    22.9620     2.4600    -3.4770 
  147.8750    49.8210    22.1880    19.2630    18.1100    23.0530     2.4660    -3.5350 
  148.0000    50.8590    22.9690    19.8010    19.7800    23.3020     2.4460    -3.6180 
  148.1250    54.6400    23.7960    20.5000    21.1510    23.6850     2.4160    -3.7220 
  148.2500    55.2210    24.5000    21.1820    22.0270    23.9210     2.4080    -3.8400 
  148.3750    51.2820    25.0010    21.6950    23.0960    23.8020     2.4260    -3.9580 
  148.5000    48.4450    25.2420    21.9680    24.9520    23.3890     2.4550    -4.0640 
  148.6250    49.9540    25.1950    21.9880    26.0150    23.1530     2.4640    -4.1470 
  148.7500    52.0550    24.8280    21.7320    26.4990    23.4090     2.4410    -4.1890 
  148.8750    51.2070    24.2430    21.2730    25.3470    23.9390     2.4020    -4.1910 
  149.0000    48.8140    23.5290    20.6750    24.0670    24.3950     2.3680    -4.1540 
  149.1250    47.3350    22.7980    20.0260    23.9930    24.6070     2.3550    -4.0820 
  149.2500    47.5320    22.1840    19.4440    24.2580    24.5980     2.3710    -3.9710 
  149.3750    48.6800    21.7440    18.9960    23.2130    24.5630     2.4020    -3.8290 
  149.5000    47.8210    21.4840    18.7070    22.1470    24.5850     2.4370    -3.6690 
  149.6250    43.7350    21.3650    18.5620    21.8570    24.6410     2.4650    -3.5050 
  149.7500    40.5070    21.3140    18.5140    21.2120    24.6540     2.4780    -3.3530 
  149.8750    41.0490    21.2440    18.4760    21.2960    24.6250     2.4820    -3.2250 
  150.0000    44.2050    21.1370    18.4080    21.2520    24.5360     2.4780    -3.1240 
  150.1250    47.2420    21.0170    18.3040    21.1880    24.3880     2.4710    -3.0580 
  150.2500    47.6160    20.9500    18.2030    20.3290    24.1240     2.4610    -3.0360 
  150.3750    46.1970    20.9980    18.1670    19.8060    23.8760     2.4520    -3.0550 
  150.5000    45.9970    21.1970    18.2390    19.6690    23.6980     2.4500    -3.1120 
  150.6250    48.1310    21.5250    18.4230    20.4960    23.5520     2.4560    -3.1960 
  150.7500    49.2310    21.9020    18.6820    21.3400    23.4260     2.4600    -3.3000 
  150.8750    47.6050    22.2230    18.9270    21.0290    23.2940     2.4570    -3.4130 
  151.0000    46.0880    22.4260    19.0950    21.3830    23.1900     2.4460    -3.5290 
  151.1250    46.8670    22.4850    19.1510    21.8620    23.0850     2.4360    -3.6380 
  151.2500    48.0050    22.4060    19.0910    20.9610    23.0210     2.4380    -3.7340 
  151.3750    48.1600    22.2540    18.9670    19.7750    22.9700     2.4500    -3.8120 
  151.5000    47.8720    22.0330    18.7850    19.1540    22.9290     2.4620    -3.8680 
  151.6250    48.1500    21.7070    18.5170    19.1090    22.8960     2.4650    -3.8970 
  151.7500    49.4850    21.2320    18.1090    18.3540    22.8580     2.4560    -3.8870 
  151.8750    49.5620    20.6410    17.5830    17.6200    22.8300     2.4470    -3.8350 
  152.0000    48.5630    19.9620    16.9720    17.0640    22.8340     2.4440    -3.7360 
  152.1250    47.7410    19.2470    16.3290    16.3630    22.8510     2.4500    -3.5930 
  152.2500    48.7020    18.5560    15.7200    15.5660    22.8320     2.4630    -3.4090 
  152.3750    50.2580    17.9320    15.1780    15.1400    22.8190     2.4760    -3.2000 
  152.5000    50.4550    17.3990    14.7210    15.1040    22.8070     2.4830    -2.9750 
  152.6250    49.2690    16.9670    14.3520    14.8270    22.6750     2.4770    -2.7430 
  152.7500    47.9200    16.6400    14.0730    14.2220    22.3700     2.4580    -2.5200 
  152.8750    46.2950    16.4000    13.8540    13.9370    22.1710     2.4400    -2.3200 
  153.0000    44.2440    16.2730    13.7000    14.0110    22.1870     2.4350    -2.1540 
  153.1250    44.5680    16.2880    13.6260    14.3130    22.2520     2.4470    -2.0290 
