~V
VERS. 2.00: Ver 2.00
~W
STRT.M 52.0000:
STOP.M 208.0000:
STEP.M 0.1250:
NULL. -999.2500:
UWI. F10572:
~C
DEPT.M :
GR.API :
RML.OHMM :
RI. :
RXO.OHMM :
CALI.CM :
DEN.GM/CC :
SP.MV :
~A
# ...
  187.0000    49.5960     5.0920     4.1370     4.4750    23.2870     2.4490   -15.7960 
  187.1250    42.8350     5.0690     4.0150     4.2460    23.3190     2.4600   -15.4240 
  187.2500    39.3760     5.0910     3.9710     4.2380    23.3370     2.4530   -15.0850 
  187.3750    38.5000     5.0880     3.9620     4.2550    23.3230     2.4330   -14.7640 
  187.5000    38.0180     5.0360     3.9560     4.2590    23.2850     2.4080   -14.5140 
  187.6250    37.9020     4.9470     3.9340     4.1960    23.2110     2.3790   -14.2720 
  187.7500    38.7760     4.8550     3.8950     4.1140    23.1630     2.3500   -14.0560 
  187.8750    40.1400     4.7700     3.8410     4.0200    23.1970     2.3260   -13.8780 
  188.0000    40.9540     4.6940     3.7750     3.9990    23.3220     2.3140   -13.7210 
  188.1250    41.2880     4.6220     3.7020     4.0680    23.4150     2.3200   -13.5960 
  188.2500    42.9530     4.5570     3.6360     4.1090    23.4110     2.3380   -13.5160 
  188.3750    45.5220     4.5180     3.5930     4.1620    23.3600     2.3600   -13.4960 
  188.5000    47.0350     4.5410     3.6010     4.2800    23.3470     2.3780   -13.5010 
  188.6250    46.4360     4.6920     3.7060     4.4120    23.4140     2.3820   -13.5890 
  188.7500    46.2080     4.9800     3.9160     4.5650    23.4930     2.3760   -13.7270 
  188.8750    46.1470     5.3880     4.2240     4.7340    23.5340     2.3680   -13.8550 
  189.0000    44.7740     5.8530     4.5870     5.1410    23.5520     2.3680   -13.9830 
  189.1250    42.5600     6.2300     4.9080     5.5830    23.5520     2.3870   -14.1450 
  189.2500    41.1870     6.3870     5.0910     5.7410    23.6060     2.4210   -14.3040 
  189.3750    41.4680     6.2810     5.0840     5.5370    23.6860     2.4560   -14.4440 
  189.5000    42.6110     5.9830     4.9020     5.3890    23.8070     2.4680   -14.5570 
  189.6250    42.7320     5.6350     4.6080     5.2630    23.8530     2.4380   -14.6130 
  189.7500    42.2490     5.3560     4.3050     4.9830    23.8160     2.3820   -14.6450 
  189.8750    41.3580     5.1670     4.0440     4.5980    23.7450     2.3250   -14.6730 
  190.0000    39.9300     5.0400     3.8450     4.4280    23.7150     2.2890   -14.7280 
  190.1250    37.2360     4.9470     3.7270     4.4580    23.7330     2.2980   -14.8150 
  190.2500    35.0210     4.9070     3.6990     4.2100    23.7340     2.3320   -14.9200 
  190.3750    35.3220     4.9920     3.7920     4.0050    23.7560     2.3670   -15.0660 
  190.5000    38.7650     5.2900     4.0510     4.1570    23.8150     2.3900   -15.2890 
  190.6250    44.6020     5.9240     4.5560     4.8440    23.7740     2.3950   -15.5290 
  190.7500    49.8840     6.8550     5.2900     5.8330    23.7080     2.3830   -15.7530 
  190.8750    53.9570     7.9910     6.2050     7.3890    23.6960     2.3570   -15.9910 
  191.0000    57.5780     9.1360     7.1760     9.4140    23.6590     2.3320   -16.2050 
  191.1250    60.5810     9.9130     7.9370    11.5150    23.6100     2.3350   -16.2770 
  191.2500    60.4600    10.1240     8.2960    11.8730    23.5930     2.3710   -16.2630 
  191.3750    57.3570     9.7720     8.1860     9.9160    23.5620     2.4260   -16.2120 
  191.5000    53.7600     9.0370     7.6970     8.0980    23.4800     2.4680   -16.0710 
  191.6250    52.1340     8.1630     6.9910     6.6950    23.4420     2.4640   -15.8400 
  191.7500    50.9190     7.3590     6.2720     6.1260    23.4720     2.4240   -15.5580 
  191.8750    48.0570     6.6860     5.6300     5.6480    23.5490     2.3690   -15.2430 
  192.0000    43.6130     6.1480     5.1030     4.9350    23.6440     2.3130   -14.9410 
  192.1250    40.2300     5.7390     4.7180     4.4750    23.7760     2.2730   -14.6850 
  192.2500    39.3110     5.4250     4.4470     3.9470    23.8990     2.2570   -14.4410 
  192.3750    39.6550     5.2120     4.2830     3.7020    23.9880     2.2680   -14.2150 
  192.5000    38.7200     5.1010     4.2120     3.6800    23.9870     2.3030   -14.0260 
  192.6250    36.5110     5.0890     4.2200     3.6560    23.9350     2.3530   -13.9100 
  192.7500    35.2960     5.1140     4.2620     3.8700    23.8730     2.3970   -13.8550 
  192.8750    35.8710     5.1330     4.3030     4.2690    23.8410     2.4250   -13.8140 
  193.0000    37.3770     5.1240     4.3150     4.5950    23.8100     2.4310   -13.7760 
  193.1250    38.1760     5.0800     4.2720     4.6750    23.6780     2.4150   -13.7540 
  193.2500    38.1880     5.0250     4.1910     4.5890    23.6120     2.3820   -13.7940 
  193.3750    37.4420     4.9860     4.1090     4.4330    23.6570     2.3400   -13.8930 
  193.5000    36.9220     4.9870     4.0720     4.3110    23.7680     2.3010   -14.0500 
  193.6250    38.3720     5.0730     4.1370     4.2950    23.7770     2.2750   -14.2520 
  193.7500    41.6050     5.2560     4.3030     4.4500    23.7030     2.2660   -14.4870 
  193.8750    47.0620     5.5420     4.5570     5.0470    23.6310     2.2690   -14.7630 
  194.0000    53.7130     5.9020     4.8570     6.0030    23.5750     2.2760   -15.0270 
  194.1250    57.9710     6.2590     5.1370     6.7120    23.4960     2.2770   -15.2790 
  194.2500    57.6100     6.5290     5.3330     6.2600    23.4490     2.2740   -15.5150 
  194.3750    55.8460     6.6540     5.4130     5.8990    23.4090     2.2690   -15.6970 
  194.5000    55.7610     6.6190     5.3710     5.9050    23.3940     2.2690   -15.8020 
  194.6250    56.3300     6.4380     5.2140     5.9340    23.4090     2.2860   -15.8400 
  194.7500    55.9000     6.1940     5.0020     5.5140    23.4290     2.3220   -15.8750 
  194.8750    53.7860     5.9560     4.7780     5.0780    23.4090     2.3710   -15.8870 
  195.0000    49.8680     5.8080     4.5990     4.8250    23.3780     2.4190   -15.9180 
  195.1250    45.3200     5.8900     4.5700     4.7780    23.3420     2.4460   -16.0060 
  195.2500    43.5640     6.2570     4.7460     4.8140    23.3220     2.4500   -16.0800 
  195.3750    45.7520     6.9170     5.1580     4.9490    23.3220     2.4370   -16.1710 
  195.5000    50.2860     7.8040     5.7860     5.5810    23.3370     2.4130   -16.3270 
  195.6250    55.9560     8.7520     6.5430     7.3260    23.3200     2.3820   -16.4780 
  195.7500    61.1520     9.5400     7.2570     9.8130    23.3050     2.3460   -16.5340 
  195.8750    64.7150    10.0620     7.8130    11.1250    23.2940     2.3150   -16.5360 
  196.0000    66.4840    10.3070     8.1520    10.8190    23.3170     2.2980   -16.4670 
  196.1250    67.0070    10.2610     8.2220    10.3520    23.3160     2.3080   -16.2660 
  196.2500    66.3010     9.9490     8.0540    10.4730    23.1920     2.3340   -16.0000 
  196.3750    64.5610     9.3270     7.6380    10.6350    22.9870     2.3600   -15.6390 
  196.5000    63.6800     8.4190     6.9950    10.1420    23.0130     2.3650   -15.1490 
  196.6250    65.2770     7.3670     6.2100     8.5670    23.4080     2.3370   -14.5900 
  196.7500    67.2100     6.4150     5.4600     6.0970    23.6510     2.2930   -14.0290 
  196.8750    68.4760     5.7000     4.8580     4.8470    23.7060     2.2570   -13.4860 
  197.0000    69.3550     5.2690     4.4580     4.5260    23.7360     2.2510   -12.9880 
  197.1250    68.2290     5.1230     4.2780     4.6260    23.8120     2.2980   -12.5880 
  197.2500    64.8330     5.1220     4.2210     4.7360    23.8110     2.3760   -12.2560 
  197.3750    61.2920     5.1620     4.2090     4.7260    23.7170     2.4510   -11.9830 
  197.5000    60.6070     5.1570     4.1800     4.6350    23.6370     2.4940   -11.7740 
  197.6250    62.1330     5.0480     4.0960     4.4880    23.6450     2.4960   -11.6560 
  197.7500    62.7540     4.8660     3.9760     4.3350    23.7590     2.4740   -11.5840 
  197.8750    62.7540     4.6590     3.8460     4.1850    23.9150     2.4300   -11.4990 
  198.0000    62.7540     4.4730     3.7250     4.0650    23.8730     2.3660   -11.4260 
  198.1250    62.7540     4.3450     3.6280     4.0050    23.7420     2.2980   -11.3560 
