~V
VERS. 2.00: Ver 2.00
~W
STRT.M 40.0000:
STOP.M 191.0000:
STEP.M 0.1250:
NULL. -999.2500:
UWI. F10585:
~C
DEPT.M :
DEN.GM/CC :
SP.MV :
GR.API :
RML.OHMM :
RI. :
RXO.OHMM :
CALI.CM :
~A
# ...
   96.2500     2.0880    -5.1710    66.9540    66.7720    59.7050    69.9800    23.8260 
   96.3750     2.0870    -5.1740    66.3870    73.6350    65.7340    68.6140    23.8250 
   96.5000     2.0860    -5.2050    66.4140    77.0290    69.0570    69.2150    23.8240 
   96.6250     2.0850    -5.3120    68.5180    75.6290    68.4400    68.2870    23.8240 
   96.7500     2.0840    -5.4560    70.5210    71.0400    65.1510    62.9210    23.8240 
   96.8750     2.0820    -5.6050    70.0100    64.8400    60.4710    57.7690    23.8280 
   97.0000     2.0780    -5.7680    68.1290    58.4720    55.5270    53.7750    23.8810 
   97.1250     2.0760    -5.9320    68.2400    53.0950    51.2320    48.3370    24.0650 
   97.2500     2.0760    -6.1140    68.3480    49.1170    47.9360    43.3750    24.3280 
   97.3750     2.0760    -6.2770    67.0170    46.7270    45.7670    41.5880    24.4920 
   97.5000     2.0700    -6.4170    67.1430    45.8420    44.6610    42.4430    24.5390 
   97.6250     2.0610    -6.5360    68.4670    45.9100    44.3290    42.1710    24.5340 
   97.7500     2.0580    -6.6490    68.4300    45.4380    43.7470    41.6550    24.5260 
   97.8750     2.0680    -6.7530    69.4170    43.2200    41.9260    41.1270    24.5160 
   98.0000     2.0870    -6.8150    73.4680    38.9660    38.4060    40.4290    24.4740 
   98.1250     2.1190    -6.8270    76.9770    33.7060    33.7190    37.2910    24.3520 
   98.2500     2.1550    -6.8460    77.0570    29.2340    29.3830    30.8830    24.1820 
   98.3750     2.1760    -6.9060    76.7530    26.4580    26.3530    26.1210    24.0730 
   98.5000     2.1670    -6.9810    77.9320    25.6490    25.0710    28.1760    24.0390 
   98.6250     2.1340    -7.0210    76.8240    26.7170    25.7360    29.5680    24.0390 
   98.7500     2.1030    -7.0520    74.1420    28.5150    27.4860    28.5780    24.0390 
   98.8750     2.0790    -7.1060    72.7320    29.9530    29.3130    30.1400    24.0300 
   99.0000     2.0640    -7.1590    73.9640    30.0070    29.9200    30.9120    23.9520 
   99.1250     2.0570    -7.2010    77.2180    28.0860    28.2000    28.1930    23.7050 
   99.2500     2.0520    -7.2240    81.3560    25.2090    25.1700    22.4310    23.3910 
   99.3750     2.0470    -7.2340    83.1830    22.3180    21.9940    17.9170    23.2850 
   99.5000     2.0470    -7.2400    80.3520    20.0190    19.4230    16.6360    23.5470 
   99.6250     2.0550    -7.2530    77.7270    18.6210    17.8230    15.9870    24.2070 
   99.7500     2.0620    -7.2440    79.5270    17.8870    16.9780    15.6640    24.7750 
   99.8750     2.0700    -7.1990    82.7830    17.6800    16.7290    15.6400    25.0290 
  100.0000     2.0850    -7.1620    84.4120    17.9950    16.9760    16.1210    25.0790 
  100.1250     2.1140    -7.1790    84.9090    19.2090    17.9210    17.2900    25.0790 
  100.2500     2.1530    -7.1970    84.6080    21.4100    19.6670    18.6550    25.0520 
  100.3750     2.2030    -7.1730    82.2030    24.2970    22.1080    20.2110    24.9010 
  100.5000     2.2770    -7.1150    79.7460    26.8410    24.5090    23.4730    24.5060 
  100.6250     2.3750    -7.0630    80.1820    27.0110    25.0480    29.1870    24.0180 
  100.7500     2.4450    -7.0210    81.6640    24.3100    22.9990    28.7730    23.7020 
  100.8750     2.4460    -6.9700    84.0720    19.7630    19.1200    20.0410    23.5750 
  101.0000     2.3970    -6.9090    88.7980    15.1750    14.9730    11.7200    23.5490 
  101.1250     2.3510    -6.8130    96.7740    11.9770    11.8260     9.7260    23.5950 
  101.2500     2.3230    -6.7170   103.7440    10.0720     9.7380     9.5240    23.6980 
  101.3750     2.3040    -6.6540   105.4150     9.1090     8.5410     9.8200    23.8070 
  101.5000     2.2970    -6.5810   102.7260     8.7170     8.0200     9.1640    23.8760 
  101.6250     2.3080    -6.4730    99.9170     8.6420     8.0010     8.3510    23.8910 
  101.7500     2.3300    -6.3740   100.2410     8.7100     8.2140     7.6510    23.9000 
  101.8750     2.3500    -6.3030   101.9250     8.8910     8.5550     7.8210    23.9190 
  102.0000     2.3620    -6.2400   102.4500     9.1230     8.9360     8.6150    23.9650 
  102.1250     2.3690    -6.1770   100.9630     9.2360     9.1640     9.2660    24.0080 
  102.2500     2.3630    -6.0980    99.2820     9.0880     9.0650     9.7100    24.0190 
  102.3750     2.3400    -6.0140   101.1000     8.6480     8.5800     9.0950    24.0020 
  102.5000     2.3110    -5.9850   106.6500     8.0180     7.8360     7.1930    23.9790 
  102.6250     2.2960    -5.9890   111.4260     7.3990     7.1080     5.9170    23.9700 
  102.7500     2.3000    -5.9800   113.0890     6.9450     6.6150     5.4130    23.9680 
  102.8750     2.3140    -5.9670   113.4700     6.7230     6.4260     5.6840    23.9680 
  103.0000     2.3280    -5.9690   114.6110     6.7600     6.5100     6.2490    23.9760 
  103.1250     2.3390    -6.0070   115.0750     7.0460     6.8000     6.5430    23.9940 
  103.2500     2.3410    -6.0550   114.0380     7.4320     7.1460     6.6510    24.0070 
  103.3750     2.3300    -6.0980   111.2870     7.7900     7.4550     6.8060    23.9910 
  103.5000     2.3100    -6.1230   110.0940     8.0250     7.6740     6.9140    23.9740 
  103.6250     2.2960    -6.1630   113.0370     8.1200     7.7820     7.1220    23.9690 
  103.7500     2.2980    -6.2090   116.2660     8.1940     7.8260     7.5360    23.9680 
  103.8750     2.3140    -6.2370   116.3900     8.3530     7.8590     7.7790    23.9550 
  104.0000     2.3330    -6.2460   114.4000     8.6620     7.9490     8.2200    23.9260 
  104.1250     2.3370    -6.2400   112.0440     9.1390     8.1820     8.8710    23.9040 
  104.2500     2.3260    -6.2560   108.7150     9.6630     8.5280     9.1990    23.8920 
  104.3750     2.3150    -6.2900   104.6380    10.1560     8.9240     9.5910    23.8750 
  104.5000     2.3150    -6.3020   102.2250    10.6350     9.3210    10.7190    23.8440 
  104.6250     2.3110    -6.2690   103.9860    11.1980     9.7070    10.9250    23.8310 
  104.7500     2.2880    -6.2390   106.7580    11.8610    10.0900    10.8880    23.8350 
  104.8750     2.2540    -6.2320   106.9790    12.5640    10.4740    11.4030    23.8550 
  105.0000     2.2270    -6.2060   104.0490    13.1800    10.8420    13.4090    23.8600 
  105.1250     2.2170    -6.1210   100.8860    13.5270    11.1180    14.6030    23.8930 
  105.2500     2.2110    -5.9960   100.3570    13.6840    11.2840    13.3980    23.9250 
  105.3750     2.1970    -5.8530   101.1660    13.9480    11.4570    12.0340    23.9530 
  105.5000     2.1710    -5.7190   100.2620    14.7120    11.8830    13.5290    23.9690 
  105.6250     2.1390    -5.5920    94.7240    16.5690    13.0280    14.5590    23.9890 
  105.7500     2.1040    -5.4360    86.9350    19.8200    15.2360    14.5520    23.9900 
  105.8750     2.0690    -5.2670    80.6150    26.8200    18.9460    19.2030    23.9250 
  106.0000     2.0420    -5.1230    77.1010    35.0790    24.4290    27.7230    23.8020 
  106.1250     2.0320    -5.0350    74.5820    44.6840    31.6030    37.5220    23.7260 
  106.2500     2.0320    -4.9590    71.8470    54.4230    39.1190    42.8910    23.7000 
  106.3750     2.0340    -4.8640    69.4440    62.7280    45.7480    46.1800    23.7050 
  106.5000     2.0330    -4.7760    68.2510    68.6260    50.6810    51.0420    23.7430 
  106.6250     2.0340    -4.7340    67.0820    72.0050    53.7180    55.9870    23.8770 
  106.7500     2.0380    -4.7070    66.1050    74.1880    55.7790    60.0290    24.1160 
  106.8750     2.0460    -4.6700    67.4920    75.6340    57.1910    61.2480    24.3360 
  107.0000     2.0560    -4.6310    70.2870    76.3240    57.9570    60.4330    24.4340 
  107.1250     2.0660    -4.5990    72.0440    76.1650    57.9910    57.3650    24.4460 
  107.2500     2.0730    -4.5650    72.2290    75.4990    57.5890    55.7450    24.4470 
  107.3750     2.0750    -4.5300    72.4450    74.5320    56.9780    54.6830    24.4480 
