~V
VERS. 2.00: Ver 2.00
~W
STRT.M 50.0000:
STOP.M 191.0000:
STEP.M 0.1250:
NULL. -999.2500:
UWI. F10562:
~C
DEPT.M :
DEN.GM/CC :
SP.MV :
GR.API :
RML.OHMM :
RI. :
RXO.OHMM :
CALI.CM :
~A
# ...
  128.7500     2.4750   -24.4290    65.3170    17.0180    14.9220    14.4600    24.4780 
  128.8750     2.4690   -24.3770    68.3470    17.9280    15.5600    14.7780    24.4780 
  129.0000     2.4670   -24.3040    72.5900    18.7180    16.1800    15.2050    24.4780 
  129.1250     2.4690   -24.2100    74.3700    19.3400    16.7240    16.5500    24.4780 
  129.2500     2.4750   -24.1030    73.4780    19.8230    17.1790    17.5480    24.4780 
  129.3750     2.4800   -24.0140    72.2410    20.0860    17.4780    17.0580    24.4780 
  129.5000     2.4830   -23.9560    71.2330    20.0930    17.5750    15.7550    24.4780 
  129.6250     2.4810   -23.8880    71.7270    20.0350    17.5270    16.1350    24.4780 
  129.7500     2.4750   -23.8160    74.7620    20.2290    17.5070    16.6160    24.4780 
  129.8750     2.4700   -23.7300    76.4100    20.7970    17.5940    17.0130    24.4780 
  130.0000     2.4660   -23.6510    72.2720    21.5770    17.7690    17.5930    24.4780 
  130.1250     2.4630   -23.5750    66.3950    22.0980    17.8940    19.3250    24.4780 
  130.2500     2.4590   -23.5350    66.8740    22.0510    17.8270    19.0350    24.4780 
  130.3750     2.4560   -23.5000    71.9760    21.4340    17.5100    18.1300    24.4780 
  130.5000     2.4560   -23.4800    75.4190    20.5010    16.9860    17.1100    24.4780 
  130.6250     2.4590   -23.4820    73.7100    19.6390    16.3930    16.0260    24.4780 
  130.7500     2.4600   -23.5410    69.4460    19.1110    15.9240    15.1230    24.4760 
  130.8750     2.4570   -23.6460    67.4540    18.9930    15.6970    15.0240    24.4740 
  131.0000     2.4520   -23.7490    68.0680    19.1810    15.7250    15.8530    24.4760 
  131.1250     2.4440   -23.8280    68.3640    19.4030    15.8730    16.9770    24.4760 
  131.2500     2.4330   -23.8800    67.4220    19.3310    15.8750    17.5090    24.4740 
  131.3750     2.4280   -23.9180    66.8810    18.7250    15.5230    17.1130    24.4680 
  131.5000     2.4320   -23.9200    66.3790    17.5030    14.7150    15.9060    24.4500 
  131.6250     2.4390   -23.8780    63.9170    15.7380    13.4500    14.5480    24.4050 
  131.7500     2.4340   -23.7730    60.5180    13.7740    11.9710    12.8350    24.3500 
  131.8750     2.4160   -23.6360    58.2700    11.8170    10.4390    11.5450    24.2880 
  132.0000     2.3930   -23.4860    58.5900     9.9880     8.9700    10.0320    24.2140 
  132.1250     2.3730   -23.3520    60.8580     8.3790     7.6650     8.0340    24.0530 
  132.2500     2.3610   -23.2390    62.0750     7.0550     6.5660     5.7620    23.7600 
  132.3750     2.3640   -23.1670    60.8200     6.1440     5.7370     4.7270    23.4370 
  132.5000     2.3800   -23.1320    56.6840     5.7460     5.2280     4.7800    23.2920 
  132.6250     2.3970   -23.1250    51.5140     5.9070     5.0860     5.0640    23.4410 
  132.7500     2.4060   -23.1630    46.7970     6.3700     5.1800     5.3080    23.7210 
  132.8750     2.4090   -23.2380    44.4220     6.9030     5.3880     5.6590    23.9420 
  133.0000     2.4090   -23.3520    44.4790     7.3080     5.5820     5.8380    24.0290 
  133.1250     2.4030   -23.5200    45.4060     7.4890     5.6620     5.6250    24.0350 
  133.2500     2.3950   -23.6880    46.0410     7.5440     5.6490     5.3010    24.0350 
  133.3750     2.3930   -23.8460    45.2470     7.5280     5.5940     5.2460    24.0360 
  133.5000     2.4030   -24.0170    43.6430     7.4600     5.5410     5.5290    24.0450 
  133.6250     2.4180   -24.2140    43.0860     7.3190     5.5110     5.8600    24.1790 
  133.7500     2.4200   -24.4020    43.7320     7.1180     5.4930     5.7870    24.5360 
  133.8750     2.4030   -24.5710    44.2860     6.8730     5.4680     5.4430    24.9850 
  134.0000     2.3780   -24.7440    43.3460     6.6170     5.4220     5.0380    25.1760 
  134.1250     2.3640   -24.8900    41.7850     6.4130     5.3670     4.8190    25.0170 
  134.2500     2.3620   -25.0430    41.8770     6.3270     5.3300     4.7030    24.9140 
  134.3750     2.3700   -25.1720    44.6270     6.3990     5.3360     4.7220    24.8920 
  134.5000     2.3830   -25.2750    49.6650     6.6300     5.4040     4.9150    24.8740 
  134.6250     2.3980   -25.3430    54.6570     6.9960     5.5450     5.2960    24.7610 
  134.7500     2.4080   -25.4150    58.4950     7.4110     5.7300     5.7700    24.5830 
  134.8750     2.4120   -25.4870    62.1940     7.7890     5.9160     6.3040    24.4440 
  135.0000     2.4100   -25.5430    67.6940     8.0400     6.0500     6.5040    24.3910 
  135.1250     2.4060   -25.5860    74.8350     8.0850     6.0750     6.4900    24.3780 
  135.2500     2.4030   -25.6160    79.7240     7.9840     6.0080     6.4640    24.3520 
  135.3750     2.4000   -25.6510    81.3590     7.7850     5.8900     6.4010    24.3220 
  135.5000     2.3960   -25.6770    82.2910     7.5510     5.7730     6.3100    24.2880 
  135.6250     2.3910   -25.6870    82.9800     7.3520     5.7120     6.3270    24.2420 
  135.7500     2.3890   -25.7110    81.1470     7.2280     5.7150     6.3250    24.1520 
  135.8750     2.3890   -25.7720    78.2110     7.2090     5.7610     6.1190    23.9740 
  136.0000     2.3890   -25.8610    76.7690     7.3160     5.8290     5.8600    23.7160 
  136.1250     2.3850   -25.9730    78.3090     7.5570     5.9140     5.9380    23.5090 
  136.2500     2.3740   -26.1140    81.4640     7.8680     6.0360     6.2950    23.4820 
  136.3750     2.3590   -26.2860    83.4590     8.1870     6.2210     6.9410    23.6910 
  136.5000     2.3480   -26.5070    82.7180     8.4710     6.4770     8.0910    24.0950 
  136.6250     2.3500   -26.7620    81.5890     8.6860     6.7820     9.3020    24.4360 
  136.7500     2.3620   -27.0230    82.3320     8.8680     7.0940     9.5980    24.5700 
  136.8750     2.3780   -27.2660    81.6830     9.0920     7.4040     9.0560    24.5820 
  137.0000     2.3950   -27.4900    77.1650     9.4090     7.7310     8.5900    24.5880 
  137.1250     2.4110   -27.6670    73.3390     9.8130     8.1040     9.1040    24.6070 
  137.2500     2.4310   -27.8140    72.9300    10.2000     8.4980    10.1860    24.6160 
  137.3750     2.4500   -27.9420    74.8620    10.4490     8.8340    11.4970    24.6160 
  137.5000     2.4550   -28.0390    77.3490    10.4330     8.9860    12.3480    24.6170 
  137.6250     2.4390   -28.1110    80.7810    10.0470     8.8180    10.3050    24.6170 
  137.7500     2.4140   -28.1620    85.5730     9.4600     8.4290     8.8060    24.6070 
  137.8750     2.3920   -28.2070    89.5660     8.8520     7.9650     7.8110    24.5800 
  138.0000     2.3780   -28.2230    90.1810     8.3820     7.5740     7.1360    24.5630 
  138.1250     2.3710   -28.2440    88.5370     8.1620     7.3660     6.9240    24.5740 
  138.2500     2.3670   -28.2500    86.3690     8.1460     7.3060     7.0160    24.6010 
  138.3750     2.3680   -28.2420    84.3750     8.2690     7.3390     7.2180    24.6130 
  138.5000     2.3740   -28.2290    84.4220     8.4510     7.4050     7.3710    24.6120 
  138.6250     2.3790   -28.1980    88.0850     8.6290     7.4640     7.3160    24.6100 
  138.7500     2.3800   -28.1620    89.9380     8.7780     7.5000     7.3010    24.6100 
  138.8750     2.3770   -28.1160    89.8150     8.9320     7.5330     7.3930    24.6100 
  139.0000     2.3710   -28.0880    91.7810     9.1840     7.6260     7.4920    24.6100 
  139.1250     2.3640   -28.0560    93.0370     9.7310     7.9330     7.6020    24.6100 
  139.2500     2.3560   -28.0180    88.4750    10.7830     8.6100     7.8340    24.6100 
  139.3750     2.3480   -27.9660    81.1380    12.8180     9.9520     8.2830    24.6100 
  139.5000     2.3440   -27.8990    76.9760    16.8240    12.7580     9.6730    24.6100 
  139.6250     2.3420   -27.8490    74.1280    25.2800    19.8780    14.9220    24.6130 
  139.7500     2.3270   -27.7830    68.6520    39.7310    33.5980    29.6760    24.6280 
  139.8750     2.2920   -27.7180    63.7170    61.1820    55.0940    53.0610    24.6570 
