~V
VERS. 2.00: Ver 2.00
~W
STRT.M 55.0000:
STOP.M 211.0000:
STEP.M 0.1250:
NULL. -999.2500:
UWI. F10586:
~C
DEPT.M :
GR.API :
RML.OHMM :
RI. :
RXO.OHMM :
CALI.CM :
DEN.GM/CC :
SP.MV :
~A
# ...
  100.0000    82.3660    15.0680    14.9710    22.5570    23.8150     2.3880   -10.8220 
  100.1250    86.1840    12.1270    12.0180    13.6400    23.7050     2.3790   -10.8270 
  100.2500    85.4220    10.2790    10.0690    10.5780    23.5640     2.3740   -10.8170 
  100.3750    84.3930     9.2560     8.9070     8.8390    23.4320     2.3650   -10.8040 
  100.5000    86.0820     8.8090     8.3390     7.7310    23.3750     2.3480   -10.7610 
  100.6250    87.8960     8.7610     8.2430     7.0900    23.3890     2.3260   -10.6810 
  100.7500    86.3850     8.8500     8.3680     7.0990    23.4340     2.3090   -10.6280 
  100.8750    83.4870     8.9180     8.5510     7.3250    23.4840     2.3040   -10.6230 
  101.0000    83.1280     8.8370     8.6440     7.5340    23.4940     2.3140   -10.6200 
  101.1250    87.5860     8.5060     8.5010     7.4960    23.4410     2.3340   -10.6260 
  101.2500    92.7690     8.0080     8.1520     7.1660    23.3580     2.3550   -10.6750 
  101.3750    95.8970     7.4530     7.6820     6.5820    23.2960     2.3670   -10.7270 
  101.5000    96.3260     6.9460     7.1970     5.9990    23.2730     2.3700   -10.7700 
  101.6250    96.8870     6.5630     6.7860     5.7270    23.2750     2.3650   -10.8490 
  101.7500    98.6360     6.2820     6.4590     5.5800    23.2830     2.3570   -10.9030 
  101.8750    99.0250     6.0790     6.2060     5.4460    23.3010     2.3500   -10.9170 
  102.0000    96.4070     5.9420     6.0190     5.2880    23.3380     2.3440   -10.9460 
  102.1250    94.1990     5.8970     5.9220     5.2130    23.4100     2.3390   -10.9290 
  102.2500    93.8090     5.9610     5.9260     5.2010    23.5010     2.3340   -10.8440 
  102.3750    95.0420     6.1490     6.0470     5.3430    23.5690     2.3310   -10.7480 
  102.5000    97.4330     6.4450     6.2710     5.6330    23.6220     2.3320   -10.6450 
  102.6250    98.4390     6.7980     6.5530     5.9920    23.6910     2.3440   -10.5300 
  102.7500    97.2190     7.1190     6.8040     6.3300    23.7950     2.3610   -10.4070 
  102.8750    94.6990     7.3420     6.9570     6.5690    23.9030     2.3790   -10.2960 
  103.0000    91.9420     7.4360     6.9760     6.6340    23.9670     2.3890   -10.1710 
  103.1250    90.0080     7.4050     6.8590     6.4880    23.9990     2.3840   -10.0540 
  103.2500    89.8480     7.3410     6.6970     6.4170    24.0420     2.3700    -9.9830 
  103.3750    91.7310     7.3500     6.5800     6.4310    24.0990     2.3500    -9.9130 
  103.5000    93.4320     7.5850     6.6200     6.6390    24.1310     2.3290    -9.7980 
  103.6250    91.9760     8.3810     7.0380     7.1680    24.1220     2.3070    -9.6770 
  103.7500    89.4590    10.0170     8.0280     8.2190    24.0810     2.2820    -9.5820 
  103.8750    86.2220    12.8740     9.9060    10.1360    24.0140     2.2540    -9.4540 
  104.0000    82.1510    17.2840    13.0310    13.3020    23.9440     2.2250    -9.3310 
  104.1250    74.8610    23.5430    17.8970    18.4520    23.9890     2.1980    -9.2180 
  104.2500    65.0820    30.8030    24.0310    25.2440    24.1920     2.1750    -9.0790 
  104.3750    57.2700    37.9920    30.6590    32.2530    24.5630     2.1580    -8.9270 
  104.5000    56.2380    43.8130    36.6070    37.9720    25.0300     2.1480    -8.8260 
  104.6250    62.9930    46.8340    40.3360    41.7460    25.4330     2.1470    -8.7520 
  104.7500    68.2040    47.5210    41.8220    43.4360    25.7030     2.1530    -8.6650 
  104.8750    67.8310    46.8330    41.6990    42.3800    25.8120     2.1630    -8.6090 
  105.0000    64.8150    45.9300    40.9560    40.1140    25.8260     2.1700    -8.5520 
  105.1250    63.8730    45.8300    40.5500    38.5290    25.7980     2.1700    -8.5020 
  105.2500    63.9110    46.7410    40.9000    38.1310    25.7750     2.1640    -8.4880 
  105.3750    62.4130    48.5010    42.0230    38.9770    25.8070     2.1570    -8.5270 
  105.5000    60.0680    50.6560    43.6470    41.7460    25.9250     2.1530    -8.5720 
  105.6250    59.0570    52.4930    45.2550    46.1860    26.0690     2.1550    -8.6310 
  105.7500    60.1380    53.5340    46.3660    50.1640    26.1280     2.1600    -8.7200 
  105.8750    62.1140    53.6690    46.7900    49.5280    26.0670     2.1650    -8.7710 
  106.0000    63.6700    53.1230    46.6150    44.7020    25.9210     2.1680    -8.8270 
  106.1250    63.9080    52.2570    46.0740    43.4310    25.8170     2.1680    -8.9290 
  106.2500    62.9250    51.3370    45.4270    43.4930    25.7710     2.1650    -9.0220 
  106.3750    62.5850    50.2790    44.6610    43.3390    25.7470     2.1580    -9.0980 
  106.5000    63.9100    48.8690    43.6320    42.9820    25.7120     2.1490    -9.1680 
  106.6250    65.9070    46.9040    42.1510    42.5730    25.6570     2.1380    -9.2020 
  106.7500    65.9560    44.6330    40.3700    42.1790    25.5740     2.1310    -9.2010 
  106.8750    64.7510    42.3630    38.5210    41.2490    25.4490     2.1280    -9.2380 
  107.0000    64.0060    40.3350    36.8210    39.4750    25.2840     2.1290    -9.2880 
  107.1250    65.1640    38.6000    35.3450    37.8900    25.1240     2.1320    -9.2790 
  107.2500    67.5760    36.8570    33.8710    36.3360    25.0110     2.1350    -9.2500 
  107.3750    70.0960    34.7540    32.0950    34.3920    24.9210     2.1400    -9.2310 
  107.5000    70.3960    31.9750    29.7230    31.5710    24.8100     2.1510    -9.1870 
  107.6250    70.3120    28.2830    26.5090    28.3850    24.7140     2.1740    -9.1270 
  107.7500    72.3310    24.0780    22.7890    24.9690    24.6280     2.2050    -9.0900 
  107.8750    75.3260    19.8610    19.0120    21.2640    24.5420     2.2410    -8.9960 
  108.0000    77.6650    16.1660    15.6630    17.7220    24.4290     2.2740    -8.8530 
  108.1250    79.7820    13.5340    13.2190    14.5910    24.2500     2.2970    -8.7110 
  108.2500    82.1400    11.8900    11.6350    11.9810    24.0900     2.3080    -8.5440 
  108.3750    83.0050    11.0860    10.8110    10.2900    23.9830     2.3090    -8.3330 
  108.5000    83.7050    10.8560    10.5530     9.8730    23.9200     2.3050    -8.1220 
  108.6250    84.8220    10.8950    10.6240    10.1580    23.8270     2.3010    -7.9380 
  108.7500    84.7200    10.8710    10.6960    10.0100    23.7120     2.3030    -7.7410 
  108.8750    83.8290    10.6370    10.5900     9.3210    23.7270     2.3090    -7.5800 
  109.0000    86.5030    10.1770    10.2380     8.4420    23.9250     2.3200    -7.4380 
  109.1250    93.6240     9.5710     9.6750     7.7330    24.0480     2.3320    -7.2620 
  109.2500    97.4420     8.9750     9.0600     7.5020    23.9060     2.3440    -7.0640 
  109.3750    96.1910     8.4650     8.4820     7.3720    23.6900     2.3550    -6.8680 
  109.5000    93.5480     8.0690     7.9890     7.1610    23.6530     2.3630    -6.6440 
  109.6250    93.0140     7.8090     7.6190     6.9240    23.8440     2.3680    -6.3570 
  109.7500    92.6200     7.6910     7.3790     6.8480    24.0540     2.3680    -6.0490 
  109.8750    90.0680     7.7820     7.3210     6.9570    24.1790     2.3610    -5.6790 
  110.0000    87.5900     8.2020     7.5360     7.2210    24.2170     2.3440    -5.2680 
  110.1250    87.7780     9.1850     8.2230     7.8340    24.2140     2.3140    -4.8770 
  110.2500    87.4590    10.7490     9.4280     8.9580    24.2090     2.2760    -4.5130 
  110.3750    82.4760    12.8480    11.1680    10.7520    24.1960     2.2360    -4.1540 
  110.5000    74.6190    15.2750    13.3270    13.1810    24.1690     2.2030    -3.8560 
  110.6250    72.4790    17.6260    15.6110    15.8000    24.1130     2.1850    -3.6290 
  110.7500    73.3270    19.5180    17.6030    17.8040    24.0170     2.1790    -3.4360 
  110.8750    72.2660    20.7780    19.0460    18.7920    23.8350     2.1830    -3.3240 
  111.0000    71.3270    21.4700    19.8970    19.1270    23.5270     2.1900    -3.2530 
  111.1250    73.5260    21.8350    20.2970    19.0260    23.1760     2.1930    -3.1760 
