~V
VERS. 2.00: Ver 2.00
~W
STRT.M 60.0000:
STOP.M 200.0000:
STEP.M 0.1250:
NULL. -999.2500:
UWI. F10576:
~C
DEPT.M :
GR.API :
RML.OHMM :
RI. :
RXO.OHMM :
CALI.CM :
DEN.GM/CC :
SP.MV :
~A
# ...
   71.2500    79.5660     8.2750     7.9630     8.3170    24.3720     2.1820   -29.4090 
   71.3750    83.2210     7.2610     6.9050     6.8990    24.4080     2.2230   -29.0390 
   71.5000    85.3400     6.7300     6.2190     5.9560    24.3110     2.2720   -28.6570 
   71.6250    83.7870     6.9370     6.1560     6.1150    24.3710     2.3300   -28.2760 
   71.7500    79.2030     7.8940     6.7670     6.9710    24.4910     2.4050   -27.8960 
   71.8750    72.4890     9.7090     8.1870     9.0080    24.4510     2.4960   -27.5290 
   72.0000    66.1690    12.4450    10.5250    13.0500    24.3040     2.5880   -27.1770 
   72.1250    64.1440    15.9990    13.8020    21.2440    24.1850     2.6460   -26.9510 
   72.2500    63.7840    19.5100    17.2820    31.9910    24.1280     2.6510   -26.7760 
   72.3750    64.2680    21.9940    20.0550    33.8490    24.0710     2.5960   -26.5830 
   72.5000    65.3100    22.7090    21.3150    26.3960    23.9400     2.4940   -26.3940 
   72.6250    64.2490    21.4290    20.6130    18.6520    23.6450     2.3790   -26.2120 
   72.7500    62.6470    19.2130    18.8050    14.8870    23.3520     2.2870   -26.0570 
   72.8750    64.3260    16.8030    16.5930    12.0390    23.0400     2.2340   -25.9430 
   73.0000    71.8480    14.6870    14.5020    11.1130    22.7600     2.2180   -25.9270 
   73.1250    80.3900    13.2340    12.9230    10.3050    22.6990     2.2240   -25.9160 
   73.2500    84.5000    12.4960    11.9560     8.5940    22.7840     2.2320   -25.9170 
   73.3750    83.2680    12.5600    11.7190     7.7690    22.9420     2.2440   -25.9360 
   73.5000    77.4990    13.4660    12.3010     8.4600    23.1530     2.2760   -26.0100 
   73.6250    71.9910    15.2420    13.8250    11.1760    23.4140     2.3500   -26.0920 
   73.7500    70.7910    17.4330    15.9160    17.7790    23.5930     2.4510   -26.1560 
   73.8750    74.7420    19.5100    18.1050    28.1590    23.6290     2.5460   -26.2010 
   74.0000    79.5170    20.8800    19.7890    31.4700    23.5710     2.5950   -26.2220 
   74.1250    78.4460    20.9740    20.2790    25.5890    23.5080     2.5640   -26.2620 
   74.2500    73.1400    20.0650    19.6710    19.8880    23.4280     2.4820   -26.3120 
   74.3750    68.6840    18.4870    18.2330    16.1490    23.3300     2.3860   -26.3800 
   74.5000    69.0460    16.5850    16.3370    16.5020    23.2560     2.3150   -26.4020 
   74.6250    72.2800    14.6960    14.3740    15.6400    23.1990     2.2910   -26.4090 
   74.7500    74.4190    13.1220    12.6800    11.9310    23.1600     2.2950   -26.4260 
   74.8750    76.6140    12.0830    11.4480     8.9510    23.1580     2.3060   -26.4230 
   75.0000    78.9640    11.7160    10.7870     8.1190    23.2180     2.3080   -26.3880 
   75.1250    77.4480    12.1460    10.8300     9.4700    23.3640     2.2980   -26.3400 
   75.2500    73.6720    13.1330    11.4310    12.2280    23.5070     2.2900   -26.2890 
   75.3750    72.0040    14.4620    12.4700    14.2220    23.5980     2.2890   -26.2060 
   75.5000    72.6530    15.8880    13.7590    14.7290    23.5820     2.2880   -26.1350 
   75.6250    72.0180    17.1870    15.0750    15.4530    23.7560     2.2780   -26.0870 
   75.7500    70.2460    18.3100    16.2580    15.5610    24.1770     2.2590   -26.0580 
   75.8750    67.9540    19.2700    17.2520    17.0560    24.5070     2.2360   -26.0230 
   76.0000    65.2190    20.0370    18.0240    19.4220    24.6050     2.2180   -25.9920 
   76.1250    64.7200    20.4430    18.4600    20.9260    24.5720     2.2080   -25.9530 
   76.2500    66.3190    20.4340    18.5420    20.7180    24.5350     2.1990   -25.9180 
   76.3750    66.5570    20.0420    18.2780    19.7700    24.4830     2.1890   -25.9050 
   76.5000    63.3550    19.4320    17.7540    17.8860    24.4940     2.1790   -25.8980 
   76.6250    59.4180    18.8260    17.1090    17.0040    24.5550     2.1720   -25.8820 
   76.7500    58.2190    18.3490    16.4960    16.8050    24.6690     2.1690   -25.8570 
   76.8750    60.4960    17.9910    15.9850    17.0010    24.8490     2.1720   -25.8510 
   77.0000    64.2590    17.6870    15.6000    16.6390    25.0300     2.1800   -25.8710 
   77.1250    66.2120    17.3600    15.3300    16.1250    25.0750     2.1950   -25.8800 
   77.2500    65.8100    16.9780    15.0930    15.7290    24.9460     2.2150   -25.8820 
   77.3750    65.2630    16.5320    14.8170    15.9130    24.6910     2.2360   -25.8670 
   77.5000    66.6840    16.0070    14.4370    16.5910    24.3620     2.2530   -25.7960 
   77.6250    69.5780    15.3610    13.8950    16.7740    24.1740     2.2560   -25.7200 
   77.7500    71.4410    14.6120    13.2290    14.6910    24.4610     2.2470   -25.6330 
   77.8750    70.4670    13.8100    12.4990    12.9190    24.9830     2.2320   -25.5450 
   78.0000    67.6960    13.0390    11.7850    11.2750    25.2660     2.2170   -25.4640 
   78.1250    65.5750    12.4290    11.1880    10.6230    25.0720     2.2100   -25.3930 
   78.2500    64.1220    12.0200    10.7380    10.4860    24.6850     2.2080   -25.3310 
   78.3750    63.6540    11.7990    10.4330    10.1650    24.3900     2.2070   -25.2970 
   78.5000    65.7660    11.6980    10.2400     9.4620    24.2560     2.2070   -25.3210 
   78.6250    69.8260    11.6140    10.1140     9.2750    24.2130     2.2070   -25.3650 
   78.7500    71.2550    11.4740    10.0040     9.3650    24.1830     2.2040   -25.4660 
   78.8750    69.8380    11.2930     9.9070     9.3660    24.1310     2.1970   -25.5910 
   79.0000    68.3500    11.1540     9.8530     9.0190    24.0370     2.1860   -25.6910 
   79.1250    67.4450    11.1990     9.9110     8.6160    23.9650     2.1800   -25.7920 
   79.2500    65.7750    11.4610    10.0970     8.7050    23.8650     2.1870   -25.8970 
   79.3750    63.3020    11.8960    10.3960     9.6300    23.7900     2.2060   -26.0160 
   79.5000    61.2780    12.3840    10.7460    11.4300    23.7180     2.2270   -26.1400 
   79.6250    61.0700    12.7290    11.0390    12.8320    23.7110     2.2340   -26.2370 
   79.7500    61.2500    12.8390    11.1970    12.1430    23.8420     2.2270   -26.3160 
   79.8750    60.6110    12.7240    11.1950    11.4720    23.9840     2.2130   -26.3990 
   80.0000    59.9780    12.4720    11.0550    11.5430    23.9020     2.2010   -26.5040 
   80.1250    61.2610    12.2020    10.8220    11.6460    23.7660     2.1920   -26.6150 
   80.2500    63.0140    11.9860    10.5730    11.2110    23.8230     2.1820   -26.7220 
   80.3750    62.5790    11.8260    10.3420    10.5770    24.1100     2.1720   -26.8030 
   80.5000    59.6990    11.6980    10.1510    10.2280    24.3270     2.1680   -26.8860 
   80.6250    56.8460    11.5830    10.0180    10.3240    24.4430     2.1730   -26.9800 
   80.7500    57.1730    11.4870     9.9350    10.6010    24.4790     2.1830   -27.0250 
   80.8750    59.9190    11.4230     9.8910    10.7690    24.4910     2.1900   -27.0290 
   81.0000    60.6590    11.3970     9.8680    10.5680    24.4940     2.1880   -27.0240 
   81.1250    57.8600    11.3930     9.8410    10.4120    24.5070     2.1770   -27.0140 
   81.2500    56.2950    11.3750     9.7930    10.2830    24.5160     2.1660   -26.9980 
   81.3750    58.0490    11.3180     9.7190    10.1920    24.5060     2.1610   -26.9870 
   81.5000    60.9300    11.2190     9.6240     9.9220    24.4780     2.1650   -26.9420 
   81.6250    62.3820    11.1050     9.5240     9.9260    24.4750     2.1740   -26.9130 
   81.7500    63.2940    11.0250     9.4400    10.0480    24.4970     2.1820   -26.8830 
   81.8750    63.9110    11.0160     9.3870    10.1310    24.5530     2.1840   -26.8760 
   82.0000    63.5170    11.0800     9.3700    10.1430    24.6390     2.1790   -26.8600 
   82.1250    63.1150    11.1430     9.3860    10.3230    24.7320     2.1700   -26.8310 
   82.2500    64.3190    11.1340     9.4120    10.4070    24.7320     2.1610   -26.7800 
   82.3750    65.9590    11.0960     9.4400    10.5490    24.6330     2.1580   -26.7110 
