~V
VERS. 2.00: Ver 2.00
~W
STRT.M 47.0000:
STOP.M 254.0000:
STEP.M 0.1250:
NULL. -999.2500:
UWI. F10599:
~C
DEPT.M :
DEN.GM/CC :
SP.MV :
GR.API :
RML.OHMM :
RI. :
RXO.OHMM :
CALI.CM :
~A
# ...
  182.0000     2.5190    -4.5320    72.3670    23.0780    21.4820    32.8890    24.7920 
  182.1250     2.5420    -4.5000    66.6280    24.8950    23.3540    35.5220    24.7990 
  182.2500     2.5190    -4.4680    65.8690    25.9210    24.4720    34.8210    24.8180 
  182.3750     2.4610    -4.4340    72.7330    25.8270    24.4080    32.9850    24.8420 
  182.5000     2.3890    -4.4190    78.4780    25.1410    23.6980    29.6610    24.8440 
  182.6250     2.3130    -4.4130    81.2670    24.3910    22.9240    26.6890    24.8250 
  182.7500     2.2510    -4.4010    82.6670    23.9800    22.5250    25.6480    24.8060 
  182.8750     2.2190    -4.3840    81.8490    24.1930    22.7760    27.2220    24.8030 
  183.0000     2.2070    -4.3640    78.2970    24.8870    23.4820    29.3390    24.7970 
  183.1250     2.2060    -4.3530    75.5840    25.7440    24.3090    30.1620    24.7760 
  183.2500     2.2100    -4.3460    76.9740    26.2030    24.7450    29.6720    24.7380 
  183.3750     2.2180    -4.3400    79.0750    25.5870    24.2020    30.5500    24.7210 
  183.5000     2.2260    -4.3120    80.5560    24.1350    22.9080    31.4810    24.7160 
  183.6250     2.2350    -4.2800    82.6300    22.4340    21.3740    28.7750    24.7160 
  183.7500     2.2470    -4.2600    82.6640    21.1800    20.2070    23.8420    24.7160 
  183.8750     2.2580    -4.2630    78.1580    21.0800    20.0680    21.7700    24.7160 
  184.0000     2.2580    -4.2850    75.9230    22.1800    21.0480    24.8660    24.7150 
  184.1250     2.2440    -4.3240    79.0060    24.4290    23.1190    30.5610    24.7070 
  184.2500     2.2230    -4.3700    81.6500    28.8950    25.9780    36.4560    24.6850 
  184.3750     2.2060    -4.4040    78.1630    31.1670    28.8510    37.7250    24.6650 
  184.5000     2.1950    -4.4400    74.2450    32.3870    30.8230    36.7510    24.6750 
  184.6250     2.1850    -4.4720    74.2180    32.9140    31.6080    35.8260    24.7000 
  184.7500     2.1710    -4.4980    75.8460    33.4210    31.5750    34.3610    24.7140 
  184.8750     2.1590    -4.5100    74.9550    34.3570    31.3190    34.5180    24.7160 
  185.0000     2.1540    -4.5070    73.2080    35.3670    31.1720    35.2690    24.7160 
  185.1250     2.1570    -4.5000    73.0280    35.8200    31.0940    36.0790    24.7300 
  185.2500     2.1630    -4.4980    74.2940    35.2400    30.9550    36.7840    24.7820 
  185.3750     2.1690    -4.5300    73.9960    33.7650    30.6540    36.7020    24.8930 
  185.5000     2.1710    -4.5780    73.5920    32.3000    30.2830    35.4700    24.9750 
  185.6250     2.1680    -4.6300    75.5720    31.1760    30.2270    34.0680    25.0040 
  185.7500     2.1620    -4.7000    78.5830    30.7930    30.4040    34.1420    25.0070 
  185.8750     2.1560    -4.7930    78.7070    30.7780    30.6230    35.1980    25.0070 
  186.0000     2.1540    -4.8920    76.4710    30.8780    30.7020    36.3050    25.0070 
  186.1250     2.1560    -4.9870    73.5210    30.9610    30.5620    36.4320    25.0070 
  186.2500     2.1620    -5.0960    70.6860    30.9970    30.2680    35.4940    25.0060 
  186.3750     2.1730    -5.2030    68.9370    31.1140    30.0910    35.1940    24.9940 
  186.5000     2.1870    -5.3010    68.6550    31.4650    30.2580    35.5480    24.9670 
  186.6250     2.2020    -5.3890    69.6130    32.1240    30.8070    36.0930    24.9420 
  186.7500     2.2160    -5.4500    70.1490    32.9880    31.5640    36.9790    24.9320 
  186.8750     2.2260    -5.4580    70.8300    33.7740    32.1900    38.9000    24.9320 
  187.0000     2.2260    -5.4660    72.1170    34.2330    32.5690    40.1660    24.9290 
  187.1250     2.2150    -5.4780    72.3350    34.2840    32.7990    40.1430    24.9150 
  187.2500     2.2000    -5.4810    70.1100    34.0120    32.9140    38.4690    24.8770 
  187.3750     2.1930    -5.4700    69.2330    33.5660    32.6180    35.8300    24.8180 
  187.5000     2.1920    -5.4500    73.3520    33.0440    31.7690    32.7910    24.7190 
  187.6250     2.1930    -5.4170    78.1340    32.3440    30.5650    30.6300    24.5810 
  187.7500     2.1930    -5.3710    77.9890    31.3110    29.4330    28.8140    24.4010 
  187.8750     2.1950    -5.3410    74.2500    29.9150    28.7070    27.3040    24.2270 
  188.0000     2.1970    -5.3100    74.1460    28.4730    28.1610    25.7230    24.1160 
  188.1250     2.2010    -5.2750    77.8290    27.3170    27.4950    24.7310    24.0690 
  188.2500     2.2040    -5.2370    82.4420    26.7060    26.6210    24.8460    24.0740 
  188.3750     2.2030    -5.1940    83.7380    26.7920    25.8310    27.2960    24.1370 
  188.5000     2.1990    -5.1670    80.0190    27.2970    25.5600    29.8050    24.2730 
  188.6250     2.1960    -5.1670    73.1050    27.9670    26.0120    31.2490    24.4670 
  188.7500     2.1900    -5.1820    67.4920    28.5500    26.9920    32.3870    24.6800 
  188.8750     2.1810    -5.2030    68.9740    28.8130    27.8640    32.0800    24.7770 
  189.0000     2.1730    -5.2150    73.7470    28.8190    28.1810    30.8240    24.8360 
  189.1250     2.1730    -5.2280    77.1370    28.7660    28.0550    30.3570    24.9070 
  189.2500     2.1810    -5.2430    77.1130    28.8780    27.9340    30.8470    24.9760 
  189.3750     2.1950    -5.2700    74.7330    29.2810    28.2900    31.9130    25.0020 
  189.5000     2.2090    -5.2830    73.1020    29.8040    29.0370    32.8250    25.0060 
  189.6250     2.2240    -5.2810    72.7370    30.2180    29.8070    33.9050    25.0040 
  189.7500     2.2340    -5.2980    73.7620    30.3420    30.1500    34.5710    25.0200 
  189.8750     2.2290    -5.3120    75.8150    30.1100    29.7230    33.7420    25.0630 
  190.0000     2.2170    -5.3190    77.2710    29.7220    28.7900    32.4210    25.1200 
  190.1250     2.2110    -5.3220    77.2170    29.3350    27.5940    32.1760    25.1450 
  190.2500     2.2150    -5.3220    76.7250    29.0490    26.2960    33.1200    25.1490 
  190.3750     2.2240    -5.3160    78.4630    28.9240    25.0610    34.0780    25.1490 
  190.5000     2.2280    -5.3130    80.6950    28.9160    24.0830    33.8870    25.1490 
  190.6250     2.2240    -5.3100    80.6950    28.9620    23.5470    33.1890    25.1490 
  190.7500     2.2130    -5.2800    78.3340    28.9620    23.5920    32.8920    25.1490 
  190.8750     2.2010    -5.2600    76.1020    28.7130    24.1100    32.8230    25.1490 
  191.0000     2.1940    -5.2580    75.7630    28.0700    24.4440    32.3270    25.1490 
  191.1250     2.1940    -5.2750    77.1750    26.9440    24.0550    31.1370    25.1490 
  191.2500     2.2010    -5.2920    78.0130    25.4030    22.8170    28.7400    25.1490 
  191.3750     2.2120    -5.2860    77.5740    23.7300    21.2150    26.5550    25.1490 
  191.5000     2.2200    -5.2580    77.3720    22.3190    20.0540    25.2710    25.1490 
  191.6250     2.2200    -5.2260    76.1750    21.4070    19.6930    25.0450    25.1490 
  191.7500     2.2160    -5.2180    73.3010    21.1020    20.0810    24.9920    25.1490 
  191.8750     2.2130    -5.2400    71.3160    21.5320    20.9390    25.0730    25.1490 
  192.0000     2.2120    -5.2860    72.6010    22.5800    21.9510    26.5870    25.1490 
  192.1250     2.2100    -5.3130    75.2010    24.2050    23.0840    28.2240    25.1490 
  192.2500     2.2090    -5.3280    76.3090    26.2970    24.3600    29.7720    25.1490 
  192.3750     2.2070    -5.3620    76.3810    28.6090    25.7310    31.6420    25.1490 
  192.5000     2.2070    -5.4380    75.6950    30.6310    26.9310    33.0590    25.1490 
  192.6250     2.2210    -5.5280    73.6910    31.7990    27.6250    33.3700    25.1490 
  192.7500     2.2550    -5.6270    71.8270    31.6380    27.5010    33.9680    25.1490 
  192.8750     2.2860    -5.7080    71.8290    29.9200    26.3880    33.2620    25.1490 
  193.0000     2.2880    -5.7770    71.9680    27.5010    24.8390    29.8970    25.1490 
  193.1250     2.2650    -5.8640    71.6430    25.1410    23.3360    25.9280    25.1490 
