~V
VERS. 2.00: Ver 2.00
~W
STRT.M 54.0000:
STOP.M 217.0000:
STEP.M 0.1250:
NULL. -999.2500:
UWI. F10593:
~C
DEPT.M :
SP.MV :
GR.API :
RML.OHMM :
RI. :
RXO.OHMM :
CALI.CM :
DEN.GM/CC :
~A
# ...
  110.2500    -8.2430    80.0400    21.8450    23.3140    24.7100    23.0700     2.2870 
  110.3750    -8.3500    84.6770    15.6530    16.7630    11.6460    23.1060     2.3150 
  110.5000    -8.4250    90.0340    11.8680    12.3830     7.9970    23.1680     2.3320 
  110.6250    -8.4900    95.1960     9.9240     9.8960     7.1970    23.2100     2.3340 
  110.7500    -8.5380    96.3340     9.2130     8.7600     7.2360    23.2240     2.3250 
  110.8750    -8.5530    92.3850     9.3490     8.6090     7.1840    23.2230     2.3070 
  111.0000    -8.5800    88.4420     9.8720     8.9550     7.2570    23.2220     2.2880 
  111.1250    -8.6430    86.4040    10.5980     9.5870     7.6190    23.2220     2.2710 
  111.2500    -8.6780    84.5930    11.4090    10.3520     8.1280    23.2230     2.2570 
  111.3750    -8.6920    81.5190    12.1990    11.1170     8.5250    23.2250     2.2460 
  111.5000    -8.7270    77.2320    12.8350    11.7550     9.0040    23.2350     2.2360 
  111.6250    -8.7410    74.2230    13.1970    12.1520     9.5370    23.2580     2.2230 
  111.7500    -8.7270    74.3730    13.2550    12.2550     9.9350    23.2780     2.2090 
  111.8750    -8.7220    77.5660    13.1610    12.1450    10.2210    23.2800     2.2020 
  112.0000    -8.7200    79.1240    13.2920    12.1260    10.4030    23.2460     2.2090 
  112.1250    -8.6920    76.4200    14.0100    12.5140    10.5410    23.1630     2.2330 
  112.2500    -8.6920    71.1430    15.6530    13.6280    11.3510    23.0490     2.2730 
  112.3750    -8.7410    65.6500    18.7130    15.9510    14.9080    22.9960     2.3270 
  112.5000    -8.7620    61.1560    23.0570    19.4440    21.2760    22.9700     2.3880 
  112.6250    -8.7670    57.5210    28.3870    23.9200    24.7680    22.9350     2.4470 
  112.7500    -8.7970    54.4070    33.9680    28.8290    25.1280    22.8930     2.4860 
  112.8750    -8.8380    53.4890    38.3450    33.0790    24.5020    22.9330     2.4860 
  113.0000    -8.8670    54.5230    40.3680    35.6630    29.7630    23.0410     2.4590 
  113.1250    -8.9080    55.9370    39.3140    35.8260    34.1500    23.1520     2.4240 
  113.2500    -8.9310    56.8420    35.2650    33.3180    33.4850    23.2060     2.4020 
  113.3750    -8.8970    59.0200    29.1750    28.4860    27.5590    23.2180     2.4040 
  113.5000    -8.8890    64.8550    23.0670    23.0430    22.9700    23.2200     2.4180 
  113.6250    -8.9110    73.8170    18.0560    18.1520    16.0920    23.2310     2.4330 
  113.7500    -8.9240    82.4780    14.5680    14.4580     8.9400    23.2490     2.4460 
  113.8750    -8.8990    85.9550    12.6600    12.2320     8.1310    23.2330     2.4540 
  114.0000    -8.8360    83.9980    11.6550    10.9460    10.1860    23.1730     2.4540 
  114.1250    -8.7830    80.7180    11.1690    10.2700    11.4260    23.1160     2.4420 
  114.2500    -8.7550    80.1870    10.9600     9.9830    10.0280    23.0950     2.4190 
  114.3750    -8.7220    82.5440    11.0290    10.0550     8.5680    23.0970     2.4000 
  114.5000    -8.7060    83.5090    11.4530    10.4820     7.6500    23.0980     2.4020 
  114.6250    -8.7220    80.6000    12.3100    11.3170     8.0520    23.0980     2.4240 
  114.7500    -8.7480    74.7730    13.4840    12.4880    11.0480    23.0960     2.4500 
  114.8750    -8.8030    70.1310    14.4910    13.6340    19.2940    23.0940     2.4530 
  115.0000    -8.9170    69.4950    14.8400    14.2600    21.7870    23.0920     2.4290 
  115.1250    -9.0310    72.3960    14.4350    14.1670    15.7710    23.0940     2.3920 
  115.2500    -9.1130    75.4930    13.6360    13.5640    10.9440    23.0980     2.3700 
  115.3750    -9.2610    73.9040    13.0990    12.9790     9.5820    23.1040     2.3890 
  115.5000    -9.4080    69.2570    13.1800    12.8320    10.0760    23.1040     2.4380 
  115.6250    -9.4820    66.3470    13.8540    13.2060    12.3220    23.1020     2.4930 
  115.7500    -9.5760    66.8080    14.8020    13.9050    15.1700    23.1060     2.5270 
  115.8750    -9.7060    68.3290    15.4620    14.4830    15.5070    23.1190     2.5160 
  116.0000    -9.7690    69.1540    15.5250    14.5930    13.7730    23.1210     2.4690 
  116.1250    -9.8220    69.9380    15.0340    14.1950    13.5880    23.1200     2.4040 
  116.2500    -9.9200    70.7620    14.3090    13.5120    12.0560    23.1430     2.3460 
  116.3750    -9.9410    70.5560    13.8780    12.9790    12.0880    23.2110     2.3230 
  116.5000    -9.9270    71.0600    14.1120    12.9560    12.6770    23.2680     2.3370 
  116.6250    -9.9660    71.5140    15.2670    13.6930    13.3870    23.2790     2.3840 
  116.7500    -9.9840    69.4950    17.5440    15.3820    14.8220    23.2790     2.4500 
  116.8750    -9.9470    66.3750    21.2660    18.3370    18.4100    23.2970     2.5160 
  117.0000    -9.9240    64.7840    26.0340    22.2650    27.2170    23.3490     2.5700 
  117.1250    -9.9220    65.3530    31.2260    26.7010    36.5830    23.4310     2.6080 
  117.2500    -9.8780    65.3650    35.8760    30.8900    39.0660    23.4810     2.6270 
  117.3750    -9.8620    63.0700    38.7730    33.8380    39.5450    23.4750     2.6270 
  117.5000    -9.8750    60.2140    39.9950    35.4290    38.8510    23.4460     2.6120 
  117.6250    -9.8550    57.7240    40.1390    35.9660    37.5000    23.4530     2.5880 
  117.7500    -9.8500    57.2440    40.0040    36.0070    36.5940    23.5220     2.5610 
  117.8750    -9.8830    58.4760    40.2030    36.0670    37.5330    23.5200     2.5380 
  118.0000    -9.9310    58.6900    40.7520    36.3260    35.9670    23.4220     2.5270 
  118.1250    -9.9360    56.4840    41.4240    36.7000    34.3660    23.2870     2.5270 
  118.2500    -9.9410    53.9280    41.9190    37.0070    34.5920    23.2350     2.5350 
  118.3750    -9.9570    53.8730    41.9260    37.0230    33.5500    23.3420     2.5380 
  118.5000    -9.9800    54.9950    41.5080    36.7550    30.3130    23.4090     2.5300 
  118.6250   -10.0190    56.2810    40.8780    36.3350    27.7260    23.3190     2.5100 
  118.7500   -10.0190    57.8690    40.3440    35.9830    26.9780    23.2650     2.4850 
  118.8750   -10.0100    59.5700    40.2610    35.9820    28.8570    23.3150     2.4660 
  119.0000    -9.9910    60.1030    40.6780    36.4030    31.1770    23.3340     2.4620 
  119.1250    -9.9500    59.8090    41.5120    37.2200    34.4960    23.3040     2.4710 
  119.2500    -9.9060    59.4180    42.5770    38.3040    37.5670    23.2020     2.4890 
  119.3750    -9.8750    58.7060    43.6570    39.4780    38.6130    22.9950     2.5080 
  119.5000    -9.7980    58.1710    44.6170    40.5810    38.0040    22.8500     2.5270 
  119.6250    -9.6830    57.7410    45.4230    41.5500    38.0950    22.8000     2.5480 
  119.7500    -9.5760    56.5190    46.0840    42.3610    38.4490    22.8140     2.5680 
  119.8750    -9.4660    55.6190    46.6150    42.9940    39.2850    22.9380     2.5780 
  120.0000    -9.3760    56.6280    47.0960    43.5200    37.6960    23.0650     2.5680 
  120.1250    -9.2920    57.4620    47.6090    44.0260    35.8140    23.0500     2.5380 
  120.2500    -9.1970    55.6430    48.2450    44.6170    34.8510    22.8070     2.4950 
  120.3750    -9.0970    53.3860    49.0970    45.4090    36.3210    22.6640     2.4530 
  120.5000    -9.0390    52.9260    50.1050    46.3700    39.7410    22.6660     2.4250 
  120.6250    -9.0290    52.8890    51.1390    47.4070    43.8030    22.8360     2.4170 
  120.7500    -9.0570    52.5320    51.9840    48.3480    46.7360    23.1390     2.4300 
  120.8750    -9.0640    54.5480    52.2770    48.8850    43.7120    23.3460     2.4630 
  121.0000    -9.0530    57.9290    51.9170    48.8730    42.5940    23.4530     2.5030 
  121.1250    -9.1270    59.6670    50.9710    48.3050    43.6150    23.4910     2.5360 
  121.2500    -9.2320    57.4200    49.7230    47.3700    44.4600    23.5010     2.5520 
  121.3750    -9.3360    52.8530    48.6850    46.4710    39.3010    23.5000     2.5480 
