~V
VERS. 2.00: Ver 2.00
~W
STRT.M 58.0000:
STOP.M 214.0000:
STEP.M 0.1250:
NULL. -999.2500:
UWI. F10594:
~C
DEPT.M :
GR.API :
RML.OHMM :
RI. :
RXO.OHMM :
CALI.CM :
DEN.GM/CC :
SP.MV :
~A
   58.0000    41.7140    -0.5540     0.3490     0.8300    25.3470     2.0950    29.0430 
   58.1250    43.2070    -0.7650     0.3100     1.1230    25.3690     2.2520    27.3630 
   58.2500    46.1670    -0.8190     0.3020     1.9100    25.5220     2.2530    25.1640 
   58.3750    49.4680    -0.7610     0.3310     2.8890    26.1090     2.1220    22.4230 
   58.5000    52.1590    -0.5930     0.4110     5.9990    27.7080     1.9390    19.1560 
   58.6250    52.9500    -0.2190     0.5930     5.9090    31.1160     1.7720    15.3600 
   58.7500    52.7810     0.4610     0.9310     6.1200    34.9630     1.6690    11.2480 
   58.8750    52.0680     1.5800     1.5140     6.3520    36.5170     1.6670     6.9790 
   59.0000    52.5620     3.1660     2.4270     6.3220    34.5670     1.7810     2.7250 
   59.1250    56.0600     4.9970     3.7350     6.5150    29.9920     1.9720    -1.3070 
   59.2500    61.8660     6.6550     5.2240     7.1280    25.9880     2.1300    -5.0240 
   59.3750    67.2140     7.9310     6.6490     8.0050    23.7290     2.2090    -8.3580 
   59.5000    69.7960     8.7880     7.7790     8.6250    22.9840     2.2230   -11.2770 
   59.6250    71.8740     9.1760     8.3910     9.1130    23.0440     2.2030   -13.7050 
   59.7500    75.9340     9.1690     8.5290     9.1110    23.3290     2.1830   -15.7450 
   59.8750    79.6660     8.8390     8.2780     8.7040    23.6180     2.1760   -17.4480 
   60.0000    80.0100     8.3190     7.7870     7.9510    23.8250     2.1850   -18.8820 
   60.1250    79.0860     7.7500     7.2150     7.4210    23.8790     2.2050   -20.0790 
   60.2500    80.1800     7.2880     6.7220     7.4440    23.8270     2.2380   -21.1210 
   60.3750    82.0290     7.0950     6.4410     7.4000    23.6930     2.2920   -22.0400 
   60.5000    81.5860     7.3420     6.4940     6.8010    23.6020     2.3590   -22.8700 
   60.6250    77.5640     8.2790     7.0600     6.2530    23.6500     2.3990   -23.6330 
   60.7500    72.1800     9.8730     8.1080     7.0790    23.7060     2.3840   -24.3680 
   60.8750    66.4920    12.0200     9.5510    10.2180    23.6060     2.3220   -25.1040 
   61.0000    62.5120    14.3170    11.1040    15.9530    23.3700     2.2460   -25.8540 
   61.1250    61.8300    15.8250    12.1930    15.1300    23.0410     2.1910   -26.6190 
   61.2500    61.3480    16.0970    12.5410    12.9430    22.9110     2.1600   -27.3880 
   61.3750    59.2490    15.4390    12.2600    11.3900    23.0460     2.1460   -28.1500 
   61.5000    56.6030    14.5360    11.7180    10.8620    23.4070     2.1420   -28.8880 
   61.6250    57.2110    13.9460    11.2920    10.7690    23.5650     2.1440   -29.5770 
   61.7500    60.3710    13.7110    11.0840    10.6220    23.3440     2.1490   -30.2150 
   61.8750    62.4390    13.7040    11.0310    10.5380    22.9350     2.1520   -30.7930 
   62.0000    62.7890    13.7820    11.0400    10.7200    22.5270     2.1530   -31.3060 
   62.1250    62.1570    13.8550    11.0540    11.0910    22.3460     2.1540   -31.7440 
   62.2500    60.8910    13.8890    11.0580    11.2530    22.2700     2.1570   -32.1250 
   62.3750    60.0050    13.8710    11.0480    11.2160    22.2410     2.1620   -32.4510 
   62.5000    59.6820    13.7830    11.0100    10.8580    22.2080     2.1670   -32.7260 
   62.6250    60.7820    13.5730    10.9020    10.3410    22.1930     2.1730   -32.9470 
   62.7500    62.0460    13.2310    10.7020     9.8730    22.1780     2.1790   -33.1260 
   62.8750    62.3730    12.7690    10.4020     9.5430    22.1410     2.1860   -33.2650 
   63.0000    63.5690    12.2380    10.0270     9.0820    22.0770     2.1930   -33.3640 
   63.1250    65.7480    11.7300     9.6350     8.7590    22.0170     2.1920   -33.4240 
   63.2500    67.5780    11.3160     9.2920     8.5680    22.1980     2.1790   -33.4550 
   63.3750    67.7250    11.0140     9.0260     8.5440    22.7480     2.1560   -33.4590 
   63.5000    67.8580    10.7970     8.8320     8.6850    23.3210     2.1310   -33.4430 
   63.6250    69.0580    10.6310     8.6920     9.1520    23.5420     2.1150   -33.4220 
   63.7500    67.4060    10.4990     8.5810     9.9860    23.5820     2.1130   -33.4070 
   63.8750    65.0510    10.4350     8.4980    10.2660    23.5820     2.1200   -33.4070 
   64.0000    66.0010    10.4800     8.4630     9.6560    23.5820     2.1250   -33.4320 
   64.1250    68.0360    10.6850     8.5180     9.0650    23.5820     2.1230   -33.4950 
   64.2500    67.7650    11.0080     8.6580     9.2130    23.5820     2.1180   -33.6010 
   64.3750    67.2630    11.3930     8.8670     9.7720    23.5820     2.1180   -33.7550 
   64.5000    67.1220    11.7730     9.1110    10.0690    23.5820     2.1220   -33.9580 
   64.6250    63.7930    12.0920     9.3530    10.1620    23.5850     2.1280   -34.2000 
   64.7500    60.6940    12.3520     9.5660    10.4890    23.5970     2.1330   -34.4590 
   64.8750    61.3480    12.5670     9.7380    10.7370    23.6070     2.1370   -34.7220 
   65.0000    63.1540    12.7340     9.8660    10.6480    23.5730     2.1420   -34.9790 
   65.1250    62.2190    12.8070     9.9230    10.5340    23.5370     2.1490   -35.2190 
   65.2500    61.8420    12.7540     9.8990    10.4860    23.5700     2.1540   -35.4290 
   65.3750    63.2750    12.5630     9.7920    10.4240    23.6850     2.1550   -35.5970 
   65.5000    63.9150    12.2660     9.6230    10.4440    23.8260     2.1520   -35.7160 
   65.6250    63.0250    11.9280     9.4270    10.5690    23.8820     2.1510   -35.7770 
   65.7500    62.8440    11.6180     9.2410    10.7100    23.8970     2.1540   -35.7880 
   65.8750    63.9430    11.3600     9.0760    10.7550    23.9030     2.1590   -35.7470 
   66.0000    64.7280    11.1490     8.9340    10.6900    23.9160     2.1640   -35.6510 
   66.1250    64.0990    10.9870     8.8220    10.5840    23.9350     2.1640   -35.4860 
   66.2500    63.2740    10.8660     8.7420    10.3910    23.9540     2.1590   -35.2610 
   66.3750    62.4230    10.7620     8.6840    10.0990    23.9690     2.1510   -34.9790 
   66.5000    62.4860    10.6030     8.6020     9.7560    23.9750     2.1450   -34.6390 
   66.6250    62.8650    10.2470     8.3950     9.5450    23.9840     2.1480   -34.2430 
   66.7500    61.8370     9.6430     8.0070     9.3060    24.0000     2.1640   -33.8070 
   66.8750    60.5970     8.8140     7.4390     8.7380    23.9510     2.1960   -33.3430 
   67.0000    62.3380     7.8800     6.7580     7.6340    23.7180     2.2350   -32.8700 
   67.1250    70.3370     7.0200     6.0900     6.4160    23.3270     2.2720   -32.4150 
   67.2500    80.4150     6.3390     5.5300     5.8240    23.0900     2.2990   -31.9950 
   67.3750    88.3940     5.8720     5.1150     5.4940    22.9990     2.3160   -31.6270 
   67.5000    92.1640     5.6060     4.8510     5.2960    22.9390     2.3190   -31.3320 
   67.6250    91.3500     5.5160     4.7320     5.3660    22.8430     2.3070   -31.1270 
   67.7500    88.8020     5.5250     4.7040     5.3650    22.7200     2.2920   -30.9940 
   67.8750    87.7140     5.6040     4.7440     5.3600    22.6490     2.2810   -30.9320 
   68.0000    88.6060     5.7410     4.8410     5.4900    22.6500     2.2790   -30.9280 
   68.1250    88.7420     5.9380     4.9940     5.6940    22.6530     2.2860   -30.9660 
   68.2500    85.5940     6.1840     5.1850     5.6980    22.6170     2.2870   -31.0290 
   68.3750    80.7750     6.4620     5.3980     5.7910    22.5340     2.2750   -31.1040 
   68.5000    77.4790     6.7380     5.6070     6.0580    22.3990     2.2530   -31.1720 
   68.6250    75.4170     6.9600     5.7720     6.1030    22.2810     2.2320   -31.2200 
   68.7500    71.6770     7.1120     5.8830     6.1560    22.2570     2.2200   -31.2480 
   68.8750    67.5290     7.2000     5.9420     6.3290    22.3600     2.2210   -31.2510 
   69.0000    67.5220     7.2460     5.9610     6.3610    22.5510     2.2330   -31.2280 
   69.1250    72.4390     7.2680     5.9500     6.2090    22.5610     2.2530   -31.1830 
