~V
VERS. 2.00: Ver 2.00
~W
STRT.M 50.0000:
STOP.M 199.0000:
STEP.M 0.1250:
NULL. -999.2500:
UWI. F10575:
~C
DEPT.M :
DEN.GM/CC :
SP.MV :
GR.API :
RML.OHMM :
RI. :
RXO.OHMM :
CALI.CM :
~A
# ...
   72.5000     2.2010   -28.5280    47.8830    13.3260    13.2010     8.8070    28.6430 
   72.6250     2.1910   -28.4300    45.3920    13.8050    13.6960    10.4850    28.6900 
   72.7500     2.1840   -28.3450    43.2630    14.5750    14.4780    11.9060    28.7520 
   72.8750     2.1830   -28.2910    43.2800    15.4570    15.3970    12.5550    28.8890 
   73.0000     2.1860   -28.2900    44.0830    16.2390    16.2640    13.1700    29.1010 
   73.1250     2.1860   -28.3030    43.8310    16.7130    16.8780    13.1800    29.4050 
   73.2500     2.1830   -28.3020    43.1890    16.9850    17.2690    13.0260    29.7290 
   73.3750     2.1800   -28.2590    44.3850    17.2530    17.5540    13.1060    29.9870 
   73.5000     2.1830   -28.1620    46.1030    17.6370    17.8570    13.8830    30.1460 
   73.6250     2.1880   -28.0650    44.6780    18.1350    18.2350    14.9840    30.3410 
   73.7500     2.1840   -27.9750    42.6930    18.6590    18.6360    15.2960    30.5910 
   73.8750     2.1670   -27.8810    42.5310    19.0900    18.9890    15.6980    30.7770 
   74.0000     2.1480   -27.7950    42.9710    19.2890    19.2270    16.0540    30.8820 
   74.1250     2.1430   -27.6890    41.7060    19.1770    19.2770    16.4220    31.0520 
   74.2500     2.1510   -27.5970    40.9700    18.9290    19.1580    16.0860    31.3830 
   74.3750     2.1630   -27.5420    42.2060    18.6930    18.9010    15.3350    31.8000 
   74.5000     2.1740   -27.5020    42.4700    18.5420    18.5750    14.9700    32.2150 
   74.6250     2.1810   -27.4350    40.6520    18.4340    18.2930    15.0960    32.5260 
   74.7500     2.1860   -27.3500    39.7640    18.2510    18.1460    15.0180    32.7610 
   74.8750     2.1890   -27.2830    40.1210    17.9800    18.1600    14.6660    32.9440 
   75.0000     2.1860   -27.2280    40.6150    17.7540    18.2810    14.6450    33.0550 
   75.1250     2.1700   -27.2060    41.3180    17.7950    18.4060    14.8110    33.1360 
   75.2500     2.1470   -27.1850    42.9940    18.1000    18.4600    15.0650    33.2170 
   75.3750     2.1260   -27.1640    43.7810    18.5470    18.4280    15.1150    33.2870 
   75.5000     2.1160   -27.1610    42.5440    18.9180    18.3240    14.8960    33.3410 
   75.6250     2.1130   -27.1760    42.1640    18.9530    18.1660    14.3750    33.3830 
   75.7500     2.1080   -27.2000    44.8710    18.6740    17.9810    14.3550    33.3990 
   75.8750     2.1000   -27.2480    48.8440    18.2070    17.7930    14.5500    33.4020 
   76.0000     2.0940   -27.2770    49.6400    17.7340    17.6200    14.5660    33.4020 
   76.1250     2.1000   -27.3060    46.1590    17.4330    17.4950    14.2540    33.4030 
   76.2500     2.1200   -27.3710    43.1440    17.3600    17.4650    13.8090    33.4210 
   76.3750     2.1470   -27.4410    42.6840    17.5480    17.5980    13.4370    33.5060 
   76.5000     2.1760   -27.4840    42.6970    17.9660    17.9410    13.2310    33.7000 
   76.6250     2.2100   -27.5510    40.0010    18.5480    18.4770    13.6920    33.9220 
   76.7500     2.2520   -27.6430    37.3720    19.1420    19.0250    14.4980    34.1030 
   76.8750     2.2960   -27.7340    37.2540    19.5340    19.3940    15.2540    34.3580 
   77.0000     2.3230   -27.8440    38.6040    19.4530    19.4130    15.8910    34.6970 
   77.1250     2.2960   -27.9650    38.5610    18.6650    18.9530    14.8180    34.9960 
   77.2500     2.2330   -28.0790    37.8460    17.5130    18.1900    14.0310    35.2480 
   77.3750     2.1750   -28.1980    38.2770    16.4170    17.2910    13.6010    35.5220 
   77.5000     2.1510   -28.3260    39.7460    15.7170    16.4280    13.1640    35.9410 
   77.6250     2.1490   -28.4640    39.9940    15.6190    15.7930    12.7240    36.4210 
   77.7500     2.1410   -28.5920    39.6310    15.8520    15.4490    12.4030    36.7820 
   77.8750     2.1280   -28.6880    38.6010    16.1630    15.4090    12.0560    36.9790 
   78.0000     2.1210   -28.7660    37.4260    16.4280    15.6210    11.7300    37.0610 
   78.1250     2.1290   -28.8020    37.3650    16.6870    16.0010    12.0670    37.0930 
   78.2500     2.1440   -28.7870    38.0840    16.9750    16.3930    12.4810    37.1280 
   78.3750     2.1590   -28.7580    38.1880    17.2350    16.7070    12.3230    37.1790 
   78.5000     2.1700   -28.7540    36.9270    17.3630    16.8980    12.1720    37.2430 
   78.6250     2.1770   -28.6930    35.7190    17.2890    16.9260    12.2100    37.3160 
   78.7500     2.1750   -28.6100    34.8420    17.1190    16.8050    12.4230    37.3970 
   78.8750     2.1660   -28.5640    34.2230    16.9380    16.5500    12.7110    37.4890 
   79.0000     2.1560   -28.5460    33.3510    16.7800    16.2070    12.9220    37.5880 
   79.1250     2.1530   -28.5260    33.2040    16.6180    15.8540    12.8250    37.6800 
   79.2500     2.1550   -28.5430    35.2550    16.3910    15.5650    12.6330    37.8010 
   79.3750     2.1600   -28.6150    37.7950    16.0680    15.3700    12.4800    37.9380 
   79.5000     2.1640   -28.6800    37.8270    15.6950    15.2570    12.4830    38.0900 
   79.6250     2.1660   -28.7570    35.3050    15.4120    15.1650    12.5500    38.1820 
   79.7500     2.1630   -28.8700    35.2670    15.2850    15.0280    12.5100    38.2150 
   79.8750     2.1590   -28.9920    37.3650    15.2930    14.8210    12.4080    38.2190 
   80.0000     2.1540   -29.1080    37.2550    15.3370    14.5680    12.2200    38.2190 
   80.1250     2.1510   -29.2220    33.9040    15.3080    14.3350    12.0220    38.2190 
   80.2500     2.1470   -29.3300    32.7160    15.2250    14.1670    11.9170    38.2190 
   80.3750     2.1460   -29.4110    35.9510    15.1550    14.0730    11.9160    38.2190 
   80.5000     2.1490   -29.4680    40.1910    15.1480    14.0340    12.1370    38.2190 
   80.6250     2.1530   -29.5150    40.5960    15.1980    14.0210    12.1390    38.2190 
   80.7500     2.1530   -29.5290    39.1100    15.2280    13.9920    12.2100    38.2190 
   80.8750     2.1450   -29.5200    38.5170    15.1580    13.9090    12.1600    38.2190 
   81.0000     2.1350   -29.4920    39.0490    14.9420    13.7380    11.9030    38.2190 
   81.1250     2.1300   -29.4550    37.9130    14.6150    13.4400    11.7200    38.2190 
   81.2500     2.1310   -29.4220    36.1920    14.2830    13.0570    11.5400    38.2190 
   81.3750     2.1340   -29.3790    35.5690    14.0020    12.6500    10.9230    38.2190 
   81.5000     2.1390   -29.3460    35.6430    13.7970    12.2840    10.1330    38.2190 
   81.6250     2.1480   -29.3260    36.2110    13.6410    12.0280     9.7200    38.2190 
   81.7500     2.1540   -29.3120    37.6560    13.4560    11.8780     9.5090    38.2190 
   81.8750     2.1500   -29.2750    39.1130    13.2260    11.8060     9.3000    38.2190 
   82.0000     2.1380   -29.2360    39.1920    12.9810    11.7620     8.9970    38.2190 
   82.1250     2.1290   -29.2390    37.9760    12.7620    11.6900     8.7090    38.2190 
   82.2500     2.1310   -29.2450    37.5450    12.5840    11.5770     8.4490    38.2190 
   82.3750     2.1380   -29.2240    37.8130    12.4540    11.4270     8.3630    38.2190 
   82.5000     2.1440   -29.1990    38.6850    12.3620    11.2560     8.3810    38.2190 
   82.6250     2.1410   -29.2140    40.0000    12.2310    11.0930     8.3550    38.2190 
   82.7500     2.1310   -29.2300    40.1550    12.0230    10.9520     8.1870    38.2190 
   82.8750     2.1160   -29.2540    38.7790    11.7730    10.8260     8.0840    38.2190 
   83.0000     2.1000   -29.2720    37.3390    11.5490    10.7050     7.9410    38.2190 
   83.1250     2.0960   -29.2910    36.7170    11.4720    10.5910     7.6720    38.2190 
   83.2500     2.1010   -29.3150    36.4650    11.5600    10.4980     7.4160    38.2190 
   83.3750     2.1120   -29.3300    35.9600    11.7730    10.4520     7.3500    38.2190 
   83.5000     2.1230   -29.3580    35.7860    12.0320    10.4730     7.6560    38.2190 
   83.6250     2.1290   -29.3620    35.9560    12.2320    10.5700     8.2020    38.2190 
