~V
VERS. 2.00: Ver 2.00
~W
STRT.M 50.0000:
STOP.M 222.0000:
STEP.M 0.1250:
NULL. -999.2500:
UWI. F10580:
~C
DEPT.M :
DEN.GM/CC :
SP.MV :
GR.API :
RML.OHMM :
RI. :
RXO.OHMM :
CALI.CM :
~A
# ...
  128.7500     2.4810   -16.0740    61.7150    26.0720    25.3320    24.5250    24.1380 
  128.8750     2.5070   -16.1120    62.1710    26.8120    25.6430    24.1880    24.1370 
  129.0000     2.5290   -16.1560    62.9270    28.5650    26.8890    24.0720    24.1360 
  129.1250     2.5360   -16.1990    61.4800    31.0440    28.9530    25.2210    24.1340 
  129.2500     2.5290   -16.2230    59.4740    33.6140    31.2950    27.4560    24.1360 
  129.3750     2.5120   -16.2380    58.4830    35.7900    33.4320    29.0440    24.1370 
  129.5000     2.4850   -16.2540    58.3600    37.2050    34.9370    28.9260    24.1380 
  129.6250     2.4600   -16.2690    59.2470    37.5940    35.4870    31.0460    24.1380 
  129.7500     2.4490   -16.2870    60.7130    37.2260    35.3220    32.4620    24.1380 
  129.8750     2.4450   -16.3150    63.4300    36.3230    34.6450    30.5550    24.1370 
  130.0000     2.4390   -16.3450    66.7670    35.1830    33.7080    26.3800    24.1360 
  130.1250     2.4290   -16.3770    68.0360    34.2410    32.8570    24.2910    24.1330 
  130.2500     2.4250   -16.4210    67.6290    33.7840    32.3600    24.5890    24.1330 
  130.3750     2.4250   -16.4790    65.2390    33.9290    32.3520    25.4580    24.1340 
  130.5000     2.4180   -16.5400    62.6540    34.6380    32.8570    27.7690    24.1350 
  130.6250     2.4070   -16.5920    62.4640    35.7310    33.7950    30.8030    24.1340 
  130.7500     2.4000   -16.6350    64.8090    36.8270    34.8270    33.1970    24.1360 
  130.8750     2.3980   -16.6640    66.5900    37.7130    35.7290    35.0750    24.1370 
  131.0000     2.3940   -16.6810    64.7740    38.3350    36.4010    36.3360    24.1380 
  131.1250     2.3850   -16.6780    62.1380    38.7260    36.8390    33.5330    24.1330 
  131.2500     2.3870   -16.6600    62.1590    38.9700    37.1300    32.0130    24.1000 
  131.3750     2.4070   -16.6270    63.1660    39.0490    37.2830    31.2250    24.0070 
  131.5000     2.4320   -16.5770    62.8400    38.9360    37.2880    31.7140    23.8760 
  131.6250     2.4490   -16.5160    61.3800    38.7010    37.1750    32.5750    23.7170 
  131.7500     2.4580   -16.4520    61.7180    38.6300    37.1450    30.4390    23.4500 
  131.8750     2.4630   -16.3830    62.6230    39.0180    37.4340    26.3460    23.0670 
  132.0000     2.4650   -16.3210    62.4090    40.0040    38.1940    24.4860    22.7900 
  132.1250     2.4660   -16.2800    62.3410    41.3940    39.3590    27.6490    22.7080 
  132.2500     2.4720   -16.2570    61.6080    42.5110    40.4140    33.3790    22.6990 
  132.3750     2.4840   -16.2380    59.5140    42.7870    40.8550    38.7090    22.7200 
  132.5000     2.4990   -16.2410    57.5850    42.0160    40.4020    36.3170    22.8350 
  132.6250     2.5110   -16.2660    60.0300    40.5750    39.2200    29.8060    23.2030 
  132.7500     2.5180   -16.2990    64.1980    39.4440    38.1260    28.3510    23.7080 
  132.8750     2.5240   -16.3420    66.5220    39.2360    37.7090    29.0840    24.0700 
  133.0000     2.5320   -16.3880    66.4790    40.1460    38.2600    29.9730    24.2020 
  133.1250     2.5410   -16.4340    63.4140    42.0020    39.7860    32.5830    24.2130 
  133.2500     2.5420   -16.4830    58.9780    44.0410    41.6590    37.8250    24.2140 
  133.3750     2.5360   -16.5400    55.6010    45.7130    43.3400    40.8500    24.2150 
  133.5000     2.5240   -16.5950    56.0810    46.7280    44.4580    39.0080    24.2150 
  133.6250     2.5100   -16.6410    59.0770    47.0450    44.8880    36.5420    24.2140 
  133.7500     2.4970   -16.6900    60.0300    46.9960    44.9470    37.4620    24.2120 
  133.8750     2.4820   -16.7480    57.8400    46.7780    44.8640    40.1310    24.2130 
  134.0000     2.4700   -16.8090    54.7240    46.5950    44.8560    42.1340    24.2140 
  134.1250     2.4720   -16.8690    54.4540    46.7570    45.1930    40.6420    24.2150 
  134.2500     2.4870   -16.9160    57.0490    47.4200    45.9770    40.4110    24.2150 
  134.3750     2.5110   -16.9450    59.6440    48.5900    47.2130    41.9010    24.2150 
  134.5000     2.5340   -16.9680    59.3290    49.9990    48.7130    45.5510    24.2140 
  134.6250     2.5450   -16.9710    56.7160    50.9820    49.9470    53.1940    24.2110 
  134.7500     2.5400   -16.9460    55.5760    51.0170    50.3960    53.4540    24.2040 
  134.8750     2.5230   -16.8900    56.9490    49.9680    49.8310    50.0970    24.1890 
  135.0000     2.5070   -16.8150    59.7100    48.1310    48.4120    46.0900    24.1580 
  135.1250     2.5030   -16.7310    62.4650    46.0540    46.5630    42.0770    24.1430 
  135.2500     2.5060   -16.6470    63.3170    44.2170    44.8050    41.4820    24.1360 
  135.3750     2.5040   -16.5630    61.8460    42.7170    43.3050    41.5880    24.1270 
  135.5000     2.4870   -16.4790    60.7520    41.4470    42.0120    40.0290    24.1090 
  135.6250     2.4540   -16.4140    61.5560    40.2760    40.8070    38.3850    24.0770 
  135.7500     2.4210   -16.3630    62.1830    39.1790    39.6480    36.3050    24.0640 
  135.8750     2.4040   -16.3310    61.8280    38.2930    38.6560    36.1020    24.0600 
  136.0000     2.4110   -16.2960    61.1740    37.8420    38.0450    34.9760    24.0600 
  136.1250     2.4330   -16.2660    61.3060    38.2080    38.1820    32.8460    24.0600 
  136.2500     2.4580   -16.2380    61.3380    39.4560    39.1520    32.3410    24.0600 
  136.3750     2.4880   -16.2290    61.0080    41.6150    41.0110    33.3620    24.0600 
  136.5000     2.5280   -16.2410    60.0320    44.5560    43.6780    36.6790    24.0600 
  136.6250     2.5730   -16.2830    58.0280    47.9780    46.9280    41.1910    24.0600 
  136.7500     2.6080   -16.3360    56.9290    51.2600    50.1630    45.8100    24.0600 
  136.8750     2.6270   -16.3940    57.3190    53.8400    52.8130    51.9610    24.0600 
  137.0000     2.6360   -16.4670    58.7410    55.2240    54.3390    54.8470    24.0600 
  137.1250     2.6370   -16.5360    59.3570    54.8440    54.1430    51.6950    24.0600 
  137.2500     2.6250   -16.6050    58.4300    53.0060    52.5070    50.0100    24.0600 
  137.3750     2.5990   -16.6690    57.7960    50.1040    49.8100    46.0660    24.0600 
  137.5000     2.5670   -16.7050    56.7460    46.7350    46.6130    40.6220    24.0600 
  137.6250     2.5400   -16.7250    52.9650    43.6150    43.5660    33.9320    24.0600 
  137.7500     2.5210   -16.7300    50.0330    41.0930    41.0240    31.0620    24.0570 
  137.8750     2.5080   -16.7340    50.7510    39.1210    38.9920    31.8210    24.0350 
  138.0000     2.5040   -16.7360    53.2000    37.3980    37.2500    33.0480    23.9510 
  138.1250     2.5100   -16.7360    53.3920    35.5610    35.5080    31.8600    23.7990 
  138.2500     2.5100   -16.7390    54.4180    33.5970    33.6970    29.6220    23.6060 
  138.3750     2.4940   -16.7460    58.3830    31.7980    32.0080    26.2840    23.4320 
  138.5000     2.4660   -16.7720    61.9870    30.5540    30.7270    22.1150    23.3360 
  138.6250     2.4480   -16.7970    61.4210    30.3060    30.2170    21.2430    23.3280 
  138.7500     2.4560   -16.8330    57.8840    30.8870    30.4080    24.2710    23.4270 
  138.8750     2.4920   -16.8700    55.0450    31.9770    31.1010    27.8340    23.6810 
  139.0000     2.5410   -16.9130    55.9270    33.0940    31.9230    28.7820    24.0460 
  139.1250     2.5740   -16.9520    60.5620    33.6640    32.3780    27.1530    24.4030 
  139.2500     2.5750   -17.0010    62.8920    33.6350    32.3350    27.4940    24.5480 
  139.3750     2.5510   -17.0550    59.8700    33.3300    32.0080    28.9540    24.5810 
  139.5000     2.5200   -17.1140    54.7700    33.3170    31.8480    30.7070    24.5820 
  139.6250     2.5080   -17.1740    54.2070    34.2850    32.4290    31.1360    24.5820 
  139.7500     2.5220   -17.2390    58.9080    36.2310    33.7820    31.9900    24.5820 
  139.8750     2.5590   -17.3230    63.1280    38.7850    35.6330    35.5220    24.5820 
