~V
VERS. 2.00: Ver 2.00
~W
STRT.M 52.0000:
STOP.M 208.0000:
STEP.M 0.1250:
NULL. -999.2500:
UWI. F10572:
~C
DEPT.M :
GR.API :
RML.OHMM :
RI. :
RXO.OHMM :
CALI.CM :
DEN.GM/CC :
SP.MV :
~A
# ...
  119.5000    48.2410    65.1620    55.9720    57.9350    23.9880     2.4880   -20.8980 
  119.6250    49.5100    65.8060    56.4730    58.3690    24.0390     2.4920   -20.7980 
  119.7500    48.0170    67.1250    57.4710    57.1950    23.9560     2.5120   -20.7310 
  119.8750    45.9220    69.5790    59.3920    55.3590    23.8010     2.5470   -20.6820 
  120.0000    45.6560    73.1900    62.3540    64.2140    23.7170     2.5880   -20.6420 
  120.1250    47.6770    77.0860    65.7860    75.8610    23.6780     2.6200   -20.6020 
  120.2500    48.7960    79.4430    68.2290    80.8800    23.6720     2.6280   -20.5630 
  120.3750    48.7430    78.7190    68.3740    81.4060    23.6910     2.6060   -20.5500 
  120.5000    48.4460    74.4480    65.6190    86.0320    23.7210     2.5630   -20.5690 
  120.6250    48.6230    67.5670    60.3470    78.6960    23.7340     2.5140   -20.5670 
  120.7500    49.2800    60.5550    54.5540    59.4770    23.7570     2.4770   -20.5110 
  120.8750    49.5770    54.7290    49.4940    43.7300    23.8620     2.4590   -20.4180 
  121.0000    48.7050    50.5750    45.7710    38.0720    24.0420     2.4580   -20.3370 
  121.1250    46.6470    48.2640    43.6730    38.1340    24.1500     2.4680   -20.3140 
  121.2500    46.1890    47.1810    42.7330    39.6010    24.1950     2.4790   -20.3250 
  121.3750    49.2000    46.9170    42.6140    38.8370    24.1720     2.4870   -20.3350 
  121.5000    52.8100    47.0490    42.9210    38.5390    24.1410     2.4890   -20.3250 
  121.6250    53.5320    47.2250    43.2880    38.4860    24.1270     2.4840   -20.2960 
  121.7500    51.6820    47.2480    43.4840    39.1940    24.1370     2.4800   -20.2760 
  121.8750    49.7350    47.0490    43.4260    38.8020    24.0910     2.4800   -20.2560 
  122.0000    49.7980    46.6140    43.0990    40.2900    23.9960     2.4860   -20.2330 
  122.1250    50.2230    46.0150    42.5460    40.8910    23.9910     2.4890   -20.2380 
  122.2500    49.2090    45.4850    41.9740    41.4700    24.0500     2.4840   -20.2700 
  122.3750    48.4760    45.2940    41.6060    40.6190    24.1140     2.4680   -20.3250 
  122.5000    49.8620    45.7930    41.7390    41.0400    24.1680     2.4420   -20.3920 
  122.6250    51.0410    47.6060    42.9100    42.1920    24.2320     2.4150   -20.4790 
  122.7500    49.7560    50.8780    45.3120    45.5710    24.2710     2.4040   -20.5870 
  122.8750    48.1490    55.6480    49.0650    51.6540    24.2910     2.4260   -20.7230 
  123.0000    47.8160    61.5050    53.9260    58.5230    24.3510     2.4900   -20.8740 
  123.1250    46.6730    67.0810    58.8770    72.7020    24.3450     2.5780   -21.0370 
  123.2500    45.6830    70.4800    62.2680    86.7500    24.2930     2.6340   -21.2100 
  123.3750    46.8910    70.5760    62.9660    90.0420    24.2320     2.6310   -21.3640 
  123.5000    47.9780    67.8320    61.0380    81.7850    24.2120     2.5820   -21.4900 
  123.6250    47.0900    64.1550    57.7870    68.4390    24.2460     2.5300   -21.5970 
  123.7500    47.5160    61.5170    55.0700    56.6080    24.3050     2.5090   -21.7100 
  123.8750    49.0850    60.3960    53.5480    50.3860    24.3560     2.5280   -21.8410 
  124.0000    49.0890    60.2560    53.0020    53.2410    24.3880     2.5700   -21.9600 
  124.1250    47.1380    59.8330    52.5340    64.2590    24.4450     2.5900   -21.9920 
  124.2500    47.2140    58.2610    51.3240    63.2060    24.5160     2.5740   -21.9510 
  124.3750    48.3790    55.5790    49.2480    49.4660    24.5700     2.5360   -21.8640 
  124.5000    48.4670    52.4720    46.7250    39.5450    24.5850     2.4930   -21.7770 
  124.6250    47.5290    50.0480    44.5810    37.1750    24.5610     2.4560   -21.7190 
  124.7500    46.6160    48.9790    43.4490    39.8890    24.5020     2.4330   -21.6770 
  124.8750    46.0890    49.5170    43.6180    42.8170    24.3380     2.4360   -21.6290 
  125.0000    46.7000    51.4990    45.0140    39.2570    23.9580     2.4730   -21.5700 
  125.1250    48.1220    54.3820    47.2300    38.4620    23.4910     2.5400   -21.4980 
  125.2500    48.4790    57.0270    49.3300    43.6120    23.3260     2.6010   -21.4140 
  125.3750    47.9810    58.5720    50.6030    56.0080    23.4140     2.6290   -21.3440 
  125.5000    47.2630    58.6150    50.6930    58.4890    23.4830     2.6210   -21.3010 
  125.6250    46.9560    57.3600    49.6840    49.3760    23.2900     2.6010   -21.2870 
  125.7500    47.0900    55.8360    48.3420    40.9300    22.9880     2.6000   -21.2680 
  125.8750    46.7920    54.5270    47.0690    36.1670    22.6000     2.6220   -21.2160 
  126.0000    45.6950    53.3490    45.8830    36.0460    22.3020     2.6540   -21.1670 
  126.1250    44.3710    51.5300    44.2700    40.2660    22.1660     2.6650   -21.1970 
  126.2500    44.3480    48.5290    41.7980    41.7190    22.2460     2.6460   -21.3130 
  126.3750    45.3630    44.4560    38.4930    38.2270    22.5840     2.6080   -21.4840 
  126.5000    46.7890    40.0350    34.8580    31.1810    23.1110     2.5670   -21.6430 
  126.6250    48.8140    36.2570    31.6550    25.4790    23.6620     2.5360   -21.7420 
  126.7500    50.8810    33.5140    29.2490    23.6120    24.0260     2.5140   -21.8140 
  126.8750    52.2170    31.8450    27.7290    24.2050    24.1450     2.4990   -21.9220 
  127.0000    52.3140    31.0980    27.0220    26.0020    24.1410     2.4910   -22.0760 
  127.1250    51.3480    31.1840    27.0760    24.6630    24.1200     2.4970   -22.1860 
  127.2500    49.3750    31.8110    27.6090    20.5170    24.0940     2.5240   -22.2230 
  127.3750    47.1460    32.8070    28.4400    20.3680    24.0470     2.5660   -22.1860 
  127.5000    45.5590    33.9430    29.3550    25.6260    24.0470     2.6080   -22.1130 
  127.6250    44.8810    34.8820    30.0810    31.9000    24.1220     2.6310   -22.0370 
  127.7500    45.0890    35.3430    30.4100    35.4400    24.1790     2.6350   -21.9540 
  127.8750    45.3150    35.0830    30.1460    33.2110    24.1980     2.6310   -21.8310 
  128.0000    45.2830    33.9470    29.1410    30.0030    24.2030     2.6310   -21.6370 
  128.1250    46.2360    31.8070    27.2860    29.1400    24.2040     2.6440   -21.4080 
  128.2500    48.0790    29.0310    24.9300    29.2510    24.2010     2.6560   -21.1850 
  128.3750    49.5960    25.9870    22.4030    25.4520    24.1870     2.6510   -20.9850 
  128.5000    48.6880    23.1100    20.0400    19.7470    24.1420     2.6230   -20.8310 
  128.6250    46.2210    20.8970    18.2040    13.7850    24.0960     2.5790   -20.7380 
  128.7500    45.5480    19.4740    16.9640    11.6260    24.0260     2.5360   -20.6820 
  128.8750    46.7530    18.8680    16.3430    11.9260    23.9110     2.5060   -20.6660 
  129.0000    47.7730    18.9880    16.2890    13.0570    23.8060     2.4890   -20.6970 
  129.1250    47.5800    19.7190    16.7290    14.3610    23.7570     2.4850   -20.7730 
  129.2500    48.3520    20.7040    17.3870    15.1720    23.5700     2.4880   -20.9040 
  129.3750    49.9500    21.6580    18.0500    15.1740    23.1770     2.4970   -21.1090 
  129.5000    50.5090    22.3180    18.5300    14.9730    22.8260     2.5100   -21.3200 
  129.6250    49.2910    22.4360    18.6560    15.4150    22.8310     2.5190   -21.4660 
  129.7500    47.9930    22.1260    18.4990    17.4190    23.2200     2.5190   -21.5850 
  129.8750    47.4440    21.6180    18.1920    19.8360    23.7660     2.5130   -21.7040 
  130.0000    47.6300    21.2570    17.9460    19.8120    24.1220     2.5070   -21.8200 
  130.1250    48.4270    21.5110    18.0730    19.4240    24.2760     2.5100   -21.8730 
  130.2500    49.1470    22.5170    18.6990    21.0740    24.2770     2.5250   -21.8290 
  130.3750    49.2610    24.2280    19.8380    22.6740    24.1980     2.5500   -21.6890 
  130.5000    48.4910    26.2650    21.2830    25.5840    23.9900     2.5770   -21.5210 
  130.6250    47.7150    27.6370    22.3800    28.8940    23.7980     2.5890   -21.3670 
