~V
VERS. 2.00: Ver 2.00
~W
STRT.M 50.0000:
STOP.M 215.0000:
STEP.M 0.1250:
NULL. -999.2500:
UWI. F10588:
~C
DEPT.M :
DEN.GM/CC :
GR.API :
RML.OHMM :
RI. :
RXO.OHMM :
CALI.CM :
SP.MV :
~A
# ...
  106.2500     2.0870    53.7900    63.6630    54.8630    60.7620    23.6060   -12.4140 
  106.3750     2.0920    54.4810    61.7260    53.3870    65.1380    23.6910   -12.5670 
  106.5000     2.0980    56.3360    59.6070    51.7530    63.7440    23.7450   -12.7130 
  106.6250     2.0990    56.7690    57.0490    49.7430    57.0950    23.7870   -12.9140 
  106.7500     2.0920    55.8050    54.1730    47.4450    51.8290    23.7850   -13.1000 
  106.8750     2.0820    54.7810    51.2170    45.0490    48.3580    23.7490   -13.3000 
  107.0000     2.0750    54.2060    48.5100    42.8180    44.4940    23.7250   -13.5060 
  107.1250     2.0790    54.7950    46.4960    41.1210    40.6280    23.7710   -13.6990 
  107.2500     2.0890    56.0920    45.2530    40.0510    39.9360    23.8380   -13.8780 
  107.3750     2.0990    57.5710    44.7570    39.6150    40.3080    23.8550   -14.0330 
  107.5000     2.1040    57.8460    44.8680    39.7270    40.7590    23.8790   -14.1760 
  107.6250     2.1070    56.8290    45.3670    40.2430    40.9560    23.8960   -14.3000 
  107.7500     2.1120    57.5520    45.8470    40.8140    41.9300    23.7750   -14.4050 
  107.8750     2.1200    57.9780    46.0370    41.1860    41.6650    23.5420   -14.5050 
  108.0000     2.1290    57.0510    45.8110    41.2040    40.6180    23.3620   -14.6150 
  108.1250     2.1340    56.8470    45.1690    40.8130    39.8910    23.3250   -14.7090 
  108.2500     2.1360    58.6880    44.3670    40.2120    38.8650    23.4030   -14.8160 
  108.3750     2.1340    61.3060    43.6430    39.6020    37.0280    23.4700   -14.9000 
  108.5000     2.1290    62.8530    43.2140    39.1830    36.2350    23.4700   -14.9870 
  108.6250     2.1230    63.8710    43.2760    39.1520    37.3680    23.4990   -15.0290 
  108.7500     2.1230    62.2120    43.7400    39.4730    39.0860    23.6240   -15.1050 
  108.8750     2.1280    58.5680    44.4900    40.0730    40.6550    23.8000   -15.1490 
  109.0000     2.1320    55.4830    45.3610    40.8260    42.7790    24.0690   -15.1810 
  109.1250     2.1270    55.0610    46.1740    41.5720    44.5100    24.3660   -15.1660 
  109.2500     2.1130    57.0760    46.8610    42.2110    44.9810    24.5650   -15.0620 
  109.3750     2.1000    58.8570    47.4450    42.7360    45.0980    24.6390   -14.8850 
  109.5000     2.0960    58.4400    47.9720    43.1760    44.9650    24.6510   -14.5880 
  109.6250     2.1040    58.5820    48.4610    43.5270    46.1390    24.6330   -14.2140 
  109.7500     2.1130    61.3130    48.9130    43.7850    47.5800    24.6090   -13.7060 
  109.8750     2.1150    64.1680    49.3340    43.9480    48.8580    24.6010   -13.1790 
  110.0000     2.1120    64.3720    49.7760    44.0710    49.8580    24.6040   -12.6350 
  110.1250     2.1080    62.3510    50.3940    44.3060    49.6240    24.6010   -12.1310 
  110.2500     2.1080    58.8580    51.3190    44.8020    48.8050    24.5920   -11.6790 
  110.3750     2.1110    56.1350    52.6300    45.6520    48.7640    24.5820   -11.2910 
  110.5000     2.1170    57.8930    54.2980    46.8540    49.9670    24.5370   -10.9920 
  110.6250     2.1240    63.2270    56.1610    48.2980    51.7590    24.3890   -10.7830 
  110.7500     2.1260    64.4780    57.9110    49.7200    52.4350    24.1920   -10.6470 
  110.8750     2.1200    61.2860    59.3270    50.9150    51.5220    24.0790   -10.5240 
  111.0000     2.1060    57.4980    60.3070    51.7580    50.1130    24.0960   -10.3810 
  111.1250     2.0870    55.5830    60.8460    52.1990    50.8270    24.2400   -10.1990 
  111.2500     2.0730    53.6180    61.1620    52.4070    51.9810    24.4030   -10.0260 
  111.3750     2.0700    51.5930    61.4000    52.5030    52.4430    24.4820    -9.8400 
  111.5000     2.0800    51.4560    61.6740    52.5920    51.1980    24.4460    -9.7030 
  111.6250     2.1070    52.7620    62.0520    52.7400    48.9680    24.2960    -9.5740 
  111.7500     2.1440    53.2990    62.4670    52.9100    48.2310    24.1260    -9.5280 
  111.8750     2.1870    53.2920    62.8050    53.0150    49.3960    24.0390    -9.5370 
  112.0000     2.2300    54.7730    62.9820    52.9800    50.5490    23.9900    -9.6100 
  112.1250     2.2700    55.8280    63.1100    52.8700    49.9310    23.9480    -9.7900 
  112.2500     2.3090    52.8180    63.6230    53.0180    47.6460    23.9940    -9.9940 
  112.3750     2.3450    48.5800    64.9470    53.7870    48.2910    24.0490   -10.2630 
  112.5000     2.3770    47.8920    67.2040    55.3440    47.5800    24.0310   -10.5370 
  112.6250     2.4060    49.9540    69.8690    57.4100    48.3210    23.9400   -10.8650 
  112.7500     2.4330    48.9780    71.5980    58.9850    51.0260    23.9380   -11.1530 
  112.8750     2.4510    45.5760    71.1430    59.0870    57.1390    24.0370   -11.4100 
  113.0000     2.4540    43.7550    67.8880    57.1270    60.7820    24.1630   -11.6230 
  113.1250     2.4360    45.0840    62.1870    53.1540    53.2820    24.1900   -11.7660 
  113.2500     2.4110    47.3730    55.9540    48.5330    47.0160    24.1360   -11.8730 
  113.3750     2.3910    48.4850    50.3220    44.1630    43.0310    24.0740   -11.9290 
  113.5000     2.3840    47.2280    45.7670    40.5150    39.4670    24.0370   -11.9210 
  113.6250     2.3870    44.4780    42.3750    37.7990    37.5450    23.9450   -11.8340 
  113.7500     2.3940    44.8200    39.6840    35.7430    35.9680    23.7470   -11.7100 
  113.8750     2.3940    49.4720    37.4940    34.2110    34.8400    23.5200   -11.5820 
  114.0000     2.3770    54.9800    35.7230    33.1170    35.6540    23.3450   -11.4570 
  114.1250     2.3270    56.9550    34.3410    32.4210    34.7170    23.3190   -11.3180 
  114.2500     2.2550    55.3020    33.0080    31.7850    32.3250    23.4390   -11.2120 
  114.3750     2.1770    53.0420    31.3500    30.8150    29.7600    23.7440   -11.1200 
  114.5000     2.1200    52.7790    29.1070    29.1860    27.1770    24.0710   -11.0960 
  114.6250     2.1180    55.1620    26.1760    26.7020    25.8290    24.3270   -11.1260 
  114.7500     2.1730    59.1180    22.9180    23.7160    23.7520    24.3930   -11.2480 
  114.8750     2.2600    64.1110    21.4690    20.6490    20.8090    24.2520   -11.3970 
  115.0000     2.3450    69.2110    19.1040    17.9310    18.8960    24.0310   -11.6140 
  115.1250     2.4010    72.9890    16.9250    15.8660    17.1370    23.9690   -11.8900 
  115.2500     2.4340    75.8730    15.3470    14.2980    13.5210    24.0050   -12.1780 
  115.3750     2.4480    77.3820    14.2200    13.1200    11.5460    24.0320   -12.4980 
  115.5000     2.4390    75.9390    13.4540    12.2750    12.7880    24.0360   -12.7910 
  115.6250     2.4080    73.0350    13.1120    11.8170    13.7570    24.0380   -13.0810 
  115.7500     2.3760    71.8580    13.2770    11.7660    12.3130    24.0440   -13.3160 
  115.8750     2.3640    70.8120    14.1560    12.2460    11.2860    24.0440   -13.5320 
  116.0000     2.3840    68.4560    15.8920    13.3630    13.7370    24.0230   -13.6880 
  116.1250     2.4370    65.5970    18.5820    15.2500    19.2320    23.9810   -13.7900 
  116.2500     2.4940    62.1890    21.8400    17.6780    19.5290    23.9610   -13.8340 
  116.3750     2.5350    55.8740    23.2220    20.3850    21.2970    23.9570   -13.8270 
  116.5000     2.5560    49.3040    25.5940    23.0410    26.7710    23.9570   -13.7910 
  116.6250     2.5630    48.6860    28.4300    25.4510    28.8740    23.9570   -13.7130 
  116.7500     2.5720    51.8780    31.4850    27.9040    27.7370    23.9570   -13.6070 
  116.8750     2.5920    53.7170    35.0370    30.6940    29.2070    23.9570   -13.5020 
  117.0000     2.6100    53.4200    38.9660    33.8070    37.6390    23.9570   -13.3750 
  117.1250     2.6020    53.1890    42.6030    36.7840    48.7080    23.9570   -13.2520 
  117.2500     2.5700    53.2110    45.2470    39.0450    55.7210    23.9570   -13.1700 
  117.3750     2.5270    52.6380    46.5500    40.2250    52.0580    23.9570   -13.1060 
