~V
VERS. 2.00: Ver 2.00
~W
STRT.M 55.0000:
STOP.M 211.0000:
STEP.M 0.1250:
NULL. -999.2500:
UWI. F10586:
~C
DEPT.M :
GR.API :
RML.OHMM :
RI. :
RXO.OHMM :
CALI.CM :
DEN.GM/CC :
SP.MV :
~A
# ...
  122.5000    62.5150    37.3180    32.5630    33.6680    23.3910     2.5710    -6.7520 
  122.6250    55.9730    39.2470    34.3750    38.4550    23.2870     2.5950    -6.8110 
  122.7500    51.0600    39.8520    35.2630    40.7970    23.2670     2.5840    -6.8390 
  122.8750    49.7930    39.4140    35.2340    38.6930    23.2880     2.5660    -6.8780 
  123.0000    52.3310    38.7520    34.8190    32.1990    23.3270     2.5590    -6.9480 
  123.1250    55.3430    38.8350    34.8010    28.1490    23.3640     2.5650    -6.9780 
  123.2500    56.3990    39.7680    35.4390    27.2900    23.3950     2.5730    -7.0130 
  123.3750    55.8690    41.1730    36.5530    30.1980    23.4120     2.5750    -7.1040 
  123.5000    55.5680    42.5010    37.7470    34.4940    23.4300     2.5720    -7.2100 
  123.6250    55.5420    43.2650    38.5800    37.5040    23.4530     2.5710    -7.2540 
  123.7500    54.6570    43.5990    39.0370    37.4940    23.4730     2.5700    -7.3100 
  123.8750    53.9360    43.8950    39.3760    37.0810    23.4640     2.5630    -7.3630 
  124.0000    54.0460    44.5850    39.9650    38.2850    23.4240     2.5480    -7.3870 
  124.1250    54.2760    46.0070    41.1650    40.3990    23.3990     2.5340    -7.3960 
  124.2500    53.6100    47.9460    42.8720    42.7200    23.3820     2.5340    -7.4040 
  124.3750    52.3030    50.0730    44.8390    45.2610    23.3610     2.5520    -7.3650 
  124.5000    50.6400    51.9540    46.6870    49.2990    23.3270     2.5810    -7.2890 
  124.6250    48.3530    52.9100    47.8140    54.0220    23.2830     2.6030    -7.2590 
  124.7500    47.3600    52.6140    47.8840    56.4330    23.2640     2.6040    -7.2200 
  124.8750    49.8010    50.9220    46.7250    54.3810    23.2600     2.5860    -7.1250 
  125.0000    55.0000    48.0560    44.4740    48.6270    23.2630     2.5570    -7.0170 
  125.1250    59.0290    44.6060    41.5700    42.1840    23.2750     2.5320    -6.9370 
  125.2500    59.1980    41.4640    38.7910    36.9400    23.3040     2.5150    -6.8270 
  125.3750    56.7850    39.1540    36.6240    33.2380    23.3640     2.5070    -6.7270 
  125.5000    52.7490    37.8840    35.3180    30.7310    23.4620     2.5040    -6.6430 
  125.6250    48.9380    37.6150    34.9510    30.3920    23.5520     2.5020    -6.4990 
  125.7500    47.8660    37.7400    35.0660    30.8560    23.5270     2.4990    -6.3800 
  125.8750    49.8800    37.8090    35.2910    31.4170    23.3790     2.4980    -6.2890 
  126.0000    53.0380    37.5270    35.3250    31.8850    23.1860     2.4980    -6.1660 
  126.1250    54.8590    36.8250    35.0110    32.3750    23.0890     2.5010    -6.0140 
  126.2500    55.0610    36.0340    34.5490    31.2100    23.0600     2.5050    -5.8800 
  126.3750    54.4640    35.4420    34.1620    28.7480    23.0590     2.5070    -5.7480 
  126.5000    52.7570    35.1790    33.9870    27.1820    23.0610     2.5060    -5.6130 
  126.6250    51.2210    35.1770    33.9970    27.2300    23.0640     2.5050    -5.5300 
  126.7500    49.6360    35.1450    33.9710    27.5470    23.0660     2.5050    -5.4170 
  126.8750    47.7240    34.8760    33.7230    27.6070    23.0660     2.5100    -5.3020 
  127.0000    47.7890    34.2720    33.1450    27.5220    23.0660     2.5170    -5.2280 
  127.1250    50.1630    33.3730    32.2540    26.3910    23.0650     2.5220    -5.1920 
  127.2500    52.4460    32.4370    31.3030    25.4970    23.0630     2.5210    -5.2060 
  127.3750    53.5340    31.6500    30.4900    25.2710    23.0590     2.5140    -5.2220 
  127.5000    54.2470    31.1420    29.9620    24.6300    23.0570     2.5050    -5.2310 
  127.6250    54.6780    31.0950    29.9020    23.3710    23.0570     2.5010    -5.2330 
  127.7500    52.9450    31.5560    30.3440    23.3920    23.0570     2.5060    -5.2680 
  127.8750    51.8680    32.6420    31.3840    24.4500    23.0570     2.5200    -5.3190 
  128.0000    53.8770    34.4410    33.1090    25.8460    23.0570     2.5420    -5.3730 
  128.1250    57.1130    36.9810    35.5930    27.3700    23.0570     2.5690    -5.4020 
  128.2500    58.3380    39.7430    38.4020    29.8870    23.0570     2.5930    -5.3920 
  128.3750    58.0560    42.0720    40.9440    32.6190    23.0560     2.6090    -5.3860 
  128.5000    58.4340    43.2180    42.4800    34.8900    23.0550     2.6130    -5.4090 
  128.6250    57.5030    42.2980    42.0470    35.4780    23.0510     2.6070    -5.4460 
  128.7500    55.2780    39.6700    39.8310    33.7870    23.0380     2.5970    -5.4450 
  128.8750    53.5810    36.0260    36.4190    30.4090    23.0100     2.5900    -5.4450 
  129.0000    53.1470    32.3490    32.7520    26.2280    22.9570     2.5880    -5.4490 
  129.1250    52.8880    29.7110    29.8850    22.3200    22.8820     2.5930    -5.4730 
  129.2500    51.4500    28.3710    28.1710    20.2360    22.8090     2.6010    -5.5410 
  129.3750    50.1740    28.2330    27.6100    20.7510    22.7980     2.6100    -5.6110 
  129.5000    50.2070    28.9320    27.9560    22.7700    22.9060     2.6190    -5.6720 
  129.6250    50.5110    29.9410    28.8120    25.7030    23.1380     2.6260    -5.7660 
  129.7500    50.5380    30.6800    29.5800    27.9830    23.3560     2.6330    -5.9040 
  129.8750    50.8140    30.8610    29.8990    29.0090    23.4480     2.6420    -6.0530 
  130.0000    51.9820    30.4550    29.6280    28.4070    23.4210     2.6510    -6.2080 
  130.1250    51.9510    29.6520    28.8520    28.2060    23.3170     2.6580    -6.3650 
  130.2500    51.0480    28.8500    27.9730    29.3210    23.1960     2.6580    -6.5030 
  130.3750    50.7550    28.2590    27.2390    30.6900    23.0570     2.6510    -6.6110 
  130.5000    50.4320    27.9490    26.7730    31.0480    22.9090     2.6390    -6.7240 
  130.6250    48.5040    27.8930    26.6140    31.1180    22.8010     2.6260    -6.7950 
  130.7500    46.8030    27.9290    26.6230    32.2820    22.7440     2.6150    -6.8130 
  130.8750    47.4580    27.9550    26.6910    32.5590    22.7460     2.6060    -6.8310 
  131.0000    50.2210    27.8960    26.7210    31.5220    22.7980     2.6010    -6.8590 
  131.1250    52.6030    27.6910    26.6170    28.8470    22.9370     2.6030    -6.8770 
  131.2500    52.8660    27.3630    26.3710    27.4570    23.1950     2.6120    -6.8820 
  131.3750    51.9780    26.9430    26.0080    26.9940    23.5430     2.6230    -6.9390 
  131.5000    51.5080    26.4740    25.5760    27.0570    23.8200     2.6320    -6.9950 
  131.6250    51.3400    26.0210    25.1450    25.8480    23.8610     2.6370    -7.0570 
  131.7500    50.0110    25.6550    24.7940    24.4320    23.7920     2.6330    -7.1630 
  131.8750    49.1360    25.4220    24.5770    23.3380    23.6960     2.6210    -7.2260 
  132.0000    51.2030    25.3070    24.4910    22.6650    23.5940     2.6000    -7.2690 
  132.1250    55.1040    25.2170    24.4530    22.5940    23.4810     2.5720    -7.3400 
  132.2500    57.2150    25.0250    24.3280    23.0450    23.3730     2.5460    -7.4030 
  132.3750    56.6080    24.6720    24.0380    23.2990    23.2650     2.5260    -7.4150 
  132.5000    53.2410    24.1810    23.5860    22.8030    23.1570     2.5170    -7.4020 
  132.6250    49.9370    23.6380    23.0450    21.3410    23.0680     2.5190    -7.3860 
  132.7500    50.8770    23.1500    22.5310    19.5780    22.9910     2.5230    -7.3410 
  132.8750    55.6930    22.7540    22.0950    18.5450    22.9360     2.5270    -7.3380 
  133.0000    59.6580    22.4360    21.7370    18.4620    22.9160     2.5260    -7.3570 
  133.1250    58.9520    22.1620    21.4230    18.7660    23.0310     2.5230    -7.3470 
  133.2500    57.9060    21.8970    21.1080    18.9380    23.2850     2.5240    -7.3550 
  133.3750    56.8370    21.6330    20.7680    18.9470    23.6360     2.5310    -7.4100 
  133.5000    54.4370    21.3660    20.4000    18.7550    23.9420     2.5450    -7.4770 
  133.6250    52.2220    21.0710    20.0030    18.5440    24.0690     2.5570    -7.5570 
