~V
VERS. 2.00: Ver 2.00
~W
STRT.M 55.0000:
STOP.M 217.0000:
STEP.M 0.1250:
NULL. -999.2500:
UWI. F10537:
~C
DEPT.M :
SP.MV :
DEN.GM/CC :
GR.API :
RML.OHMM :
RI. :
RXO.OHMM :
CALI.CM :
~A
# ...
  190.0000   -22.1820     2.1770    51.1760   214.8540   201.3560   138.4520    24.6600 
  190.1250   -22.5480     2.1860    52.1880   173.7490   165.9980   116.5350    24.5830 
  190.2500   -22.9450     2.2000    53.5540   139.3710   133.3100    89.2530    24.5130 
  190.3750   -23.3190     2.2160    54.2390   116.7220   110.5840    74.9330    24.4900 
  190.5000   -23.6530     2.2320    54.6490   103.8860    97.2850    70.9430    24.5000 
  190.6250   -23.9860     2.2450    57.5610    98.7690    91.5330    70.0650    24.5020 
  190.7500   -24.2480     2.2530    61.6810    97.8060    89.8570    71.9830    24.5120 
  190.8750   -24.4600     2.2580    63.6230    99.3380    90.6210    75.6190    24.5210 
  191.0000   -24.6240     2.2600    63.1090   102.1310    92.5520    77.7830    24.5260 
  191.1250   -24.6080     2.2580    60.9880   105.6540    94.9750    76.4590    24.5340 
  191.2500   -24.5350     2.2540    60.2710   109.9430    97.8040    72.4030    24.5260 
  191.3750   -24.4620     2.2480    62.7870   115.6520   101.5160    71.8630    24.5230 
  191.5000   -24.4040     2.2430    66.4770   123.8270   106.9360    78.3130    24.5100 
  191.6250   -24.3720     2.2390    65.4650   136.6110   115.8060    86.5570    24.5190 
  191.7500   -24.3920     2.2360    60.9380   154.5520   128.6710    93.1260    24.5260 
  191.8750   -24.4530     2.2280    57.5880   177.7330   145.5920    96.9280    24.5290 
  192.0000   -24.4960     2.2140    55.8650   204.4820   165.2280    95.9260    24.5220 
  192.1250   -24.6390     2.1950    53.9420   229.5230   183.6920   100.8900    24.4980 
  192.2500   -24.8220     2.1840    51.6630   246.4400   196.4370   115.6030    24.5280 
  192.3750   -25.0010     2.1850    49.9440   251.9390   200.9910   140.4230    24.6510 
  192.5000   -25.2160     2.1960    49.3870   247.6350   198.0840   148.6500    24.7470 
  192.6250   -25.3800     2.2100    51.2720   238.3940   190.8250   144.9930    24.7880 
  192.7500   -25.5490     2.2230    54.2170   229.5090   183.5020   150.9280    24.8830 
  192.8750   -25.6680     2.2330    54.1670   221.9790   177.4380   158.7400    25.0170 
  193.0000   -25.7780     2.2400    51.7340   214.3260   171.9520   154.9050    25.1170 
  193.1250   -25.8220     2.2400    51.5850   203.6090   164.8780   145.6780    25.2240 
  193.2500   -25.8090     2.2320    53.0300   189.3720   155.2420   140.1070    25.3700 
  193.3750   -25.7900     2.2150    52.9280   172.8950   143.5070   132.6230    25.4730 
  193.5000   -25.7290     2.1940    51.5460   156.3840   131.1360   134.1110    25.5010 
  193.6250   -25.7160     2.1790    53.9230   121.6290   120.0710   119.1810    25.4780 
  193.7500   -25.7020     2.1780    58.3740   112.3100   111.1840   107.1580    25.3990 
  193.8750   -25.7110     2.2020    61.4450   105.9290   104.8110    96.8930    25.1680 
  194.0000   -25.7540     2.2410    60.8740   102.3740   100.9820    86.0410    24.9050 
  194.1250   -25.8300     2.2770    55.7910   101.1690    99.4570    84.9660    24.8430 
  194.2500   -25.9250     2.2930    51.8630   100.4710    98.5630    85.2490    24.9350 
  194.3750   -25.9600     2.2930    51.5860    98.9930    97.0090    90.4430    25.0360 
  194.5000   -25.9070     2.2850    53.0350    96.2380    94.1990   106.4890    24.9810 
  194.6250   -25.7270     2.2700    52.1380    92.8380    90.5980   104.8280    24.7970 
  194.7500   -25.4860     2.2480    49.7590    90.3710    87.6960    87.7970    24.7440 
  194.8750   -25.2220     2.2190    49.0420    90.0030    86.6630    77.1970    24.9500 
  195.0000   -24.9670     2.1910    50.1570    92.1420    88.0280    75.6500    25.2150 
  195.1250   -24.7610     2.1840    51.7970    96.2930    91.5380    88.6990    25.3560 
  195.2500   -24.6040     2.2010    52.5110   100.4250    95.3900   104.2620    25.3860 
  195.3750   -24.5520     2.2300    51.6770   102.7760    97.9900   104.1450    25.4140 
  195.5000   -24.6130     2.2510    49.9890   102.0540    98.0780    94.4820    25.4110 
  195.6250   -24.7520     2.2510    48.5010    97.3600    94.5770    85.2180    25.3630 
  195.7500   -24.9000     2.2420    49.0410    89.9540    88.3270    81.8950    25.3310 
  195.8750   -25.0480     2.2380    51.9480    80.9690    80.2310    74.6300    25.3070 
  196.0000   -25.1380     2.2460    55.0690    71.6010    71.4400    68.2390    25.2800 
  196.1250   -25.1890     2.2650    56.8980    62.8880    63.0350    59.7910    25.3180 
  196.2500   -25.2630     2.2780    57.5660    55.1530    55.4720    47.5140    25.4500 
  196.3750   -25.3570     2.2770    56.9180    48.5340    48.9480    41.7520    25.5230 
  196.5000   -25.5050     2.2680    54.3710    43.1540    43.5930    43.9930    25.4720 
  196.6250   -25.6570     2.2620    52.8830    39.4260    39.7650    50.2160    25.2930 
  196.7500   -25.8280     2.2690    56.3330    37.2940    37.3950    50.5820    25.1490 
  196.8750   -26.0450     2.2870    63.1490    36.7940    36.5400    45.8280    25.0910 
  197.0000   -26.2740     2.3130    67.3190    37.7760    37.0920    37.7950    25.1830 
  197.1250   -26.4430     2.3300    66.3540    40.0160    38.9220    35.6000    25.3950 
  197.2500   -26.5580     2.3310    64.9710    42.7100    41.3440    35.7470    25.7670 
  197.3750   -26.6590     2.3200    65.0680    45.1330    43.6980    36.3480    26.1670 
  197.5000   -26.6710     2.3050    65.2680    46.6310    45.2730    35.9570    26.4070 
  197.6250   -26.6050     2.2950    64.4450    46.8550    45.5310    31.3210    26.2540 
  197.7500   -26.5000     2.2890    62.8650    46.5130    45.0250    26.5980    25.8880 
  197.8750   -26.3440     2.2860    60.6350    46.3160    44.4140    24.3460    25.9370 
  198.0000   -26.2250     2.2880    59.2140    46.8570    44.3000    25.4820    26.7400 
  198.1250   -26.2240     2.2970    59.2670    48.6700    45.2540    28.9930    27.0250 
  198.2500   -26.2870     2.3090    59.1410    51.5490    47.2080    35.6880    26.5990 
  198.3750   -26.3770     2.3140    57.5100    55.1170    49.9060    41.4990    26.2230 
  198.5000   -26.5490     2.3050    54.9510    58.7140    52.8050    42.7500    26.2290 
  198.6250   -26.8450     2.2810    54.4710    61.4410    55.0690    42.9500    26.4950 
  198.7500   -27.1660     2.2560    56.1100    63.1720    56.4430    46.2780    26.7560 
  198.8750   -27.4860     2.2410    57.7560    64.3660    57.2380    55.8160    26.8600 
  199.0000   -27.7580     2.2380    55.4140    65.7780    58.1120    58.1520    26.8130 
  199.1250   -27.8950     2.2410    49.9530    68.0960    59.7740    53.4980    26.6960 
  199.2500   -27.9470     2.2410    47.6580    70.9160    62.0380    52.7610    26.6500 
  199.3750   -27.8940     2.2340    49.6250    73.1720    64.0810    62.8650    26.6240 
  199.5000   -27.7270     2.2170    54.6710    73.4860    64.6990    74.2660    26.5000 
  199.6250   -27.5260     2.2010    59.6230    70.5830    62.6220    73.4330    26.3410 
  199.7500   -27.3060     2.1970    61.0990    65.6590    58.6550    66.1550    26.3610 
  199.8750   -27.0680     2.2050    58.5770    60.3690    54.1450    56.2830    26.3580 
  200.0000   -26.8240     2.2190    54.7570    56.3110    50.5160    47.9000    26.2850 
  200.1250   -26.6170     2.2390    55.0600    54.7150    48.9690    43.3500    26.2190 
  200.2500   -26.4340     2.2690    58.9730    55.0740    49.2240    41.1030    26.1170 
  200.3750   -26.2600     2.3110    62.1580    56.6420    50.7300    41.6540    25.8180 
  200.5000   -26.0740     2.3520    61.5400    58.4500    52.6610    50.0470    25.3710 
  200.6250   -25.8560     2.3650    57.6280    59.4130    53.9960    56.7850    25.2960 
  200.7500   -25.6950     2.3500    55.7670    59.2620    54.3310    54.8510    25.6890 
  200.8750   -25.5630     2.3160    56.7110    58.1750    53.7440    49.7210    26.0560 
  201.0000   -25.4700     2.2820    57.5930    56.4000    52.4490    47.1730    26.1760 
  201.1250   -25.4320     2.2640    58.5530    53.6540    50.1920    46.4970    26.2090 
