~V
VERS. 2.00: Ver 2.00
~W
STRT.M 50.0000:
STOP.M 198.0000:
STEP.M 0.1250:
NULL. -999.2500:
UWI. F10574:
~C
DEPT.M :
DEN.GM/CC :
SP.MV :
GR.API :
RML.OHMM :
RI. :
RXO.OHMM :
CALI.CM :
~A
# ...
  106.2500     2.1780   -14.7860    65.9980    24.8830    21.3870    22.4780    25.3460 
  106.3750     2.1680   -14.8640    63.6880    27.7620    23.3710    24.3510    25.3460 
  106.5000     2.1550   -14.9600    63.7970    31.6460    26.3260    29.3330    25.3460 
  106.6250     2.1500   -15.0340    64.7180    36.7120    30.6520    37.5130    25.3460 
  106.7500     2.1490   -15.0540    64.0320    42.4670    35.9490    44.0210    25.3460 
  106.8750     2.1480   -15.0420    62.3600    48.3810    41.6700    47.7380    25.3460 
  107.0000     2.1450   -15.0390    59.9530    53.9340    47.1690    50.4560    25.3460 
  107.1250     2.1440   -15.0220    57.4900    58.8300    52.0260    52.8640    25.3380 
  107.2500     2.1510   -15.0090    55.1810    63.4190    56.5540    54.0720    25.2860 
  107.3750     2.1640   -15.0220    53.3020    67.9130    61.0350    57.2230    25.1530 
  107.5000     2.1760   -15.0630    52.9270    71.9240    65.2470    64.1890    24.9840 
  107.6250     2.1840   -15.0910    54.7640    73.4200    67.5760    72.1920    24.9100 
  107.7500     2.1920   -15.1240    57.3640    70.4390    66.1520    75.4690    24.8920 
  107.8750     2.2050   -15.2130    58.2940    62.0010    59.6910    69.2190    24.8920 
  108.0000     2.2250   -15.3440    57.0980    49.5250    48.9950    57.6720    24.8920 
  108.1250     2.2550   -15.4530    57.1300    36.7680    37.3630    56.6060    24.8670 
  108.2500     2.3020   -15.5360    61.0750    26.8340    28.0640    39.4780    24.7560 
  108.3750     2.3680   -15.6110    68.0850    20.4850    21.9600    24.0870    24.5160 
  108.5000     2.4500   -15.6550    73.9410    17.3630    18.7550    16.4520    24.2170 
  108.6250     2.5280   -15.6570    75.4770    17.1470    18.1820    15.5390    24.0640 
  108.7500     2.5830   -15.6190    72.3180    18.6850    19.3240    20.6610    23.9860 
  108.8750     2.6120   -15.5300    64.9830    21.2130    21.6490    28.3890    23.9260 
  109.0000     2.6150   -15.3870    57.1530    23.7520    24.3340    35.9070    23.8680 
  109.1250     2.5980   -15.2300    54.2630    25.0760    26.0850    33.5740    23.8440 
  109.2500     2.5750   -15.0330    55.3530    25.1150    26.4820    25.8690    23.8410 
  109.3750     2.5550   -14.8040    57.9220    24.5830    26.0370    19.1330    23.8450 
  109.5000     2.5460   -14.5870    60.0980    24.4680    25.7040    17.0700    23.8480 
  109.6250     2.5510   -14.4120    59.6010    25.5530    26.3520    22.0980    23.8490 
  109.7500     2.5620   -14.2580    56.4920    27.4980    27.8360    26.6300    23.8430 
  109.8750     2.5600   -14.0720    54.0310    29.7110    29.6650    27.3270    23.8240 
  110.0000     2.5420   -13.8790    53.7190    31.5630    31.2320    26.7470    23.7880 
  110.1250     2.5240   -13.7020    53.5610    32.7010    32.1120    27.5870    23.7710 
  110.2500     2.5170   -13.5620    52.9090    33.6330    32.7160    26.5950    23.7690 
  110.3750     2.5180   -13.4350    52.4650    34.9750    33.6240    25.9640    23.7920 
  110.5000     2.5310   -13.3060    51.4330    37.1010    35.2360    27.7400    23.8450 
  110.6250     2.5620   -13.2140    50.0570    39.9200    37.5420    32.2770    23.8940 
  110.7500     2.5980   -13.1740    49.6950    42.6490    39.8430    37.6290    23.9130 
  110.8750     2.6240   -13.1850    50.2600    44.5930    41.4660    39.2040    23.9160 
  111.0000     2.6320   -13.1900    51.6950    45.2780    41.9190    34.7630    23.9160 
  111.1250     2.6180   -13.1850    52.9610    44.5000    41.0420    32.5580    23.9000 
  111.2500     2.5960   -13.2050    53.2190    42.9840    39.6040    31.5730    23.7560 
  111.3750     2.5720   -13.2520    51.6400    41.3970    38.2460    28.7950    23.3560 
  111.5000     2.5480   -13.2930    49.0970    40.3330    37.4290    25.6260    22.7750 
  111.6250     2.5320   -13.2870    47.8660    40.3360    37.5000    24.9140    22.7010 
  111.7500     2.5280   -13.2570    49.2100    41.3270    38.3610    26.9650    23.1570 
  111.8750     2.5260   -13.2170    51.6750    43.0970    39.9040    31.5200    23.8650 
  112.0000     2.5170   -13.1470    51.1370    45.1660    41.8510    35.9560    24.2790 
  112.1250     2.5110   -13.0570    48.2810    46.7370    43.6630    38.2780    24.3170 
  112.2500     2.5180   -12.9760    47.6370    47.2820    44.7840    39.4030    24.1130 
  112.3750     2.5320   -12.9040    49.2820    46.7090    44.9140    38.3220    23.7380 
  112.5000     2.5430   -12.8480    50.2920    45.3930    44.1350    32.4580    23.4300 
  112.6250     2.5480   -12.7820    49.9190    43.9930    42.8720    27.1610    23.3830 
  112.7500     2.5530   -12.7010    49.9520    42.9360    41.6980    26.8020    23.4890 
  112.8750     2.5530   -12.6530    49.3650    42.2300    40.8470    28.6890    23.5720 
  113.0000     2.5440   -12.6650    48.3500    41.7530    40.3920    29.3020    23.5280 
  113.1250     2.5340   -12.6880    48.3180    41.5240    40.3810    29.9370    23.4830 
  113.2500     2.5350   -12.6770    47.7450    41.6820    40.7240    30.3370    23.4980 
  113.3750     2.5430   -12.6750    45.6770    42.4590    41.4750    30.4090    23.6020 
  113.5000     2.5520   -12.6710    44.3340    43.9800    42.7390    31.8380    23.8000 
  113.6250     2.5590   -12.6770    48.1670    46.1210    44.5560    36.2590    24.0050 
  113.7500     2.5610   -12.6980    54.0130    48.1960    46.4740    44.2960    24.1140 
  113.8750     2.5540   -12.6970    55.7870    49.5150    47.9180    54.5970    24.1450 
  114.0000     2.5390   -12.6950    52.4630    49.5190    48.3040    53.3630    24.1450 
  114.1250     2.5290   -12.7120    49.4050    47.9870    47.2180    46.2740    24.1420 
  114.2500     2.5310   -12.7170    49.0890    45.8500    45.3750    40.7980    24.1430 
  114.3750     2.5390   -12.6660    49.9140    43.9690    43.5520    37.6880    24.1440 
  114.5000     2.5450   -12.6160    50.5970    42.9190    42.3680    34.0650    24.1420 
  114.6250     2.5500   -12.6080    51.7950    42.8690    42.1330    33.9450    24.1410 
  114.7500     2.5580   -12.5950    52.3490    43.1670    42.3680    36.0730    24.1420 
  114.8750     2.5690   -12.5400    51.6890    43.2130    42.5310    38.3520    24.1430 
  115.0000     2.5750   -12.4210    51.8260    42.6240    42.1880    37.5610    24.1440 
  115.1250     2.5670   -12.2940    54.9660    41.3620    41.1750    34.9520    24.1440 
  115.2500     2.5430   -12.1950    59.0530    39.9280    39.9050    32.8070    24.1460 
  115.3750     2.5090   -12.1370    59.7970    38.6970    38.7430    31.0220    24.1410 
  115.5000     2.4790   -12.0850    55.3000    37.8630    37.9150    29.6330    24.1150 
  115.6250     2.4590   -11.9810    52.3140    37.4060    37.4340    29.8550    24.0610 
  115.7500     2.4480   -11.8710    55.0770    37.0110    36.9920    30.1290    24.0140 
  115.8750     2.4430   -11.7930    58.7630    36.4600    36.3510    30.3130    23.9960 
  116.0000     2.4430   -11.7430    56.8460    35.6740    35.4410    27.0290    23.9940 
  116.1250     2.4470   -11.6850    52.1040    34.7580    34.4160    25.4870    23.9920 
  116.2500     2.4550   -11.6030    51.4980    33.9480    33.5430    25.0260    23.9690 
  116.3750     2.4660   -11.4970    53.5130    33.3880    32.9790    43.4590    23.9050 
  116.5000     2.4790   -11.3710    54.4900    33.1420    32.7810    52.8860    23.8140 
  116.6250     2.4890   -11.2210    54.4900    33.2760    32.9800    55.8770    23.7730 
  116.7500     2.4950   -11.0470    55.6000    33.7070    33.4430    56.9820    23.7620 
  116.8750     2.4990   -10.8780    56.6050    34.3540    34.0710    55.7610    23.7620 
  117.0000     2.5040   -10.7300    55.7690    35.0980    34.7470    51.8350    23.7620 
  117.1250     2.5060   -10.6050    54.6530    35.7520    35.3090    47.5070    23.7650 
  117.2500     2.5020   -10.4920    53.8090    36.1700    35.6500    43.4990    23.7800 
  117.3750     2.4910   -10.3740    52.6250    36.2850    35.7230    33.0220    23.8110 
