~V
VERS. 2.00: Ver 2.00
~W
STRT.M 50.0000:
STOP.M 198.0000:
STEP.M 0.1250:
NULL. -999.2500:
UWI. F10574:
~C
DEPT.M :
DEN.GM/CC :
SP.MV :
GR.API :
RML.OHMM :
RI. :
RXO.OHMM :
CALI.CM :
~A
# ...
  140.0000     2.2930   -15.6310    77.1590    22.0520    19.9230    20.9690    24.5060 
  140.1250     2.2690   -15.4750    78.5360    21.5380    19.4700    20.2830    24.5060 
  140.2500     2.2650   -15.3080    76.1050    21.1680    19.0650    20.1810    24.5060 
  140.3750     2.2640   -15.1350    74.0990    21.0450    18.8440    20.2250    24.5060 
  140.5000     2.2600   -14.9410    75.3050    21.2560    18.9080    20.5800    24.5060 
  140.6250     2.2610   -14.7260    76.8180    21.9780    19.3940    20.7450    24.5060 
  140.7500     2.2710   -14.5140    74.9420    23.1970    20.2820    20.7310    24.5060 
  140.8750     2.2890   -14.3340    72.0940    24.8500    21.5670    20.7420    24.5060 
  141.0000     2.3160   -14.1780    70.0860    26.7880    23.1890    21.3030    24.5060 
  141.1250     2.3540   -14.0560    66.5030    28.8030    25.0300    23.5440    24.5030 
  141.2500     2.3920   -13.9400    61.9450    30.7380    26.8810    26.7090    24.4900 
  141.3750     2.4000   -13.8610    60.0010    32.5460    28.6380    28.3870    24.4700 
  141.5000     2.3560   -13.8310    62.0400    34.2250    30.2740    29.4260    24.4850 
  141.6250     2.2790   -13.8310    63.1020    35.8000    31.8300    30.9170    24.6010 
  141.7500     2.2190   -13.8210    60.6400    37.3560    33.3800    34.5770    24.7780 
  141.8750     2.1930   -13.7940    56.7620    38.9580    34.9290    38.6440    24.9110 
  142.0000     2.1930   -13.7820    55.4160    40.6130    36.4380    41.1460    24.9670 
  142.1250     2.2030   -13.7730    57.8910    42.1330    37.7600    40.8610    24.9910 
  142.2500     2.2130   -13.7420    60.2350    43.1390    38.6670    40.7500    25.0190 
  142.3750     2.2220   -13.6700    62.1650    43.1760    38.8400    41.0780    25.0190 
  142.5000     2.2330   -13.5860    63.9330    42.0200    38.0760    41.3120    24.9930 
  142.6250     2.2500   -13.5060    63.0280    39.8970    36.4570    40.0280    25.0300 
  142.7500     2.2630   -13.4520    58.5610    37.7550    34.7050    35.7280    25.2200 
  142.8750     2.2630   -13.4350    54.3800    36.2900    33.4170    29.6840    25.5280 
  143.0000     2.2510   -13.4280    55.7450    35.9110    33.0160    27.6940    25.6530 
  143.1250     2.2380   -13.4570    60.4160    36.7460    33.7610    32.5690    25.3740 
  143.2500     2.2310   -13.5190    62.5700    38.1470    35.1820    38.7170    24.9320 
  143.3750     2.2320   -13.5960    61.1490    39.5340    36.7680    40.7030    24.6560 
  143.5000     2.2430   -13.6540    59.7710    40.4240    37.9830    38.7910    24.5590 
  143.6250     2.2620   -13.6920    61.9710    40.5290    38.3970    35.8640    24.5020 
  143.7500     2.2820   -13.7360    64.8490    40.1800    38.2870    35.7310    24.4370 
  143.8750     2.3000   -13.7940    65.6540    39.7030    38.0190    35.2280    24.3840 
  144.0000     2.3190   -13.8240    62.8000    39.2960    37.8310    36.2100    24.3620 
  144.1250     2.3500   -13.7940    57.6740    38.9650    37.7090    36.6010    24.3590 
  144.2500     2.3940   -13.7730    54.6620    38.6540    37.5260    38.4350    24.3470 
  144.3750     2.4360   -13.7690    56.4540    38.4040    37.2620    40.3610    24.3330 
  144.5000     2.4410   -13.7820    61.4990    38.2850    36.9860    38.6430    24.3530 
  144.6250     2.3880   -13.8110    64.0060    38.3320    36.8320    35.3990    24.4060 
  144.7500     2.3290   -13.8120    62.2200    38.4260    36.8430    35.4990    24.4310 
  144.8750     2.2920   -13.7540    60.0280    38.4660    36.9830    36.3790    24.4350 
  145.0000     2.2750   -13.7020    60.0570    38.4480    37.1950    36.1140    24.4360 
  145.1250     2.2660   -13.7020    61.4920    38.5380    37.4890    36.0920    24.4360 
  145.2500     2.2670   -13.6930    62.1760    38.8260    37.8640    36.2520    24.4350 
  145.3750     2.2880   -13.6700    62.0460    39.2170    38.2720    37.9420    24.4350 
  145.5000     2.3330   -13.6410    62.1890    39.4740    38.6150    42.1460    24.4390 
  145.6250     2.3910   -13.5740    62.2240    39.2480    38.6720    47.7950    24.4580 
  145.7500     2.4080   -13.4950    62.2820    38.4470    38.2810    48.5840    24.4800 
  145.8750     2.3590   -13.4660    63.0690    37.1320    37.3940    41.8850    24.4980 
  146.0000     2.2790   -13.4640    64.3380    35.5420    36.1760    35.9300    24.5060 
  146.1250     2.2310   -13.4570    64.4120    34.0410    34.9650    33.3950    24.5060 
  146.2500     2.2160   -13.4490    62.6210    32.8620    34.0510    32.7260    24.5060 
  146.3750     2.2160   -13.4370    60.2940    32.0770    33.5220    32.2960    24.5060 
  146.5000     2.2180   -13.4280    57.7930    31.6180    33.2920    32.1610    24.5060 
  146.6250     2.2220   -13.4480    56.6450    31.3280    33.1560    32.8270    24.5060 
  146.7500     2.2270   -13.4890    58.0780    31.0130    32.9270    33.2750    24.5060 
  146.8750     2.2300   -13.5250    62.3050    30.6410    32.5870    31.9320    24.5060 
  147.0000     2.2280   -13.5250    65.9990    30.2680    32.2040    29.7460    24.5060 
  147.1250     2.2240   -13.4800    64.2570    29.9950    31.8560    29.5500    24.5060 
  147.2500     2.2210   -13.4520    59.9700    29.8190    31.5340    30.9030    24.5060 
  147.3750     2.2180   -13.4570    56.8290    29.6520    31.1710    31.8750    24.5060 
  147.5000     2.2130   -13.4460    55.9710    29.3630    30.6930    31.9480    24.5060 
  147.6250     2.2090   -13.4380    56.8510    28.8920    30.1110    31.0810    24.5060 
  147.7500     2.2170   -13.4250    60.8520    28.5190    29.6720    29.5210    24.5060 
  147.8750     2.2430   -13.4060    65.9140    28.7260    29.7500    28.3460    24.5060 
  148.0000     2.2910   -13.4150    66.1110    30.0480    30.7790    28.6390    24.5060 
  148.1250     2.3690   -13.4400    60.2030    33.1390    33.3790    32.0760    24.5050 
  148.2500     2.4650   -13.4280    54.4540    37.6650    37.4150    39.7010    24.5080 
  148.3750     2.5530   -13.4020    49.5290    42.9700    42.4520    48.9010    24.5250 
  148.5000     2.5960   -13.3850    44.6690    47.8940    47.4780    55.5290    24.5750 
  148.6250     2.5580   -13.3730    42.9310    50.6750    50.7070    55.6520    24.6290 
  148.7500     2.4650   -13.3760    45.9930    50.9640    51.4610    50.5440    24.6580 
  148.8750     2.3460   -13.3740    51.0190    49.3220    50.0700    46.2410    24.6810 
  149.0000     2.2440   -13.3540    55.5790    46.8560    47.5970    45.9220    24.7100 
  149.1250     2.1900   -13.3380    57.3090    44.5920    45.1910    45.4460    24.7240 
  149.2500     2.1710   -13.3480    56.9940    42.8620    43.3940    44.1800    24.7280 
  149.3750     2.1680   -13.3680    56.3850    41.6530    42.2510    42.7890    24.7300 
  149.5000     2.1680   -13.4030    56.3710    40.8970    41.6300    42.5140    24.7320 
  149.6250     2.1690   -13.4250    56.4580    40.5160    41.3560    42.3310    24.7300 
  149.7500     2.1710   -13.4430    55.7880    40.2140    41.1170    42.3000    24.7300 
  149.8750     2.1740   -13.4750    55.3300    39.7100    40.6700    42.5920    24.7330 
  150.0000     2.1770   -13.5310    55.1460    38.8060    39.8530    42.7430    24.7350 
  150.1250     2.1780   -13.6140    55.0070    37.5330    38.6830    40.9690    24.7330 
  150.2500     2.1760   -13.6780    56.8310    36.3130    37.5140    36.8330    24.7320 
  150.3750     2.1730   -13.6960    59.7840    35.4780    36.6330    33.1120    24.7370 
  150.5000     2.1710   -13.6900    61.9150    35.1120    36.1660    31.8060    24.7550 
  150.6250     2.1740   -13.7130    61.5690    34.8500    35.9040    33.1720    24.7860 
  150.7500     2.1840   -13.7210    61.0960    34.0400    35.2560    34.0190    24.7860 
  150.8750     2.1980   -13.6780    60.0980    32.3170    33.7900    33.5910    24.7590 
  151.0000     2.2100   -13.5990    57.0650    29.8160    31.5230    31.5490    24.7370 
  151.1250     2.2140   -13.5090    55.7020    27.2570    29.0200    27.4610    24.7300 
