~V
VERS. 2.00: Ver 2.00
~W
STRT.M 61.0000:
STOP.M 190.0000:
STEP.M 0.1250:
NULL. -999.2500:
UWI. F10559:
~C
DEPT.M :
SP.MV :
DEN.GM/CC :
GR.API :
RML.OHMM :
RI. :
RXO.OHMM :
CALI.CM :
~A
# ...
  162.2500   -11.4960     2.2490    73.2170    25.2610    27.8070    35.5020    26.4540 
  162.3750   -11.5090     2.2560    81.0630    17.0060    18.5640    15.7260    26.6050 
  162.5000   -11.5390     2.2600    89.1440    11.9520    13.2490     9.5510    26.7480 
  162.6250   -11.6380     2.2600    94.4910     9.7800    10.5470     8.6030    27.0010 
  162.7500   -11.7510     2.2610    96.1370     8.6990     9.1190     8.5840    27.1950 
  162.8750   -11.8430     2.2650    97.0120     8.3090     8.5140     8.4150    27.1830 
  163.0000   -11.9350     2.2700    99.8440     8.3340     8.4330     8.2910    26.9990 
  163.1250   -12.0230     2.2770   102.6930     8.5850     8.6680     8.6690    26.7380 
  163.2500   -12.0630     2.2850   101.7810     8.8670     8.9820     9.2190    26.5870 
  163.3750   -12.0530     2.2980    96.5680     9.0860     9.2580     9.4770    26.4960 
  163.5000   -11.9960     2.3150    90.5620     9.1910     9.4270     9.5330    26.3750 
  163.6250   -11.8280     2.3360    86.6360     9.1630     9.4450     9.5160    26.3670 
  163.7500   -11.6430     2.3550    84.3370     9.0710     9.3600     9.6110    26.4460 
  163.8750   -11.3680     2.3710    83.3210     8.9760     9.2250     9.8390    26.4710 
  164.0000   -11.0830     2.3820    83.3880     8.9260     9.0940    10.0930    26.4380 
  164.1250   -10.7660     2.3860    83.0180     8.9470     9.0090    10.1160    26.3600 
  164.2500   -10.3850     2.3800    81.3690     8.9970     8.9610    10.0180    26.3140 
  164.3750   -10.0940     2.3610    80.7570     9.0250     8.9120     9.4740    26.2370 
  164.5000    -9.8140     2.3330    81.6170     8.9800     8.8130     8.5920    26.1130 
  164.6250    -9.5620     2.3040    80.6160     8.8200     8.6090     7.8970    25.9410 
  164.7500    -9.3610     2.2840    78.1780     8.5780     8.3240     7.4020    25.8820 
  164.8750    -9.2450     2.2770    78.9950     8.3030     8.0020     7.0020    25.9510 
  165.0000    -9.2230     2.2820    83.8050     8.0490     7.6960     6.6220    26.1780 
  165.1250    -9.2500     2.2920    86.3990     7.8740     7.4690     6.4150    26.4150 
  165.2500    -9.3340     2.3010    85.7630     7.7800     7.3290     6.0890    26.5290 
  165.3750    -9.4580     2.3080    85.5240     7.7470     7.2630     5.7020    26.5360 
  165.5000    -9.6190     2.3120    86.1990     7.7470     7.2470     5.4990    26.4880 
  165.6250    -9.8410     2.3120    85.2460     7.7520     7.2500     5.8120    26.4630 
  165.7500   -10.0290     2.3100    82.3560     7.7560     7.2520     6.3450    26.4860 
  165.8750   -10.2070     2.3080    80.5240     7.7630     7.2480     6.7790    26.5300 
  166.0000   -10.3580     2.3070    83.1780     7.7820     7.2410     6.9230    26.5280 
  166.1250   -10.4500     2.3050    88.6430     7.8160     7.2340     6.8920    26.5090 
  166.2500   -10.5760     2.3010    91.7390     7.8580     7.2330     6.9480    26.5490 
  166.3750   -10.6460     2.2950    90.7210     7.9020     7.2420     6.9420    26.5580 
  166.5000   -10.6870     2.2890    86.9220     7.9500     7.2640     6.9690    26.5330 
  166.6250   -10.7190     2.2860    85.5930     8.0070     7.3040     7.1030    26.4900 
  166.7500   -10.7270     2.2820    87.4270     8.0800     7.3570     7.5030    26.3900 
  166.8750   -10.7450     2.2750    89.8610     8.1770     7.4240     8.0240    26.2410 
  167.0000   -10.7340     2.2650    90.4180     8.3030     7.5050     8.6970    26.1160 
  167.1250   -10.7810     2.2610    90.6160     8.4570     7.6040     9.1790    26.1270 
  167.2500   -10.7470     2.2680    91.1670     8.6190     7.7140     9.3870    26.1770 
  167.3750   -10.6980     2.2850    89.1140     8.7670     7.8250     9.3750    26.1260 
  167.5000   -10.6460     2.3000    84.0340     8.8780     7.9210     9.1590    25.7800 
  167.6250   -10.5370     2.3040    81.6850     8.9220     7.9750     8.8430    25.3270 
  167.7500   -10.4280     2.2960    83.4640     8.9050     7.9790     8.6670    25.0350 
  167.8750   -10.2540     2.2810    86.2690     8.8330     7.9270     8.6330    25.0910 
  168.0000   -10.0690     2.2680    88.1770     8.7230     7.8250     8.7040    25.4710 
  168.1250    -9.8190     2.2640    89.3060     8.6010     7.6970     8.6020    26.0560 
  168.2500    -9.6260     2.2720    88.0300     8.5000     7.5810     8.3320    26.4250 
  168.3750    -9.4180     2.2900    84.5830     8.4340     7.4970     8.0900    26.5500 
  168.5000    -9.2100     2.3140    82.1310     8.4020     7.4490     8.0030    26.5390 
  168.6250    -9.0380     2.3340    85.2580     8.3830     7.4240     8.2630    26.4960 
  168.7500    -8.8470     2.3420    90.4980     8.3420     7.3880     8.8580    26.4280 
  168.8750    -8.7010     2.3320    94.0380     8.2580     7.3160     9.0770    26.3650 
  169.0000    -8.5250     2.3070    93.7880     8.1280     7.1980     8.7420    26.3120 
  169.1250    -8.4120     2.2710    90.5520     7.9710     7.0410     8.2710    26.2970 
  169.2500    -8.3170     2.2390    88.1720     7.8170     6.8790     7.8230    26.3030 
  169.3750    -8.2460     2.2210    88.0490     7.6890     6.7350     7.4180    26.3070 
  169.5000    -8.1760     2.2250    88.7470     7.5950     6.6240     7.1250    26.2080 
  169.6250    -8.0820     2.2520    89.3360     7.5360     6.5520     6.7750    25.9380 
  169.7500    -8.0080     2.2870    90.2810     7.4970     6.4990     6.4800    25.5530 
  169.8750    -7.9540     2.3160    91.6520     7.4630     6.4540     6.5850    25.2200 
  170.0000    -7.9210     2.3300    91.9960     7.4260     6.4090     6.9770    24.9580 
  170.1250    -7.8890     2.3260    88.3710     7.3860     6.3640     6.9300    24.8190 
  170.2500    -7.8670     2.3160    82.0900     7.3490     6.3230     6.5900    24.9220 
  170.3750    -7.8800     2.3040    77.9800     7.3230     6.2910     6.0960    25.2740 
  170.5000    -7.9070     2.2920    78.3980     7.3160     6.2750     5.9440    25.7790 
  170.6250    -7.9320     2.2780    79.0250     7.3320     6.2820     6.2280    26.1210 
  170.7500    -7.9810     2.2640    76.1050     7.3660     6.3110     6.4120    26.2820 
  170.8750    -7.9840     2.2550    73.7920     7.4140     6.3590     6.4420    26.3930 
  171.0000    -7.9680     2.2580    77.0110     7.4750     6.4180     6.5070    26.4420 
  171.1250    -7.8680     2.2730    82.4290     7.5400     6.4770     6.6240    26.4270 
  171.2500    -7.7690     2.2910    84.5880     7.5970     6.5230     6.7760    26.5020 
  171.3750    -7.6100     2.3040    82.4970     7.6390     6.5490     6.9010    26.6290 
  171.5000    -7.4370     2.3080    80.4550     7.6690     6.5530     6.8950    26.6930 
  171.6250    -7.2540     2.3040    80.9140     7.6920     6.5450     7.1330    26.6650 
  171.7500    -7.0850     2.3000    81.9400     7.7110     6.5360     7.6390    26.6660 
  171.8750    -6.9200     2.3000    81.8010     7.7180     6.5280     7.9680    26.6900 
  172.0000    -6.7860     2.3040    80.7090     7.6960     6.5150     8.2480    26.6810 
  172.1250    -6.6650     2.3090    79.1610     7.6280     6.4800     8.7690    26.6380 
  172.2500    -6.5370     2.3100    77.7220     7.5310     6.4190     8.9000    26.6380 
  172.3750    -6.4200     2.3100    76.1960     7.4310     6.3400     8.2900    26.6890 
  172.5000    -6.3430     2.3110    76.2010     7.3610     6.2680     7.3100    26.7080 
  172.6250    -6.2810     2.3150    77.5240     7.3580     6.2440     6.6940    26.6510 
  172.7500    -6.1720     2.3200    79.2130     7.4200     6.2830     6.4010    26.5670 
  172.8750    -6.0570     2.3270    80.9490     7.5280     6.3800     6.2880    26.4790 
  173.0000    -5.9200     2.3350    82.0210     7.6480     6.5110     6.1300    26.4090 
  173.1250    -5.7550     2.3450    82.0690     7.7280     6.6250     6.1490    26.3910 
  173.2500    -5.5610     2.3560    80.8390     7.7430     6.6860     6.3460    26.4230 
  173.3750    -5.3560     2.3640    79.4040     7.6860     6.6810     6.5490    26.4560 
