~V
VERS. 2.00: Ver 2.00
~W
STRT.M 61.0000:
STOP.M 190.0000:
STEP.M 0.1250:
NULL. -999.2500:
UWI. F10559:
~C
DEPT.M :
SP.MV :
DEN.GM/CC :
GR.API :
RML.OHMM :
RI. :
RXO.OHMM :
CALI.CM :
~A
# ...
  139.7500    -7.5780     2.2240    59.2350    81.9520    76.3840    68.7640    26.6750 
  139.8750    -7.5680     2.2400    62.5380    78.3160    73.6020    63.7820    26.6980 
  140.0000    -7.5310     2.2810    65.8720    74.3890    69.4410    59.3780    26.7020 
  140.1250    -7.5580     2.3260    64.3610    70.0880    64.1500    59.4090    26.6810 
  140.2500    -7.6020     2.3490    59.3810    65.5170    58.7350    55.2710    26.5700 
  140.3750    -7.6050     2.3460    56.1140    60.5680    54.0150    49.4680    26.4290 
  140.5000    -7.6450     2.3230    56.8030    57.3720    50.6380    41.9350    26.3310 
  140.6250    -7.6550     2.2960    59.1500    56.5800    49.3370    37.7640    26.3000 
  140.7500    -7.6690     2.2750    60.5440    57.8190    49.9470    38.5570    26.3070 
  140.8750    -7.7680     2.2600    61.4150    60.7430    52.3250    41.9650    26.3110 
  141.0000    -7.8800     2.2440    62.3570    64.7170    56.0640    46.3460    26.3220 
  141.1250    -7.9460     2.2230    63.5640    68.7550    60.3860    51.7100    26.3680 
  141.2500    -8.0180     2.2020    63.0880    71.8700    64.1190    53.8670    26.3920 
  141.3750    -8.1200     2.1820    60.4800    73.5620    66.5060    49.9610    26.3440 
  141.5000    -8.2160     2.1680    57.1610    73.8380    67.3240    41.7770    26.1880 
  141.6250    -8.3220     2.1640    55.8210    73.0520    66.7620    35.2700    25.9130 
  141.7500    -8.4410     2.1730    57.5900    71.9520    65.6390    30.8030    25.5250 
  141.8750    -8.5300     2.1970    60.3650    70.8760    64.4080    29.1880    25.1460 
  142.0000    -8.6120     2.2300    63.3500    69.9520    63.3290    29.0760    24.9330 
  142.1250    -8.7460     2.2550    64.2120    69.2120    62.5190    31.3820    25.0720 
  142.2500    -8.9110     2.2600    62.4990    68.6630    61.9410    35.9640    25.5190 
  142.3750    -9.0500     2.2440    59.7700    68.4520    61.6470    42.5840    26.1320 
  142.5000    -9.2300     2.2180    57.4480    68.8310    61.7890    48.2990    26.6830 
  142.6250    -9.4700     2.2020    57.1430    70.2700    62.7670    52.2010    26.8510 
  142.7500    -9.6660     2.2070    59.1090    72.7810    64.7440    55.1870    26.8390 
  142.8750    -9.9230     2.2330    62.6020    76.1880    67.7730    58.2100    26.7730 
  143.0000   -10.1760     2.2710    66.0990    79.9380    71.5470    63.2010    26.7200 
  143.1250   -10.3190     2.3040    65.8880    82.9260    75.1830    68.8950    26.6890 
  143.2500   -10.5220     2.3160    62.3150    84.2700    77.5800    71.8490    26.5780 
  143.3750   -10.7250     2.3030    58.3490    83.5240    77.9640    75.9250    26.5070 
  143.5000   -10.8480     2.2710    56.9750    80.8620    76.1890    76.8590    26.6380 
  143.6250   -10.9940     2.2300    59.2320    76.9650    72.7630    68.0830    26.9510 
  143.7500   -11.0930     2.1970    62.3720    73.0260    69.0620    62.7230    27.2390 
  143.8750   -11.1260     2.1780    63.3770    69.6540    65.8270    60.1740    27.3260 
  144.0000   -11.1430     2.1720    59.9590    67.1090    63.3680    55.2460    27.1870 
  144.1250   -11.1970     2.1760    54.8750    65.5770    61.8350    53.7580    27.0060 
  144.2500   -11.2000     2.1840    52.5830    64.9330    61.0420    56.2560    26.8720 
  144.3750   -11.1680     2.1900    52.6250    65.2610    61.0480    57.1510    26.7990 
  144.5000   -11.1770     2.1900    52.5040    66.6610    62.0160    53.1650    26.7810 
  144.6250   -11.1250     2.1830    53.3600    69.2950    64.2830    48.0220    26.8260 
  144.7500   -11.0830     2.1730    55.5580    72.7190    67.5530    51.9760    26.8840 
  144.8750   -11.0610     2.1680    57.3980    76.4650    71.3980    61.4980    26.9260 
  145.0000   -11.0090     2.1710    57.8600    79.9730    75.1860    67.3720    26.9160 
  145.1250   -10.9000     2.1810    56.9660    82.6100    78.0760    66.1210    26.8420 
  145.2500   -10.8070     2.1910    55.8410    84.3210    79.8100    66.1650    26.7960 
  145.3750   -10.7300     2.1970    55.3060    85.2840    80.5280    66.9680    26.8110 
  145.5000   -10.6400     2.1970    55.8740    85.8420    80.6910    68.0180    26.8670 
  145.6250   -10.5890     2.1950    56.4310    86.2900    80.7680    71.8140    26.8880 
  145.7500   -10.5390     2.1920    55.8550    86.6930    80.9250    75.2440    26.8700 
  145.8750   -10.5090     2.1890    54.9670    86.8960    81.0530    75.4160    26.8330 
  146.0000   -10.5120     2.1870    55.4570    86.6800    80.9600    74.8370    26.8250 
  146.1250   -10.5670     2.1850    58.4000    85.7170    80.3520    75.2440    26.8240 
  146.2500   -10.6360     2.1840    61.0530    83.9980    79.1520    74.8120    26.8440 
  146.3750   -10.6800     2.1840    61.8230    81.5560    77.3170    74.3970    26.8590 
  146.5000   -10.6870     2.1870    60.4700    78.5600    74.9160    72.3650    26.8690 
  146.6250   -10.7370     2.1920    58.1780    75.3280    72.1500    70.8810    26.8360 
  146.7500   -10.8010     2.1970    57.9170    72.3150    69.4640    68.2370    26.7900 
  146.8750   -10.8390     2.2000    60.3800    69.8310    67.2040    64.0300    26.7350 
  147.0000   -10.9280     2.2000    63.6460    68.0480    65.6020    58.8120    26.6730 
  147.1250   -10.9790     2.1970    64.5160    67.0670    64.8070    58.2680    26.6220 
  147.2500   -11.0120     2.1940    63.4600    66.5980    64.5330    58.2760    26.6050 
  147.3750   -11.0910     2.1930    61.5310    66.4310    64.5540    57.9990    26.5770 
  147.5000   -11.2040     2.1950    58.9150    66.3760    64.6620    58.1180    26.5250 
  147.6250   -11.2670     2.2000    57.9570    66.2960    64.7070    57.4010    26.4830 
  147.7500   -11.2940     2.2030    58.9580    66.1460    64.6750    55.6670    26.4440 
  147.8750   -11.3260     2.2030    60.1200    65.9200    64.5890    55.4280    26.3980 
  148.0000   -11.3110     2.2000    60.8000    65.6080    64.4420    56.1510    26.3640 
  148.1250   -11.3260     2.1970    61.6520    65.1460    64.1530    57.1520    26.3330 
  148.2500   -11.3580     2.1960    60.4130    64.5010    63.6770    56.8300    26.2920 
  148.3750   -11.3700     2.1980    57.6590    63.6310    62.9660    54.9730    26.2570 
  148.5000   -11.3580     2.2020    57.1160    62.5060    61.9920    52.7700    26.2200 
  148.6250   -11.3870     2.2040    60.2280    61.1120    60.7320    51.9180    26.1440 
  148.7500   -11.4550     2.2050    63.8030    59.6080    59.3040    53.9690    26.0740 
  148.8750   -11.5340     2.2040    66.1520    58.2000    57.8410    54.1510    26.0810 
  149.0000   -11.7210     2.2030    66.6020    57.1750    56.5720    51.8790    26.1320 
  149.1250   -11.9170     2.2050    65.1350    57.0290    55.9590    48.6820    26.2270 
  149.2500   -12.0860     2.2100    64.5040    57.9450    56.2700    48.7800    26.3600 
  149.3750   -12.3320     2.2160    64.6950    60.0430    57.7130    50.0110    26.5180 
  149.5000   -12.5730     2.2200    63.9100    63.2440    60.3320    51.1370    26.6090 
  149.6250   -12.8120     2.2200    61.4980    67.2920    64.0310    54.6510    26.5940 
  149.7500   -13.0830     2.2150    58.6800    71.4560    68.0820    59.7430    26.5210 
  149.8750   -13.2950     2.2110    55.8320    75.1330    71.8140    65.8110    26.5030 
  150.0000   -13.4730     2.2110    54.6520    77.8310    74.5940    71.3510    26.5470 
  150.1250   -13.6580     2.2170    57.0370    79.1370    75.8180    74.6500    26.5820 
  150.2500   -13.8390     2.2250    60.4540    79.4580    75.8340    74.7350    26.5920 
  150.3750   -14.0100     2.2320    62.2600    79.2650    75.1280    73.2240    26.6090 
  150.5000   -14.1710     2.2330    61.9870    79.0730    74.3000    70.0690    26.6160 
  150.6250   -14.2820     2.2280    59.8930    79.2550    73.9330    67.7830    26.6070 
  150.7500   -14.3260     2.2210    58.8620    79.6100    74.0510    67.9270    26.5880 
  150.8750   -14.3690     2.2190    60.0620    79.6450    74.2370    69.9770    26.5720 
