~V
VERS. 2.00: Ver 2.00
~W
STRT.M 42.0000:
STOP.M 195.0000:
STEP.M 0.1250:
NULL. -999.2500:
UWI. F10590:
~C
DEPT.M :
GR.API :
RML.OHMM :
RI. :
RXO.OHMM :
CALI.CM :
DEN.GM/CC :
SP.MV :
~A
# ...
  143.2500    84.8760    12.3240    11.5940    10.6150    23.4450     2.3170   -20.1480 
  143.3750    81.3120    12.7400    12.0200    11.4890    23.4160     2.3220   -19.9960 
  143.5000    80.6700    13.0480    12.4050    11.8950    23.4060     2.3310   -19.8350 
  143.6250    81.0330    13.1100    12.5840    12.2680    23.4100     2.3340   -19.6770 
  143.7500    79.7210    12.9430    12.5230    11.8860    23.4100     2.3260   -19.5500 
  143.8750    78.0090    12.6130    12.2570    11.4850    23.4100     2.3080   -19.4590 
  144.0000    77.5480    12.2310    11.8820    11.3850    23.4100     2.2890   -19.3980 
  144.1250    78.5250    11.9350    11.5210    11.0070    23.4040     2.2800   -19.3610 
  144.2500    79.0540    11.8100    11.2710    10.5670    23.3870     2.2860   -19.3360 
  144.3750    78.6450    11.9130    11.1960    10.5060    23.3580     2.3050   -19.3150 
  144.5000    76.7390    12.2680    11.3370    10.8840    23.3140     2.3320   -19.3040 
  144.6250    74.5270    12.8990    11.7520    11.7570    23.2380     2.3590   -19.2930 
  144.7500    73.6410    13.7360    12.3890    12.4030    23.1880     2.3810   -19.2720 
  144.8750    73.6990    14.7810    13.2430    13.1990    23.1720     2.3890   -19.2560 
  145.0000    73.6390    16.0790    14.3380    14.2380    23.1710     2.3810   -19.2710 
  145.1250    72.7800    17.7750    15.7920    15.4140    23.1700     2.3510   -19.3080 
  145.2500    71.4740    19.8650    17.6140    16.6750    23.1600     2.3100   -19.3510 
  145.3750    70.5630    22.2720    19.7730    19.2780    23.1410     2.2690   -19.3810 
  145.5000    70.0440    24.7650    22.1080    23.9830    23.1200     2.2380   -19.3770 
  145.6250    67.8100    26.8980    24.2520    27.0980    23.0870     2.2230   -19.3640 
  145.7500    65.4320    28.3840    25.8910    27.0900    23.0410     2.2180   -19.3820 
  145.8750    65.9490    29.1590    26.8900    25.8880    22.9960     2.2200   -19.4180 
  146.0000    68.2190    29.4200    27.3550    24.6670    22.9490     2.2220   -19.4230 
  146.1250    66.6890    29.5640    27.5900    24.0910    22.9100     2.2240   -19.4040 
  146.2500    62.3680    29.9420    27.9570    24.1660    22.8800     2.2260   -19.3760 
  146.3750    59.2610    30.6160    28.5700    24.6700    22.8500     2.2300   -19.3570 
  146.5000    59.7360    31.4300    29.3460    26.0670    22.8300     2.2350   -19.3650 
  146.6250    62.1800    32.0100    29.9890    26.6850    22.8240     2.2420   -19.3840 
  146.7500    63.9190    32.0690    30.2130    25.9860    22.8240     2.2460   -19.3910 
  146.8750    63.9810    31.4820    29.8580    25.1860    22.8240     2.2480   -19.3850 
  147.0000    63.0600    30.3180    28.9350    24.5550    22.8240     2.2480   -19.3930 
  147.1250    63.2250    28.7990    27.5980    23.8670    22.8240     2.2510   -19.4210 
  147.2500    63.0160    27.3200    26.2160    22.7030    22.8240     2.2590   -19.4530 
  147.3750    62.9840    26.1440    25.0410    20.7510    22.8240     2.2700   -19.4790 
  147.5000    64.3320    25.4460    24.2580    19.0020    22.8240     2.2800   -19.4940 
  147.6250    65.8660    25.3960    24.0700    18.6570    22.8240     2.2860   -19.5050 
  147.7500    66.4040    25.8640    24.4110    18.8280    22.8240     2.2920   -19.5080 
  147.8750    66.2430    26.7300    25.2030    18.6730    22.8200     2.3010   -19.5010 
  148.0000    65.0200    27.8230    26.2810    18.0830    22.8000     2.3130   -19.4910 
  148.1250    62.0670    28.9410    27.4250    17.9420    22.7640     2.3220   -19.4870 
  148.2500    60.0220    29.9170    28.4420    18.9710    22.7550     2.3180   -19.5170 
  148.3750    59.3760    30.6840    29.2650    20.4240    22.7740     2.3000   -19.5600 
  148.5000    58.7460    31.2530    29.9120    22.0340    22.7880     2.2700   -19.5980 
  148.6250    58.3020    31.6910    30.4360    24.3390    22.7830     2.2380   -19.6150 
  148.7500    58.6440    32.1180    30.9320    27.4100    22.8350     2.2190   -19.6110 
  148.8750    58.2600    32.5880    31.4580    30.8770    22.9750     2.2210   -19.5850 
  149.0000    56.2290    33.1010    32.0460    33.0290    23.2100     2.2430   -19.5520 
  149.1250    55.3610    33.6100    32.6940    32.9000    23.4170     2.2800   -19.5270 
  149.2500    56.1480    34.0560    33.3320    33.0140    23.5060     2.3130   -19.5020 
  149.3750    58.6850    34.3940    33.8690    34.1090    23.5250     2.3300   -19.4810 
  149.5000    62.9770    34.5640    34.2090    34.8820    23.5260     2.3280   -19.4700 
  149.6250    64.6060    34.4290    34.2040    34.6680    23.5260     2.3140   -19.4750 
  149.7500    63.1260    33.9620    33.8520    33.9380    23.5260     2.3060   -19.4770 
  149.8750    60.4590    33.1800    33.1760    33.6110    23.5260     2.3130   -19.4800 
  150.0000    58.3520    32.1860    32.2670    33.5080    23.5260     2.3340   -19.4730 
  150.1250    57.2280    31.1500    31.2670    32.2330    23.5260     2.3550   -19.4540 
  150.2500    55.9000    30.2430    30.3540    29.9160    23.5250     2.3610   -19.4290 
  150.3750    55.7880    29.5750    29.6510    28.5790    23.5210     2.3500   -19.4220 
  150.5000    57.3830    29.2240    29.2600    29.2890    23.5110     2.3280   -19.4580 
  150.6250    61.2510    29.3600    29.3320    29.4560    23.4840     2.3030   -19.5120 
  150.7500    64.5430    30.1580    29.8520    27.8030    23.4290     2.2800   -19.5870 
  150.8750    63.9570    31.7440    30.8260    26.8830    23.3700     2.2600   -19.6720 
  151.0000    60.2910    33.5780    32.1960    27.6180    23.3330     2.2430   -19.7480 
  151.1250    57.9790    35.3640    33.8190    30.3260    23.3050     2.2320   -19.7940 
  151.2500    57.7800    36.9000    35.3670    33.2030    23.2800     2.2270   -19.8130 
  151.3750    58.4860    38.0060    36.5330    35.0270    23.2470     2.2230   -19.8050 
  151.5000    58.1240    38.4240    37.0710    35.2150    23.2200     2.2140   -19.7870 
  151.6250    57.6720    37.9860    36.7780    33.9430    23.1980     2.1970   -19.7850 
  151.7500    59.2630    37.0130    35.9000    32.3610    23.1720     2.1860   -19.7830 
  151.8750    61.8290    35.7940    34.6800    30.0480    23.1390     2.1990   -19.7720 
  152.0000    62.1610    34.6360    33.4130    28.2040    23.0750     2.2490   -19.7420 
  152.1250    58.7340    33.9230    32.4910    27.9320    22.9980     2.3280   -19.7470 
  152.2500    56.1380    33.8680    32.1610    27.7720    22.9500     2.3970   -19.7920 
  152.3750    56.8830    34.6440    32.6070    26.4260    22.9300     2.4220   -19.8460 
  152.5000    59.6610    36.3050    33.9080    26.7610    22.9260     2.3920   -19.8550 
  152.6250    60.7110    38.7670    36.0650    30.1650    22.9260     2.3230   -19.8170 
  152.7500    59.6450    41.4240    38.5640    34.3320    22.9260     2.2560   -19.8010 
  152.8750    58.0960    43.6910    40.8880    36.1590    22.9270     2.2130   -19.8270 
  153.0000    57.4820    45.0590    42.5270    36.2220    22.9280     2.1950   -19.8950 
  153.1250    58.8900    45.1380    43.0180    35.8430    22.9310     2.1930   -19.9200 
  153.2500    61.7320    44.3490    42.6310    35.7460    22.9330     2.1940   -19.8930 
  153.3750    65.1990    43.1120    41.7160    35.3270    22.9330     2.1950   -19.8570 
  153.5000    67.6070    41.7790    40.6240    34.4250    22.9330     2.1960   -19.8670 
  153.6250    68.6110    40.4720    39.5270    33.1460    22.9330     2.1960   -19.9290 
  153.7500    67.9820    39.0110    38.3050    32.3560    22.9320     2.1960   -19.9540 
  153.8750    65.5970    37.1280    36.7040    31.6060    22.9290     2.1960   -19.9290 
  154.0000    62.8410    34.6460    34.5220    30.5370    22.9270     2.1990   -19.8830 
  154.1250    62.7490    31.5620    31.6990    28.4250    22.9260     2.2060   -19.8800 
  154.2500    65.8550    28.3300    28.6460    24.6920    22.9260     2.2170   -19.8990 
  154.3750    70.8190    25.3580    25.7500    20.9270    22.9260     2.2270   -19.8820 
