~V
VERS. 2.00: Ver 2.00
~W
STRT.M 50.0000:
STOP.M 233.0000:
STEP.M 0.1250:
NULL. -999.2500:
UWI. F10598:
~C
DEPT.M :
DEN.GM/CC :
SP.MV :
GR.API :
RML.OHMM :
RI. :
RXO.OHMM :
CALI.CM :
~A
# ...
   72.5000     2.2710   -22.5280    83.9050    12.2450     8.4600    28.8460    24.4490 
   72.6250     2.1420   -23.5270    83.7770    12.3840     8.9670    18.4450    24.5500 
   72.7500     2.0470   -24.4230    85.6500    11.4120     8.6030    10.7860    24.6380 
   72.8750     2.0190   -25.1630    85.7700    10.0450     7.7850     8.7930    24.6840 
   73.0000     2.0370   -25.6960    86.0590     8.9010     6.9840     8.7430    24.7040 
   73.1250     2.0580   -25.9430    87.7590     8.2930     6.5080     8.7860    24.7290 
   73.2500     2.0580   -25.9280    86.5260     8.0630     6.3250     8.7690    24.7680 
   73.3750     2.0480   -25.6420    81.5120     8.0510     6.3450     8.7450    24.7990 
   73.5000     2.0420   -25.0850    77.5380     8.1130     6.4630     8.8010    24.8210 
   73.6250     2.0510   -24.2840    77.5820     8.1310     6.5790     8.9640    24.8060 
   73.7500     2.0820   -23.3460    79.4610     8.0380     6.6110     9.1630    24.6820 
   73.8750     2.1330   -22.3160    82.9930     7.7840     6.5060     9.2850    24.3830 
   74.0000     2.1880   -21.2520    88.9480     7.3420     6.2430     9.0420    23.9860 
   74.1250     2.2230   -20.2070    95.5200     6.7670     5.8410     7.3010    23.7770 
   74.2500     2.2400   -19.2170   100.7760     6.2370     5.4080     5.9290    23.7150 
   74.3750     2.2490   -18.3180   104.8050     5.8810     5.0270     5.3450    23.7090 
   74.5000     2.2570   -17.5290   107.3690     5.7360     4.7490     5.2760    23.7110 
   74.6250     2.2550   -16.8820   108.7040     5.7530     4.6010     5.2080    23.7730 
   74.7500     2.2430   -16.3510   111.9510     5.7810     4.5360     5.1910    23.9540 
   74.8750     2.2280   -15.9530   117.3720     5.7540     4.5140     5.2080    24.2180 
   75.0000     2.2210   -15.6680   120.6150     5.7000     4.4990     5.1680    24.4100 
   75.1250     2.2270   -15.4780   120.1630     5.7150     4.4730     5.1210    24.4660 
   75.2500     2.2370   -15.3500   120.6280     5.8360     4.4550     5.1210    24.4740 
   75.3750     2.2430   -15.2950   121.5020     6.0380     4.4670     5.2620    24.4800 
   75.5000     2.2420   -15.3080   120.1880     6.2770     4.5260     5.5410    24.4990 
   75.6250     2.2360   -15.3920   118.0480     6.5320     4.6510     5.8030    24.5290 
   75.7500     2.2280   -15.5430   115.7020     6.7790     4.8160     5.9890    24.5430 
   75.8750     2.2210   -15.7120   110.6600     6.9950     4.9890     6.0690    24.5460 
   76.0000     2.2160   -15.9120   103.7430     7.1540     5.1370     6.0570    24.5430 
   76.1250     2.2120   -16.1220   102.2510     7.2490     5.2330     6.0250    24.5420 
   76.2500     2.2060   -16.3450   104.7500     7.3150     5.2830     6.1590    24.5370 
   76.3750     2.2000   -16.5360   106.1720     7.3580     5.2850     6.4850    24.5110 
   76.5000     2.1950   -16.6990   106.6410     7.3460     5.2410     6.5420    24.4440 
   76.6250     2.1950   -16.8260   109.5430     7.2070     5.1410     6.3340    24.3510 
   76.7500     2.1960   -16.9400   114.3640     6.9560     5.0050     6.2490    24.2450 
   76.8750     2.1960   -17.0550   116.4600     6.6880     4.8670     6.2300    23.9910 
   77.0000     2.2030   -17.1630   113.1120     6.5660     4.8020     6.3240    23.5010 
   77.1250     2.2310   -17.2880   108.3020     6.8900     4.9840     6.6430    22.9860 
   77.2500     2.2880   -17.4440   106.6890     7.8480     5.5410     7.4790    22.7280 
   77.3750     2.3680   -17.6770   107.0800     9.6330     6.6210     9.2260    22.6600 
   77.5000     2.4550   -17.9930   104.3320    12.3280     8.3410    12.4640    22.6590 
   77.6250     2.5190   -18.4400    95.8530    15.7430    10.7470    18.5830    22.7320 
   77.7500     2.5430   -18.9700    87.4970    18.7770    13.2270    24.7610    23.0040 
   77.8750     2.5210   -19.6000    85.0180    20.0580    14.8530    26.6950    23.5660 
   78.0000     2.4640   -20.3120    87.2180    18.7620    14.8140    23.3150    24.3080 
   78.1250     2.3870   -21.0980    85.8950    15.5010    13.0460    18.3540    24.7590 
   78.2500     2.3010   -21.8780    81.3400    12.2750    10.7920    13.3980    24.9390 
   78.3750     2.2170   -22.5980    79.8090     9.8970     8.7790     9.9050    25.0160 
   78.5000     2.1520   -23.2180    83.3260     8.4520     7.3130     8.4210    25.0620 
   78.6250     2.1190   -23.6830    85.3800     7.8070     6.4930     8.2270    25.0950 
   78.7500     2.1000   -24.0050    83.5140     7.6030     6.1130     8.2570    25.1260 
   78.8750     2.0840   -24.1390    79.9560     7.6930     6.0540     8.2850    25.1390 
   79.0000     2.0680   -24.0780    78.4340     7.9360     6.2030     8.2200    25.1410 
   79.1250     2.0530   -23.8080    80.0040     8.2100     6.4670     8.1290    25.1460 
   79.2500     2.0350   -23.3830    82.7170     8.4260     6.7240     8.0370    25.1680 
   79.3750     2.0210   -22.8060    85.6720     8.5170     6.8710     7.9750    25.1810 
   79.5000     2.0280   -22.1010    88.8810     8.3830     6.8110     7.9870    25.0520 
   79.6250     2.0690   -21.2660    96.2020     7.8810     6.4430     7.7820    24.6710 
   79.7500     2.1320   -20.3770   107.0110     7.1120     5.8420     7.2290    24.1770 
   79.8750     2.2010   -19.4960   119.8140     6.2440     5.1140     6.0810    23.8050 
   80.0000     2.2550   -18.6710   131.3200     5.4600     4.3940     4.8840    23.6510 
   80.1250     2.2770   -17.9060   136.3030     4.9260     3.8370     4.3500    23.6320 
   80.2500     2.2730   -17.2150   133.7740     4.6270     3.4960     4.1750    23.6320 
   80.3750     2.2530   -16.6200   125.5750     4.5470     3.3850     4.2070    23.6320 
   80.5000     2.2270   -16.1380   117.9470     4.6720     3.4710     4.4180    23.6320 
   80.6250     2.1990   -15.7680   114.0620     5.0200     3.7030     4.6730    23.6360 
   80.7500     2.1710   -15.4660   112.0340     5.5130     3.9900     5.0540    23.6650 
   80.8750     2.1490   -15.2050   112.9410     6.0700     4.2890     5.3450    23.7660 
   81.0000     2.1390   -14.9660   114.9190     6.6000     4.5680     5.4270    23.9610 
   81.1250     2.1450   -14.7700   113.3600     6.9790     4.7800     5.5500    24.1660 
   81.2500     2.1580   -14.6150   107.9610     7.1340     4.8990     5.7540    24.2820 
   81.3750     2.1720   -14.5190   102.0370     7.0200     4.8900     5.8330    24.3230 
   81.5000     2.1870   -14.4840    98.7880     6.6520     4.7460     5.6420    24.3460 
   81.6250     2.2090   -14.5350    98.5620     6.1550     4.5190     5.5160    24.3690 
   81.7500     2.2390   -14.6700    99.9510     5.7930     4.3390     5.4840    24.3600 
   81.8750     2.2760   -14.8860   102.5240     5.7760     4.3260     5.5890    24.3350 
   82.0000     2.3210   -15.1980   105.3410     6.2290     4.5840     5.9660    24.3210 
   82.1250     2.3720   -15.5910   105.4560     7.2190     5.2270     7.5890    24.3190 
   82.2500     2.4210   -16.0950    99.3230     8.4900     6.1490    10.8260    24.3190 
   82.3750     2.4440   -16.6760    89.4520     9.6940     7.1430    13.1360    24.3190 
   82.5000     2.4120   -17.3160    82.7220    10.3900     7.8620    11.5290    24.3220 
   82.6250     2.3190   -17.9550    82.6250    10.2030     7.8850     8.8400    24.3670 
   82.7500     2.2260   -18.5300    83.5370     9.4880     7.3780     8.0110    24.4890 
   82.8750     2.1620   -19.0050    82.3620     8.6670     6.6680     8.0660    24.6570 
   83.0000     2.1300   -19.3240    80.4040     8.1000     6.0700     8.2070    24.7860 
   83.1250     2.1210   -19.4240    79.4580     8.0970     5.8540     8.5570    24.9120 
   83.2500     2.1230   -19.2990    81.3640     8.6100     6.0730     8.8060    25.0630 
   83.3750     2.1430   -18.9640    86.7380     9.5140     6.7160     9.0930    25.2010 
   83.5000     2.1960   -18.4330    90.7110    10.5660     7.6480     9.9000    25.1460 
   83.6250     2.2830   -17.7410    88.0950    11.2540     8.4940    12.6960    24.7520 
