~V
VERS. 2.00: Ver 2.00
~W
STRT.M 47.0000:
STOP.M 236.0000:
STEP.M 0.1250:
NULL. -999.2500:
UWI. F10597:
~C
DEPT.M :
SP.MV :
DEN.GM/CC :
GR.API :
RML.OHMM :
RI. :
RXO.OHMM :
CALI.CM :
~A
# ...
  193.2500   -16.5690     2.1670    72.8300    99.7960    95.6440    84.3400    24.6980 
  193.3750   -16.7110     2.1670    72.1430   107.3210   102.9810    84.2000    24.6980 
  193.5000   -16.8040     2.1630    70.6550   112.6650   108.1660    84.2760    24.6870 
  193.6250   -16.8460     2.1640    68.3500   118.2180   113.3890    93.3420    24.6610 
  193.7500   -16.9050     2.1680    67.8630   126.0670   120.6920   111.9260    24.6340 
  193.8750   -16.9490     2.1700    70.5700   137.2980   131.2890   119.8190    24.6230 
  194.0000   -16.9890     2.1700    73.5270   151.4110   145.0880   128.2580    24.6230 
  194.1250   -17.0260     2.1640    73.0710   164.8490   159.0840   130.8070    24.6220 
  194.2500   -17.0390     2.1540    69.9320   174.2020   170.4030   135.3570    24.6160 
  194.3750   -17.0100     2.1440    67.7140   176.9780   177.2930   142.4360    24.5960 
  194.5000   -16.9070     2.1380    67.9370   177.2390   172.9990   164.7570    24.5530 
  194.6250   -16.7850     2.1430    69.4690   172.3340   163.5270   171.0760    24.5130 
  194.7500   -16.6630     2.1500    70.4710   162.5580   149.9270   156.3380    24.4830 
  194.8750   -16.5400     2.1560    71.1940   148.4850   133.3190   130.8390    24.4720 
  195.0000   -16.4180     2.1550    69.6890   131.1380   115.2050   110.8670    24.4690 
  195.1250   -16.2990     2.1490    65.4950   112.9910    97.4870   104.5970    24.4550 
  195.2500   -16.1900     2.1360    63.5790    95.3080    80.9690    99.8280    24.4290 
  195.3750   -16.1070     2.1260    67.9350    78.7470    66.0280    86.6400    24.4260 
  195.5000   -16.1030     2.1330    75.6760    64.2680    53.4780    71.4010    24.4330 
  195.6250   -16.1500     2.1400    81.6330    52.4060    43.5400    49.3200    24.4150 
  195.7500   -16.1970     2.1500    87.2950    43.8270    36.6360    31.7430    24.3600 
  195.8750   -16.2290     2.1600    92.7200    38.9760    33.1880    23.9520    24.2420 
  196.0000   -16.2660     2.1720    91.9530    39.2220    34.6340    24.1840    24.0780 
  196.1250   -16.3090     2.1800    86.9640    45.3710    41.4270    30.2650    24.0030 
  196.2500   -16.3880     2.1870    81.1110    59.5390    54.8100    46.1840    24.0450 
  196.3750   -16.4490     2.1900    76.6880    83.2200    75.5470    73.2250    24.1920 
  196.5000   -16.4730     2.1600    73.5130   114.2480   101.5240    89.1250    24.3340 
  196.6250   -16.4890     2.1410    71.4020   140.1730   121.9500    90.5490    24.3870 
  196.7500   -16.4670     2.1410    70.1110   149.8970   127.1570   101.5170    24.3880 
  196.8750   -16.4670     2.1490    69.0940   142.4910   118.0400   121.2560    24.3610 
  197.0000   -16.4410     2.1560    70.4740   126.4890   104.0320   120.7200    24.3080 
  197.1250   -16.4120     2.1610    72.1970   111.4560    92.4130    93.0430    24.2740 
  197.2500   -16.4060     2.1640    72.2790   100.3270    84.9050    70.0470    24.2830 
  197.3750   -16.4370     2.1640    71.8300    94.6600    82.4240    69.9080    24.3500 
  197.5000   -16.4950     2.1620    72.4850    96.9440    86.6170    84.3350    24.4460 
  197.6250   -16.5340     2.1600    72.9850   105.7260    95.9330   101.3230    24.5040 
  197.7500   -16.5920     2.1570    71.5310   118.0170   107.6560   113.2170    24.4990 
  197.8750   -16.6630     2.1540    69.2240   128.5350   116.9270   111.5780    24.4790 
  198.0000   -16.7140     2.1530    67.7520   130.4480   117.3870   115.5540    24.4690 
  198.1250   -16.7510     2.1520    66.8320   124.2250   110.2280   115.5600    24.4550 
  198.2500   -16.7370     2.1540    67.2520   113.3080    99.2050   113.7120    24.4270 
  198.3750   -16.6440     2.1600    69.0050   101.3770    87.7470   103.2210    24.4050 
  198.5000   -16.5250     2.1700    71.3360    90.9500    78.0200    91.1030    24.3870 
  198.6250   -16.4340     2.1820    76.1060    82.5590    70.2970    81.8850    24.3620 
  198.7500   -16.3560     2.1980    81.9720    76.1950    64.4580    66.2220    24.3370 
  198.8750   -16.2660     2.2150    85.0890    71.7800    60.3410    54.9380    24.3500 
  199.0000   -16.1990     2.2280    82.2840    69.4180    57.9240    63.6600    24.4270 
  199.1250   -16.1440     2.2350    76.9090    68.2280    56.4070    77.3350    24.5370 
  199.2500   -16.1390     2.2490    72.2020    67.1800    54.9580    86.1180    24.5860 
  199.3750   -16.1860     2.2780    71.2750    65.0330    52.6060    76.0790    24.5720 
  199.5000   -16.2350     2.3110    74.2660    60.8670    48.6740    56.2380    24.5540 
  199.6250   -16.2870     2.3280    75.8570    55.8450    44.1410    47.9750    24.5480 
  199.7500   -16.3210     2.3370    76.2730    51.3080    40.0820    50.5930    24.5470 
  199.8750   -16.3700     2.3550    77.4110    47.9790    37.0820    48.0960    24.5470 
  200.0000   -16.4200     2.3790    79.8750    45.7400    35.0970    48.3720    24.5470 
  200.1250   -16.4920     2.3850    83.4470    43.6910    33.4800    47.9170    24.5460 
  200.2500   -16.5590     2.3640    87.2630    41.4490    31.9670    43.4230    24.5440 
  200.3750   -16.6630     2.3250    89.4380    39.2290    30.6520    36.7080    24.5450 
  200.5000   -16.7710     2.2870    88.0210    37.9400    30.1470    35.0500    24.5470 
  200.6250   -16.8520     2.2640    86.1450    38.2160    30.9230    35.8230    24.5470 
  200.7500   -16.8780     2.2580    83.2110    40.6220    33.4020    38.9610    24.5470 
  200.8750   -16.7970     2.2570    77.0240    45.4860    37.6730    51.0230    24.5400 
  201.0000   -16.5850     2.2470    71.1470    52.1890    42.8550    87.3090    24.4980 
  201.1250   -16.2140     2.2330    68.2610    57.5500    46.4230   102.4160    24.4170 
  201.2500   -15.7290     2.2300    67.3470    58.4930    46.3220    72.5390    24.3370 
  201.3750   -15.1610     2.2410    69.0140    54.5490    42.7560    44.3540    24.2810 
  201.5000   -14.5660     2.2590    74.1360    48.6530    38.4480    41.9580    24.2620 
  201.6250   -13.9470     2.2820    78.9950    44.3280    35.8370    43.4370    24.2680 
  201.7500   -13.3820     2.3140    80.4180    42.5020    35.2750    44.6440    24.3110 
  201.8750   -12.8970     2.3570    78.4470    42.6650    36.0520    46.7280    24.3880 
  202.0000   -12.5410     2.4020    77.0190    43.5290    36.9870    58.9730    24.4200 
  202.1250   -12.2860     2.4400    78.4770    43.6770    37.1170    68.7940    24.3640 
  202.2500   -12.1000     2.4570    82.0410    42.4570    36.0480    64.3850    24.2620 
  202.3750   -11.9380     2.4440    85.9860    39.8450    33.7580    63.8010    24.2310 
  202.5000   -11.8420     2.4280    86.1100    36.4950    30.7150    72.1940    24.3050 
  202.6250   -11.7980     2.4440    81.0300    33.6620    28.1050    77.2540    24.4170 
  202.7500   -11.8000     2.4920    71.8230    32.1010    26.7390    64.5680    24.4650 
  202.8750   -11.8470     2.5500    62.5610    32.0270    26.8500    58.0900    24.4720 
  203.0000   -11.9410     2.5880    59.1590    33.0870    28.0280    63.5980    24.4720 
  203.1250   -12.0910     2.6050    58.6090    33.9810    28.9380    69.8170    24.4720 
  203.2500   -12.2910     2.6070    58.3560    33.6150    28.4980    67.1570    24.4720 
  203.3750   -12.5550     2.5930    59.7390    31.4900    26.2960    55.7050    24.4720 
  203.5000   -12.8540     2.5560    64.2550    27.9540    22.8980    41.1920    24.4720 
  203.6250   -13.1410     2.4980    68.9470    24.2660    19.6660    31.4190    24.4720 
  203.7500   -13.3860     2.4340    70.5910    21.1180    17.2430    25.9580    24.4720 
  203.8750   -13.6350     2.3810    70.2910    18.8090    15.7460    24.2960    24.4720 
  204.0000   -13.8790     2.3580    70.9170    17.4230    14.9700    23.6880    24.4720 
  204.1250   -14.1170     2.3560    71.2480    16.5610    14.4040    22.8930    24.4720 
  204.2500   -14.3460     2.3590    69.5210    15.9520    13.8480    22.1420    24.4720 
  204.3750   -14.5810     2.3570    67.9360    15.3980    13.3050    21.6650    24.4720 
