~V
VERS. 2.00: Ver 2.00
~W
STRT.M 40.0000:
STOP.M 191.0000:
STEP.M 0.1250:
NULL. -999.2500:
UWI. F10585:
~C
DEPT.M :
DEN.GM/CC :
SP.MV :
GR.API :
RML.OHMM :
RI. :
RXO.OHMM :
CALI.CM :
~A
# ...
  152.5000     2.2180   -10.3160    69.4100    27.5330    27.4960    25.9920    24.0660 
  152.6250     2.2180   -10.3120    72.2800    26.7840    26.7430    26.1800    24.0650 
  152.7500     2.2210   -10.3350    73.6340    26.8980    26.6190    27.1910    24.0620 
  152.8750     2.2280   -10.3760    72.6170    27.6240    27.0670    28.7120    24.0460 
  153.0000     2.2410   -10.4330    72.6970    28.6680    27.9420    29.9560    23.9990 
  153.1250     2.2620   -10.5080    73.9150    29.7470    28.9960    31.3090    23.9190 
  153.2500     2.2860   -10.5840    73.0230    30.6700    29.8930    33.0690    23.8580 
  153.3750     2.2950   -10.6770    70.4080    31.2900    30.4440    35.0410    23.8170 
  153.5000     2.2750   -10.8070    67.3440    31.4810    30.6140    35.1500    23.7920 
  153.6250     2.2370   -10.9620    64.7520    31.2310    30.5330    31.4530    23.7520 
  153.7500     2.2120   -11.0820    64.1860    30.9480    30.4930    29.7150    23.6370 
  153.8750     2.2100   -11.1900    66.7550    30.9850    30.6740    30.8130    23.4400 
  154.0000     2.2210   -11.3460    70.2890    31.5050    31.1710    34.0000    23.3050 
  154.1250     2.2330   -11.5550    70.9970    32.4590    32.0360    36.7190    23.3730 
  154.2500     2.2400   -11.7430    70.3640    33.4570    33.0730    36.2560    23.5240 
  154.3750     2.2410   -11.9130    70.3220    34.1720    33.9800    35.0370    23.5150 
  154.5000     2.2380   -12.0860    70.9680    34.3600    34.3670    33.0820    23.3590 
  154.6250     2.2330   -12.2630    71.5510    33.8830    33.8770    32.2080    23.1800 
  154.7500     2.2330   -12.4100    71.6210    33.0610    32.8900    31.9230    23.1300 
  154.8750     2.2430   -12.5110    73.0970    32.2440    31.9140    31.3420    23.2020 
  155.0000     2.2640   -12.5450    76.5860    31.8150    31.4000    29.7920    23.3810 
  155.1250     2.2940   -12.4870    78.0180    32.1610    31.6730    32.7660    23.5910 
  155.2500     2.3180   -12.3720    75.0110    33.1130    32.4800    42.4970    23.7290 
  155.3750     2.3130   -12.2150    69.5570    34.2800    33.4150    50.8000    23.7750 
  155.5000     2.2660   -12.0270    65.6160    35.0430    33.9610    46.4560    23.8130 
  155.6250     2.1990   -11.8200    67.0870    34.6770    33.5940    39.1570    23.9440 
  155.7500     2.1570   -11.6620    70.2480    33.2730    32.5100    36.3300    24.1530 
  155.8750     2.1490   -11.5260    72.3440    31.3010    31.1020    33.8280    24.2910 
  156.0000     2.1630   -11.3760    72.6620    29.4860    29.8400    31.3860    24.3290 
  156.1250     2.1800   -11.2390    72.0320    28.7370    29.0320    29.7170    24.3120 
  156.2500     2.1870   -11.1570    70.8320    29.1680    28.6380    29.2470    24.2980 
  156.3750     2.1860   -11.0980    69.6770    29.7300    29.4720    30.5020    24.3060 
  156.5000     2.1850   -11.0110    69.6510    30.7510    30.7280    32.5810    24.3080 
  156.6250     2.1900   -10.9110    68.5840    32.0280    31.9370    36.2770    24.2940 
  156.7500     2.1960   -10.8160    65.9380    33.1600    32.7720    37.3250    24.3060 
  156.8750     2.1940   -10.7590    64.3820    33.8360    33.1630    35.5880    24.3260 
  157.0000     2.1810   -10.7440    64.6720    33.9430    33.1930    33.7420    24.3350 
  157.1250     2.1650   -10.7530    63.8720    33.5810    33.0300    33.9150    24.3350 
  157.2500     2.1570   -10.7750    61.8430    33.1380    32.8350    35.2770    24.3350 
  157.3750     2.1610   -10.8290    60.9630    32.8520    32.5960    36.1420    24.3350 
  157.5000     2.1730   -10.9650    61.2470    32.8030    32.2920    36.9510    24.3350 
  157.6250     2.1870   -11.1330    61.5910    32.9020    31.9900    36.9190    24.3350 
  157.7500     2.1980   -11.2590    63.3830    32.9210    31.8250    35.0560    24.3350 
  157.8750     2.2030   -11.3480    67.1430    32.7180    31.8670    33.0380    24.3350 
  158.0000     2.1990   -11.4360    71.5590    32.2780    32.0150    33.2800    24.3350 
  158.1250     2.1870   -11.5280    73.1660    31.6640    31.9240    33.9600    24.3350 
  158.2500     2.1690   -11.5740    71.5230    30.9330    31.3650    33.7710    24.3350 
  158.3750     2.1420   -11.5660    69.9640    30.0430    30.3570    32.6290    24.3350 
  158.5000     2.1130   -11.5290    70.2420    28.9850    29.1080    30.3380    24.3240 
  158.6250     2.1020   -11.4930    70.6500    27.8900    27.8760    28.4130    24.2290 
  158.7500     2.1110   -11.4840    68.4770    26.9840    26.8670    26.6010    24.0040 
  158.8750     2.1280   -11.5260    66.0530    26.4250    26.2490    25.7510    23.7600 
  159.0000     2.1320   -11.6040    65.6770    26.2900    26.1050    26.7590    23.7000 
  159.1250     2.1260   -11.6850    67.5500    26.5790    26.3650    28.9370    23.8530 
  159.2500     2.1310   -11.8180    70.9280    27.0530    26.6540    30.2980    23.9630 
  159.3750     2.1520   -11.9970    73.1270    27.5210    26.6980    30.4500    23.9330 
  159.5000     2.1740   -12.1550    72.2910    27.8120    26.3900    29.7810    23.8360 
  159.6250     2.1770   -12.3150    70.8500    27.7730    25.8220    28.4450    23.8230 
  159.7500     2.1650   -12.4760    72.6620    27.4780    25.2580    27.1210    23.8850 
  159.8750     2.1500   -12.6090    76.6410    27.0300    24.8160    27.4410    23.9560 
  160.0000     2.1420   -12.7300    79.1600    26.5240    24.4720    27.8640    23.9780 
  160.1250     2.1420   -12.8860    78.3180    26.0210    24.1220    26.4080    23.9570 
  160.2500     2.1490   -13.0110    76.5950    25.5620    23.6890    25.3010    23.9280 
  160.3750     2.1560   -13.1140    75.3920    25.1630    23.1640    24.5830    23.9160 
  160.5000     2.1580   -13.2200    75.0370    24.8020    22.6280    24.2570    23.9140 
  160.6250     2.1530   -13.2920    74.4560    24.4610    22.2810    24.5280    23.9030 
  160.7500     2.1480   -13.3940    73.6400    24.1610    22.2410    24.9230    23.8750 
  160.8750     2.1480   -13.5060    73.0270    23.9610    22.5170    25.1520    23.8370 
  161.0000     2.1490   -13.6060    72.8930    23.9410    23.0460    25.2440    23.8170 
  161.1250     2.1420   -13.7160    73.4520    24.2920    23.8220    25.7890    23.8730 
  161.2500     2.1290   -13.8540    72.5380    25.1170    24.8900    26.6520    23.9740 
  161.3750     2.1180   -14.0280    70.3350    26.4970    26.3690    28.5550    24.0380 
  161.5000     2.1170   -14.2600    69.8980    28.3900    28.2810    31.5580    24.0540 
  161.6250     2.1290   -14.5460    71.9510    30.6210    30.5010    35.9820    24.0540 
  161.7500     2.1440   -14.8620    74.3210    32.7600    32.6720    40.6770    24.0520 
  161.8750     2.1550   -15.2190    75.5280    34.4440    34.4830    40.3140    24.0500 
  162.0000     2.1570   -15.5920    76.5040    35.4530    35.6920    36.2430    24.0490 
  162.1250     2.1510   -15.9370    77.0150    35.7830    36.1620    35.9490    24.0510 
  162.2500     2.1400   -16.3010    76.5690    35.9380    36.2500    37.8340    24.0510 
  162.3750     2.1310   -16.6320    75.2020    36.3540    36.3520    39.5580    24.0490 
  162.5000     2.1350   -16.9000    74.1480    37.3420    36.9160    39.0850    24.0480 
  162.6250     2.1550   -17.1320    74.3880    39.0930    38.4000    38.7760    24.0480 
  162.7500     2.1780   -17.3090    74.0110    41.3050    40.5660    44.3960    24.0480 
  162.8750     2.1980   -17.4820    70.8820    43.5690    42.8890    51.7470    24.0480 
  163.0000     2.2160   -17.6890    66.0620    45.2940    44.5830    53.0740    24.0480 
  163.1250     2.2250   -17.9210    64.6950    45.6260    44.6640    49.0950    24.0480 
  163.2500     2.2210   -18.1840    67.4370    44.5220    43.2760    43.7670    24.0480 
  163.3750     2.2090   -18.4780    71.5360    42.3270    41.0110    39.3250    24.0480 
  163.5000     2.1990   -18.7820    73.3990    39.7780    38.6750    36.7130    24.0480 
  163.6250     2.1950   -19.1200    71.5010    37.8490    37.0880    37.8180    24.0480 
