~V
VERS. 2.00: Ver 2.00
~W
STRT.M 40.0000:
STOP.M 191.0000:
STEP.M 0.1250:
NULL. -999.2500:
UWI. F10585:
~C
DEPT.M :
DEN.GM/CC :
SP.MV :
GR.API :
RML.OHMM :
RI. :
RXO.OHMM :
CALI.CM :
~A
# ...
   73.7500     2.2320   -12.0740    95.7490     7.6960     7.3010     6.8590    23.3520 
   73.8750     2.2270   -11.9080    97.1140     7.7140     7.2910     7.0340    23.1850 
   74.0000     2.2210   -11.7330    97.4420     7.8750     7.3750     7.3120    23.3630 
   74.1250     2.2140   -11.5960    94.1510     8.1250     7.5700     7.1840    23.8930 
   74.2500     2.2050   -11.5140    90.9520     8.3380     7.7490     7.6370    24.3400 
   74.3750     2.2010   -11.4730    90.7230     8.4180     7.7590     8.2330    24.5150 
   74.5000     2.2070   -11.4350    92.5580     8.2960     7.4950     7.8880    24.5410 
   74.6250     2.2210   -11.3880    96.4210     7.9530     6.9720     7.0480    24.5410 
   74.7500     2.2300   -11.3530   101.4190     7.5610     6.4200     6.4000    24.5410 
   74.8750     2.2270   -11.3460   103.2560     7.3230     6.0370     6.2300    24.5410 
   75.0000     2.2120   -11.3390    99.8640     7.4490     5.9930     6.4290    24.5480 
   75.1250     2.1900   -11.3100    95.5680     8.2080     6.5110     7.7020    24.5810 
   75.2500     2.1670   -11.2570    93.7490     9.5730     7.5950     9.8590    24.6380 
   75.3750     2.1460   -11.1990    91.5750    11.4980     9.2220    12.4440    24.7000 
   75.5000     2.1320   -11.1510    85.5650    13.7870    11.2110    15.0270    24.7750 
   75.6250     2.1310   -11.0800    76.7070    15.9460    13.1140    15.9710    24.8520 
   75.7500     2.1370   -11.0050    70.3830    17.4700    14.4800    15.2930    24.8830 
   75.8750     2.1400   -10.9440    70.1760    18.1970    15.1920    14.6710    24.8680 
   76.0000     2.1370   -10.9080    74.1600    18.3390    15.4320    14.7160    24.7850 
   76.1250     2.1360   -10.9010    76.7730    18.1970    15.4270    15.5480    24.5750 
   76.2500     2.1400   -10.8880    76.6240    17.9080    15.2640    15.5070    24.3620 
   76.3750     2.1470   -10.8420    75.8940    17.3680    14.8470    15.0790    24.2320 
   76.5000     2.1550   -10.8060    77.3590    16.5140    14.1280    14.9020    24.1920 
   76.6250     2.1660   -10.7850    79.5920    15.5450    13.2570    13.6750    24.1920 
   76.7500     2.1740   -10.7330    80.2760    14.9170    12.5930    12.2640    24.1920 
   76.8750     2.1710   -10.6450    80.5400    14.9690    12.4190    12.1610    24.1940 
   77.0000     2.1590   -10.5390    81.9460    15.8580    12.9270    13.4690    24.1980 
   77.1250     2.1480   -10.4200    82.3760    17.6430    14.3210    16.4220    24.2000 
   77.2500     2.1410   -10.2920    78.4790    19.8000    16.3400    19.4230    24.2000 
   77.3750     2.1350   -10.1780    71.8600    21.7120    18.5550    21.9470    24.1980 
   77.5000     2.1290   -10.0820    67.1820    22.7540    20.3070    22.4310    24.1940 
   77.6250     2.1270   -10.0370    68.6240    22.5980    20.9260    21.7880    24.1920 
   77.7500     2.1340   -10.0430    72.7310    21.8860    20.7040    20.1050    24.1920 
   77.8750     2.1520   -10.0910    74.6750    21.0220    20.0220    17.9780    24.1920 
   78.0000     2.1790   -10.1450    73.4800    20.0160    19.0510    16.0400    24.1840 
   78.1250     2.2100   -10.1940    74.5370    18.4590    17.5620    16.0600    24.1430 
   78.2500     2.2350   -10.2740    79.6450    16.2210    15.5020    17.2620    24.0600 
   78.3750     2.2530   -10.3760    86.4610    13.5680    13.0880    14.8320    23.9570 
   78.5000     2.2680   -10.4390    93.8050    11.0550    10.7670     9.3710    23.8650 
   78.6250     2.2750   -10.4260   101.5940     9.2820     9.0300     7.1330    23.7720 
   78.7500     2.2700   -10.3880   107.3320     8.2770     7.9210     6.5000    23.7230 
   78.8750     2.2590   -10.3370   107.5400     7.9030     7.3580     7.3600    23.7070 
   79.0000     2.2500   -10.2820   102.4160     7.9010     7.1610     8.4460    23.7030 
   79.1250     2.2500   -10.1970    96.7630     7.9690     7.0970     8.4100    23.6930 
   79.2500     2.2520   -10.0690    94.2230     7.9490     6.9920     7.5470    23.6690 
   79.3750     2.2520    -9.9230    96.5210     7.9740     6.9080     7.0000    23.6460 
   79.5000     2.2440    -9.8130   100.4070     8.3390     7.0520     6.8880    23.6360 
   79.6250     2.2220    -9.7160    99.3730     9.5300     7.8060     8.8300    23.6670 
   79.7500     2.1870    -9.5910    93.0640    11.6540     9.3370    13.2000    23.7390 
   79.8750     2.1510    -9.4480    84.9460    14.6130    11.7160    18.3080    23.8110 
   80.0000     2.1300    -9.3330    77.7910    17.9410    14.7010    20.3840    23.8410 
   80.1250     2.1340    -9.2950    74.7670    20.7820    17.6050    19.6140    23.8400 
   80.2500     2.1560    -9.2910    75.9310    22.8250    19.8950    19.3360    23.8400 
   80.3750     2.1930    -9.2640    77.5660    24.3590    21.6220    19.5870    23.8410 
   80.5000     2.2460    -9.2120    75.5940    25.7240    23.0470    20.4770    23.8420 
   80.6250     2.3170    -9.2120    72.1410    26.7630    24.0940    24.6370    23.8420 
   80.7500     2.3870    -9.2490    70.3510    27.0010    24.4180    35.7590    23.8420 
   80.8750     2.4110    -9.2770    70.2100    26.1150    23.7460    44.4230    23.8470 
   81.0000     2.3550    -9.2750    71.3990    24.2870    22.2310    34.7780    23.9420 
   81.1250     2.2420    -9.2510    75.6850    22.1090    20.3770    21.5590    24.2690 
   81.2500     2.1430    -9.2260    80.3400    20.1150    18.6230    19.9960    24.7120 
   81.3750     2.0910    -9.1980    82.5480    18.2930    16.9870    21.5460    24.8830 
   81.5000     2.0910    -9.1600    83.3070    16.4910    15.3610    20.3270    24.7120 
   81.6250     2.1400    -9.1010    85.7390    14.6560    13.6670    15.5870    24.4520 
   81.7500     2.2120    -9.0330    89.5000    12.8740    11.9770    11.1080    24.2400 
   81.8750     2.2890    -8.9960    92.8900    11.2800    10.4360     9.1920    24.0750 
   82.0000     2.3480    -8.9600    94.5570     9.9960     9.1940     9.4220    23.8930 
   82.1250     2.3600    -8.8780    96.0910     9.1140     8.3720    10.3930    23.7010 
   82.2500     2.3360    -8.7900   100.1290     8.5060     7.8690     9.3490    23.5910 
   82.3750     2.3030    -8.7430   106.9830     8.1340     7.6350     7.4450    23.6480 
   82.5000     2.2880    -8.7170   111.8890     8.0250     7.6420     6.8960    23.7160 
   82.6250     2.3030    -8.6490   108.5270     8.2480     7.9150     7.8050    23.7220 
   82.7500     2.3340    -8.5590   101.5630     8.7360     8.3980     9.4200    23.6990 
   82.8750     2.3750    -8.4790    97.1880     9.4100     9.0450    11.1530    23.6620 
   83.0000     2.4160    -8.4080    95.1250    10.1320     9.7470    11.9370    23.6380 
   83.1250     2.4460    -8.3290    93.9650    10.6700    10.2650    13.4700    23.6320 
   83.2500     2.4610    -8.2400    93.9340    10.8980    10.4390    14.4070    23.6340 
   83.3750     2.4580    -8.1390    95.3130    10.8030    10.2500    15.3910    23.6170 
   83.5000     2.4300    -8.0310    97.4010    10.4360     9.8010    14.2180    23.5590 
   83.6250     2.3810    -7.9650   101.4060     9.9100     9.2600    10.2160    23.5610 
   83.7500     2.3430    -7.9060   106.0350     9.4530     8.7930     8.2490    23.6000 
   83.8750     2.3180    -7.8150   105.4640     9.1900     8.4520     8.5280    23.6240 
   84.0000     2.2900    -7.7390    99.3530     9.1410     8.1940     9.1940    23.6360 
   84.1250     2.2550    -7.7360    95.7610     9.2170     7.9460     8.5760    23.6690 
   84.2500     2.2300    -7.7520    97.1390     9.2450     7.6870     8.4820    23.7220 
   84.3750     2.2230    -7.7540    99.8640     9.1630     7.4660     8.4610    23.7720 
   84.5000     2.2170    -7.7470   101.1610     9.0650     7.3820     8.2260    23.8140 
   84.6250     2.1870    -7.7350    99.5790     9.2590     7.6380     8.6770    23.8410 
   84.7500     2.1340    -7.7380    96.0260     9.9610     8.3320     9.9120    23.8960 
   84.8750     2.0650    -7.7230    92.0790    11.3050     9.5520    12.0110    24.0170 
