~V
VERS. 2.00: Ver 2.00
~W
STRT.M 50.0000:
STOP.M 233.0000:
STEP.M 0.1250:
NULL. -999.2500:
UWI. F10598:
~C
DEPT.M :
DEN.GM/CC :
SP.MV :
GR.API :
RML.OHMM :
RI. :
RXO.OHMM :
CALI.CM :
~A
# ...
  151.2500     2.4420    -7.7300    71.1540    17.3060    15.3060    14.9780    23.6200 
  151.3750     2.4460    -7.8750    70.2010    16.8630    15.0830    14.8390    23.6530 
  151.5000     2.4450    -7.9830    69.0430    16.8350    15.2110    14.8120    23.7170 
  151.6250     2.4400    -8.0780    68.5650    17.1920    15.6790    15.2770    23.7520 
  151.7500     2.4320    -8.1600    68.3920    17.6050    16.2120    16.1990    23.7760 
  151.8750     2.4200    -8.1830    68.0900    17.8130    16.5500    17.0840    23.8070 
  152.0000     2.4110    -8.1600    68.5960    17.7060    16.5270    17.6410    23.8360 
  152.1250     2.4140    -8.0290    68.5430    17.3310    16.1340    16.5680    23.8660 
  152.2500     2.4260    -7.8580    68.3390    16.9050    15.6220    14.7480    23.8970 
  152.3750     2.4370    -7.6550    68.8290    16.5960    15.1660    13.7330    23.9110 
  152.5000     2.4430    -7.4220    68.5510    16.4950    14.8890    14.0340    23.9130 
  152.6250     2.4410    -7.2050    67.2510    16.6600    14.8960    15.5500    23.9130 
  152.7500     2.4360    -6.9820    65.9100    17.0400    15.1430    16.0570    23.9130 
  152.8750     2.4320    -6.7830    65.5820    17.5780    15.5760    15.9120    23.9130 
  153.0000     2.4310    -6.6040    64.8240    18.1200    16.0870    15.7410    23.9130 
  153.1250     2.4340    -6.4940    62.5450    18.4070    16.5240    16.1360    23.9120 
  153.2500     2.4400    -6.4360    60.5680    18.3260    16.8250    16.3610    23.9110 
  153.3750     2.4450    -6.4010    60.2980    17.9150    17.0020    16.1410    23.9080 
  153.5000     2.4470    -6.4210    61.3380    17.3950    17.0800    15.8880    23.9070 
  153.6250     2.4410    -6.4190    62.5230    17.1050    17.0670    16.1560    23.9100 
  153.7500     2.4320    -6.4300    62.1020    17.1080    17.0000    16.9400    23.9120 
  153.8750     2.4230    -6.4680    60.6370    17.2670    16.8920    17.1690    23.9110 
  154.0000     2.4150    -6.4940    60.6080    17.3870    16.7390    16.4470    23.9090 
  154.1250     2.4110    -6.5380    63.1610    17.2900    16.5390    15.8200    23.9110 
  154.2500     2.4140    -6.5800    65.6400    17.0100    16.3170    15.2570    23.9120 
  154.3750     2.4230    -6.6480    66.0940    16.6840    16.0960    14.8810    23.9130 
  154.5000     2.4310    -6.7380    64.7850    16.4550    15.8920    14.6380    23.9130 
  154.6250     2.4270    -6.8390    62.8410    16.3880    15.7220    14.5690    23.9130 
  154.7500     2.4160    -6.9240    60.7270    16.3770    15.5800    14.7360    23.9130 
  154.8750     2.4040    -6.9550    60.6230    16.3320    15.4750    14.6600    23.9130 
  155.0000     2.3970    -6.9890    64.3130    16.1980    15.4260    14.6780    23.9120 
  155.1250     2.4010    -6.9930    67.4240    16.0140    15.4590    14.7360    23.9100 
  155.2500     2.4160    -6.9950    66.4090    15.9430    15.5550    14.9770    23.9100 
  155.3750     2.4400    -6.9780    62.8590    16.1050    15.7140    15.3700    23.9110 
  155.5000     2.4640    -6.9090    61.3160    16.5350    15.9680    15.5770    23.9100 
  155.6250     2.4790    -6.8800    62.7550    17.1710    16.4170    16.1780    23.9060 
  155.7500     2.4790    -6.8630    63.3850    17.8430    17.0580    17.1360    23.9010 
  155.8750     2.4700    -6.8920    62.5790    18.4520    17.7990    18.3150    23.8850 
  156.0000     2.4600    -6.9400    61.0040    18.9230    18.4750    19.5580    23.8550 
  156.1250     2.4530    -7.0070    59.9760    19.1720    18.8780    20.5460    23.8320 
  156.2500     2.4400    -7.0770    60.2280    19.2420    19.0020    19.9230    23.7960 
  156.3750     2.4230    -7.1010    61.3530    19.1670    18.9350    18.6220    23.7350 
  156.5000     2.4100    -7.1110    64.4850    18.9940    18.8210    17.6020    23.6950 
  156.6250     2.4130    -7.0220    68.8380    18.8280    18.7700    17.7590    23.7200 
  156.7500     2.4220    -6.8880    71.1260    18.7740    18.7500    17.7920    23.8020 
  156.8750     2.4250    -6.7440    70.0720    18.8220    18.6790    17.6430    23.8800 
  157.0000     2.4210    -6.5860    66.8580    18.8450    18.4920    17.6190    23.9110 
  157.1250     2.4150    -6.4270    63.2620    18.6470    18.1790    17.2950    23.8240 
  157.2500     2.4100    -6.2590    60.0810    18.2660    17.8500    16.8610    23.6120 
  157.3750     2.4030    -6.1460    58.1930    17.8940    17.6080    16.8200    23.4350 
  157.5000     2.3980    -6.0490    57.9610    17.7640    17.5170    17.1320    23.5700 
  157.6250     2.3960    -6.0010    58.9820    17.9960    17.5720    17.9680    23.9870 
  157.7500     2.3980    -6.0000    62.1790    18.3750    17.6580    18.7200    24.2910 
  157.8750     2.4030    -5.9660    66.6520    18.7150    17.7070    18.8760    24.4120 
  158.0000     2.4110    -5.9390    69.0980    18.9300    17.7110    18.3940    24.4350 
  158.1250     2.4200    -5.8930    68.3300    19.0700    17.7560    17.9510    24.4350 
  158.2500     2.4310    -5.8500    68.2220    19.2300    17.9280    17.7690    24.4350 
  158.3750     2.4490    -5.7980    70.9050    19.4100    18.2590    18.6620    24.4350 
  158.5000     2.4690    -5.7430    74.6220    19.5650    18.7050    20.8600    24.4350 
  158.6250     2.4780    -5.7140    76.8870    19.6290    19.0990    22.3260    24.4350 
  158.7500     2.4720    -5.6880    78.0540    19.5810    19.2630    22.3070    24.4350 
  158.8750     2.4570    -5.6400    81.1950    19.3780    19.1210    21.4840    24.4350 
  159.0000     2.4430    -5.5360    84.5170    19.0110    18.7060    20.7290    24.4350 
  159.1250     2.4300    -5.3890    82.9890    18.5450    18.1410    20.5070    24.4350 
  159.2500     2.4190    -5.1760    78.0750    18.1180    17.6380    19.0160    24.4350 
  159.3750     2.4130    -4.9120    73.5270    17.8150    17.3390    17.6750    24.4340 
  159.5000     2.4110    -4.6690    70.4790    17.6550    17.2970    17.3260    24.4250 
  159.6250     2.4100    -4.4010    67.0810    17.6090    17.4760    17.7970    24.4010 
  159.7500     2.4040    -4.1630    64.1280    17.5720    17.6990    18.4830    24.3670 
  159.8750     2.3970    -4.0340    62.7020    17.4430    17.8180    18.9980    24.3300 
  160.0000     2.3930    -3.9790    61.5390    17.1860    17.7360    18.5830    24.2640 
  160.1250     2.3930    -4.0160    61.2130    16.9240    17.5020    17.7350    24.1940 
  160.2500     2.3950    -4.1720    62.4730    16.8770    17.3360    17.4040    24.1500 
  160.3750     2.3970    -4.3910    63.6510    17.1670    17.3860    17.3420    24.1290 
  160.5000     2.4000    -4.6390    63.8410    17.8030    17.7000    17.7140    24.1080 
  160.6250     2.3860    -4.9670    65.0590    18.6370    18.1960    18.6750    24.0750 
  160.7500     2.3490    -5.3070    67.1290    19.2760    18.6040    19.7450    24.0400 
  160.8750     2.3030    -5.5970    68.4500    19.4090    18.6920    19.3620    23.9370 
  161.0000     2.2660    -5.8720    68.6910    18.9480    18.3570    17.1020    23.6890 
  161.1250     2.2470    -6.0870    68.4350    18.0500    17.6550    15.6040    23.3960 
  161.2500     2.2450    -6.2410    67.4380    17.1210    16.8590    14.7570    23.2180 
  161.3750     2.2580    -6.3860    66.3220    16.3710    16.1420    14.1070    23.1660 
  161.5000     2.2770    -6.5190    66.6520    15.8350    15.6060    13.7670    23.1720 
  161.6250     2.2860    -6.5860    65.2050    15.4540    15.3230    14.1720    23.2350 
  161.7500     2.2870    -6.6070    61.3750    15.2030    15.2330    14.9690    23.3980 
  161.8750     2.2910    -6.6010    58.9660    15.1940    15.3020    15.5520    23.6600 
  162.0000     2.3040    -6.5860    60.2900    15.5280    15.5020    15.9020    23.8860 
  162.1250     2.3250    -6.5720    62.4950    16.2350    15.8380    16.0130    23.9670 
  162.2500     2.3510    -6.5670    61.9160    17.1320    16.2870    16.3830    23.9730 
  162.3750     2.3790    -6.5720    60.3220    18.0860    16.8360    16.5070    23.9320 
