~V
VERS. 2.00: Ver 2.00
~W
STRT.M 60.0000:
STOP.M 190.0000:
STEP.M 0.1250:
NULL. -999.2500:
UWI. F10561:
~C
DEPT.M :
SP.MV :
GR.API :
RML.OHMM :
RI. :
RXO.OHMM :
CALI.CM :
DEN.GM/CC :
~A
# ...
  116.2500   -12.4460    54.4630    38.9280    39.1520    37.5440    24.8590     2.4310 
  116.3750   -12.4200    53.1590    39.8260    39.9390    40.7840    24.8060     2.4620 
  116.5000   -12.4030    53.4890    40.4290    40.6340    43.0580    24.7840     2.5050 
  116.6250   -12.3770    54.6990    40.4460    40.8510    42.7090    24.7780     2.5400 
  116.7500   -12.3390    54.6120    40.1990    40.7400    39.5480    24.7770     2.5550 
  116.8750   -12.2780    53.5070    40.1700    40.7010    36.2440    24.7810     2.5550 
  117.0000   -12.2020    53.0860    40.8110    41.1960    33.3560    24.7820     2.5520 
  117.1250   -12.1680    54.9560    42.3740    42.5690    34.5560    24.7590     2.5630 
  117.2500   -12.1470    56.6210    44.2350    44.3330    39.9630    24.6820     2.5890 
  117.3750   -12.0890    55.9420    45.5060    45.6810    46.0610    24.5350     2.6210 
  117.5000   -11.9940    53.6500    45.2970    45.7330    45.8660    24.3950     2.6460 
  117.6250   -11.9460    52.7090    43.0240    43.8110    37.3790    24.3390     2.6480 
  117.7500   -11.9490    53.9770    39.6690    40.7290    28.9600    24.3380     2.6290 
  117.8750   -11.9610    55.9150    36.3960    37.4340    23.1260    24.3440     2.5950 
  118.0000   -11.9820    56.8430    34.1270    34.7490    20.1800    24.3460     2.5550 
  118.1250   -11.9990    56.1360    33.2740    33.2180    20.9190    24.3480     2.5190 
  118.2500   -12.0340    54.8790    32.5800    32.5380    23.3870    24.3540     2.4940 
  118.3750   -12.0920    54.8240    32.2750    32.3670    25.8210    24.3590     2.4810 
  118.5000   -12.1470    56.1720    32.4270    32.3840    26.9220    24.3290     2.4780 
  118.6250   -12.2140    57.1400    32.7700    32.4370    24.4600    24.2650     2.4860 
  118.7500   -12.2540    55.5760    33.1750    32.6460    23.5690    24.1580     2.5030 
  118.8750   -12.2610    51.8060    33.9520    33.2930    25.8180    24.0400     2.5290 
  119.0000   -12.3120    48.8180    35.4100    34.6340    29.1590    23.9620     2.5620 
  119.1250   -12.3560    47.8050    37.7420    36.8110    31.1530    24.0360     2.5990 
  119.2500   -12.3510    47.4980    40.4400    39.3410    35.1240    24.2610     2.6330 
  119.3750   -12.3380    48.3740    42.7890    41.6030    44.8720    24.5410     2.6620 
  119.5000   -12.3540    51.3880    43.9340    42.8560    56.2770    24.7260     2.6810 
  119.6250   -12.3800    54.7900    42.9010    42.2010    49.5750    24.7780     2.6860 
  119.7500   -12.3880    55.1200    40.0860    39.8630    39.2320    24.8050     2.6720 
  119.8750   -12.4000    53.4280    36.1980    36.3620    34.3340    24.8700     2.6400 
  120.0000   -12.4150    52.7250    32.1450    32.4870    34.2730    24.9450     2.5950 
  120.1250   -12.4350    55.0880    28.8440    29.1170    30.4080    24.9800     2.5560 
  120.2500   -12.4430    58.1610    26.5890    26.6520    25.0070    24.9600     2.5380 
  120.3750   -12.4780    59.7710    25.4460    25.2140    22.7900    24.9210     2.5470 
  120.5000   -12.5560    59.5840    25.3570    24.7690    23.4550    24.8790     2.5790 
  120.6250   -12.5800    57.1040    26.2810    25.3070    24.7730    24.8250     2.6190 
  120.7500   -12.6050    54.0980    27.6910    26.3810    27.1950    24.7860     2.6510 
  120.8750   -12.6790    52.4000    29.0220    27.5200    28.3180    24.7610     2.6730 
  121.0000   -12.7150    52.5960    29.6270    28.1490    26.7870    24.7340     2.6860 
  121.1250   -12.7150    53.7070    28.8780    27.6410    28.8460    24.7100     2.6880 
  121.2500   -12.7630    53.6520    27.1190    26.1790    27.0100    24.6780     2.6790 
  121.3750   -12.8210    53.1670    24.8890    24.1770    23.8380    24.6440     2.6560 
  121.5000   -12.8180    53.3270    22.7590    22.1660    18.8790    24.6340     2.6210 
  121.6250   -12.8260    54.1620    21.1980    20.6550    16.5030    24.6420     2.5800 
  121.7500   -12.8520    53.8850    20.2180    19.7290    16.8290    24.6620     2.5390 
  121.8750   -12.8370    52.3080    19.7550    19.3250    18.7560    24.6720     2.5040 
  122.0000   -12.8060    51.4790    19.7230    19.3040    19.6950    24.6760     2.4770 
  122.1250   -12.7740    51.5880    20.0790    19.5600    18.5360    24.6660     2.4630 
  122.2500   -12.7300    50.8410    20.6530    19.9610    18.0670    24.6910     2.4600 
  122.3750   -12.6810    50.2670    21.3010    20.4390    19.1060    24.7880     2.4630 
  122.5000   -12.6470    50.5360    21.8480    20.8910    20.3710    24.8980     2.4660 
  122.6250   -12.6060    51.1510    22.0560    21.1080    21.6030    24.9500     2.4710 
  122.7500   -12.5590    51.4800    21.8660    20.9640    22.0490    24.9500     2.4810 
  122.8750   -12.5390    52.5950    21.3220    20.4450    21.1110    24.9030     2.4970 
  123.0000   -12.5310    55.0530    20.6050    19.7070    19.1790    24.8040     2.5140 
  123.1250   -12.5360    57.3090    20.0050    19.0560    17.5000    24.7420     2.5220 
  123.2500   -12.5500    58.9070    19.7090    18.7160    17.7140    24.7520     2.5210 
  123.3750   -12.5220    58.3830    19.7530    18.7420    17.8860    24.7560     2.5160 
  123.5000   -12.4700    56.2000    20.0320    19.0390    18.4640    24.7320     2.5170 
  123.6250   -12.4640    55.2240    20.2840    19.3530    21.3870    24.7150     2.5280 
  123.7500   -12.4890    56.8600    20.2340    19.3990    22.2950    24.7000     2.5430 
  123.8750   -12.4900    59.0690    19.7460    19.0270    19.7150    24.6760     2.5550 
  124.0000   -12.4950    58.3530    18.8400    18.2470    17.3630    24.6570     2.5600 
  124.1250   -12.5130    57.5550    17.6250    17.1680    16.7630    24.6560     2.5530 
  124.2500   -12.5590    59.5340    16.3320    16.0120    16.1710    24.6780     2.5390 
  124.3750   -12.6320    61.0060    15.1080    14.8980    14.6840    24.7410     2.5200 
  124.5000   -12.7020    58.6250    14.0780    13.9110    13.5990    24.8090     2.5010 
  124.6250   -12.7860    55.1420    13.4050    13.1780    12.5810    24.8510     2.4910 
  124.7500   -12.8580    55.8170    13.0960    12.7530    11.3500    24.8170     2.4920 
  124.8750   -12.9110    59.7820    13.1310    12.6740    11.0320    24.7830     2.5030 
  125.0000   -13.0080    64.0590    13.4250    12.8990    11.5640    24.7490     2.5190 
  125.1250   -13.1200    66.7770    13.8520    13.3010    13.2280    24.7020     2.5290 
  125.2500   -13.1720    67.7850    14.2590    13.6650    14.4920    24.6810     2.5260 
  125.3750   -13.1920    67.0430    14.5650    13.8780    14.5400    24.7250     2.5110 
  125.5000   -13.2330    65.4900    14.7430    13.9270    14.3910    24.8270     2.4920 
  125.6250   -13.2520    63.5960    14.8110    13.8870    14.0070    24.9090     2.4810 
  125.7500   -13.2490    61.7840    14.8790    13.8890    13.8660    24.9180     2.4790 
  125.8750   -13.2410    61.5790    15.0390    13.9970    14.6880    24.8980     2.4830 
  126.0000   -13.2270    63.2480    15.2720    14.2180    15.3440    24.9100     2.4860 
  126.1250   -13.2000    64.4480    15.5320    14.5500    16.2410    24.9170     2.4870 
  126.2500   -13.1570    62.6830    15.8450    14.9790    16.9980    24.9100     2.4870 
  126.3750   -13.1460    59.9380    16.4500    15.5380    17.4690    24.9010     2.4900 
  126.5000   -13.1910    59.3180    17.3050    16.2650    17.2830    24.9270     2.4940 
  126.6250   -13.2040    60.2140    18.3520    17.1790    16.7850    24.9190     2.4960 
  126.7500   -13.2060    59.5150    19.4780    18.1710    18.8110    24.8770     2.4960 
  126.8750   -13.2670    56.9420    20.5000    19.0820    21.7400    24.8360     2.4970 
  127.0000   -13.3010    54.8530    21.1680    19.7200    23.3230    24.8260     2.4980 
  127.1250   -13.3070    56.5450    21.2020    19.8540    22.5500    24.8330     2.4980 
  127.2500   -13.3950    59.1840    20.7470    19.5590    22.5010    24.8180     2.4940 
  127.3750   -13.5060    60.2670    20.0750    19.0000    21.3540    24.7090     2.4870 
