~V
VERS. 2.00: Ver 2.00
~W
STRT.M 61.0000:
STOP.M 190.0000:
STEP.M 0.1250:
NULL. -999.2500:
UWI. F10559:
~C
DEPT.M :
SP.MV :
DEN.GM/CC :
GR.API :
RML.OHMM :
RI. :
RXO.OHMM :
CALI.CM :
~A
# ...
  128.5000    -5.2620     2.4150    63.9470    21.3060    18.2160    24.5870    26.3180 
  128.6250    -5.1430     2.4260    66.0460    19.4780    16.6270    19.1240    26.2950 
  128.7500    -5.0100     2.4340    67.0490    17.8390    15.0830    15.9420    26.2040 
  128.8750    -4.8370     2.4400    66.1180    16.6890    13.8990    13.3020    26.0970 
  129.0000    -4.6710     2.4440    65.9650    16.1110    13.1890    12.1490    26.0950 
  129.1250    -4.5280     2.4470    67.1530    16.0810    12.9810    12.6090    26.1340 
  129.2500    -4.3660     2.4480    67.4240    16.2900    13.0710    13.7740    26.2010 
  129.3750    -4.2580     2.4460    67.3750    16.4580    13.2840    14.8560    26.2160 
  129.5000    -4.1340     2.4390    69.9880    16.2920    13.3800    14.5860    26.1950 
  129.6250    -3.9830     2.4220    73.9360    15.4390    12.9710    14.3650    26.2310 
  129.7500    -3.8590     2.3980    73.3100    13.9620    11.9480    14.7980    26.3390 
  129.8750    -3.6990     2.3730    69.5410    12.0650    10.4260    14.9590    26.4910 
  130.0000    -3.5160     2.3550    68.4880    10.0900     8.7140    12.2250    26.6160 
  130.1250    -3.3470     2.3500    69.6780     8.4450     7.2060     8.4630    26.5120 
  130.2500    -3.1540     2.3550    66.3600     7.2720     6.0710     5.7600    26.3000 
  130.3750    -2.9610     2.3630    57.7190     6.5710     5.3360     4.6470    26.0350 
  130.5000    -2.8250     2.3690    48.7970     6.2550     4.9520     4.4510    25.7680 
  130.6250    -2.6470     2.3720    44.4430     6.2110     4.8540     4.5290    25.5660 
  130.7500    -2.4960     2.3770    42.4480     6.2540     4.8830     4.6050    25.4830 
  130.8750    -2.4050     2.3860    41.7060     6.2910     4.9460     4.6330    25.4610 
  131.0000    -2.2880     2.3960    42.7350     6.2770     4.9820     4.6410    25.4370 
  131.1250    -2.1920     2.4040    45.4260     6.2070     4.9670     4.6140    25.4070 
  131.2500    -2.1230     2.4050    47.1830     6.1210     4.9240     4.6070    25.4070 
  131.3750    -2.0740     2.4000    45.9780     6.0470     4.8740     4.5520    25.4110 
  131.5000    -2.0190     2.3890    44.5420     6.0060     4.8320     4.4710    25.3210 
  131.6250    -2.0090     2.3760    47.4300     6.0080     4.8090     4.4970    25.2230 
  131.7500    -2.0060     2.3660    52.3840     6.0390     4.7990     4.6100    25.2930 
  131.8750    -1.9720     2.3600    57.5720     6.0860     4.7960     4.6990    25.5510 
  132.0000    -1.9990     2.3590    62.2090     6.1280     4.7910     4.7770    25.8590 
  132.1250    -2.0360     2.3640    66.9260     6.1460     4.7740     4.8890    25.9940 
  132.2500    -2.0660     2.3710    71.4650     6.1340     4.7420     4.9380    26.0150 
  132.3750    -2.1320     2.3780    75.4220     6.0940     4.6950     4.9220    26.0750 
  132.5000    -2.2270     2.3830    79.3580     6.0370     4.6350     4.9830    26.1760 
  132.6250    -2.3430     2.3850    82.4680     5.9860     4.5670     5.0460    26.2330 
  132.7500    -2.5130     2.3850    84.5230     5.9680     4.5080     5.0240    26.2450 
  132.8750    -2.7170     2.3840    86.4420     6.0090     4.4850     4.9890    26.2260 
  133.0000    -2.8920     2.3860    87.3620     6.1250     4.5170     5.0640    26.1760 
  133.1250    -3.1390     2.3960    85.4020     6.3330     4.6300     5.0510    26.1120 
  133.2500    -3.4490     2.4120    81.6490     6.6030     4.8100     5.2760    25.9470 
  133.3750    -3.6940     2.4260    79.3870     6.9110     5.0400     5.8730    25.5890 
  133.5000    -3.9590     2.4310    79.5860     7.2300     5.2950     6.2880    25.1230 
  133.6250    -4.2330     2.4240    80.0350     7.5350     5.5590     6.3960    24.8950 
  133.7500    -4.4730     2.4110    80.6940     7.8190     5.8210     6.5050    24.9760 
  133.8750    -4.7530     2.4010    82.1090     8.0690     6.0760     6.8920    25.3980 
  134.0000    -4.9930     2.3950    83.4890     8.2700     6.3140     7.2970    26.0050 
  134.1250    -5.1750     2.3920    83.4280     8.3910     6.5120     7.7280    26.3700 
  134.2500    -5.3290     2.3890    82.2590     8.4270     6.6540     7.9370    26.4670 
  134.3750    -5.4380     2.3850    81.7510     8.3820     6.7260     7.5970    26.4690 
  134.5000    -5.5170     2.3840    82.7430     8.2730     6.7350     6.9850    26.4420 
  134.6250    -5.5350     2.3860    82.7010     8.1280     6.7000     6.7860    26.3600 
  134.7500    -5.4730     2.3880    80.8830     7.9770     6.6490     6.7130    26.2700 
  134.8750    -5.3760     2.3850    80.9020     7.8350     6.5930     6.5720    26.1680 
  135.0000    -5.2750     2.3780    85.8290     7.7170     6.5390     6.3730    26.0040 
  135.1250    -5.1380     2.3690    92.0320     7.6400     6.4950     6.0480    25.7540 
  135.2500    -4.9900     2.3620    93.8660     7.6020     6.4650     5.8540    25.4690 
  135.3750    -4.8420     2.3590    91.8330     7.6000     6.4550     5.8050    25.2130 
  135.5000    -4.6980     2.3590    87.9510     7.6150     6.4600     5.9160    24.9850 
  135.6250    -4.6410     2.3590    83.4550     7.6170     6.4560     6.1990    24.8150 
  135.7500    -4.6370     2.3580    81.2220     7.5850     6.4190     6.5280    24.7070 
  135.8750    -4.7000     2.3530    83.2350     7.5270     6.3460     6.6380    24.6950 
  136.0000    -4.8050     2.3450    87.6240     7.4830     6.2600     6.5640    24.7700 
  136.1250    -4.8960     2.3410    87.7870     7.5920     6.2460     6.5360    24.9510 
  136.2500    -5.0500     2.3520    82.9660     8.0300     6.4390     6.3240    25.1020 
  136.3750    -5.2950     2.3790    77.5290     9.0780     7.0290     6.3570    25.2290 
  136.5000    -5.5370     2.4120    75.0370    11.1830     8.2850     7.0600    25.3080 
  136.6250    -5.8140     2.4210    73.5030    15.4640    10.8740     9.3540    25.3260 
  136.7500    -6.1380     2.3990    68.9320    22.5230    15.3310    14.7270    25.3300 
  136.8750    -6.4070     2.3600    62.8900    32.7850    22.4500    27.5600    25.3880 
  137.0000    -6.7390     2.3300    60.1220    45.7860    32.7720    44.0280    25.5570 
  137.1250    -7.1370     2.3310    60.8850    59.5990    45.7680    52.6480    25.8310 
  137.2500    -7.4640     2.3470    59.7040    71.0360    57.8200    62.0240    26.0850 
  137.3750    -7.7710     2.3510    57.8700    77.9040    65.7400    73.8730    26.2980 
  137.5000    -8.0350     2.3290    58.7040    79.9130    68.6970    78.5410    26.4810 
  137.6250    -8.2330     2.2840    61.7490    78.4020    67.9380    71.4500    26.5720 
  137.7500    -8.3640     2.2430    62.7000    75.8380    65.9130    65.4880    26.5970 
  137.8750    -8.4640     2.2170    61.3810    73.0710    63.4530    62.3920    26.5970 
  138.0000    -8.5110     2.2060    59.3890    70.4490    60.9730    62.3810    26.5970 
  138.1250    -8.4680     2.2050    58.2960    68.3240    58.8630    60.1150    26.5650 
  138.2500    -8.4680     2.2050    59.4510    66.9790    57.3700    55.3500    26.5030 
  138.3750    -8.4530     2.2040    61.7790    66.7690    56.8130    50.4920    26.4580 
  138.5000    -8.4110     2.2050    62.7220    67.9750    57.5260    47.4710    26.4570 
  138.6250    -8.3570     2.2150    61.3210    70.8390    59.9440    48.0730    26.5140 
  138.7500    -8.2860     2.2430    60.1900    74.6900    63.6060    54.1190    26.5970 
  138.8750    -8.1660     2.2880    60.1480    78.8450    67.9080    62.0800    26.6840 
  139.0000    -8.0480     2.3400    59.4230    82.5750    72.0350    74.1230    26.7540 
  139.1250    -7.9910     2.3730    57.5200    85.1620    75.0790    79.3320    26.7300 
  139.2500    -7.8570     2.3710    56.6340    86.6510    76.9850    85.9650    26.6760 
  139.3750    -7.7530     2.3350    57.6420    87.0440    77.9860    84.9320    26.5720 
  139.5000    -7.6920     2.2830    58.9940    86.4490    78.3260    76.0780    26.4620 
  139.6250    -7.6030     2.2400    58.5020    84.6860    77.8590    71.2970    26.5820 
