~V
VERS. 2.00: Ver 2.00
~W
STRT.M 58.0000:
STOP.M 208.0000:
STEP.M 0.1250:
NULL. -999.2500:
UWI. F10592:
~C
DEPT.M :
GR.API :
RML.OHMM :
RI. :
RXO.OHMM :
CALI.CM :
DEN.GM/CC :
SP.MV :
~A
# ...
  148.0000    58.9240    13.4730    13.1420    14.3000    24.0180     2.4420    -3.2640 
  148.1250    60.3630    12.9190    12.6480    13.0320    24.1570     2.4390    -3.4000 
  148.2500    63.0520    12.7470    12.4250    11.4770    24.2670     2.4450    -3.5300 
  148.3750    64.6830    13.3230    12.8120    11.5570    24.3080     2.4520    -3.6020 
  148.5000    64.5890    14.6640    13.8860    13.7330    24.3270     2.4460    -3.6350 
  148.6250    63.5700    16.7170    15.6510    17.7890    24.3370     2.4190    -3.6940 
  148.7500    63.8910    19.2400    17.9400    21.6530    24.3540     2.3730    -3.7700 
  148.8750    65.1950    21.7610    20.3640    23.0060    24.3410     2.3180    -3.7640 
  149.0000    64.7830    23.8120    22.4520    23.2520    24.3400     2.2720    -3.7280 
  149.1250    62.7050    25.2320    23.9890    23.5680    24.3380     2.2410    -3.7370 
  149.2500    61.5470    26.1630    25.0280    24.0950    24.3360     2.2260    -3.7340 
  149.3750    63.3600    26.9390    25.8060    24.5370    24.3330     2.2270    -3.7130 
  149.5000    64.3750    27.8510    26.6230    25.8230    24.3320     2.2370    -3.7140 
  149.6250    62.5570    28.9550    27.5860    27.5800    24.3350     2.2470    -3.7280 
  149.7500    60.4430    30.1920    28.6920    29.0090    24.3420     2.2560    -3.7240 
  149.8750    61.1520    31.4520    29.8590    30.0320    24.3500     2.2630    -3.7210 
  150.0000    62.3290    32.6180    30.9570    31.0410    24.3640     2.2700    -3.7490 
  150.1250    61.1460    33.5950    31.8900    31.8990    24.3780     2.2760    -3.7720 
  150.2500    59.1620    34.2830    32.5920    33.1530    24.4010     2.2730    -3.7620 
  150.3750    59.6740    34.5360    32.9680    33.3530    24.4190     2.2570    -3.7670 
  150.5000    61.4040    34.3990    33.0390    32.7040    24.4320     2.2340    -3.7960 
  150.6250    62.5470    33.9280    32.8070    31.6040    24.4380     2.2130    -3.8120 
  150.7500    62.8610    33.2060    32.2980    30.3600    24.4370     2.2030    -3.8060 
  150.8750    63.1940    32.3010    31.5450    29.1700    24.4240     2.2070    -3.7870 
  151.0000    63.2560    31.3280    30.6940    28.7060    24.4040     2.2190    -3.7490 
  151.1250    62.4600    30.3980    29.8900    28.4010    24.3930     2.2310    -3.6970 
  151.2500    61.1360    29.6830    29.3100    27.7900    24.3960     2.2400    -3.6430 
  151.3750    60.2390    29.4960    29.2230    27.6570    24.3930     2.2440    -3.5990 
  151.5000    61.4080    29.9190    29.6880    26.8190    24.3780     2.2490    -3.5610 
  151.6250    64.3820    31.0220    30.6820    26.9440    24.3630     2.2590    -3.4910 
  151.7500    66.3810    32.6660    32.0160    28.4600    24.3680     2.2740    -3.4120 
  151.8750    66.3710    34.4560    33.2710    31.5760    24.4030     2.2850    -3.4190 
  152.0000    65.4880    35.1890    34.0100    35.0670    24.4470     2.2880    -3.4340 
  152.1250    62.9000    34.8960    34.0220    35.5780    24.5040     2.2810    -3.4040 
  152.2500    58.7160    33.9380    33.3890    32.3520    24.5560     2.2700    -3.4140 
  152.3750    56.9120    32.8390    32.4590    29.8480    24.5750     2.2610    -3.4460 
  152.5000    58.9990    32.0260    31.7060    28.4240    24.5790     2.2560    -3.4170 
  152.6250    61.6510    31.6280    31.3210    27.5200    24.5780     2.2520    -3.4030 
  152.7500    62.6670    31.5320    31.2480    27.6960    24.5740     2.2420    -3.4400 
  152.8750    63.9020    31.3810    31.1520    27.9790    24.5500     2.2250    -3.4220 
  153.0000    65.2150    30.7930    30.6260    27.9970    24.5310     2.2060    -3.3790 
  153.1250    64.7540    29.6010    29.4830    27.6920    24.5390     2.1950    -3.3780 
  153.2500    63.6310    27.9200    27.8300    26.3260    24.4810     2.1990    -3.3740 
  153.3750    66.1490    26.1810    26.0810    22.7490    24.2510     2.2190    -3.3360 
  153.5000    69.1860    24.9190    24.7400    18.9900    23.9370     2.2420    -3.3140 
  153.6250    68.2260    24.4580    24.1030    16.6400    23.6790     2.2560    -3.3090 
  153.7500    64.5110    24.8980    24.2810    16.6140    23.5510     2.2550    -3.3080 
  153.8750    62.1330    26.2000    25.3200    18.0140    23.5220     2.2410    -3.3060 
  154.0000    61.1970    27.9270    26.8850    19.1460    23.5480     2.2260    -3.2940 
  154.1250    60.5730    29.8010    28.7350    19.5630    23.5780     2.2170    -3.2820 
  154.2500    60.7310    31.6180    30.6340    19.5660    23.4850     2.2160    -3.2850 
  154.3750    60.6040    33.1900    32.3240    20.9650    23.3210     2.2180    -3.2780 
  154.5000    58.4700    34.3950    33.6530    23.9510    23.2810     2.2170    -3.2890 
  154.6250    56.5080    35.0550    34.4650    27.6320    23.4470     2.2140    -3.3090 
  154.7500    57.5130    35.0220    34.6200    29.4670    23.7400     2.2080    -3.2810 
  154.8750    60.8460    34.1840    33.9550    29.7590    23.9370     2.2030    -3.2310 
  155.0000    64.2040    32.8640    32.7280    28.3090    24.0080     2.2000    -3.2080 
  155.1250    67.5030    31.3270    31.1840    26.4440    24.0210     2.1990    -3.1990 
  155.2500    69.5720    29.7830    29.5710    25.2110    24.0220     2.1980    -3.1660 
  155.3750    67.4780    28.3660    28.0700    23.8210    23.9970     2.1990    -3.1300 
  155.5000    62.2140    27.0760    26.7030    21.9000    23.9470     2.1990    -3.1000 
  155.6250    58.9360    25.9150    25.4590    20.5400    23.9290     2.2010    -3.0560 
  155.7500    60.7670    24.9130    24.3600    20.1230    23.9940     2.2030    -3.0090 
  155.8750    64.8630    24.2020    23.5490    20.0030    24.0890     2.2050    -2.9650 
  156.0000    66.5760    23.8790    23.1320    19.5860    24.1290     2.2050    -2.9330 
  156.1250    65.3010    24.0750    23.2240    19.4820    24.1420     2.2040    -2.8790 
  156.2500    63.8020    24.8780    23.8860    20.5890    24.1420     2.2020    -2.7910 
  156.3750    64.9610    26.3270    25.1600    23.2960    24.1340     2.2010    -2.7330 
  156.5000    66.0720    28.0820    26.7770    25.3860    24.1280     2.2030    -2.6880 
  156.6250    66.2510    29.8050    28.4720    27.3850    24.1150     2.2060    -2.6150 
  156.7500    66.7090    31.1700    29.9480    29.5010    24.0860     2.2080    -2.5300 
  156.8750    67.5650    31.8890    30.8660    30.8310    24.0480     2.2090    -2.4520 
  157.0000    67.5690    32.0740    31.2220    30.5480    24.0260     2.2140    -2.3750 
  157.1250    66.3750    31.8480    31.0940    30.0650    24.0030     2.2300    -2.2970 
  157.2500    63.4640    31.3210    30.6110    29.3260    23.9180     2.2570    -2.2200 
  157.3750    58.6020    30.5050    29.8380    28.2060    23.7180     2.2870    -2.1360 
  157.5000    55.7240    29.4590    28.8550    27.8570    23.4490     2.3020    -2.0590 
  157.6250    57.7500    28.2030    27.6610    27.0290    23.2640     2.2940    -1.9810 
  157.7500    63.0630    26.7680    26.2690    25.6110    23.2290     2.2690    -1.9280 
  157.8750    66.9570    25.1930    24.7240    23.6490    23.3370     2.2440    -1.9320 
  158.0000    67.7740    23.6040    23.1760    21.2480    23.5280     2.2340    -1.9050 
  158.1250    66.2910    22.1440    21.7670    20.0350    23.7700     2.2390    -1.8730 
  158.2500    64.7300    20.9640    20.6230    19.2390    24.0020     2.2480    -1.9050 
  158.3750    64.7570    20.2540    19.8940    17.2410    24.1370     2.2500    -1.9260 
  158.5000    66.2800    19.9790    19.5570    15.8800    24.2110     2.2410    -1.9210 
  158.6250    68.8940    20.0960    19.6060    17.0060    24.2450     2.2260    -1.9680 
  158.7500    70.8590    20.5300    20.0000    18.9440    24.2530     2.2130    -2.0290 
  158.8750    71.0800    21.2280    20.7020    19.4790    24.2470     2.2090    -2.0260 
  159.0000    69.3450    22.0550    21.5460    19.8790    24.2460     2.2160    -2.0390 
  159.1250    66.2510    22.8970    22.4000    21.1550    24.2490     2.2290    -2.0840 
