~V
VERS. 2.00: Ver 2.00
~W
STRT.M 52.0000:
STOP.M 224.0000:
STEP.M 0.1250:
NULL. -999.2500:
UWI. F10595:
~C
DEPT.M :
GR.API :
RML.OHMM :
RI. :
RXO.OHMM :
CALI.CM :
DEN.GM/CC :
SP.MV :
~A
# ...
   74.5000    54.2230    11.4460     9.2150    11.5090    25.4870     2.1400   -23.0090 
   74.6250    53.9800    11.5000     9.1920    11.7840    25.4550     2.1410   -22.8500 
   74.7500    57.0740    11.5280     9.1720    11.9100    25.2670     2.1380   -22.6330 
   74.8750    60.9080    11.5080     9.1240    11.8520    24.9410     2.1240   -22.3730 
   75.0000    61.3510    11.4780     9.0360    11.4680    24.4980     2.1010   -22.0750 
   75.1250    58.1700    11.5240     8.9470    11.0820    23.9270     2.0790   -21.7480 
   75.2500    56.7020    11.8290     8.9900    11.4600    23.4890     2.0820   -21.4000 
   75.3750    58.5240    12.4690     9.2690    12.1920    23.0920     2.1260   -21.0480 
   75.5000    60.2080    13.4350     9.8240    12.8520    22.7590     2.2080   -20.7060 
   75.6250    59.1250    14.6230    10.6160    14.3700    22.5660     2.2970   -20.3860 
   75.7500    57.1960    15.8770    11.5400    17.7400    22.4990     2.3450   -20.1080 
   75.8750    57.4290    17.0430    12.4580    20.8970    22.4790     2.3530   -19.8800 
   76.0000    59.0770    18.0270    13.2950    21.0810    22.4640     2.3560   -19.7080 
   76.1250    61.0030    18.7270    13.9850    18.9130    22.4560     2.3830   -19.5940 
   76.2500    61.3740    18.9070    14.3600    19.8300    22.4530     2.4270   -19.5420 
   76.3750    60.4770    18.4290    14.2830    22.7740    22.4210     2.4400   -19.5350 
   76.5000    60.5240    17.2110    13.6450    21.6040    22.3080     2.4030   -19.5590 
   76.6250    62.1230    15.4330    12.5150    15.9250    22.1100     2.3310   -19.6020 
   76.7500    63.8830    13.5200    11.1400    12.7560    21.9610     2.2620   -19.6440 
   76.8750    64.5850    11.8830     9.8610    11.3580    21.8930     2.2190   -19.6650 
   77.0000    66.0970    10.6850     8.8440    10.5520    21.8770     2.2060   -19.6570 
   77.1250    67.1820     9.9340     8.1480    10.3160    21.9010     2.2150   -19.6150 
   77.2500    65.8340     9.5650     7.7750     9.8040    21.9570     2.2260   -19.5340 
   77.3750    65.6720     9.3850     7.5690     9.0780    22.0720     2.2240   -19.4280 
   77.5000    70.7190     9.3090     7.4380     8.7530    22.2530     2.2090   -19.3020 
   77.6250    77.7450     9.2870     7.3380     9.0010    22.4880     2.1910   -19.1660 
   77.7500    78.8100     9.2880     7.2660     9.0940    22.6420     2.1850   -19.0330 
   77.8750    74.6420     9.3170     7.2400     8.8000    22.7350     2.1870   -18.9160 
   78.0000    68.7890     9.4160     7.2790     8.2910    22.7630     2.1870   -18.8240 
   78.1250    64.0640     9.6150     7.3960     8.8330    22.7670     2.1720   -18.7610 
   78.2500    61.4430     9.9090     7.5970     9.6230    22.7720     2.1440   -18.7350 
   78.3750    60.4970    10.2300     7.8500     9.8910    22.8180     2.1230   -18.7370 
   78.5000    60.0700    10.5270     8.1270     9.9200    22.9460     2.1240   -18.7620 
   78.6250    59.1910    10.7680     8.3870     9.8550    23.1320     2.1470   -18.8110 
   78.7500    58.8760    10.9320     8.5710     9.9730    23.2890     2.1770   -18.8870 
   78.8750    59.5120    11.0130     8.6550    10.1800    23.4200     2.1940   -18.9850 
   79.0000    61.0440    10.9810     8.6290    10.3550    23.4960     2.1930   -19.1050 
   79.1250    62.6520    10.8260     8.5050    10.3300    23.4980     2.1790   -19.2450 
   79.2500    62.9110    10.5920     8.3150    10.2880    23.4170     2.1630   -19.4080 
   79.3750    61.8420    10.3840     8.1220    10.2990    23.3210     2.1520   -19.5850 
   79.5000    60.3560    10.2560     7.9670    10.4840    23.2590     2.1470   -19.7720 
   79.6250    59.1190    10.2190     7.8740    10.9590    23.2460     2.1470   -19.9630 
   79.7500    58.8650    10.2480     7.8500    11.0450    23.2870     2.1490   -20.1440 
   79.8750    60.5800    10.2970     7.8670    10.8900    23.3730     2.1530   -20.3050 
   80.0000    61.7370    10.3440     7.9010    10.9720    23.4740     2.1560   -20.4370 
   80.1250    59.1210    10.3950     7.9280    11.1240    23.5330     2.1530   -20.5290 
   80.2500    55.3270    10.4740     7.9450    11.2840    23.5550     2.1440   -20.5710 
   80.3750    55.1540    10.6240     7.9940    11.2050    23.5670     2.1320   -20.5660 
   80.5000    56.7040    10.9130     8.1320    11.1980    23.5860     2.1260   -20.5180 
   80.6250    57.1090    11.3840     8.4020    11.3020    23.6330     2.1320   -20.4330 
   80.7500    58.0150    12.0140     8.8190    12.0450    23.7850     2.1570   -20.3150 
   80.8750    60.2050    12.6380     9.2820    14.3160    23.9730     2.1920   -20.1780 
   81.0000    60.5520    13.0730     9.6680    18.9050    24.0630     2.2210   -20.0300 
   81.1250    59.0990    13.1690     9.8680    22.3930    24.0190     2.2350   -19.8800 
   81.2500    60.2440    12.8800     9.8190    19.3520    23.9590     2.2260   -19.7350 
   81.3750    62.8460    12.4640     9.6410    14.8540    23.9480     2.2030   -19.5990 
   81.5000    62.3590    12.1440     9.4400    12.7390    23.9910     2.1720   -19.4700 
   81.6250    58.0310    12.0530     9.2970    12.2300    24.0000     2.1410   -19.3430 
   81.7500    54.6460    12.1830     9.2380    12.0610    23.9000     2.1170   -19.2150 
   81.8750    54.7520    12.2830     9.1730    11.8280    23.7260     2.1040   -19.0830 
   82.0000    55.9700    12.1160     8.9870    11.5780    23.5180     2.1050   -18.9480 
   82.1250    57.5270    11.5700     8.6030    11.3650    23.3460     2.1220   -18.8120 
   82.2500    59.6940    10.7350     8.0360    10.8810    23.2640     2.1510   -18.6750 
   82.3750    61.7320     9.9270     7.4550     9.8790    23.2570     2.1790   -18.5410 
   82.5000    63.5810     9.3610     6.9960     8.8050    23.3170     2.1960   -18.4140 
   82.6250    65.8530     9.1470     6.7520     8.1350    23.4680     2.1960   -18.3020 
   82.7500    67.3410     9.3230     6.7830     8.6350    23.6140     2.1820   -18.2090 
   82.8750    64.8770     9.7070     6.9970     9.3250    23.7460     2.1690   -18.1340 
   83.0000    59.7780    10.1420     7.2980     9.8290    23.8740     2.1630   -18.0680 
   83.1250    58.1020    10.4590     7.5760    10.0200    24.0040     2.1660   -17.9990 
   83.2500    60.2950    10.4870     7.7170     9.7840    24.1800     2.1740   -17.9110 
   83.3750    61.6650    10.2910     7.7250     9.4310    24.2900     2.1740   -17.7990 
   83.5000    61.7570    10.0010     7.6430     9.1910    24.3590     2.1660   -17.6590 
   83.6250    62.2670     9.7500     7.5160     9.0540    24.3930     2.1550   -17.4900 
   83.7500    62.8320     9.5940     7.3640     9.0400    24.3340     2.1490   -17.2860 
   83.8750    61.9880     9.4560     7.1880     9.1040    24.0970     2.1520   -17.0580 
   84.0000    62.6610     9.2650     6.9890     9.0300    23.7120     2.1600   -16.8160 
   84.1250    67.8420     9.0020     6.7790     8.6760    23.4620     2.1680   -16.5740 
   84.2500    72.3330     8.7410     6.5880     8.3600    23.6030     2.1690   -16.3510 
   84.3750    71.0450     8.5840     6.4390     8.2240    24.0020     2.1640   -16.1590 
   84.5000    66.2260     8.5560     6.3480     8.1740    24.3310     2.1550   -16.0070 
   84.6250    63.6900     8.6180     6.3160     8.0990    24.4390     2.1430   -15.9030 
   84.7500    64.6640     8.6940     6.3400     8.0900    24.3780     2.1320   -15.8550 
   84.8750    64.3620     8.7330     6.3940     8.1320    24.2790     2.1280   -15.8530 
   85.0000    63.3320     8.7570     6.4730     8.2090    24.1970     2.1340   -15.8870 
   85.1250    64.5020     8.8380     6.5870     8.3810    24.1500     2.1490   -15.9500 
   85.2500    66.8940     9.0980     6.7840     8.6060    24.1140     2.1660   -16.0280 
   85.3750    67.7160     9.5360     7.0780     8.7970    24.0640     2.1760   -16.0990 
   85.5000    66.4180    10.0600     7.4500     9.0350    24.0100     2.1760   -16.1460 
   85.6250    64.9160    10.4860     7.8100     9.3780    23.9720     2.1670   -16.1490 
