~V
VERS. 2.00: Ver 2.00
~W
STRT.M 55.0000:
STOP.M 211.0000:
STEP.M 0.1250:
NULL. -999.2500:
UWI. F10586:
~C
DEPT.M :
GR.API :
RML.OHMM :
RI. :
RXO.OHMM :
CALI.CM :
DEN.GM/CC :
SP.MV :
~A
# ...
  156.2500    55.7280    25.6560    23.4490    24.7380    23.5280     2.4050    -3.5350 
  156.3750    57.0660    26.8020    24.8360    25.2170    23.5030     2.3870    -3.5430 
  156.5000    61.7400    27.2270    25.4340    25.3970    23.4860     2.3940    -3.5880 
  156.6250    63.3280    27.2060    25.4280    24.7450    23.4540     2.4090    -3.6260 
  156.7500    60.7210    27.1710    25.2850    24.0610    23.4150     2.4060    -3.6350 
  156.8750    57.1560    27.2880    25.2190    23.7880    23.4160     2.3730    -3.6400 
  157.0000    56.3990    27.5750    25.3020    24.7220    23.4950     2.3190    -3.6650 
  157.1250    59.4480    27.9670    25.5230    26.4700    23.6420     2.2640    -3.6880 
  157.2500    61.8390    28.3300    25.7770    27.5580    23.7270     2.2230    -3.7270 
  157.3750    61.0410    28.5750    25.9880    27.3760    23.7350     2.2010    -3.8260 
  157.5000    60.0410    28.6450    26.1070    26.8660    23.6910     2.1950    -3.9160 
  157.6250    61.8070    28.4920    26.0870    26.5980    23.6230     2.2030    -4.0160 
  157.7500    63.9790    28.1620    25.9440    26.2930    23.5160     2.2160    -4.1440 
  157.8750    64.3840    27.6930    25.6880    25.7350    23.3630     2.2290    -4.2140 
  158.0000    64.6080    27.1450    25.3490    25.1900    23.1760     2.2370    -4.2270 
  158.1250    65.4630    26.6150    24.9890    24.7700    23.0390     2.2370    -4.2210 
  158.2500    65.7390    26.1990    24.6940    24.2130    22.9730     2.2310    -4.1950 
  158.3750    64.7200    25.9580    24.5220    23.2430    22.9710     2.2250    -4.1320 
  158.5000    62.8690    25.9110    24.5000    22.3410    23.0160     2.2260    -4.0580 
  158.6250    61.6680    26.0540    24.6350    22.3790    23.0870     2.2520    -3.9690 
  158.7500    61.9510    26.2900    24.8510    23.1930    23.1560     2.3040    -3.8280 
  158.8750    61.5360    26.5480    25.0860    23.7390    23.2090     2.3750    -3.7160 
  159.0000    58.0800    26.7560    25.2780    23.5950    23.2300     2.4470    -3.6430 
  159.1250    53.8310    26.8280    25.3530    23.2980    23.2240     2.4940    -3.5900 
  159.2500    53.3280    26.7430    25.2990    23.3990    23.2110     2.5070    -3.5590 
  159.3750    55.7950    26.5020    25.1240    23.4660    23.2050     2.4920    -3.5530 
  159.5000    57.6110    26.1730    24.8830    23.3800    23.2200     2.4600    -3.5680 
  159.6250    56.3580    25.9420    24.7240    23.2950    23.2300     2.4170    -3.6150 
  159.7500    55.4690    26.0150    24.8190    23.1840    23.2300     2.3720    -3.7240 
  159.8750    57.1600    26.5240    25.2920    23.2740    23.2260     2.3300    -3.8180 
  160.0000    59.8440    27.4510    26.1590    24.0020    23.2310     2.2980    -3.8840 
  160.1250    59.7850    28.5790    27.2800    25.9190    23.2810     2.2830    -3.9530 
  160.2500    58.3200    29.4740    28.2770    28.3610    23.3650     2.2810    -4.0110 
  160.3750    59.3170    29.7890    28.8180    30.2680    23.4340     2.2870    -4.0400 
  160.5000    61.5200    29.3280    28.6670    30.3130    23.4480     2.2970    -4.0450 
  160.6250    60.5730    28.0380    27.6890    28.1560    23.4310     2.3090    -4.0210 
  160.7500    59.7330    26.3480    26.2390    26.1280    23.4020     2.3170    -3.9460 
  160.8750    63.2060    24.6020    24.6330    24.2530    23.3590     2.3200    -3.8900 
  161.0000    67.3940    23.0840    23.1570    22.2960    23.3110     2.3160    -3.8560 
  161.1250    66.9300    22.0080    22.0460    21.0590    23.2690     2.3050    -3.8090 
  161.2500    66.3030    21.3200    21.2910    20.0500    23.2190     2.2930    -3.7600 
  161.3750    69.2210    20.9470    20.8500    19.5740    23.1570     2.2880    -3.7460 
  161.5000    72.2130    20.7890    20.6390    19.7770    23.1110     2.2940    -3.7560 
  161.6250    68.6420    20.7650    20.5850    19.8020    23.1300     2.3160    -3.7680 
  161.7500    63.0880    20.7980    20.5980    19.4970    23.1990     2.3460    -3.8160 
  161.8750    61.2580    20.8650    20.6440    19.0500    23.2470     2.3740    -3.8770 
  162.0000    63.5990    20.9440    20.6990    18.7790    23.2520     2.3920    -3.9450 
  162.1250    65.9540    20.9860    20.7250    18.9960    23.2340     2.3930    -4.0370 
  162.2500    65.7660    20.9520    20.6910    19.4340    23.2130     2.3870    -4.1610 
  162.3750    65.0240    20.8540    20.6000    19.8150    23.1910     2.3800    -4.2870 
  162.5000    64.5960    20.7830    20.5210    19.7790    23.1770     2.3740    -4.4220 
  162.6250    63.7100    20.9610    20.6420    19.4610    23.1730     2.3630    -4.5470 
  162.7500    62.3160    21.5150    21.1000    19.5580    23.1730     2.3430    -4.6570 
  162.8750    61.1940    22.4710    21.9540    20.2930    23.1730     2.3170    -4.7660 
  163.0000    62.0640    23.7060    23.1400    21.5520    23.1730     2.2940    -4.8540 
  163.1250    63.7020    24.9370    24.4400    23.2000    23.1730     2.2830    -4.9230 
  163.2500    63.3070    25.8660    25.5320    24.6790    23.1730     2.2810    -4.9710 
  163.3750    61.7320    26.3430    26.2120    25.6330    23.1730     2.2830    -5.0320 
  163.5000    61.3680    26.3840    26.4270    25.7920    23.1720     2.2820    -5.0620 
  163.6250    62.7330    26.1320    26.2580    25.2720    23.1710     2.2790    -5.0490 
  163.7500    63.7250    25.8420    25.9770    24.9180    23.1680     2.2830    -5.0700 
  163.8750    63.3310    25.6140    25.7100    24.7600    23.1620     2.3020    -5.0830 
  164.0000    62.0480    25.4450    25.4840    24.9120    23.1520     2.3310    -5.0880 
  164.1250    61.1190    25.2770    25.2560    25.3020    23.1440     2.3580    -5.1130 
  164.2500    61.2190    25.0950    25.0040    25.3270    23.1540     2.3670    -5.1480 
  164.3750    62.1680    24.9650    24.7750    24.9930    23.1630     2.3550    -5.2000 
  164.5000    63.4280    25.0100    24.6780    24.4800    23.1680     2.3290    -5.2860 
  164.6250    64.9330    25.4190    24.8950    24.5890    23.1720     2.3020    -5.4520 
  164.7500    64.6640    26.1860    25.4470    25.4170    23.1770     2.2820    -5.6130 
  164.8750    61.9790    27.2500    26.3020    26.7870    23.1850     2.2710    -5.7520 
  165.0000    59.6550    28.4810    27.3530    28.1240    23.2040     2.2650    -5.9100 
  165.1250    58.9620    29.6880    28.4300    28.4960    23.2390     2.2640    -6.0820 
  165.2500    58.3880    30.7110    29.3570    28.5280    23.2800     2.2650    -6.2210 
  165.3750    57.6210    31.4680    30.0360    28.9020    23.3020     2.2660    -6.3390 
  165.5000    57.2740    31.9430    30.4400    29.5680    23.3070     2.2690    -6.4410 
  165.6250    56.7490    32.1560    30.5760    29.9800    23.3020     2.2720    -6.4840 
  165.7500    55.7420    32.2640    30.5940    30.0740    23.2940     2.2760    -6.5420 
  165.8750    57.0360    32.3980    30.6210    29.7240    23.2780     2.2800    -6.6340 
  166.0000    60.2330    32.6760    30.7730    29.1270    23.2570     2.2810    -6.7290 
  166.1250    60.4500    33.1990    31.1600    28.8410    23.2600     2.2790    -6.7960 
  166.2500    57.8950    33.9170    31.7520    29.3130    23.3320     2.2770    -6.8760 
  166.3750    56.6840    34.7650    32.5030    30.2340    23.4040     2.2780    -6.9630 
  166.5000    58.8960    35.6620    33.3420    31.4420    23.4340     2.2830    -7.0440 
  166.6250    61.5610    36.5150    34.1870    32.7190    23.4340     2.2930    -7.1450 
  166.7500    61.6550    37.2600    34.9580    33.8010    23.4330     2.3040    -7.2320 
  166.8750    60.7640    37.8180    35.5770    34.5560    23.4300     2.3140    -7.2990 
  167.0000    59.9310    38.0810    35.9350    34.7060    23.4210     2.3260    -7.3690 
  167.1250    59.4590    37.8600    35.8430    34.2400    23.3950     2.3380    -7.4880 
  167.2500    61.0480    37.1850    35.3050    33.3390    23.3420     2.3470    -7.5980 
  167.3750    64.8430    36.1720    34.3900    33.6380    23.2550     2.3490    -7.6940 
