~V
VERS. 2.00: Ver 2.00
~W
STRT.M 58.0000:
STOP.M 208.0000:
STEP.M 0.1250:
NULL. -999.2500:
UWI. F10592:
~C
DEPT.M :
GR.API :
RML.OHMM :
RI. :
RXO.OHMM :
CALI.CM :
DEN.GM/CC :
SP.MV :
~A
# ...
   80.5000    70.4800    12.1550     9.9200    11.2440    24.9640     2.1780    -7.2600 
   80.6250    69.4500    12.3770    10.1070    11.0020    24.9390     2.1850    -7.2280 
   80.7500    69.0860    12.6060    10.3050    10.6540    24.9100     2.2060    -7.1950 
   80.8750    67.8710    12.7870    10.4690    10.6950    24.8730     2.2420    -7.1710 
   81.0000    66.8110    12.7770    10.4920    12.0850    24.7560     2.2800    -7.1440 
   81.1250    68.7430    12.4480    10.2800    14.0300    24.5130     2.3140    -7.0900 
   81.2500    73.4260    11.7600     9.7920    12.4240    24.2990     2.3440    -7.0140 
   81.3750    78.8850    10.7800     9.0510     9.4570    24.3260     2.3730    -6.9110 
   81.5000    83.6630     9.7290     8.2190     8.2620    24.4680     2.3990    -6.8020 
   81.6250    86.9650     8.7390     7.4120     8.6260    24.6040     2.4120    -6.7060 
   81.7500    88.3640     7.8970     6.7160     8.1110    24.6990     2.4020    -6.6380 
   81.8750    89.1290     7.2880     6.2080     6.6900    24.7510     2.3710    -6.5930 
   82.0000    91.0290     6.8880     5.8640     6.1790    24.7720     2.3380    -6.5690 
   82.1250    92.3130     6.6730     5.6600     6.0400    24.7810     2.3190    -6.5730 
   82.2500    92.0420     6.5990     5.5630     5.9960    24.7800     2.3160    -6.5860 
   82.3750    90.7660     6.6260     5.5510     6.0250    24.8040     2.3260    -6.5990 
   82.5000    90.4940     6.6910     5.5780     6.0420    24.8670     2.3360    -6.6050 
   82.6250    92.1410     6.7590     5.6200     6.0420    24.9420     2.3400    -6.5850 
   82.7500    94.1330     6.8130     5.6650     6.0890    24.9960     2.3360    -6.5520 
   82.8750    93.2300     6.8510     5.7080     6.0260    25.0370     2.3240    -6.5360 
   83.0000    90.5950     6.9020     5.7550     6.0270    25.0570     2.3080    -6.5250 
   83.1250    89.0750     6.9940     5.8110     6.0780    25.0700     2.2900    -6.5110 
   83.2500    88.6050     7.1320     5.8790     6.0740    25.0500     2.2730    -6.4870 
   83.3750    87.0090     7.2750     5.9510     6.2210    24.9480     2.2630    -6.4330 
   83.5000    85.7170     7.3550     5.9960     6.7410    24.7710     2.2580    -6.3450 
   83.6250    88.1470     7.3250     5.9760     7.5980    24.5710     2.2610    -6.2300 
   83.7500    94.0670     7.1750     5.8610     8.1710    24.4540     2.2700    -6.0810 
   83.8750    97.2950     6.9250     5.6440     6.8580    24.4700     2.2840    -5.9240 
   84.0000    97.3030     6.6510     5.3910     6.1180    24.4930     2.2970    -5.7610 
   84.1250    97.4310     6.4130     5.1610     5.6950    24.4980     2.3020    -5.6080 
   84.2500    99.3870     6.2590     5.0020     5.4910    24.4800     2.2990    -5.4550 
   84.3750   101.3150     6.2350     4.9520     5.4450    24.4390     2.2870    -5.3270 
   84.5000   102.0070     6.3190     4.9900     5.4720    24.4030     2.2720    -5.2820 
   84.6250   102.7550     6.4950     5.0990     5.5520    24.3850     2.2570    -5.3240 
   84.7500   102.2080     6.7440     5.2570     5.5270    24.3700     2.2490    -5.4270 
   84.8750    98.0780     7.0440     5.4450     5.6980    24.3220     2.2510    -5.5390 
   85.0000    91.1160     7.3320     5.6270     6.1130    24.2870     2.2630    -5.6510 
   85.1250    85.8940     7.5530     5.7740     6.5090    24.3420     2.2810    -5.7580 
   85.2500    86.8850     7.6780     5.8780     6.5610    24.4360     2.2980    -5.8930 
   85.3750    89.7850     7.7400     5.9520     6.4420    24.5140     2.3020    -6.0630 
   85.5000    88.6970     7.8460     6.0470     6.3390    24.5320     2.2880    -6.2180 
   85.6250    85.2920     8.0740     6.2010     6.4210    24.5220     2.2590    -6.3820 
   85.7500    81.3320     8.4470     6.4360     6.7950    24.4950     2.2220    -6.5490 
   85.8750    77.6870     8.9280     6.7490     7.3950    24.4980     2.1900    -6.6860 
   86.0000    75.0530     9.4040     7.0820     7.6960    24.5440     2.1680    -6.7940 
   86.1250    75.3740     9.7880     7.3840     7.7330    24.6130     2.1580    -6.8650 
   86.2500    77.0300    10.0300     7.6150     7.6290    24.6750     2.1550    -6.9170 
   86.3750    78.0340    10.1110     7.7400     7.6040    24.7000     2.1560    -6.9640 
   86.5000    78.8720    10.1080     7.7820     7.6700    24.6420     2.1600    -6.9700 
   86.6250    79.1320    10.0710     7.7590     7.7770    24.4810     2.1660    -6.9080 
   86.7500    79.1160    10.0140     7.6900     7.6490    24.3300     2.1730    -6.7980 
   86.8750    79.9370     9.8930     7.5830     7.3100    24.2720     2.1790    -6.6720 
   87.0000    81.1260     9.6810     7.4480     7.0900    24.2990     2.1820    -6.5400 
   87.1250    81.1720     9.3980     7.2980     7.0720    24.3770     2.1850    -6.4120 
   87.2500    81.2270     9.1390     7.1740     7.3050    24.4180     2.1950    -6.2880 
   87.3750    83.3930     9.0630     7.1650     7.2580    24.4180     2.2180    -6.1630 
   87.5000    85.1200     9.2240     7.3060     6.7670    24.4150     2.2510    -6.0390 
   87.6250    84.8520     9.5850     7.5830     6.4650    24.4130     2.2870    -5.9140 
   87.7500    82.0480    10.0170     7.9150     7.3220    24.3930     2.3140    -5.7830 
   87.8750    81.1280    10.2770     8.1480    10.1120    24.3260     2.3170    -5.6570 
   88.0000    85.3860    10.2110     8.1780    11.5630    24.2180     2.2980    -5.5770 
   88.1250    90.1630     9.8140     7.9940     8.7550    24.1320     2.2690    -5.5520 
   88.2500    89.3150     9.2420     7.6760     6.7200    24.0840     2.2460    -5.5110 
   88.3750    84.2520     8.7610     7.3690     6.7230    24.0680     2.2400    -5.4190 
   88.5000    82.4840     8.5190     7.1760     7.2070    24.0580     2.2440    -5.3450 
   88.6250    84.1370     8.5000     7.1100     7.2810    24.0410     2.2450    -5.3120 
   88.7500    85.6130     8.5790     7.1180     7.3100    24.0230     2.2370    -5.3250 
   88.8750    85.5050     8.5690     7.0940     7.3380    24.0470     2.2210    -5.3450 
   89.0000    85.7240     8.3890     6.9600     7.0930    24.1200     2.2080    -5.3200 
   89.1250    88.1610     8.0480     6.7020     6.6550    24.1810     2.2050    -5.2720 
   89.2500    93.8230     7.6090     6.3560     6.2840    24.1490     2.2160    -5.2540 
   89.3750    98.9660     7.1700     5.9990     6.1230    24.1620     2.2410    -5.2360 
   89.5000    99.9710     6.8520     5.7350     5.9310    24.2770     2.2700    -5.1760 
   89.6250    97.5780     6.7790     5.6520     5.7930    24.4210     2.2920    -5.0880 
   89.7500    92.9940     7.0630     5.8210     5.7650    24.4970     2.2970    -4.9700 
   89.8750    88.0940     7.8190     6.3270     6.0920    24.5120     2.2780    -4.8160 
   90.0000    84.5010     8.8740     7.0770     6.7290    24.5130     2.2470    -4.6750 
   90.1250    81.5450     9.9710     7.9240     7.5860    24.5200     2.2180    -4.5340 
   90.2500    79.3010    10.7570     8.6280     8.1250    24.5370     2.2000    -4.3620 
   90.3750    80.1380    10.8080     8.8450     8.2680    24.5640     2.1980    -4.1690 
   90.5000    84.8110    10.2080     8.5510     8.0660    24.5730     2.2070    -3.9820 
   90.6250    89.6420     9.2140     7.8830     7.4170    24.5430     2.2220    -3.7900 
   90.7500    91.6940     8.1700     7.0870     6.3130    24.4090     2.2430    -3.5530 
   90.8750    92.2650     7.4150     6.4310     5.7060    24.3120     2.2660    -3.3000 
   91.0000    93.3080     7.0440     6.0300     5.7010    24.3600     2.2870    -3.0440 
   91.1250    94.3460     7.0710     5.9260     6.0460    24.5320     2.3000    -2.7520 
   91.2500    93.5880     7.4710     6.1250     6.4310    24.7500     2.3030    -2.4200 
   91.3750    89.7430     8.2640     6.6700     6.6620    24.8900     2.2930    -2.0660 
   91.5000    83.2710     9.3730     7.4950     7.2340    24.9390     2.2790    -1.7100 
   91.6250    76.6510    10.7800     8.5710     8.1350    24.9390     2.2650    -1.3540 
