~V
VERS. 2.00: Ver 2.00
~W
STRT.M 55.0000:
STOP.M 217.0000:
STEP.M 0.1250:
NULL. -999.2500:
UWI. F10537:
~C
DEPT.M :
SP.MV :
DEN.GM/CC :
GR.API :
RML.OHMM :
RI. :
RXO.OHMM :
CALI.CM :
~A
# ...
   88.7500   -20.3430     2.2070    60.4730     9.1210     7.0150     7.2390    23.9700 
   88.8750   -20.0700     2.2010    61.9530     9.2960     7.0910     7.3440    23.9370 
   89.0000   -19.7140     2.1950    60.5140     9.4810     7.2600     7.5150    23.8500 
   89.1250   -19.2760     2.1850    57.0650     9.5050     7.3740     7.5770    23.7960 
   89.2500   -18.7870     2.1750    55.6810     9.2960     7.3320     7.5640    23.7410 
   89.3750   -18.2780     2.1690    58.1980     8.8320     7.0830     7.4380    23.6240 
   89.5000   -17.7860     2.1740    63.1740     8.1760     6.6480     7.0800    23.4480 
   89.6250   -17.3830     2.2020    69.7810     7.4920     6.1230     6.4280    23.3050 
   89.7500   -17.0810     2.2440    76.8020     6.9550     5.6560     5.5120    23.2520 
   89.8750   -16.8890     2.2840    82.9050     6.6470     5.3290     4.8840    23.2410 
   90.0000   -16.8150     2.3050    85.2990     6.5740     5.1670     4.8890    23.2370 
   90.1250   -16.8810     2.3050    80.8840     6.6860     5.1610     5.3840    23.2360 
   90.2500   -17.0660     2.2990    75.0900     6.8520     5.2230     5.6740    23.2390 
   90.3750   -17.3690     2.2990    72.0270     7.0130     5.3070     5.4670    23.2420 
   90.5000   -17.7740     2.3060    72.7170     7.1720     5.4000     5.2140    23.2430 
   90.6250   -18.2640     2.3100    75.5390     7.3850     5.5280     5.3480    23.2430 
   90.7500   -18.7570     2.3010    78.2130     7.6960     5.7160     5.5340    23.2500 
   90.8750   -19.2630     2.2760    78.4850     8.1010     5.9700     5.9510    23.2930 
   91.0000   -19.7330     2.2430    74.9330     8.5370     6.2590     6.4190    23.4180 
   91.1250   -20.1150     2.2180    69.5110     8.8720     6.4980     6.7470    23.5980 
   91.2500   -20.4690     2.2080    66.2170     9.0470     6.6340     6.8560    23.7400 
   91.3750   -20.7180     2.2170    65.1050     9.0910     6.6730     6.9250    23.7990 
   91.5000   -20.9110     2.2400    65.2410     9.1100     6.6740     6.8510    23.7840 
   91.6250   -21.0330     2.2590    67.8830     9.2520     6.7370     6.5470    23.6850 
   91.7500   -21.0950     2.2660    70.5010     9.5550     6.9040     6.2010    23.6010 
   91.8750   -21.1470     2.2540    69.3390     9.9540     7.1560     5.9440    23.5600 
   92.0000   -21.1860     2.2300    64.1890    10.3120     7.4150     6.0150    23.5520 
   92.1250   -21.2430     2.2070    61.3270    10.4340     7.5510     6.3760    23.5660 
   92.2500   -21.3240     2.1950    62.0090    10.2940     7.5110     6.5430    23.5920 
   92.3750   -21.4320     2.2010    62.1830     9.9690     7.3180     6.6600    23.6170 
   92.5000   -21.5590     2.2190    60.8270     9.5970     7.0530     6.7570    23.6560 
   92.6250   -21.7020     2.2320    61.0520     9.3300     6.8230     6.7550    23.8160 
   92.7500   -21.8330     2.2350    63.1960     9.2150     6.6820     6.6360    24.1010 
   92.8750   -21.9460     2.2270    63.0420     9.2350     6.6340     6.5380    24.3110 
   93.0000   -22.0410     2.2150    59.5820     9.3380     6.6490     6.6620    24.3530 
   93.1250   -22.1280     2.2040    57.6970     9.4730     6.6980     6.8350    24.3330 
   93.2500   -22.1850     2.2020    59.5680     9.6040     6.7570     6.8970    24.3060 
   93.3750   -22.2320     2.2150    63.5660     9.7110     6.8180     6.9310    24.1970 
   93.5000   -22.2550     2.2370    67.4090     9.7780     6.8740     7.0160    23.9150 
   93.6250   -22.2310     2.2550    69.5120     9.7850     6.9150     7.1160    23.5620 
   93.7500   -22.2120     2.2590    68.3000     9.7430     6.9360     7.0970    23.3300 
   93.8750   -22.1350     2.2490    64.4850     9.6790     6.9420     7.0070    23.2140 
   94.0000   -22.0660     2.2320    60.8230     9.6350     6.9450     6.9480    23.1720 
   94.1250   -21.9670     2.2180    58.6340     9.6690     6.9730     6.9840    23.1600 
   94.2500   -21.8520     2.2100    56.8510     9.7790     7.0380     7.1130    23.1580 
   94.3750   -21.7380     2.2120    57.9280     9.9310     7.1340     7.2330    23.1560 
   94.5000   -21.5720     2.2220    63.2000    10.0720     7.2340     7.3330    23.1550 
   94.6250   -21.4220     2.2310    66.9240    10.1180     7.2850     7.4500    23.1550 
   94.7500   -21.2480     2.2310    65.1760    10.0280     7.2520     7.4420    23.1550 
   94.8750   -21.0840     2.2220    61.2030     9.7910     7.1200     7.3100    23.1550 
   95.0000   -20.9130     2.2070    59.7530     9.4410     6.9050     7.1480    23.1550 
   95.1250   -20.7080     2.1960    62.0120     9.0500     6.6470     7.0040    23.1550 
   95.2500   -20.5010     2.1950    65.6050     8.7100     6.4070     6.8380    23.1550 
   95.3750   -20.2700     2.2030    68.7840     8.4770     6.2250     6.6720    23.1600 
   95.5000   -20.0650     2.2150    70.8870     8.3700     6.1220     6.5010    23.1710 
   95.6250   -19.8680     2.2220    70.0940     8.3920     6.1140     6.3200    23.2290 
   95.7500   -19.6470     2.2230    67.5170     8.4820     6.1690     6.1640    23.3500 
   95.8750   -19.4250     2.2200    63.7410     8.5970     6.2600     6.2960    23.4950 
   96.0000   -19.1670     2.2160    60.9430     8.6950     6.3610     6.6060    23.5900 
   96.1250   -18.8640     2.2160    61.0030     8.7350     6.4400     6.7680    23.5960 
   96.2500   -18.5080     2.2190    61.8170     8.7010     6.4740     6.7790    23.5750 
   96.3750   -18.0840     2.2240    61.8250     8.5680     6.4400     6.7230    23.5590 
   96.5000   -17.5870     2.2280    61.4520     8.3110     6.3160     6.6440    23.5510 
   96.6250   -16.9460     2.2310    62.5850     7.9250     6.0880     6.5400    23.5480 
   96.7500   -16.2590     2.2320    65.9340     7.5230     5.8300     6.2990    23.5270 
   96.8750   -15.5000     2.2290    69.2540     7.2170     5.6160     5.7750    23.4740 
   97.0000   -14.7180     2.2310    71.5670     7.0750     5.5010     5.0570    23.3920 
   97.1250   -13.9540     2.2640    74.4480     7.1190     5.5130     5.1320    23.3470 
   97.2500   -13.2080     2.3350    78.3650     7.2180     5.5810     6.2720    23.2750 
   97.3750   -12.5210     2.4200    82.8400     7.2230     5.6170     8.0050    23.2440 
   97.5000   -11.8870     2.4760    88.2590     7.0080     5.5300     8.0840    23.2410 
   97.6250   -11.3950     2.4720    94.6700     6.5240     5.2500     5.8190    23.2670 
   97.7500   -10.9740     2.4300   100.5620     5.9340     4.8530     4.5680    23.3330 
   97.8750   -10.6490     2.3750   105.1950     5.3770     4.4270     3.8610    23.4310 
   98.0000   -10.4100     2.3300   108.9790     4.9490     4.0560     3.5980    23.5500 
   98.1250   -10.2620     2.3120   110.3970     4.6920     3.8060     3.5480    23.7430 
   98.2500   -10.2210     2.3170   110.6640     4.5330     3.6500     3.6020    23.9130 
   98.3750   -10.2570     2.3400   111.0330     4.4310     3.5630     3.6390    23.9820 
   98.5000   -10.3860     2.3630   112.4460     4.3960     3.5400     3.5960    23.9800 
   98.6250   -10.6190     2.3720   114.9700     4.5240     3.6370     3.5730    23.9360 
   98.7500   -10.9290     2.3760   115.6270     4.8850     3.8970     3.6200    23.7900 
   98.8750   -11.3120     2.3900   110.1590     5.5340     4.3630     3.9850    23.5700 
   99.0000   -11.7220     2.4230    98.0160     6.4500     5.0290     5.1550    23.3630 
   99.1250   -12.1300     2.4600    86.2800     7.4350     5.7900     7.7080    23.3150 
   99.2500   -12.4920     2.4750    79.0340     8.1030     6.3840     9.3850    23.3200 
   99.3750   -12.7980     2.4590    75.4100     8.1770     6.5860     8.0350    23.3650 
   99.5000   -13.0530     2.4180    75.2980     7.6630     6.3380     6.2340    23.4770 
   99.6250   -13.1800     2.3700    77.6900     6.8690     5.7930     5.2540    23.6870 
   99.7500   -13.2850     2.3320    80.8580     6.2100     5.2640     4.7800    23.9500 
   99.8750   -13.3170     2.3090    82.6530     5.8360     4.8940     4.4540    24.0620 
