~V
VERS. 2.00: Ver 2.00
~W
STRT.M 58.0000:
STOP.M 203.0000:
STEP.M 0.1250:
NULL. -999.2500:
UWI. F10566:
~C
DEPT.M :
GR.API :
RML.OHMM :
RI. :
RXO.OHMM :
CALI.CM :
SP.MV :
DEN.GM/CC :
~A
# ...
  114.2500    54.9210    39.9590    38.0150    32.2520    24.6320    -8.9220     2.4220 
  114.3750    57.3760    41.2690    39.3450    35.1430    24.4350    -8.9310     2.4270 
  114.5000    59.8500    42.2460    40.5320    39.5030    24.0310    -8.9450     2.4260 
  114.6250    59.4690    42.5610    41.2350    39.3240    23.7040    -8.9290     2.4130 
  114.7500    57.0910    42.3620    41.4740    37.6430    23.6530    -8.9310     2.4000 
  114.8750    55.3210    41.9130    41.4120    35.3010    23.7680    -8.9540     2.3980 
  115.0000    54.7070    41.5240    41.2870    34.3840    23.9080    -8.9630     2.4100 
  115.1250    54.5160    41.4540    41.3440    37.1120    23.9640    -8.9360     2.4320 
  115.2500    54.6340    41.6580    41.6120    39.8140    23.9800    -8.8900     2.4560 
  115.3750    54.8650    42.0030    42.0080    38.1840    24.0030    -8.8300     2.4750 
  115.5000    54.5950    42.3490    42.4160    37.2610    24.0710    -8.7980     2.4840 
  115.6250    54.9730    42.6110    42.7370    38.2970    24.1920    -8.8140     2.4770 
  115.7500    57.0540    42.7940    42.9470    39.8660    24.3410    -8.7660     2.4610 
  115.8750    59.4760    42.9210    43.0540    40.5040    24.5080    -8.7460     2.4410 
  116.0000    60.3610    43.0370    43.1050    40.7400    24.6290    -8.7250     2.4210 
  116.1250    60.8800    43.2580    43.2180    43.0210    24.6370    -8.7160     2.4070 
  116.2500    61.1440    43.7070    43.5120    41.4200    24.5960    -8.7110     2.4020 
  116.3750    59.6140    44.4620    44.0630    37.6590    24.5750    -8.6720     2.4110 
  116.5000    56.6490    45.4720    44.8450    35.9670    24.5750    -8.5970     2.4370 
  116.6250    54.4840    46.4490    45.6460    37.9970    24.5310    -8.5190     2.4720 
  116.7500    52.6060    46.9850    46.1390    41.1690    24.4070    -8.4410     2.4990 
  116.8750    51.4930    46.8050    46.0840    41.3090    24.2590    -8.3430     2.5080 
  117.0000    52.1850    45.8850    45.4270    39.7800    24.1980    -8.2580     2.4970 
  117.1250    53.6740    44.5000    44.3440    39.7230    24.2240    -8.1780     2.4690 
  117.2500    54.0900    43.2660    43.3380    37.8630    24.1580    -8.1120     2.4370 
  117.3750    54.2270    42.6100    42.7930    35.1540    23.9150    -8.1070     2.4090 
  117.5000    55.0620    42.7480    42.9340    33.9710    23.6540    -8.0660     2.3930 
  117.6250    54.6930    43.6870    43.8380    38.0240    23.6950    -8.0110     2.4010 
  117.7500    54.3020    44.8690    45.0550    40.1070    23.8330    -7.9380     2.4300 
  117.8750    55.8860    45.7180    46.0840    41.5240    23.9300    -7.8440     2.4680 
  118.0000    58.8350    45.6880    46.4000    39.9530    24.0180    -7.7540     2.4960 
  118.1250    59.0400    44.3210    45.4830    39.2370    24.0830    -7.6650     2.4940 
  118.2500    57.1900    42.2800    43.6100    36.5000    24.0670    -7.6130     2.4650 
  118.3750    56.3510    40.5630    41.2120    30.0010    24.0040    -7.5390     2.4280 
  118.5000    56.8380    40.2130    38.8220    23.6870    23.9660    -7.4890     2.4030 
  118.6250    57.5690    39.5670    37.0010    22.1570    23.9740    -7.4430     2.4040 
  118.7500    56.9990    38.8300    35.8810    22.8160    23.9220    -7.3930     2.4200 
  118.8750    54.8660    38.0740    35.4320    23.8860    23.7320    -7.4180     2.4330 
  119.0000    52.3760    37.4240    35.4970    25.3650    23.6280    -7.4430     2.4300 
  119.1250    51.5030    36.7210    35.8640    29.3450    23.8810    -7.4890     2.4100 
  119.2500    52.9860    36.1230    36.2590    34.3740    24.2620    -7.5030     2.3880 
  119.3750    55.5480    36.0200    36.5630    36.6400    24.5490    -7.5300     2.3770 
  119.5000    57.2150    36.0720    36.7320    37.6050    24.6230    -7.5710     2.3800 
  119.6250    57.0120    36.0130    36.7850    35.0100    24.4630    -7.5990     2.3860 
  119.7500    56.8870    36.0260    36.8610    34.8050    24.2470    -7.5990     2.3890 
  119.8750    57.3980    36.3420    37.1300    37.5580    24.2250    -7.5850     2.3920 
  120.0000    56.4220    37.0970    37.7270    37.2980    24.4080    -7.5160     2.4010 
  120.1250    54.1060    38.2360    38.6760    35.6920    24.6190    -7.4800     2.4200 
  120.2500    53.7570    39.3370    39.6820    36.5400    24.6080    -7.4110     2.4430 
  120.3750    54.5120    39.9980    40.4140    39.4010    24.4140    -7.3290     2.4650 
  120.5000    53.5920    39.9060    40.5620    42.9220    24.2940    -7.2510     2.4850 
  120.6250    51.7570    38.7980    39.7850    40.5720    24.3360    -7.2140     2.5070 
  120.7500    51.7900    36.9700    38.2100    35.1580    24.3770    -7.2050     2.5270 
  120.8750    53.8670    34.7230    35.9990    32.9020    24.3870    -7.2230     2.5350 
  121.0000    56.5410    32.4400    33.4230    33.7630    24.3870    -7.2420     2.5270 
  121.1250    58.5210    30.1890    30.8480    30.4610    24.3870    -7.2920     2.5060 
  121.2500    59.0600    28.3750    28.6030    25.4860    24.3840    -7.3200     2.4870 
  121.3750    58.9670    27.0160    26.8820    22.9660    24.3720    -7.3610     2.4770 
  121.5000    59.6820    26.1120    25.7760    22.6700    24.3360    -7.3430     2.4740 
  121.6250    61.0990    26.0350    25.3940    23.4410    24.2980    -7.3630     2.4750 
  121.7500    62.3550    26.5470    25.5600    23.7340    24.2710    -7.3840     2.4730 
  121.8750    62.9060    27.3450    26.1440    23.0800    24.3030    -7.4180     2.4670 
  122.0000    61.6250    27.9900    26.9690    23.9260    24.4000    -7.4710     2.4580 
  122.1250    59.0560    28.1450    27.8140    26.1690    24.5330    -7.4910     2.4460 
  122.2500    57.3600    28.1540    28.4860    28.0510    24.7350    -7.5350     2.4380 
  122.3750    56.6240    28.3790    28.9020    29.1190    24.9730    -7.5780     2.4420 
  122.5000    55.4670    28.6720    29.0820    27.6220    25.1240    -7.6720     2.4590 
  122.6250    54.2490    28.9780    29.1590    26.0470    25.1590    -7.7290     2.4830 
  122.7500    54.6990    29.4910    29.3480    25.9930    25.1760    -7.8280     2.5000 
  122.8750    55.9040    30.3400    29.7760    27.7350    25.2030    -7.8370     2.5080 
  123.0000    56.1050    31.4760    30.4310    31.2250    25.2230    -7.8740     2.5140 
  123.1250    54.7440    32.5660    31.0800    33.3230    25.2010    -7.9150     2.5300 
  123.2500    53.2520    33.1210    31.3490    35.2440    25.0810    -7.9700     2.5460 
  123.3750    52.3590    32.7940    30.9700    34.9740    24.8530    -8.0180     2.5480 
  123.5000    51.8600    31.5450    29.9060    33.5370    24.6580    -8.0470     2.5250 
  123.6250    51.5750    29.7060    28.3980    29.4480    24.6490    -8.0890     2.4830 
  123.7500    52.2060    27.9900    26.9850    25.6770    24.7940    -8.1070     2.4530 
  123.8750    53.7660    26.8190    26.0070    23.5020    24.9570    -8.1390     2.4540 
  124.0000    54.6620    26.3280    25.5910    21.1070    24.9430    -8.1850     2.4900 
  124.1250    54.2620    26.3650    25.6280    19.5180    24.6260    -8.2470     2.5430 
  124.2500    54.7340    26.3730    25.6390    19.1950    24.3250    -8.2810     2.5820 
  124.3750    56.6510    25.9260    25.2390    18.9950    24.2260    -8.3360     2.5930 
  124.5000    57.2350    24.8060    24.2270    19.1610    24.3940    -8.3950     2.5800 
  124.6250    55.3610    23.0450    22.6190    19.3670    24.7430    -8.4390     2.5470 
  124.7500    55.0370    21.0940    20.8230    18.4990    25.0040    -8.5280     2.5040 
  124.8750    57.4400    19.2870    19.1410    16.0730    24.9920    -8.5760     2.4520 
  125.0000    60.1570    17.8580    17.7770    15.4530    24.7340    -8.6240     2.3980 
  125.1250    59.3170    17.0010    16.8900    15.0610    24.5480    -8.6360     2.3550 
  125.2500    55.9560    16.6340    16.4200    14.1400    24.6190    -8.7480     2.3320 
  125.3750    53.3900    16.7050    16.3490    13.9680    24.8480    -8.7910     2.3250 
