~V
VERS. 2.00: Ver 2.00
~W
STRT.M 50.0000:
STOP.M 198.0000:
STEP.M 0.1250:
NULL. -999.2500:
UWI. F10574:
~C
DEPT.M :
DEN.GM/CC :
SP.MV :
GR.API :
RML.OHMM :
RI. :
RXO.OHMM :
CALI.CM :
~A
# ...
  162.5000     2.2940   -18.0180    78.0910    38.5610    33.9850    45.3450    24.5740 
  162.6250     2.2910   -18.0800    73.8720    44.0040    39.4340    47.7850    24.5730 
  162.7500     2.2910   -18.1240    68.5560    47.5600    42.9250    47.2370    24.5730 
  162.8750     2.2880   -18.1000    66.8680    49.6850    44.8540    45.8180    24.5730 
  163.0000     2.2830   -18.0600    69.3350    51.3440    46.1700    45.6730    24.5730 
  163.1250     2.2790   -18.0240    71.7830    53.6340    47.9310    48.6740    24.5730 
  163.2500     2.2760   -17.9960    70.8280    57.0110    50.6680    52.9390    24.5740 
  163.3750     2.2720   -17.9820    67.9630    61.5220    54.5310    56.7880    24.5760 
  163.5000     2.2690   -17.9690    65.3250    66.9450    59.4220    59.2280    24.5790 
  163.6250     2.2680   -17.9290    64.5400    72.9830    65.1630    63.7570    24.5780 
  163.7500     2.2700   -17.8990    65.1390    79.0740    71.1740    66.8540    24.5750 
  163.8750     2.2720   -17.9050    64.2040    84.5400    76.7930    69.5270    24.5740 
  164.0000     2.2700   -17.8950    60.4070    88.3690    81.1000    72.0860    24.5730 
  164.1250     2.2650   -17.8620    56.5890    89.0000    82.7910    77.4500    24.5730 
  164.2500     2.2600   -17.8100    56.4960    86.6420    82.0640    82.9450    24.5730 
  164.3750     2.2540   -17.7440    59.3390    80.4930    81.1360    78.2000    24.5730 
  164.5000     2.2470   -17.7060    60.9320    76.1120    76.5280    68.2910    24.5730 
  164.6250     2.2440   -17.7790    60.8720    72.6070    71.0250    63.0040    24.5730 
  164.7500     2.2430   -17.8950    62.0860    69.4590    66.1480    60.4270    24.5730 
  164.8750     2.2420   -17.9790    63.5310    66.8590    62.2140    57.2440    24.5740 
  165.0000     2.2410   -18.0720    63.1050    65.0310    59.5570    47.2460    24.5760 
  165.1250     2.2380   -18.2020    60.6080    64.3050    58.5650    46.8880    24.5840 
  165.2500     2.2330   -18.3200    60.7230    63.9520    58.2250    44.1250    24.6110 
  165.3750     2.2270   -18.4010    63.7260    62.2070    56.5850    39.6320    24.6500 
  165.5000     2.2220   -18.4570    65.5960    56.6390    51.1980    37.6910    24.6380 
  165.6250     2.2300   -18.5000    67.2990    45.8300    40.8320    36.5500    24.5530 
  165.7500     2.2570   -18.5670    73.4450    33.6660    29.3670    29.8070    24.4960 
  165.8750     2.3000   -18.6570    84.6020    23.5600    20.0800    20.8890    24.4590 
  166.0000     2.3450   -18.7740    95.2320    16.9190    14.2530    12.9630    24.4370 
  166.1250     2.3680   -18.9360    99.4820    13.9170    12.0030    10.5660    24.4290 
  166.2500     2.3680   -19.1410    97.6850    13.3490    12.1430    11.8960    24.4280 
  166.3750     2.3490   -19.3450    90.1060    15.0630    14.4420    17.3040    24.4290 
  166.5000     2.3220   -19.5430    79.1980    19.3130    18.9110    28.0480    24.4330 
  166.6250     2.3030   -19.7220    69.2890    26.6740    25.6030    48.9190    24.4390 
  166.7500     2.2990   -19.8360    62.4780    35.4350    32.8550    60.1400    24.4390 
  166.8750     2.3090   -19.9140    60.4380    42.7080    38.4950    53.4940    24.4320 
  167.0000     2.3240   -19.9520    63.6780    46.0700    41.1060    45.3590    24.4280 
  167.1250     2.3310   -19.9360    70.6280    46.1090    41.6570    40.6330    24.4280 
  167.2500     2.3250   -19.8790    75.8370    46.5560    43.0940    37.7410    24.4280 
  167.3750     2.3050   -19.8320    75.9490    49.3580    46.7970    40.2910    24.4280 
  167.5000     2.2780   -19.7570    71.0470    54.6170    52.5350    56.3860    24.4280 
  167.6250     2.2580   -19.6170    64.8040    59.9220    57.7000    88.8200    24.4280 
  167.7500     2.2510   -19.5160    62.5850    61.3910    58.6120   110.7790    24.4280 
  167.8750     2.2530   -19.4520    64.1710    57.2440    53.8890   104.5460    24.4280 
  168.0000     2.2610   -19.3600    67.3670    49.2290    45.7400    74.0530    24.4280 
  168.1250     2.2760   -19.2470    69.9260    41.3700    38.2380    47.0290    24.4280 
  168.2500     2.2970   -19.1340    71.0700    36.1040    33.3910    34.9310    24.4280 
  168.3750     2.3160   -18.9990    70.8860    33.7150    31.3480    34.6800    24.4280 
  168.5000     2.3280   -18.8660    70.1550    33.7290    31.6600    37.3580    24.4280 
  168.6250     2.3380   -18.7350    68.3620    35.3790    33.5120    42.3540    24.4280 
  168.7500     2.3480   -18.5420    65.1180    36.5300    34.7290    43.6810    24.4280 
  168.8750     2.3580   -18.3090    60.6720    34.7790    33.0360    42.2110    24.4280 
  169.0000     2.3690   -18.1270    58.1990    28.9880    27.3940    39.1530    24.4250 
  169.1250     2.3780   -17.9850    60.4900    21.0520    19.5680    27.2160    24.4200 
  169.2500     2.3720   -17.8440    61.5860    14.2680    12.9050    14.4980    24.4260 
  169.3750     2.3520   -17.7750    57.7490     9.5820     8.4810     7.0760    24.4540 
  169.5000     2.3310   -17.7550    51.3050     6.7760     6.0440     4.5810    24.5070 
  169.6250     2.3230   -17.7570    48.1710     5.4280     5.0290     4.1230    24.6960 
  169.7500     2.3310   -17.8190    48.3310     4.8160     4.6340     4.0860    24.9950 
  169.8750     2.3500   -17.9320    48.9060     4.6490     4.5750     4.2830    25.0780 
  170.0000     2.3700   -18.0480    49.1930     4.7230     4.6970     4.6420    24.7360 
  170.1250     2.3750   -18.1760    47.9520     4.9150     4.8830     4.8470    24.4570 
  170.2500     2.3740   -18.3260    46.2040     5.1460     5.0090     5.0100    24.3590 
  170.3750     2.3790   -18.4570    46.5190     5.3340     5.0690     5.2590    24.3510 
  170.5000     2.3900   -18.6030    48.6560     5.4270     5.0670     5.4820    24.3510 
  170.6250     2.3980   -18.7910    48.4270     5.4020     5.0150     5.3190    24.3510 
  170.7500     2.4050   -18.9670    45.6650     5.3450     4.9520     5.1400    24.3510 
  170.8750     2.4110   -19.1600    43.5540     5.3530     4.9280     5.3000    24.3510 
  171.0000     2.4130   -19.3480    44.9920     5.5180     5.0000     5.6980    24.3510 
  171.1250     2.4040   -19.4810    49.6890     5.9310     5.2500     6.1910    24.3510 
  171.2500     2.3920   -19.5950    56.4150     6.5450     5.6750     7.1460    24.3500 
  171.3750     2.3840   -19.7100    65.0930     7.2900     6.2410     8.9020    24.3420 
  171.5000     2.3740   -19.7880    73.8770     8.0250     6.8540    10.7740    24.3200 
  171.6250     2.3560   -19.7800    81.9250     8.5090     7.3150    11.1320    24.2900 
  171.7500     2.3350   -19.6750    89.5130     8.6240     7.4870     9.8840    24.2770 
  171.8750     2.3210   -19.4780    94.3540     8.3710     7.3310     8.9960    24.2740 
  172.0000     2.3170   -19.2140    93.9180     7.8470     6.9190     8.3630    24.2740 
  172.1250     2.3240   -18.9010    88.2890     7.2070     6.3830     7.3110    24.2550 
  172.2500     2.3370   -18.5850    81.8040     6.6330     5.8720     6.2940    24.1800 
  172.3750     2.3510   -18.2420    76.1600     6.2180     5.4430     5.4790    24.0430 
  172.5000     2.3670   -17.8590    70.6280     5.9840     5.1150     4.9940    23.9360 
  172.6250     2.3820   -17.5050    63.5640     5.9170     4.8920     4.8600    23.9010 
  172.7500     2.3960   -17.2670    55.6510     5.9170     4.7340     4.8710    23.9120 
  172.8750     2.4030   -17.0930    50.3290     5.9280     4.6080     4.9190    23.9740 
  173.0000     2.3990   -16.9560    50.1880     5.9320     4.4930     4.7880    24.1160 
  173.1250     2.3830   -16.8850    54.4990     5.9510     4.3920     4.6070    24.2270 
  173.2500     2.3690   -16.7970    57.7620     6.0080     4.3260     4.4940    24.2790 
  173.3750     2.3650   -16.7080    58.3540     6.0840     4.3130     4.5580    24.3190 
  173.5000     2.3770   -16.6990    56.7470     6.1320     4.3610     4.7630    24.3760 
  173.6250     2.4030   -16.7510    53.5230     6.1060     4.4580     5.0930    24.3840 
