~V
VERS. 2.00: Ver 2.00
~W
STRT.M 50.0000:
STOP.M 236.0000:
STEP.M 0.1250:
NULL. -999.2500:
UWI. F10596:
~C
DEPT.M :
DEN.GM/CC :
SP.MV :
GR.API :
RML.OHMM :
RI. :
RXO.OHMM :
CALI.CM :
~A
# ...
  106.2500     2.4370   -14.0540    80.6700    22.0390    18.0480    40.9290    24.5750 
  106.3750     2.3730   -14.1850    84.8700    17.9510    15.7400    24.0230    24.5750 
  106.5000     2.3010   -14.2980    91.3540    13.2220    12.2380    13.6480    24.5750 
  106.6250     2.2420   -14.3840    97.2630    10.0860     9.4620    10.7900    24.5750 
  106.7500     2.2030   -14.4680   100.2960     8.5030     7.7700     9.6220    24.5750 
  106.8750     2.1820   -14.5380    98.8770     8.0770     6.9760     9.1820    24.5750 
  107.0000     2.1710   -14.5590    94.0100     8.4020     6.8270     9.2280    24.5750 
  107.1250     2.1690   -14.5500    91.1860     9.0700     7.1210     9.7310    24.5750 
  107.2500     2.1770   -14.5040    91.5470     9.5800     7.5000    10.0790    24.5750 
  107.3750     2.1940   -14.4440    92.5270     9.6740     7.7110     9.9950    24.5750 
  107.5000     2.2180   -14.3810    93.2600     9.3180     7.6130     9.3290    24.5750 
  107.6250     2.2370   -14.3170    96.8200     8.6760     7.2230     8.6810    24.5720 
  107.7500     2.2440   -14.2490   101.3000     8.1190     6.7930     8.0000    24.5470 
  107.8750     2.2390   -14.1860   102.3250     7.8790     6.5090     7.6940    24.4900 
  108.0000     2.2300   -14.1540   100.9990     8.0450     6.4700     7.6940    24.4470 
  108.1250     2.2360   -14.1480   102.4160     8.5660     6.6970     7.7190    24.3940 
  108.2500     2.2520   -14.1690   104.9680     9.1360     7.0300     7.8830    24.2410 
  108.3750     2.2620   -14.1990   103.9400     9.4630     7.3050     8.1940    23.9630 
  108.5000     2.2510   -14.2200    98.6590     9.3390     7.3960     8.2460    23.7620 
  108.6250     2.2320   -14.2470    96.2750     8.7750     7.2660     7.9220    23.7000 
  108.7500     2.2220   -14.2680    96.4150     8.1720     7.0760     7.6490    23.7220 
  108.8750     2.2210   -14.2710    94.7720     7.7980     6.9480     8.2000    23.8360 
  109.0000     2.2180   -14.2620    91.9370     7.7190     6.9230     9.5370    24.1020 
  109.1250     2.2120   -14.2480    92.7790     7.7590     6.9330    10.3570    24.3250 
  109.2500     2.2070   -14.2150    95.5870     7.6540     6.8540     9.0630    24.4140 
  109.3750     2.2030   -14.1740    96.0640     7.3690     6.6570     7.6340    24.4290 
  109.5000     2.1990   -14.1320    95.3620     7.0500     6.4030     7.3200    24.4320 
  109.6250     2.2040   -14.0510    96.6470     6.8540     6.1820     7.5800    24.4430 
  109.7500     2.2230   -13.9700   100.7740     6.7010     6.0070     7.4290    24.4660 
  109.8750     2.2520   -13.8840   105.2760     6.4590     5.8400     6.9030    24.4680 
  110.0000     2.2790   -13.7960   106.4150     6.1100     5.6510     6.6520    24.3630 
  110.1250     2.2970   -13.7040   102.8550     5.8210     5.4710     7.0090    24.0620 
  110.2500     2.3110   -13.6330    99.1250     5.7350     5.3700     7.3620    23.7510 
  110.3750     2.3220   -13.5770   100.1980     5.8460     5.3990     7.3310    23.6870 
  110.5000     2.3260   -13.5380   105.9410     6.0780     5.5620     7.0210    23.9260 
  110.6250     2.3230   -13.5120   114.6230     6.3810     5.8320     6.6090    24.4160 
  110.7500     2.3160   -13.4860   121.1560     6.7530     6.1370     6.4840    24.7690 
  110.8750     2.3080   -13.4780   121.8420     7.2290     6.4420     6.6060    24.9580 
  111.0000     2.2970   -13.5000   118.2320     7.8240     6.7330     6.9490    25.0160 
  111.1250     2.2850   -13.5310   114.1890     8.4920     7.0060     7.4980    25.0290 
  111.2500     2.2750   -13.5790   112.1120     9.1030     7.2790     8.0260    25.0530 
  111.3750     2.2660   -13.6510   109.4840     9.5810     7.5840     8.3140    25.0770 
  111.5000     2.2550   -13.7560   104.1800     9.9830     7.9780     8.4500    25.0880 
  111.6250     2.2350   -13.9200    97.4990    10.6770     8.6340     8.7090    25.0830 
  111.7500     2.2080   -14.1240    91.2670    12.1730     9.7750     9.7030    25.0700 
  111.8750     2.1780   -14.3470    86.9630    14.9140    11.7350    12.7570    25.0470 
  112.0000     2.1410   -14.5790    84.2040    19.0540    14.8250    19.7410    25.0260 
  112.1250     2.1050   -14.8270    82.1840    24.1970    19.1610    29.2460    25.0020 
  112.2500     2.0830   -15.0790    78.9160    28.6830    23.6090    30.0510    24.9640 
  112.3750     2.0830   -15.3350    74.5130    30.9700    26.7250    27.3450    24.9460 
  112.5000     2.0960   -15.5850    71.5130    30.8940    27.8320    26.0360    24.9430 
  112.6250     2.1080   -15.8250    71.2200    30.0880    27.8570    28.8570    24.9430 
  112.7500     2.1120   -16.0630    70.8610    30.1330    28.3720    37.0310    24.9400 
  112.8750     2.1080   -16.3150    71.5050    31.0220    29.6310    43.6300    24.9170 
  113.0000     2.1000   -16.5910    73.8680    31.9050    30.9780    37.5510    24.8550 
  113.1250     2.0960   -16.8480    75.6650    31.6610    31.2570    30.9890    24.7770 
  113.2500     2.0940   -17.1030    73.6240    30.4260    30.3960    28.4120    24.7310 
  113.3750     2.0940   -17.3300    70.6820    28.9270    29.0350    28.2930    24.7180 
  113.5000     2.0930   -17.5480    70.6410    27.8610    27.9420    28.2780    24.7170 
  113.6250     2.0910   -17.7430    71.1460    27.5590    27.5990    28.1180    24.7170 
  113.7500     2.0890   -17.8980    70.5480    27.6660    27.7190    29.0150    24.7140 
  113.8750     2.0880   -18.0080    72.1200    27.8290    27.9270    29.6650    24.7000 
  114.0000     2.0880   -18.0650    75.6480    27.7760    27.9040    29.1640    24.6560 
  114.1250     2.0860   -18.1200    75.8000    27.3280    27.4290    28.3150    24.5680 
  114.2500     2.0850   -18.1590    72.8030    26.6370    26.6440    26.9620    24.4220 
  114.3750     2.0830   -18.1990    72.8400    25.9830    25.8330    25.9430    24.2840 
  114.5000     2.0810   -18.2540    77.7570    25.7110    25.3490    26.2500    24.2170 
  114.6250     2.0840   -18.3330    81.3150    26.2930    25.6110    25.8140    24.2090 
  114.7500     2.0920   -18.4420    81.6940    27.9680    26.8080    25.5130    24.2290 
  114.8750     2.1020   -18.5750    79.3190    30.9850    29.1960    29.4080    24.2860 
  115.0000     2.1070   -18.7470    76.0640    35.2860    32.8060    35.7680    24.3660 
  115.1250     2.1030   -18.9360    75.0360    40.1460    37.1170    41.7960    24.4470 
  115.2500     2.0930   -19.1370    75.2570    43.8810    40.7100    47.3910    24.4720 
  115.3750     2.0840   -19.3470    74.9180    45.2150    42.4030    47.7580    24.4270 
  115.5000     2.0790   -19.5450    72.3220    44.1510    41.9140    43.5900    24.3010 
  115.6250     2.0770   -19.7280    69.3780    42.0140    40.0750    42.1380    24.2260 
  115.7500     2.0750   -19.8870    67.4920    40.1630    38.2470    44.3300    24.2000 
  115.8750     2.0730   -20.0220    65.6070    38.6140    36.7150    41.1040    24.2110 
  116.0000     2.0710   -20.1000    64.9060    36.9810    35.2970    37.0750    24.2490 
  116.1250     2.0670   -20.1390    65.9210    35.0980    33.8700    33.4500    24.3290 
  116.2500     2.0620   -20.1420    67.6460    33.2820    32.5970    31.6180    24.4220 
  116.3750     2.0580   -20.0900    69.3840    31.9350    31.7620    30.8720    24.5160 
  116.5000     2.0540   -19.9950    70.4990    31.3270    31.5810    31.7480    24.6190 
  116.6250     2.0510   -19.8250    70.0730    31.4800    32.0880    33.8020    24.6890 
  116.7500     2.0470   -19.6100    68.2470    31.8730    32.8020    35.6600    24.7130 
  116.8750     2.0460   -19.3480    66.9230    32.0230    33.2230    35.5980    24.7170 
  117.0000     2.0470   -19.0720    68.3080    31.4480    32.8160    34.5080    24.7170 
  117.1250     2.0540   -18.7410    68.7790    29.6740    30.9730    32.1550    24.7130 
  117.2500     2.0700   -18.3730    66.5410    27.0180    27.9750    30.7150    24.6980 
  117.3750     2.0950   -17.9910    64.2490    23.8350    24.2840    30.1030    24.6720 
