~V
VERS. 2.00: Ver 2.00
~W
STRT.M 57.0000:
STOP.M 205.0000:
STEP.M 0.1250:
NULL. -999.2500:
UWI. F10591:
~C
DEPT.M :
SP.MV :
GR.API :
RML.OHMM :
RI. :
RXO.OHMM :
CALI.CM :
DEN.GM/CC :
~A
   57.0000    76.8610    50.0100     0.2090     0.4550     0.8070    25.1580     2.2390 
   57.1250    69.6840    50.1980     0.1390     0.3970     0.7980    25.0520     2.3340 
   57.2500    61.3650    51.6800     0.1840     0.3910     0.8140    24.9660     2.3850 
   57.3750    52.0890    57.0890     0.3600     0.4440     1.0580    24.8820     2.3890 
   57.5000    42.2360    65.6340     0.7180     0.5800     1.8030    24.6490     2.3600 
   57.6250    32.3350    74.1840     1.4130     0.8800     3.7430    24.1720     2.3180 
   57.7500    22.8150    79.3150     2.4570     1.3940     5.1780    23.7390     2.2820 
   57.8750    14.0320    79.9270     3.6950     2.1480     5.5100    23.4740     2.2580 
   58.0000     6.3170    79.3700     4.7580     3.0480     5.3570    23.2910     2.2410 
   58.1250     0.1750    81.7120     5.3010     3.8490     5.2660    23.2030     2.2260 
   58.2500    -4.4800    84.4120     5.5390     4.4210     5.3220    23.1770     2.2170 
   58.3750    -7.8170    82.0500     5.6870     4.7790     5.4480    23.2180     2.2190 
   58.5000   -10.1260    76.3490     5.8210     4.9700     5.4380    23.4190     2.2340 
   58.6250   -11.6590    76.4230     5.8990     5.0070     5.1920    23.9280     2.2610 
   58.7500   -12.8170    83.1980     5.9080     4.9540     4.9920    24.4750     2.2870 
   58.8750   -13.7150    91.1510     5.8710     4.8660     4.9180    24.8090     2.3070 
   59.0000   -14.4650    95.8790     5.8300     4.7840     4.9550    24.9160     2.3160 
   59.1250   -15.1000    95.7040     5.8240     4.7390     4.9430    24.9210     2.3140 
   59.2500   -15.6680    93.3060     5.8840     4.7490     5.1080    24.9190     2.3020 
   59.3750   -16.1940    89.6320     6.0550     4.8480     5.2110    24.9070     2.2880 
   59.5000   -16.6870    85.9730     6.3950     5.0840     5.2480    24.8720     2.2870 
   59.6250   -17.1950    81.9050     6.9690     5.5180     5.4580    24.8400     2.3260 
   59.7500   -17.7250    77.1840     7.6800     6.0820     6.2560    24.7750     2.4020 
   59.8750   -18.2820    72.2980     8.3730     6.6570     7.9230    24.6430     2.4830 
   60.0000   -18.8540    69.4760     8.8450     7.0750     9.8400    24.4810     2.5300 
   60.1250   -19.4110    71.0910     8.9220     7.1740     9.7270    24.3650     2.5180 
   60.2500   -19.9950    74.8330     8.7720     7.0570     8.1910    24.3120     2.4740 
   60.3750   -20.5750    77.5580     8.6110     6.8840     6.8220    24.2710     2.4210 
   60.5000   -21.1730    76.9270     8.6130     6.7980     6.4860    24.2430     2.3650 
   60.6250   -21.7540    72.8390     8.8650     6.8930     7.4930    24.2270     2.3060 
   60.7500   -22.2960    67.2020     9.2440     7.1010     9.0270    24.1930     2.2490 
   60.8750   -22.7920    61.4330     9.5960     7.3210     9.0270    24.0610     2.2010 
   61.0000   -23.2480    57.6780     9.7790     7.4540     7.8230    23.7600     2.1690 
   61.1250   -23.6250    57.3390     9.7210     7.4350     7.1010    23.4240     2.1600 
   61.2500   -23.9470    58.9930     9.5380     7.3260     6.9580    23.2090     2.1610 
   61.3750   -24.2280    60.5240     9.3330     7.1930     6.9030    23.0900     2.1660 
   61.5000   -24.4450    60.4020     9.1680     7.0860     6.8670    22.9540     2.1720 
   61.6250   -24.6000    58.3810     9.0600     7.0290     6.8060    22.8710     2.1780 
   61.7500   -24.7410    57.5730     8.9780     7.0020     6.9430    22.9390     2.1800 
   61.8750   -24.8670    60.5130     8.9020     6.9840     7.4060    23.2180     2.1740 
   62.0000   -24.9630    64.7830     8.8270     6.9590     8.0190    23.6860     2.1620 
   62.1250   -25.0870    66.0740     8.7680     6.9230     7.6180    24.0770     2.1520 
   62.2500   -25.2500    65.5100     8.7680     6.9040     7.2770    24.3120     2.1540 
   62.3750   -25.4180    64.4380     8.8790     6.9410     7.0530    24.4660     2.1700 
   62.5000   -25.6410    63.1240     9.1390     7.0730     6.9750    24.5740     2.1910 
   62.6250   -25.9310    62.4530     9.5640     7.3320     7.0970    24.7700     2.2020 
   62.7500   -26.2240    62.7000    10.0520     7.6700     7.7990    25.1380     2.1990 
   62.8750   -26.5400    62.4680    10.4970     8.0240     8.6540    25.5110     2.1850 
   63.0000   -26.8800    60.6640    10.8030     8.3240     9.3160    25.6740     2.1660 
   63.1250   -27.2030    58.4190    10.9060     8.4990     9.3500    25.5420     2.1410 
   63.2500   -27.4990    56.5300    10.8830     8.5670     9.1590    25.2920     2.1140 
   63.3750   -27.7820    54.5160    10.8060     8.5660     9.0180    25.0570     2.0910 
   63.5000   -28.0210    53.0820    10.7330     8.5430     9.0730    24.9060     2.0790 
   63.6250   -28.2040    53.8390    10.7000     8.5300     9.2280    24.8790     2.0820 
   63.7500   -28.3350    55.7200    10.7020     8.5290     9.3800    24.9750     2.0910 
   63.8750   -28.4260    56.7700    10.7260     8.5330     9.6010    25.1970     2.1010 
   64.0000   -28.4610    56.6940    10.7630     8.5370     9.7370    25.3620     2.1120 
   64.1250   -28.4410    56.4860    10.8090     8.5470     9.6220    25.4080     2.1250 
   64.2500   -28.3420    56.1740    10.8590     8.5680     9.4960    25.4070     2.1370 
   64.3750   -28.1740    54.9320    10.8900     8.5850     9.4690    25.4480     2.1400 
   64.5000   -27.9480    54.9010    10.8580     8.5630     9.5360    25.5620     2.1280 
   64.6250   -27.6440    58.5710    10.6810     8.4300     9.3940    25.6640     2.1090 
   64.7500   -27.3040    61.9210    10.3590     8.1700     9.1600    25.6140     2.1040 
   64.8750   -26.9180    62.8080     9.9300     7.8050     8.7380    25.2680     2.1270 
   65.0000   -26.5440    62.4080     9.4790     7.3990     8.0890    24.6180     2.1750 
   65.1250   -26.2100    63.1240     9.1370     7.0560     7.2500    24.1020     2.2270 
   65.2500   -25.9520    65.4170     8.9710     6.8390     7.0260    23.8120     2.2540 
   65.3750   -25.7670    68.3540     8.9940     6.7720     7.1340    23.7130     2.2510 
   65.5000   -25.6410    71.0890     9.1670     6.8400     7.2340    23.6930     2.2300 
   65.6250   -25.6300    69.9450     9.4160     7.0040     7.4330    23.6910     2.2050 
   65.7500   -25.6650    67.0100     9.6370     7.1790     8.0010    23.7040     2.1860 
   65.8750   -25.7830    66.8100     9.7700     7.3110     8.5400    23.7740     2.1750 
   66.0000   -25.9280    70.2670     9.7990     7.3740     8.6250    23.9410     2.1720 
   66.1250   -26.1090    71.6370     9.7470     7.3710     8.5230    24.0840     2.1740 
   66.2500   -26.2760    66.7980     9.6940     7.3540     8.3880    24.1640     2.1790 
   66.3750   -26.4330    60.5820     9.6960     7.3620     8.4050    24.2450     2.1850 
   66.5000   -26.5750    58.6430     9.7770     7.4170     8.5520    24.3750     2.1940 
   66.6250   -26.6680    59.6670     9.9130     7.5090     8.9670    24.5180     2.2030 
   66.7500   -26.7580    58.5130    10.0210     7.5900     9.7190    24.7110     2.2070 
   66.8750   -26.8160    55.8840    10.0450     7.6230    10.2690    24.8770     2.2040 
   67.0000   -26.8430    54.9140     9.9720     7.5900     9.8180    24.9500     2.1940 
   67.1250   -26.8020    55.8120     9.8290     7.5040     8.8650    24.9650     2.1810 
   67.2500   -26.7270    58.5960     9.6920     7.4140     8.3870    24.9910     2.1720 
   67.3750   -26.6110    63.3560     9.6000     7.3470     8.3880    25.0160     2.1680 
   67.5000   -26.4770    66.4520     9.5590     7.3100     8.6130    24.9370     2.1650 
   67.6250   -26.3140    63.0830     9.5400     7.2860     8.7410    24.7320     2.1580 
   67.7500   -26.1350    58.4480     9.5040     7.2480     8.6850    24.5860     2.1470 
   67.8750   -25.9610    57.5450     9.4430     7.1890     8.5460    24.7250     2.1380 
   68.0000   -25.7870    58.8270     9.3800     7.1210     8.4060    24.9190     2.1340 
   68.1250   -25.6360    57.3680     9.3610     7.0790     8.3430    24.9960     2.1380 
