~V
VERS. 2.00: Ver 2.00
~W
STRT.M 55.0000:
STOP.M 217.0000:
STEP.M 0.1250:
NULL. -999.2500:
UWI. F10537:
~C
DEPT.M :
SP.MV :
DEN.GM/CC :
GR.API :
RML.OHMM :
RI. :
RXO.OHMM :
CALI.CM :
~A
# ...
  145.0000   -14.0960     2.2230    68.4650     7.7050     6.4920     6.2670    23.8100 
  145.1250   -13.5160     2.2380    73.4550     7.3640     6.1820     5.7280    23.9140 
  145.2500   -13.0220     2.2500    73.1020     7.0210     5.8830     5.7160    23.8010 
  145.3750   -12.6100     2.2650    70.3060     6.6840     5.5980     5.7120    23.6900 
  145.5000   -12.3020     2.2860    71.3800     6.4060     5.3640     5.6390    23.7300 
  145.6250   -12.0940     2.3020    78.1350     6.3020     5.2640     5.3180    23.9470 
  145.7500   -11.9690     2.3110    84.4660     6.4060     5.3300     5.0840    24.1810 
  145.8750   -11.9130     2.3180    86.1860     6.7160     5.5690     5.3840    24.1790 
  146.0000   -11.8870     2.3380    82.6040     7.1640     5.9430     6.9380    23.9440 
  146.1250   -11.8580     2.3910    78.4810     7.5720     6.3370    10.0770    23.7410 
  146.2500   -11.8440     2.4590    76.1800     7.7480     6.5820    11.2570    23.6780 
  146.3750   -11.8490     2.5100    75.3250     7.6160     6.5800     8.9950    23.8090 
  146.5000   -11.8560     2.5140    76.6620     7.2350     6.3360     7.3760    24.1210 
  146.6250   -11.8410     2.4690    80.9360     6.7570     5.9440     6.4980    24.3340 
  146.7500   -11.8350     2.4120    84.8910     6.3460     5.5590     5.8030    24.4190 
  146.8750   -11.8060     2.3660    84.9690     6.0560     5.2540     5.1640    24.4300 
  147.0000   -11.7160     2.3410    80.7890     5.8720     5.0430     4.9540    24.4300 
  147.1250   -11.6690     2.3410    77.8630     5.7590     4.9110     4.9210    24.4380 
  147.2500   -11.6000     2.3530    80.4970     5.6710     4.8180     4.9080    24.4420 
  147.3750   -11.5270     2.3680    85.7940     5.5960     4.7490     4.7650    24.4350 
  147.5000   -11.4480     2.3790    87.8020     5.5300     4.6950     4.5520    24.4370 
  147.6250   -11.3380     2.3830    83.3370     5.4920     4.6620     4.4850    24.4310 
  147.7500   -11.2530     2.3750    77.7800     5.5080     4.6680     4.4950    24.4360 
  147.8750   -11.1990     2.3600    76.6790     5.5880     4.7280     4.5750    24.4210 
  148.0000   -11.1860     2.3500    81.0630     5.7200     4.8330     4.7750    24.4200 
  148.1250   -11.2060     2.3670    83.2290     5.8640     4.9560     5.2880    24.4090 
  148.2500   -11.2930     2.4000    80.4410     5.9740     5.0540     6.2070    24.3270 
  148.3750   -11.4070     2.4330    80.3650     6.0280     5.1050     6.8740    24.1750 
  148.5000   -11.5760     2.4400    85.9610     6.0310     5.1090     6.5030    24.1280 
  148.6250   -11.8450     2.4080    89.4220     6.0220     5.0910     5.2710    24.2880 
  148.7500   -12.1230     2.3600    87.6230     6.0380     5.0880     4.9330    24.3640 
  148.8750   -12.4330     2.3190    85.1700     6.0840     5.1110     5.0870    24.3270 
  149.0000   -12.7790     2.2970    84.4600     6.1510     5.1560     5.4860    24.2130 
  149.1250   -13.1040     2.2890    82.4910     6.2130     5.2070     5.6490    24.2010 
  149.2500   -13.4080     2.2800    79.8610     6.2510     5.2450     5.6100    24.2180 
  149.3750   -13.6890     2.2640    77.3290     6.2810     5.2730     5.3290    24.2170 
  149.5000   -13.9270     2.2460    75.0810     6.3600     5.3260     5.1360    24.1310 
  149.6250   -14.0550     2.2430    73.9900     6.6110     5.4940     5.2760    23.8250 
  149.7500   -14.1280     2.2570    73.7460     7.0770     5.8280     5.4960    23.3630 
  149.8750   -14.1150     2.2770    74.4210     7.7150     6.3210     5.8430    22.9810 
  150.0000   -14.0000     2.2890    75.0910     8.3430     6.8540     6.4460    22.7730 
  150.1250   -13.8290     2.2880    76.0720     8.5880     7.1350     7.0890    22.7460 
  150.2500   -13.5970     2.2800    77.6020     8.2970     6.9950     7.9810    22.9510 
  150.3750   -13.3330     2.2770    78.5600     7.5830     6.4780     8.7830    23.4330 
  150.5000   -13.0790     2.2840    80.8980     6.7800     5.8200     7.5360    23.9850 
  150.6250   -12.8620     2.2970    84.3070     6.2970     5.3440     5.3520    24.2660 
  150.7500   -12.6760     2.3090    86.3440     6.2670     5.1990     5.0080    24.3420 
  150.8750   -12.5450     2.3310    84.7040     6.7160     5.4440     6.2520    24.3500 
  151.0000   -12.4810     2.3700    80.0500     7.5980     6.0880     8.1620    24.3290 
  151.1250   -12.4760     2.4270    76.1320     8.8200     7.1180     9.4690    24.3130 
  151.2500   -12.5330     2.4850    72.6010    10.0720     8.2970    10.2880    24.3020 
  151.3750   -12.6210     2.5350    68.9640    11.0590     9.3630    11.8520    24.2770 
  151.5000   -12.7190     2.5710    66.7680    11.5340    10.0340    15.0760    24.1990 
  151.6250   -12.8670     2.5820    65.0530    11.2700    10.0090    16.0690    24.1430 
  151.7500   -13.0240     2.5560    62.4360    10.4410     9.4000    14.1180    24.1390 
  151.8750   -13.1950     2.4920    61.3830     9.2510     8.3910    10.1780    24.1980 
  152.0000   -13.4030     2.4100    65.0830     7.9730     7.2370     7.0470    24.2820 
  152.1250   -13.5720     2.3460    73.0480     6.9160     6.2200     5.9970    24.3760 
  152.2500   -13.7260     2.3220    79.2670     6.2110     5.4810     5.5680    24.4330 
  152.3750   -13.8800     2.3280    83.1310     5.9000     5.0720     5.0010    24.4250 
  152.5000   -14.0010     2.3360    85.5890     5.9620     4.9940     4.7140    24.3150 
  152.6250   -14.0770     2.3110    82.9670     6.3520     5.2380     5.1150    24.1580 
  152.7500   -14.1140     2.2660    76.9420     6.8650     5.6440     6.1100    24.0290 
  152.8750   -14.0910     2.2300    70.8530     7.3190     6.0690     6.9160    24.0080 
  153.0000   -13.9710     2.2230    68.9300     7.5400     6.3610     7.2940    23.9820 
  153.1250   -13.8400     2.2540    72.2050     7.4030     6.3740     7.0770    23.7870 
  153.2500   -13.6810     2.2920    76.5790     7.0510     6.1740     6.3610    23.6290 
  153.3750   -13.4860     2.3120    79.3300     6.6390     5.8650     5.4950    23.5860 
  153.5000   -13.2870     2.3110    80.0100     6.2910     5.5540     5.1560    23.7020 
  153.6250   -13.0980     2.3080    81.6430     6.0860     5.3290     5.1460    23.9200 
  153.7500   -12.9090     2.3120    83.5630     5.9990     5.2020     5.1420    24.0620 
  153.8750   -12.7430     2.3210    82.4130     5.9940     5.1590     5.1440    24.0790 
  154.0000   -12.6770     2.3260    79.2240     6.0260     5.1700     5.1060    24.0800 
  154.1250   -12.6340     2.3290    78.2320     6.0490     5.1960     5.3380    24.0530 
  154.2500   -12.5950     2.3360    79.7130     6.0410     5.2110     5.4880    23.9460 
  154.3750   -12.6150     2.3440    81.6130     5.9900     5.2000     5.4050    23.8680 
  154.5000   -12.6350     2.3480    81.7440     5.8990     5.1610     4.9830    23.9150 
  154.6250   -12.6610     2.3380    81.1540     5.7820     5.0970     5.0380    23.9800 
  154.7500   -12.7320     2.3250    80.3670     5.6750     5.0370     5.1890    23.9970 
  154.8750   -12.7720     2.3180    80.3710     5.6070     5.0030     5.2630    23.9810 
  155.0000   -12.7690     2.3230    81.1800     5.6040     5.0210     4.9640    23.9470 
  155.1250   -12.7740     2.3310    81.1960     5.6770     5.1050     4.8120    23.8480 
  155.2500   -12.7540     2.3270    80.1230     5.7830     5.2200     4.9420    23.7690 
  155.3750   -12.6840     2.3110    78.0800     5.8680     5.3190     5.2360    23.8280 
  155.5000   -12.5680     2.2950    78.4480     5.8720     5.3490     5.2390    23.9310 
  155.6250   -12.4290     2.2960    83.5260     5.7270     5.2430     5.1540    24.0380 
  155.7500   -12.2510     2.3200    90.2440     5.4630     5.0150     4.9190    24.1330 
  155.8750   -12.1000     2.3570    95.4780     5.1380     4.7090     4.5610    24.1910 
  156.0000   -11.9700     2.3930    95.0760     4.8260     4.3920     4.3040    24.1700 
  156.1250   -11.8040     2.4160    91.8120     4.5930     4.1340     3.8420    24.0900 
