~V
VERS. 2.00: Ver 2.00
~W
STRT.M 47.0000:
STOP.M 236.0000:
STEP.M 0.1250:
NULL. -999.2500:
UWI. F10597:
~C
DEPT.M :
SP.MV :
DEN.GM/CC :
GR.API :
RML.OHMM :
RI. :
RXO.OHMM :
CALI.CM :
~A
# ...
  159.5000    -9.1160     2.3710    68.8990    17.3290    15.2890    15.7760    24.1410 
  159.6250    -9.1160     2.3830    65.3220    16.9680    15.1980    15.5820    24.1390 
  159.7500    -9.1430     2.4050    60.9390    16.7610    15.1420    15.5160    24.1220 
  159.8750    -9.1550     2.4270    57.7620    16.6590    15.1000    15.5880    24.0770 
  160.0000    -9.1420     2.4360    57.7060    16.5690    15.0380    15.7150    24.0210 
  160.1250    -9.1400     2.4330    60.2790    16.4560    14.9340    15.5230    24.0000 
  160.2500    -9.1200     2.4270    63.8510    16.3540    14.7880    14.9560    23.9910 
  160.3750    -9.0580     2.4220    64.8950    16.3090    14.6350    14.4610    23.9730 
  160.5000    -9.0300     2.4190    64.3720    16.3750    14.5370    14.2170    23.9410 
  160.6250    -8.9970     2.4220    65.2110    16.5720    14.5340    14.1540    23.9210 
  160.7500    -8.9360     2.4300    65.4020    16.9030    14.6630    14.4370    23.8990 
  160.8750    -8.8990     2.4360    63.3030    17.2910    14.9320    14.8030    23.8670 
  161.0000    -8.8670     2.4350    61.2620    17.5910    15.3080    15.0020    23.8500 
  161.1250    -8.8320     2.4310    60.0640    17.7380    15.6930    15.3710    23.8260 
  161.2500    -8.8150     2.4310    58.0600    17.7710    16.0310    15.9880    23.7670 
  161.3750    -8.8070     2.4390    56.9370    17.7890    16.2990    16.2760    23.6670 
  161.5000    -8.7740     2.4490    59.2480    17.9080    16.5480    15.8020    23.5610 
  161.6250    -8.7310     2.4510    62.0940    18.1640    16.8970    16.2120    23.5220 
  161.7500    -8.6840     2.4440    63.3670    18.5390    17.4080    17.5940    23.5920 
  161.8750    -8.6060     2.4300    65.1120    18.9630    18.0350    19.6370    23.8040 
  162.0000    -8.5070     2.4140    69.0200    19.2370    18.5270    21.1550    24.0720 
  162.1250    -8.3530     2.3960    71.0080    19.1430    18.6000    19.7300    24.2730 
  162.2500    -8.1660     2.3740    69.3750    18.6080    18.1520    17.3260    24.3510 
  162.3750    -8.0080     2.3530    65.6710    17.7770    17.3310    15.9640    24.3750 
  162.5000    -7.8320     2.3370    62.8510    16.9960    16.4810    15.4100    24.4050 
  162.6250    -7.6290     2.3260    61.9150    16.5860    15.8910    15.1290    24.4280 
  162.7500    -7.4450     2.3240    62.0500    16.6760    15.6730    15.2680    24.4390 
  162.8750    -7.2570     2.3320    64.1810    17.2430    15.8440    15.3310    24.4430 
  163.0000    -7.0590     2.3460    66.8570    18.2110    16.4110    15.8900    24.4430 
  163.1250    -6.9270     2.3620    68.6750    19.3580    17.2260    17.7180    24.4430 
  163.2500    -6.8690     2.3800    70.0610    20.5230    18.1490    20.2290    24.4430 
  163.3750    -6.8120     2.3980    71.1030    21.5810    19.0130    21.7200    24.4430 
  163.5000    -6.7990     2.4100    72.3320    22.4680    19.6940    21.5420    24.4430 
  163.6250    -6.8850     2.4140    75.5210    23.2260    20.2620    21.7410    24.4430 
  163.7500    -7.0070     2.4080    81.3720    23.8900    20.8170    22.0560    24.4430 
  163.8750    -7.1470     2.3950    84.4690    24.4740    21.4360    22.3150    24.4430 
  164.0000    -7.3780     2.3810    81.9040    24.9090    22.1010    23.6330    24.4430 
  164.1250    -7.6230     2.3720    82.1110    25.0960    22.6700    25.9390    24.4430 
  164.2500    -7.8050     2.3670    86.0520    24.9410    22.9750    27.1880    24.4430 
  164.3750    -7.9650     2.3580    88.6630    24.4430    22.8930    25.6200    24.4430 
  164.5000    -8.0980     2.3460    87.7600    23.7180    22.4220    23.6920    24.4430 
  164.6250    -8.1510     2.3420    87.1410    23.0420    21.8200    23.7010    24.4430 
  164.7500    -8.1450     2.3490    86.4360    22.6140    21.2630    23.8860    24.4430 
  164.8750    -8.1360     2.3600    83.8390    22.4810    20.8220    22.9360    24.4430 
  165.0000    -8.0960     2.3670    82.2690    22.5350    20.4740    22.1380    24.4430 
  165.1250    -8.0660     2.3710    83.9160    22.5460    20.1720    21.4030    24.4420 
  165.2500    -8.0810     2.3710    86.3720    22.4530    19.9530    21.3570    24.4330 
  165.3750    -8.1240     2.3670    87.3110    22.3530    19.9080    21.1600    24.4090 
  165.5000    -8.2060     2.3580    86.6150    22.4920    20.1630    20.9430    24.3720 
  165.6250    -8.3220     2.3490    85.7380    23.0750    20.7180    20.2270    24.3370 
  165.7500    -8.4610     2.3460    84.8050    24.2940    21.6550    20.4620    24.3120 
  165.8750    -8.6060     2.3440    85.1040    26.2060    23.0830    22.5480    24.3020 
  166.0000    -8.7510     2.3430    90.1310    28.6150    25.0700    25.6780    24.3020 
  166.1250    -8.8440     2.3400    98.7430    30.8210    27.2190    28.7560    24.3020 
  166.2500    -8.8870     2.3380   103.6610    32.1430    28.9580    30.4950    24.3020 
  166.3750    -8.9050     2.3410   101.8590    32.1240    29.7030    32.0900    24.3070 
  166.5000    -8.8840     2.3480    96.4160    30.7150    29.0760    32.2740    24.3360 
  166.6250    -8.8470     2.3570    91.3950    28.7480    27.6680    31.2660    24.3910 
  166.7500    -8.8330     2.3670    88.1400    26.8030    26.0190    28.3450    24.4350 
  166.8750    -8.8070     2.3720    87.4910    25.3230    24.5790    24.7590    24.4490 
  167.0000    -8.7710     2.3710    89.7370    24.8150    23.7750    23.2370    24.4510 
  167.1250    -8.7950     2.3660    90.0900    25.2590    23.6750    24.3080    24.4520 
  167.2500    -8.8520     2.3650    87.4780    26.3410    24.1670    28.4310    24.4530 
  167.3750    -8.8870     2.3680    86.3920    27.3700    24.8630    32.2880    24.4450 
  167.5000    -8.9450     2.3700    89.6380    27.3230    25.0360    32.1280    24.4220 
  167.6250    -9.0030     2.3700    91.7320    26.0260    24.3290    29.6270    24.3830 
  167.7500    -9.0150     2.3690    89.6630    23.9130    22.8810    25.9320    24.3320 
  167.8750    -9.0270     2.3690    85.3300    21.7290    21.1960    21.4090    24.2410 
  168.0000    -9.0270     2.3740    83.3280    20.1480    19.8310    20.2260    24.1630 
  168.1250    -8.9690     2.3780    84.6210    19.1840    18.9170    20.2330    24.1110 
  168.2500    -8.8520     2.3790    87.7160    18.6910    18.3560    19.5390    24.0900 
  168.3750    -8.7160     2.3780    90.3160    18.4550    17.9370    18.9530    24.0850 
  168.5000    -8.5510     2.3810    90.4600    18.2090    17.4120    17.7390    24.0750 
  168.6250    -8.3650     2.3860    90.9820    17.7170    16.6720    17.6560    24.0590 
  168.7500    -8.1600     2.3880    92.5490    16.8670    15.7470    16.9950    24.0780 
  168.8750    -7.9160     2.3880    91.1920    15.7380    14.7660    15.6890    24.1800 
  169.0000    -7.6660     2.3910    85.7080    14.6350    13.9090    14.4740    24.3330 
  169.1250    -7.4310     2.3950    82.8420    13.9290    13.3290    13.1970    24.4250 
  169.2500    -7.2280     2.3970    84.7280    13.8340    13.1670    13.1690    24.4520 
  169.3750    -7.0620     2.3920    85.0930    14.3640    13.5110    13.5710    24.4530 
  169.5000    -6.9350     2.3770    79.4310    15.6590    14.5930    14.1930    24.4530 
  169.6250    -6.8300     2.3620    74.1140    17.7870    16.4640    15.9120    24.4530 
  169.7500    -6.7700     2.3600    72.3010    20.8720    19.1940    18.9580    24.4530 
  169.8750    -6.7870     2.3720    72.3840    24.7490    22.6650    22.1610    24.4530 
  170.0000    -6.8080     2.3870    74.7260    28.5640    26.2920    25.7430    24.4530 
  170.1250    -6.7960     2.3900    79.2280    31.0010    28.9640    29.7680    24.4530 
  170.2500    -6.8250     2.3840    84.1230    31.1710    29.7570    34.9010    24.4530 
  170.3750    -6.9150     2.3760    88.0240    29.0660    28.4130    39.6740    24.4530 
  170.5000    -6.9990     2.3710    89.6770    25.4590    25.3390    35.9680    24.4530 
  170.6250    -7.1010     2.3650    88.4600    21.6910    21.7100    25.9290    24.4530 
