~V
VERS. 2.00: Ver 2.00
~W
STRT.M 58.0000:
STOP.M 199.0000:
STEP.M 0.1250:
NULL. -999.2500:
UWI. F10565:
~C
DEPT.M :
SP.MV :
GR.API :
RML.OHMM :
RI. :
RXO.OHMM :
CALI.CM :
DEN.GM/CC :
~A
# ...
  103.0000    -0.1190    63.4080    62.4740    55.8570    54.2640    23.9780     2.3480 
  103.1250    -0.0550    60.2960    60.4370    54.4920    58.0920    23.8700     2.3960 
  103.2500    -0.0110    57.6280    58.5230    53.0960    56.3880    23.8050     2.4160 
  103.3750     0.0270    56.8520    57.1770    52.0950    49.7290    23.7710     2.4150 
  103.5000     0.0700    57.2890    56.6770    51.7600    43.5690    23.7560     2.4030 
  103.6250     0.1100    58.0890    57.0540    52.1600    42.6080    23.7480     2.3860 
  103.7500     0.1280    57.2620    58.0240    53.1000    45.6130    23.7480     2.3700 
  103.8750     0.1160    55.6290    58.8310    53.9650    46.4240    23.7550     2.3570 
  104.0000     0.0720    55.4410    58.8800    54.2670    46.9360    23.7650     2.3470 
  104.1250     0.0240    56.6950    57.8610    53.7200    48.5430    23.7620     2.3410 
  104.2500    -0.0080    58.5670    55.8480    52.2940    47.6240    23.7330     2.3410 
  104.3750    -0.0550    60.8270    53.6080    50.5540    43.4110    23.7030     2.3490 
  104.5000    -0.1300    62.1810    51.7080    48.9640    39.7050    23.7040     2.3620 
  104.6250    -0.2200    61.5870    50.5040    47.8650    39.2250    23.7500     2.3780 
  104.7500    -0.3130    60.0450    50.2600    47.5460    37.3320    23.8280     2.3870 
  104.8750    -0.4180    60.4620    50.8090    47.9330    35.3060    23.9180     2.3840 
  105.0000    -0.5330    61.9910    52.0820    49.0090    36.7510    24.0250     2.3630 
  105.1250    -0.6410    61.9740    54.0210    50.7550    41.5200    24.1530     2.3270 
  105.2500    -0.7450    61.3190    56.6560    53.2490    45.3760    24.2840     2.2810 
  105.3750    -0.8270    61.9230    59.7350    56.2760    50.0780    24.3860     2.2340 
  105.5000    -0.8910    63.0940    62.9330    59.5570    56.3020    24.4490     2.1910 
  105.6250    -0.9520    63.2820    65.6710    62.5810    61.1460    24.4730     2.1530 
  105.7500    -1.0300    61.6330    67.2540    64.3310    62.7430    24.4390     2.1290 
  105.8750    -1.1110    59.6390    67.1110    64.1240    66.0700    24.3370     2.1280 
  106.0000    -1.1830    58.4770    64.2140    61.5320    69.2060    24.1720     2.1560 
  106.1250    -1.2450    57.6290    58.3610    56.7060    62.5860    23.9860     2.2110 
  106.2500    -1.3060    57.4910    50.9010    50.3430    47.6550    23.8320     2.2800 
  106.3750    -1.3700    59.3580    43.9220    43.9150    36.4690    23.7250     2.3380 
  106.5000    -1.4430    64.1510    38.2670    38.3680    30.4200    23.6580     2.3690 
  106.6250    -1.5200    69.7050    34.3140    34.2750    27.1540    23.6220     2.3750 
  106.7500    -1.5790    72.0490    32.3520    32.0920    25.1900    23.6120     2.3710 
  106.8750    -1.6330    71.0880    31.8700    31.4150    25.0420    23.6160     2.3750 
  107.0000    -1.6860    68.2140    32.5700    31.9790    26.9150    23.6240     2.3930 
  107.1250    -1.7520    64.6380    34.0790    33.4340    32.6210    23.6230     2.4190 
  107.2500    -1.8200    61.6470    35.9390    35.3610    37.1150    23.6120     2.4360 
  107.3750    -1.8890    60.4300    37.5770    37.1900    39.5340    23.6250     2.4320 
  107.5000    -1.9490    61.0770    38.6680    38.5760    39.2990    23.6860     2.4060 
  107.6250    -1.9960    63.4780    39.1270    39.3680    40.9950    23.7780     2.3660 
  107.7500    -2.0430    66.4580    39.1450    39.6480    38.3680    23.8600     2.3230 
  107.8750    -2.1030    67.5600    39.2440    39.8810    37.0770    23.9140     2.2760 
  108.0000    -2.1850    66.9450    39.7810    40.4330    35.5690    23.9200     2.2200 
  108.1250    -2.2830    66.2540    40.9230    41.5210    34.5390    23.8490     2.1550 
  108.2500    -2.3820    67.7460    42.6240    43.1730    37.1460    23.7130     2.1060 
  108.3750    -2.4750    68.2310    44.3600    44.9360    44.6890    23.6000     2.1050 
  108.5000    -2.5590    65.8230    45.5110    46.2560    58.0370    23.5590     2.1680 
  108.6250    -2.6430    60.6480    45.3730    46.4730    66.7630    23.5730     2.2840 
  108.7500    -2.7150    54.4920    43.0800    44.6910    50.2550    23.5980     2.4110 
  108.8750    -2.7560    51.6540    39.0400    41.1070    43.4400    23.6090     2.5030 
  109.0000    -2.7650    54.6640    33.9870    36.2870    41.5160    23.6020     2.5410 
  109.1250    -2.7530    64.6530    28.9180    31.1680    35.6470    23.5830     2.5300 
  109.2500    -2.7370    75.4950    24.9090    26.8740    25.1160    23.5570     2.4860 
  109.3750    -2.7250    80.2250    22.3550    23.8790    18.0160    23.5450     2.4320 
  109.5000    -2.7180    79.2410    21.4230    22.3290    17.3330    23.5580     2.3800 
  109.6250    -2.7100    77.0870    21.9850    22.1750    19.4610    23.5910     2.3350 
  109.7500    -2.7130    74.8720    23.1980    23.4300    21.1450    23.6250     2.3120 
  109.8750    -2.7340    70.1450    25.2010    25.6040    23.2640    23.6470     2.3180 
  110.0000    -2.7650    64.6360    27.9270    28.3300    28.4680    23.6600     2.3570 
  110.1250    -2.8020    61.5620    30.7760    31.1710    34.5660    23.6600     2.4180 
  110.2500    -2.8470    60.2250    33.1270    33.5970    37.0590    23.6430     2.4750 
  110.3750    -2.8930    58.9710    34.8800    35.3640    33.7820    23.6220     2.5040 
  110.5000    -2.9390    58.7070    36.0170    36.4100    33.7880    23.6120     2.4960 
  110.6250    -2.9850    59.7800    36.6600    36.8480    38.0600    23.6130     2.4620 
  110.7500    -3.0210    59.2160    37.0500    36.9180    39.4760    23.6130     2.4290 
  110.8750    -3.0520    56.7530    37.5270    36.9930    36.8160    23.5970     2.4200 
  111.0000    -3.0870    55.8590    38.2770    37.2630    33.4140    23.5600     2.4400 
  111.1250    -3.1250    58.1990    39.3590    37.8030    32.6500    23.5090     2.4790 
  111.2500    -3.1650    60.9720    40.7220    38.6210    34.5570    23.4750     2.5130 
  111.3750    -3.2100    61.7160    42.1040    39.5470    37.5630    23.4820     2.5290 
  111.5000    -3.2610    60.6910    43.2590    40.3940    38.7250    23.5130     2.5280 
  111.6250    -3.3020    59.5840    44.0090    40.9840    38.5170    23.5320     2.5250 
  111.7500    -3.3420    59.6710    44.3090    41.2230    36.6430    23.5200     2.5330 
  111.8750    -3.3840    59.6370    44.4420    41.3180    37.4310    23.5000     2.5470 
  112.0000    -3.4130    58.6980    44.6360    41.4770    37.9910    23.4700     2.5590 
  112.1250    -3.4120    57.1080    45.0190    41.8500    35.5060    23.4210     2.5600 
  112.2500    -3.3860    55.3020    45.5740    42.4660    34.2330    23.3940     2.5520 
  112.3750    -3.3450    54.0370    46.0550    43.1020    36.4680    23.4440     2.5410 
  112.5000    -3.2990    54.7270    46.2160    43.5170    37.3210    23.5640     2.5320 
  112.6250    -3.2650    57.2070    45.8950    43.5200    37.2260    23.6850     2.5230 
  112.7500    -3.2360    58.6340    45.0640    43.0180    37.7810    23.7320     2.5120 
  112.8750    -3.2230    58.3180    44.0560    42.2740    37.3720    23.7050     2.5020 
  113.0000    -3.2320    57.3970    43.1740    41.5560    34.1950    23.6380     2.4980 
  113.1250    -3.2590    56.8180    42.6490    41.1060    32.5550    23.5690     2.5060 
  113.2500    -3.2910    56.6050    42.6240    41.1010    35.1950    23.4860     2.5170 
  113.3750    -3.3290    56.1930    42.9320    41.4280    39.2880    23.3470     2.5180 
  113.5000    -3.3540    56.1470    43.4530    41.9800    36.0090    23.1590     2.5030 
  113.6250    -3.3570    56.3910    44.1160    42.6730    31.5140    22.9990     2.4780 
  113.7500    -3.3550    55.0680    44.9050    43.4720    31.2170    22.9580     2.4550 
  113.8750    -3.3390    52.6750    45.7460    44.3100    36.6690    22.9990     2.4430 
  114.0000    -3.2940    54.1150    46.5380    45.1070    40.3670    23.0590     2.4400 
  114.1250    -3.2350    59.4850    47.1580    45.7520    40.1520    23.0960     2.4420 
