~V
VERS. 2.00: Ver 2.00
~W
STRT.M 50.0000:
STOP.M 191.0000:
STEP.M 0.1250:
NULL. -999.2500:
UWI. F10562:
~C
DEPT.M :
DEN.GM/CC :
SP.MV :
GR.API :
RML.OHMM :
RI. :
RXO.OHMM :
CALI.CM :
~A
# ...
  151.2500     2.2390   -28.5640    66.4790    97.0600    97.2790    88.8290    24.4210 
  151.3750     2.2410   -28.6160    65.3620    93.0470    93.0670    86.5530    24.3670 
  151.5000     2.2360   -28.6620    68.4800    88.6860    88.7520    75.4790    24.3190 
  151.6250     2.2280   -28.7090    72.6720    85.0210    85.3910    70.5420    24.3010 
  151.7500     2.2190   -28.7230    72.8340    82.7140    83.4960    68.9130    24.2980 
  151.8750     2.2070   -28.7140    69.9380    82.0730    83.2150    70.3190    24.2780 
  152.0000     2.1980   -28.6860    67.8710    82.8690    84.1750    71.8320    24.2030 
  152.1250     2.2090   -28.6270    67.3950    84.2620    85.4610    70.9220    24.0240 
  152.2500     2.2350   -28.5770    67.0220    84.9980    85.9600    69.4040    23.8180 
  152.3750     2.2610   -28.5260    67.2710    84.3730    85.0980    68.8240    23.6150 
  152.5000     2.2770   -28.4670    67.8670    82.2410    82.7990    67.5420    23.4810 
  152.6250     2.2920   -28.3840    68.9300    78.7640    79.2010    64.0660    23.4390 
  152.7500     2.3130   -28.3110    69.1150    74.6260    74.8890    62.6720    23.4360 
  152.8750     2.3410   -28.2420    69.6140    70.1720    70.1470    62.6190    23.4310 
  153.0000     2.3720   -28.1860    71.4890    65.6420    65.2040    60.1090    23.4250 
  153.1250     2.4020   -28.1570    72.9950    61.1770    60.2040    53.7020    23.4290 
  153.2500     2.4270   -28.1280    73.6230    56.8150    55.2540    45.9900    23.4790 
  153.3750     2.4460   -28.0850    73.9080    52.6670    50.5460    40.5300    23.6420 
  153.5000     2.4650   -28.0390    74.7370    48.9720    46.4010    40.8170    23.9030 
  153.6250     2.5030   -27.9950    75.0090    46.0970    43.2560    49.0780    24.1720 
  153.7500     2.5550   -27.9480    72.1710    43.7570    40.7660    58.2700    24.2770 
  153.8750     2.5980   -27.8730    68.3190    41.2630    38.2050    61.1140    24.2990 
  154.0000     2.6140   -27.7530    65.5940    37.7610    34.7350    50.9930    24.2990 
  154.1250     2.6010   -27.5770    65.5980    32.7160    29.8600    41.0980    24.3000 
  154.2500     2.5740   -27.3590    67.1630    27.0600    24.4410    33.8110    24.3070 
  154.3750     2.5310   -27.1220    69.1300    21.7460    19.3720    26.7640    24.3190 
  154.5000     2.4760   -26.8800    71.5810    17.3260    15.1810    21.8170    24.3150 
  154.6250     2.4290   -26.6200    76.8630    13.9480    12.0050    22.9440    24.2820 
  154.7500     2.3950   -26.3790    85.8030    11.2030     9.4220    19.8240    24.2250 
  154.8750     2.3750   -26.1930    95.9140     8.9800     7.3420    11.0710    24.1820 
  155.0000     2.3730   -26.0800   102.3810     7.3740     5.9020     6.3580    24.1980 
  155.1250     2.3940   -26.0600   100.8920     6.6880     5.3920     6.4520    24.2780 
  155.2500     2.4230   -26.1020    93.6780     6.8410     5.6640     7.8820    24.3420 
  155.3750     2.4460   -26.1890    85.7550     7.7080     6.5460     8.8020    24.3640 
  155.5000     2.4570   -26.3300    82.3760     8.9580     7.6970     9.0580    24.3670 
  155.6250     2.4580   -26.5610    85.0340     9.9530     8.5090     9.1370    24.3690 
  155.7500     2.4570   -26.8250    89.9670    10.3080     8.6880     8.9900    24.3690 
  155.8750     2.4560   -27.0800    95.3700    10.1410     8.4130     8.8520    24.3670 
  156.0000     2.4510   -27.3310   101.1560     9.8030     8.0520     8.6460    24.3660 
  156.1250     2.4380   -27.5880   108.9540     9.5420     7.8400     8.4710    24.3650 
  156.2500     2.4240   -27.8780   121.1900     9.3770     7.7730     8.3610    24.3650 
  156.3750     2.4130   -28.2000   134.5960     9.3040     7.8550     8.5130    24.3650 
  156.5000     2.4040   -28.5280   139.8960     9.3550     8.1300     8.8030    24.3650 
  156.6250     2.3940   -28.8630   130.5600     9.6540     8.7310     9.1730    24.3650 
  156.7500     2.3850   -29.2140   119.0620    10.2960     9.7440     9.7170    24.3650 
  156.8750     2.3770   -29.6070   113.8040    11.4470    11.3470    10.8550    24.3650 
  157.0000     2.3660   -30.0050   111.4830    13.7380    13.3150    13.3400    24.3650 
  157.1250     2.3530   -30.3880   104.0510    17.1370    16.2300    17.8640    24.3650 
  157.2500     2.3400   -30.7310    93.2890    21.1290    19.9440    21.8210    24.3650 
  157.3750     2.3310   -31.0330    85.1010    25.0650    23.9190    24.7770    24.3650 
  157.5000     2.3310   -31.3050    82.1590    28.0760    27.2300    26.8450    24.3650 
  157.6250     2.3380   -31.5400    84.6310    29.3460    28.8080    28.4810    24.3550 
  157.7500     2.3460   -31.7110    87.6490    29.4210    29.0350    30.7370    24.3300 
  157.8750     2.3500   -31.8080    87.2830    28.9400    28.5850    32.8190    24.3030 
  158.0000     2.3480   -31.8600    83.8820    28.3510    27.9840    32.8560    24.2900 
  158.1250     2.3420   -31.8600    81.4610    27.8520    27.4400    29.7050    24.2890 
  158.2500     2.3340   -31.8240    81.3840    27.6430    27.0810    26.5390    24.2890 
  158.3750     2.3250   -31.7870    80.8140    28.0900    27.2050    25.9940    24.2890 
  158.5000     2.3160   -31.7500    76.5070    29.5310    28.1720    29.8440    24.2890 
  158.6250     2.3120   -31.6910    71.9190    32.1380    30.3200    36.1570    24.2890 
  158.7500     2.3140   -31.6440    72.3360    35.2740    33.1700    38.0840    24.2890 
  158.8750     2.3200   -31.6010    76.4690    38.4650    36.2120    34.5520    24.2890 
  159.0000     2.3240   -31.5310    78.1290    41.8230    39.3920    30.3810    24.2880 
  159.1250     2.3230   -31.4470    74.4600    46.5100    43.8060    35.2650    24.2740 
  159.2500     2.3260   -31.3600    69.5360    53.2240    50.2520    53.9170    24.2360 
  159.3750     2.3400   -31.2500    65.3230    61.6780    58.4930    70.9700    24.1840 
  159.5000     2.3570   -31.1220    62.2470    70.1300    66.8160    67.8180    24.1550 
  159.6250     2.3520   -30.9550    61.7700    75.4390    72.1620    67.6570    24.1480 
  159.7500     2.3270   -30.7520    64.0610    77.4270    74.2490    66.7990    24.1530 
  159.8750     2.2960   -30.5130    67.8140    78.1580    74.9520    64.2830    24.1630 
  160.0000     2.2740   -30.2490    69.3730    79.9880    76.6100    66.1200    24.1740 
  160.1250     2.2580   -29.9650    67.0480    83.7180    80.3150    69.9220    24.1380 
  160.2500     2.2460   -29.6600    65.3930    87.3530    84.3720    77.9170    24.0830 
  160.3750     2.2360   -29.3090    66.5640    88.1890    86.3680    90.2810    24.0250 
  160.5000     2.2290   -28.9060    68.3780    83.5770    83.6570   100.5110    23.9740 
  160.6250     2.2340   -28.4670    69.0120    72.0620    73.8870    89.0440    23.8760 
  160.7500     2.2730   -28.0060    69.1520    57.5260    59.9790    65.7370    23.6970 
  160.8750     2.3420   -27.5310    68.3910    43.2580    45.3510    52.6980    23.4460 
  161.0000     2.4230   -27.0510    65.3690    31.1290    32.6000    55.3870    23.2430 
  161.1250     2.4740   -26.5610    64.7580    21.9680    23.1160    51.6460    22.9950 
  161.2500     2.4530   -26.0770    68.2160    15.1040    16.1500    25.9400    22.6790 
  161.3750     2.4040   -25.6260    71.3890    10.2680    11.2110    10.0830    22.3860 
  161.5000     2.3720   -25.2200    69.9190     7.1630     7.8920     5.4960    22.2430 
  161.6250     2.3650   -24.8930    63.8470     5.5880     6.0230     4.5520    22.2550 
  161.7500     2.3610   -24.6150    59.2070     4.8920     5.0480     4.4200    22.4250 
  161.8750     2.3520   -24.3930    57.4610     4.7550     4.6850     4.4700    22.7520 
  162.0000     2.3360   -24.2310    58.0700     4.9200     4.6780     4.5200    23.1700 
  162.1250     2.3190   -24.1520    61.4940     5.1870     4.8190     4.5320    23.4760 
  162.2500     2.3100   -24.1270    65.1430     5.4240     4.9670     4.6760    23.6080 
  162.3750     2.3110   -24.1300    66.0410     5.6270     5.1010     4.9660    23.6370 
