~V
VERS. 2.00: Ver 2.00
~W
STRT.M 59.0000:
STOP.M 201.0000:
STEP.M 0.1250:
NULL. -999.2500:
UWI. F10560:
~C
DEPT.M :
DEN.GM/CC :
SP.MV :
GR.API :
RML.OHMM :
RI. :
RXO.OHMM :
CALI.CM :
~A
# ...
   70.2500     2.1150   -35.3980    70.6510    18.6000    16.5290    16.1790    24.8860 
   70.3750     2.1510   -35.1730    69.9630    17.5470    15.7100    16.9420    24.9110 
   70.5000     2.1930   -34.9750    71.0640    15.5110    14.0600    15.7460    24.9120 
   70.6250     2.2380   -34.7990    75.7460    13.0670    11.9810    12.6480    24.8670 
   70.7500     2.2770   -34.6740    82.2600    10.8880    10.0210     9.7850    24.8200 
   70.8750     2.3060   -34.5950    88.2540     9.2750     8.4440     8.5660    24.8020 
   71.0000     2.3280   -34.5870    91.2160     8.2970     7.3390     8.4830    24.7990 
   71.1250     2.3540   -34.6070    92.7770     7.9700     6.7600     8.0530    24.8310 
   71.2500     2.3730   -34.6300    95.2650     8.1100     6.5810     7.8420    24.9040 
   71.3750     2.3600   -34.6540    96.5330     8.6250     6.7500     8.9210    24.9880 
   71.5000     2.3120   -34.6620    94.9200     9.3830     7.1920    11.2560    25.0510 
   71.6250     2.2690   -34.6580    91.6040    10.2270     7.8380    10.4040    25.1220 
   71.7500     2.2530   -34.6480    87.3340    11.0350     8.5820    10.8930    25.1800 
   71.8750     2.2460   -34.6420    82.6450    11.8280     9.4000    12.5420    25.2280 
   72.0000     2.2280   -34.6210    80.3750    12.7300    10.3210    12.9110    25.2710 
   72.1250     2.2000   -34.6040    81.5950    13.9900    11.4660    13.0670    25.2900 
   72.2500     2.1780   -34.5920    81.1710    15.6140    12.8570    15.9300    25.2860 
   72.3750     2.1680   -34.6080    77.0090    17.3910    14.4080    21.0780    25.2450 
   72.5000     2.1630   -34.6480    72.3460    18.9580    15.9040    22.8720    25.1600 
   72.6250     2.1620   -34.6970    71.8230    19.8470    16.9600    21.2320    25.1030 
   72.7500     2.1660   -34.7430    74.4800    19.9470    17.3340    17.7530    25.0830 
   72.8750     2.1860   -34.7900    78.1580    19.2740    16.9020    17.8750    25.0800 
   73.0000     2.2250   -34.8390    79.5860    17.9490    15.7500    19.3610    25.0730 
   73.1250     2.2770   -34.8810    80.8130    16.0850    14.0810    17.9890    24.9960 
   73.2500     2.3120   -34.9040    85.2930    14.0480    12.2860    14.2800    24.7930 
   73.3750     2.3190   -34.9050    91.3720    12.2050    10.6370    10.7480    24.5200 
   73.5000     2.3050   -34.9080    94.3740    10.8680     9.3390     9.0530    24.3720 
   73.6250     2.2880   -34.9100    91.5990    10.2330     8.5630     8.6320    24.4010 
   73.7500     2.2740   -34.9180    88.0240    10.1150     8.2270     8.7100    24.5110 
   73.8750     2.2640   -34.9080    87.4340    10.4090     8.2950     9.2460    24.5890 
   74.0000     2.2560   -34.8980    89.0770    10.9930     8.7100    10.1240    24.6450 
   74.1250     2.2440   -34.8940    90.1210    11.7000     9.3750    10.4610    24.7080 
   74.2500     2.2250   -34.9210    90.1190    12.2660    10.0350    10.7780    24.8000 
   74.3750     2.2110   -34.9610    88.9570    12.4290    10.4380    11.9630    24.8620 
   74.5000     2.2170   -34.9980    86.6900    12.0040    10.3630    14.1880    24.7600 
   74.6250     2.2520   -35.0440    86.6420    11.0030     9.6890    14.0150    24.4440 
   74.7500     2.2940   -35.1090    90.6410     9.8910     8.7600    10.5050    24.0900 
   74.8750     2.3290   -35.1780    96.3630     9.0070     7.8720     8.0580    23.9210 
   75.0000     2.3600   -35.2320    98.5420     8.4950     7.2120     7.2930    23.8820 
   75.1250     2.3950   -35.2580    97.1000     8.3550     6.8780     7.5130    23.8830 
   75.2500     2.4190   -35.2360    95.5080     8.3570     6.7520     8.2190    23.9340 
   75.3750     2.4180   -35.1720    96.1210     8.3180     6.6950     8.5690    24.0590 
   75.5000     2.4030   -35.0570    99.6930     8.1400     6.5680     7.2900    24.1920 
   75.6250     2.3960   -34.8800   105.1720     7.8740     6.3310     6.4160    24.2660 
   75.7500     2.3920   -34.6400   110.0740     7.6900     6.1080     6.2480    24.2960 
   75.8750     2.3780   -34.3670   112.2010     7.7000     6.0150     6.3020    24.3050 
   76.0000     2.3630   -34.0700   111.1490     7.9440     6.1080     6.3190    24.3150 
   76.1250     2.3700   -33.7430   107.9980     8.3560     6.3720     6.9830    24.3480 
   76.2500     2.3880   -33.3970   104.2560     8.7010     6.6250     8.2920    24.4120 
   76.3750     2.3920   -33.0370   100.3650     8.7870     6.6990     9.3130    24.4770 
   76.5000     2.3710   -32.6990    98.9460     8.5620     6.5230     8.1410    24.5230 
   76.6250     2.3410   -32.3810   102.8560     8.1410     6.1600     7.2410    24.5870 
   76.7500     2.3150   -32.0870   106.9310     7.7760     5.8100     6.6280    24.6840 
   76.8750     2.2880   -31.8060   104.3840     7.6460     5.6230     6.8120    24.7600 
   77.0000     2.2630   -31.5720    97.1630     7.8650     5.7070     7.6240    24.7850 
   77.1250     2.2550   -31.3760    95.3810     8.4860     6.1370     8.3140    24.7700 
   77.2500     2.2610   -31.2100    98.3530     9.3140     6.7720     8.6500    24.7440 
   77.3750     2.2660   -31.0850    97.9090    10.1120     7.4350     9.8940    24.7300 
   77.5000     2.2650   -30.9940    92.6570    10.5770     7.8940    12.1600    24.7080 
   77.6250     2.2690   -30.9350    90.1120    10.3840     7.8670    11.5230    24.6260 
   77.7500     2.2840   -30.8980    93.4780     9.7160     7.4280     8.8370    24.4900 
   77.8750     2.3010   -30.8740    99.3190     8.8580     6.7730     6.9880    24.3850 
   78.0000     2.3120   -30.8500   101.3270     8.0860     6.1150     6.2320    24.3230 
   78.1250     2.3130   -30.8240    98.4200     7.6010     5.6310     6.0390    24.3070 
   78.2500     2.3110   -30.7930    97.3780     7.3760     5.3450     5.9520    24.2990 
   78.3750     2.3130   -30.7430   100.4220     7.3430     5.2330     6.0470    24.2880 
   78.5000     2.3180   -30.6750   106.1540     7.4360     5.2480     6.1660    24.2700 
   78.6250     2.3160   -30.6010   110.5810     7.6610     5.3790     6.0430    24.2710 
   78.7500     2.3090   -30.5080   112.3900     7.9910     5.6080     6.0710    24.2900 
   78.8750     2.3010   -30.4020   112.0930     8.3760     5.9180     6.5330    24.3150 
   79.0000     2.2970   -30.2680   111.1270     8.7350     6.2580     7.5290    24.3720 
   79.1250     2.2970   -30.1390   110.6490     8.9170     6.5170     8.3720    24.4790 
   79.2500     2.3020   -30.0280   107.8840     8.8730     6.6090     7.9590    24.5370 
   79.3750     2.3140   -29.9490   102.8610     8.6490     6.5170     7.0610    24.5360 
   79.5000     2.3280   -29.8790   100.0240     8.3760     6.3100     6.7680    24.5220 
   79.6250     2.3300   -29.8280   103.1690     8.2250     6.1130     6.7040    24.5190 
   79.7500     2.3140   -29.8100   108.4420     8.2570     6.0250     6.8360    24.5190 
   79.8750     2.2910   -29.8470   109.9040     8.4630     6.0730     7.1610    24.5190 
   80.0000     2.2740   -29.9240   105.8740     8.7680     6.2320     7.4930    24.5190 
   80.1250     2.2680   -30.0530   101.3550     9.0470     6.4230     7.7420    24.5120 
   80.2500     2.2680   -30.2270   101.3840     9.2040     6.5600     7.9930    24.4780 
   80.3750     2.2760   -30.4200   105.5470     9.2080     6.6100     8.1000    24.3970 
   80.5000     2.2920   -30.6280   109.7070     9.1150     6.5990     8.1280    24.3020 
   80.6250     2.3110   -30.8560   110.5120     9.1250     6.6430     7.9130    24.1990 
   80.7500     2.3290   -31.0840   109.3340     9.3990     6.8530     7.9310    24.1070 
   80.8750     2.3560   -31.2890   107.2380     9.9450     7.2730     8.4830    24.0460 
   81.0000     2.3910   -31.4670   103.0380    10.6220     7.8560     9.9020    24.0030 
   81.1250     2.4120   -31.5910    96.7490    11.1210     8.4340    12.2010    23.8850 
   81.2500     2.3960   -31.6540    93.4960    11.2290     8.7880    13.1630    23.7230 
   81.3750     2.3510   -31.6570    94.2690    10.9380     8.8130    11.1860    23.5960 
