~V
VERS. 2.00: Ver 2.00
~W
STRT.M 58.0000:
STOP.M 215.0000:
STEP.M 0.1250:
NULL. -999.2500:
UWI. F10587:
~C
DEPT.M :
DEN.GM/CC :
GR.API :
RML.OHMM :
RI. :
RXO.OHMM :
CALI.CM :
SP.MV :
~A
# ...
  103.0000     2.3400    89.6760     7.8400     6.6980     7.5670    20.4420   -14.8520 
  103.1250     2.3000    88.2020     8.0030     6.4390     7.9340    20.2870   -14.6430 
  103.2500     2.2480    84.5500     9.1350     6.9470     8.3200    20.1490   -14.4160 
  103.3750     2.1930    79.7380    11.3440     8.3080     8.9400    20.0740   -14.1520 
  103.5000     2.1400    73.4830    14.7700    10.6760    10.4590    20.0780   -13.8390 
  103.6250     2.1030    67.2440    19.6400    14.3910    13.6560    20.1290   -13.5490 
  103.7500     2.1080    63.3560    25.3740    19.1290    17.2750    20.2450   -13.2500 
  103.8750     2.1750    62.8530    31.1450    24.2830    19.3070    20.3800   -12.9740 
  104.0000     2.2950    65.1590    35.9050    28.8740    19.7390    20.5400   -12.7220 
  104.1250     2.3960    66.7840    38.7070    31.7880    19.5560    20.6980   -12.4200 
  104.2500     2.4110    65.8740    40.1110    33.2250    19.2720    20.5350   -12.1270 
  104.3750     2.3490    62.9110    40.7300    33.6450    19.2160    20.0790   -11.8070 
  104.5000     2.2570    61.2570    40.9580    33.4630    18.8810    19.5270   -11.4650 
  104.6250     2.1870    63.3900    40.8810    32.8760    18.2760    19.1130   -11.1050 
  104.7500     2.1500    64.3790    40.6100    32.1210    18.3420    18.8720   -10.6990 
  104.8750     2.1360    61.3040    40.2570    31.3580    18.7200    18.8150   -10.2790 
  105.0000     2.1310    56.7540    39.9890    30.7660    18.9440    18.9080    -9.8720 
  105.1250     2.1280    56.6260    40.0750    30.5960    18.9700    18.9060    -9.4980 
  105.2500     2.1230    59.1550    40.6300    30.9130    18.7140    18.7310    -9.1330 
  105.3750     2.1190    60.4120    41.7500    31.7540    18.0850    18.4200    -8.8190 
  105.5000     2.1180    58.8410    43.4890    33.1240    17.7950    18.1410    -8.5470 
  105.6250     2.1190    56.6880    45.8580    35.0330    18.3570    18.2510    -8.2910 
  105.7500     2.1200    57.3190    48.4720    37.2040    20.3950    19.0380    -8.0930 
  105.8750     2.1220    60.8390    50.9110    39.3420    23.7050    20.3450    -7.8940 
  106.0000     2.1220    63.7640    52.6520    41.0870    27.2640    21.6220    -7.6870 
  106.1250     2.1230    63.8860    52.8580    41.8440    30.7080    22.3380    -7.5340 
  106.2500     2.1260    62.8850    51.4280    41.4230    32.1390    22.6880    -7.3750 
  106.3750     2.1360    62.1240    48.6950    39.8830    31.1040    22.8830    -7.2260 
  106.5000     2.1520    62.3960    45.5290    37.7070    28.9780    23.0060    -7.1070 
  106.6250     2.1690    64.7150    43.1900    35.7580    26.5470    22.9830    -6.9760 
  106.7500     2.1760    68.3510    42.3890    34.7430    23.8380    22.7390    -6.8290 
  106.8750     2.1710    70.3140    43.4310    35.0440    22.2680    22.3560    -6.6600 
  107.0000     2.1530    67.7980    46.2350    36.7530    23.7880    22.0590    -6.4780 
  107.1250     2.1330    60.3210    50.3260    39.6800    27.2350    21.9530    -6.2690 
  107.2500     2.1190    53.3420    54.3280    42.8260    30.4180    21.9890    -6.0360 
  107.3750     2.1120    51.1390    57.0830    45.2890    31.9020    22.1340    -5.7750 
  107.5000     2.1100    52.7730    57.9380    46.4350    34.2610    22.4520    -5.5260 
  107.6250     2.1100    54.4290    56.9850    46.0830    38.7950    23.0560    -5.2500 
  107.7500     2.1100    55.1580    55.5080    45.1120    42.7800    23.6990    -4.9580 
  107.8750     2.1080    56.4090    54.3100    44.1800    43.3580    24.2380    -4.7360 
  108.0000     2.1050    58.7880    53.8220    43.7040    41.7500    24.4970    -4.5070 
  108.1250     2.1040    59.8570    54.3170    43.9690    41.6220    24.5250    -4.2500 
  108.2500     2.1070    59.1030    55.5400    44.8550    42.5790    24.4700    -4.0550 
  108.3750     2.1140    57.0560    57.1060    46.1310    45.7220    24.4150    -3.8640 
  108.5000     2.1240    53.8620    58.3600    47.3310    48.8870    24.3910    -3.6400 
  108.6250     2.1320    51.0890    58.3180    47.6970    48.9850    24.3990    -3.4970 
  108.7500     2.1380    50.6460    56.7840    46.9590    48.7030    24.4480    -3.3720 
  108.8750     2.1430    51.8580    54.0270    45.2030    46.1310    24.5790    -3.2100 
  109.0000     2.1500    52.5270    50.6700    42.8340    40.9480    24.7780    -3.0850 
  109.1250     2.1550    52.9220    47.4210    40.3720    35.7210    24.9020    -2.9750 
  109.2500     2.1560    54.6800    44.6160    38.1730    34.3870    24.9710    -2.8160 
  109.3750     2.1540    56.4900    42.2620    36.3080    34.1900    25.0510    -2.6620 
  109.5000     2.1530    56.5970    40.2310    34.7220    33.6520    25.1550    -2.5050 
  109.6250     2.1550    55.1940    38.3860    33.3240    32.0630    25.3240    -2.3190 
  109.7500     2.1630    54.1790    36.6250    31.9960    30.5220    25.5720    -2.1570 
  109.8750     2.1740    55.3640    34.9920    30.7250    29.4230    25.7560    -2.0040 
  110.0000     2.1860    58.0590    33.5850    29.5650    28.7980    25.8350    -1.8700 
  110.1250     2.1900    58.0710    32.5510    28.6310    27.6950    25.8880    -1.7500 
  110.2500     2.1760    56.6010    31.8600    27.9340    26.8580    25.9240    -1.6440 
  110.3750     2.1430    56.6310    31.4750    27.4710    26.1680    25.9480    -1.5710 
  110.5000     2.1060    59.4800    31.3480    27.2210    25.9120    26.0610    -1.5220 
  110.6250     2.0940    62.5690    31.4940    27.2120    26.3200    26.1070    -1.4700 
  110.7500     2.1170    64.6720    31.9040    27.4450    27.0650    25.9710    -1.4460 
  110.8750     2.1620    63.9360    32.6450    27.9720    27.2920    25.7690    -1.4580 
  111.0000     2.2010    59.5730    33.7880    28.8470    28.1010    25.5810    -1.4550 
  111.1250     2.2110    55.2460    35.4670    30.1670    29.1260    25.4430    -1.5310 
  111.2500     2.2020    53.3620    37.6050    31.8550    30.9050    25.3230    -1.6630 
  111.3750     2.1880    53.7170    40.1030    33.8290    33.8160    25.2590    -1.7750 
  111.5000     2.1780    54.7600    42.7260    35.9070    35.0960    25.2370    -1.9370 
  111.6250     2.1700    55.6050    44.9390    37.6740    36.2460    25.2660    -2.1390 
  111.7500     2.1700    55.2000    46.2240    38.7120    36.6190    25.2590    -2.2700 
  111.8750     2.1740    55.0190    46.2100    38.7070    38.2190    25.2680    -2.3870 
  112.0000     2.1720    57.8890    44.8460    37.5890    39.8100    25.3090    -2.5110 
  112.1250     2.1480    61.3880    42.4310    35.5400    36.7950    25.3480    -2.5570 
  112.2500     2.1090    60.9470    39.9350    33.3240    31.0760    25.4070    -2.6270 
  112.3750     2.0750    57.1070    38.1220    31.5500    27.2120    25.5390    -2.7380 
  112.5000     2.0760    53.9250    37.6160    30.7170    26.7430    25.7090    -2.8470 
  112.6250     2.1470    53.2040    39.2840    31.5050    27.8920    25.7030    -3.0080 
  112.7500     2.2670    53.0220    43.2000    34.0500    30.7500    25.3810    -3.2280 
  112.8750     2.3960    53.2960    49.3900    38.4850    36.2490    24.8510    -3.5120 
  113.0000     2.4880    54.8320    57.2890    44.4810    43.0360    24.3990    -3.8480 
  113.1250     2.5190    56.6210    65.0220    50.7690    49.2320    24.2600    -4.2120 
  113.2500     2.5100    55.8430    69.7950    55.2420    66.0460    24.1880    -4.5710 
  113.3750     2.4840    52.5020    69.8680    56.4500    76.3220    24.1830    -4.9340 
  113.5000     2.4620    48.3380    65.7680    54.3650    61.5610    24.1360    -5.2510 
  113.6250     2.4630    46.5000    59.8910    50.3050    47.6030    24.0990    -5.4820 
  113.7500     2.4750    47.3930    54.7170    46.2810    42.2460    24.0870    -5.7000 
  113.8750     2.4660    49.7580    50.8730    43.0280    43.3120    24.1140    -5.8130 
  114.0000     2.4170    51.2530    48.1150    40.5860    42.3520    24.1890    -5.8370 
  114.1250     2.3320    49.2290    45.7780    38.6010    41.3720    24.3240    -5.8660 
