~V
VERS. 2.00: Ver 2.00
~W
STRT.M 50.0000:
STOP.M 191.0000:
STEP.M 0.1250:
NULL. -999.2500:
UWI. F10562:
~C
DEPT.M :
DEN.GM/CC :
SP.MV :
GR.API :
RML.OHMM :
RI. :
RXO.OHMM :
CALI.CM :
~A
# ...
  173.7500     2.4090   -23.6600    57.2990     6.5100     5.6490     6.2090    24.2050 
  173.8750     2.4130   -23.7940    57.2660     6.6380     5.6320     6.2480    24.2050 
  174.0000     2.4160   -23.9200    55.3510     6.8260     5.6890     6.0430    24.2050 
  174.1250     2.4150   -24.0390    54.4280     7.0390     5.8370     5.9000    24.2050 
  174.2500     2.4110   -24.1940    54.2280     7.2780     6.0610     6.2590    24.2050 
  174.3750     2.4070   -24.3960    54.4950     7.5770     6.3570     7.1480    24.2050 
  174.5000     2.4020   -24.6280    55.3980     7.9370     6.7030     8.0530    24.2050 
  174.6250     2.3950   -24.8750    56.9200     8.2890     7.0400     8.5400    24.2050 
  174.7500     2.3880   -25.0910    59.4240     8.5670     7.3220     8.5030    24.2040 
  174.8750     2.3860   -25.2850    64.3010     8.8080     7.5710     8.5240    24.2030 
  175.0000     2.3900   -25.4880    69.7240     9.1540     7.8780     8.8810    24.1990 
  175.1250     2.4010   -25.7160    70.9460     9.8320     8.4180     9.9410    24.1870 
  175.2500     2.4120   -25.9220    67.5660    10.8990     9.2550    11.8750    24.1610 
  175.3750     2.4200   -26.0960    62.3780    12.2950    10.3660    14.1830    24.1370 
  175.5000     2.4230   -26.2570    59.1470    13.7470    11.5750    16.1020    24.1270 
  175.6250     2.4160   -26.4430    59.3960    14.6910    12.4860    16.9510    24.1240 
  175.7500     2.3980   -26.6910    60.7800    14.8480    12.8390    16.4310    24.1230 
  175.8750     2.3700   -26.9840    61.6040    14.3050    12.6360    15.0120    24.1220 
  176.0000     2.3370   -27.3130    64.5840    13.5060    12.1570    13.6150    24.1220 
  176.1250     2.3090   -27.6520    73.2220    13.0990    11.8650    14.6650    24.1230 
  176.2500     2.2950   -27.9660    84.4570    13.2800    11.9780    16.3430    24.1170 
  176.3750     2.2920   -28.2580    92.7300    13.8270    12.4110    16.0580    24.0970 
  176.5000     2.2900   -28.4910    95.7570    14.2900    12.8590    12.8940    24.0580 
  176.6250     2.2840   -28.6090    97.9040    14.1810    12.8720    12.6730    24.0380 
  176.7500     2.2790   -28.6160   102.3590    13.5480    12.3970    14.1820    24.0260 
  176.8750     2.2800   -28.5410   105.9230    12.6020    11.5910    14.4000    24.0030 
  177.0000     2.2860   -28.3810   104.7850    11.5380    10.6430    12.3440    23.9840 
  177.1250     2.2950   -28.1480   101.6040    10.4360     9.6520     8.9580    23.9780 
  177.2500     2.3060   -27.8870   100.7190     9.3420     8.6700     7.4150    23.9780 
  177.3750     2.3170   -27.6080    98.9830     8.3670     7.7850     6.6980    23.9780 
  177.5000     2.3220   -27.3620    94.1940     7.6770     7.1200     6.4990    23.9780 
  177.6250     2.3200   -27.2340    89.5240     7.4440     6.8200     6.4890    23.9760 
  177.7500     2.3140   -27.1910    87.8880     7.5790     6.8350     6.6930    23.9730 
  177.8750     2.3070   -27.2030    87.7650     7.9870     7.1040     7.2750    23.9740 
  178.0000     2.3000   -27.2580    88.3690     8.5370     7.5360     7.8900    23.9760 
  178.1250     2.2960   -27.3090    90.7670     9.0650     8.0050     8.1390    23.9780 
  178.2500     2.2930   -27.3500    92.5420     9.4410     8.3730     8.3040    23.9780 
  178.3750     2.2900   -27.3960    91.5740     9.6130     8.5670     8.8200    23.9780 
  178.5000     2.2860   -27.4170    89.0600     9.5790     8.5830     9.3640    23.9770 
  178.6250     2.2850   -27.2750    88.5320     9.3360     8.4350     9.1070    23.9760 
  178.7500     2.2890   -27.0020    89.0140     8.9450     8.1750     8.2260    23.9720 
  178.8750     2.2950   -26.6690    89.8910     8.4510     7.8160     7.2520    23.9580 
  179.0000     2.3010   -26.2880    91.4740     7.9090     7.3750     6.5810    23.9260 
  179.1250     2.3090   -25.8910    92.4920     7.3860     6.9000     6.2230    23.9190 
  179.2500     2.3160   -25.4850    92.0100     6.9280     6.4610     6.1530    23.9370 
  179.3750     2.3230   -25.0610    91.1570     6.5600     6.0960     6.4790    23.9620 
  179.5000     2.3290   -24.6460    92.3720     6.2880     5.8190     7.0590    23.9710 
  179.6250     2.3440   -24.2930    92.8580     6.1150     5.6290     6.4060    23.9610 
  179.7500     2.3680   -24.0110    91.3920     6.0260     5.5060     5.6320    23.9500 
  179.8750     2.3940   -23.7790    90.4370     6.0400     5.4670     5.4780    23.9550 
  180.0000     2.4160   -23.6210    90.2220     6.1820     5.5330     5.8200    23.9690 
  180.1250     2.4260   -23.5460    89.8620     6.4580     5.7200     6.2140    23.9760 
  180.2500     2.4250   -23.5750    89.1420     6.7740     5.9640     6.3810    23.9700 
  180.3750     2.4150   -23.6770    89.5410     7.0420     6.1950     6.3940    23.9540 
  180.5000     2.3980   -23.8040    89.7390     7.1970     6.3490     6.3730    23.9230 
  180.6250     2.3760   -24.0080    89.7390     7.2180     6.3860     6.3360    23.9080 
  180.7500     2.3540   -24.2920    89.7390     7.1820     6.3580     6.2180    23.9030 
  180.8750     2.3360   -24.6310    89.7390     7.1480     6.3130     6.1970    23.9030 
  181.0000     2.3240   -25.0060    89.7390     7.1640     6.2930     6.3150    23.9020 
  181.1250     2.3160   -25.4060    89.7390     7.2790     6.3460     6.3860    23.8970 
  181.2500     2.3110   -25.7930    89.7390     7.4900     6.4820     6.5340    23.8740 
  181.3750     2.3070   -26.2310    89.7390     7.7890     6.7000     6.9540    23.8250 
  181.5000     2.3020   -26.7270    89.7390     8.1550     6.9870     7.6520    23.7770 
  181.6250     2.2940   -27.1910    89.7390     8.5480     7.3120     7.9530    23.7680 
  181.7500     2.2860   -27.6000    89.7390     8.9110     7.6150     7.9720    23.7830 
  181.8750     2.2830   -27.9270    89.7390     9.1840     7.8450     7.9530    23.7750 
  182.0000     2.2850   -28.1310    89.7390     9.2940     7.9580     7.7770    23.7060 
  182.1250     2.2890   -28.2200    89.7390     9.1580     7.9130     7.4960    23.6350 
  182.2500     2.2910   -28.2380    89.7390     8.8610     7.7610     7.5500    23.6100 
  182.3750     2.2910   -28.1830    89.7390     8.5180     7.5620     8.0750    23.6360 
  182.5000     2.2860   -28.0820    89.7390     8.2390     7.3790     8.8520    23.7580 
  182.6250     2.2750   -27.9560    89.7390     8.0840     7.2600     9.4920    23.9920 
  182.7500     2.2640   -27.7920    89.7390     7.9990     7.1940     9.1260    24.2170 
  182.8750     2.2590   -27.6060    89.7390     7.9200     7.1540     8.8860    24.3120 
  183.0000     2.2590   -27.4170    89.7390     7.8130     7.1130     8.7320    24.3270 
  183.1250     2.2620   -27.1680    89.7390     7.7150     7.0810     8.8520    24.3260 
  183.2500     2.2670   -26.7910    89.7390     7.6990     7.0850     9.2430    24.3220 
  183.3750     2.2770   -26.2770    89.7390     7.7750     7.1310     9.4560    24.3190 
  183.5000     2.2960   -25.6410    89.7390     7.8690     7.1730     8.8980    24.3180 
  183.6250     2.3260   -24.9080    89.7390     7.8340     7.1050     8.2830    24.3180 
  183.7500     2.3580   -24.1520    89.7390     7.6010     6.8890     7.3370    24.3180 
  183.8750     2.3840   -23.4180    89.7390     7.1990     6.5490     6.6160    24.3180 
  184.0000     2.4020   -22.7110    89.7390     6.7380     6.1630     6.0850    24.3050 
  184.1250     2.4140   -22.0630    89.7390     6.3610     5.8320     5.7720    24.2640 
  184.2500     2.4300   -21.5120    89.7390     6.1060     5.5940     5.8260    24.2060 
  184.3750     2.4490   -21.0660    89.7390     5.9520     5.4450     6.3330    24.1800 
  184.5000     2.4570   -20.7340    89.7390     5.8680     5.3640     6.8290    24.1760 
  184.6250     2.4440   -20.5290    89.7390     5.8360     5.3280     6.3710    24.1750 
  184.7500     2.4270   -20.4040    89.7390     5.8390     5.3110     6.1990    24.1730 
  184.8750     2.4200   -20.2970    89.7390     5.8770     5.3030     6.3520    24.1720 
