~V
VERS. 2.00: Ver 2.00
~W
STRT.M 51.0000:
STOP.M 221.0000:
STEP.M 0.1250:
NULL. -999.2500:
UWI. F10616:
~C
DEPT.M :
GR.API :
RML.OHMM :
RI. :
RXO.OHMM :
CALI.CM :
DEN.GM/CC :
SP.MV :
~A
# ...
   73.5000    54.8230    19.3890    14.7500    36.9840    24.4300     2.1150   -16.0700 
   73.6250    53.8730    19.2710    14.8850    38.8930    24.5080     2.0690   -16.0090 
   73.7500    54.8260    18.2920    14.3710    24.5590    24.6920     2.0350   -15.9060 
   73.8750    55.1310    16.9450    13.5020    14.7720    24.6760     2.0270   -15.7510 
   74.0000    53.2000    15.8850    12.7500    11.4720    24.2640     2.0550   -15.5560 
   74.1250    51.3980    15.3810    12.3280    10.2350    23.6260     2.1230   -15.3300 
   74.2500    51.9120    15.4040    12.2600     9.7430    23.1390     2.2210   -15.0780 
   74.3750    53.9830    15.6300    12.3830     9.9120    23.0130     2.3050   -14.8180 
   74.5000    55.3050    15.5640    12.3500    10.2980    23.1970     2.3370   -14.5790 
   74.6250    56.2560    14.9720    11.9500    10.4380    23.7090     2.3220   -14.3680 
   74.7500    58.6570    13.9360    11.1900    10.3820    24.3050     2.2870   -14.1770 
   74.8750    61.6470    12.8130    10.2910     9.8010    24.6070     2.2640   -14.0300 
   75.0000    61.9150    12.0060     9.5640     8.7210    24.7070     2.2580   -13.9440 
   75.1250    60.3090    11.7110     9.1810     8.1030    24.6860     2.2550   -13.9260 
   75.2500    61.1690    11.9430     9.1930     8.5370    24.5970     2.2410   -13.9600 
   75.3750    63.3480    12.6110     9.5840     9.0030    24.3340     2.2100   -14.0520 
   75.5000    62.1480    13.4060    10.1410     9.2280    24.0160     2.1740   -14.1750 
   75.6250    60.1240    14.0900    10.6930     9.3370    24.0980     2.1450   -14.3300 
   75.7500    60.4590    14.4930    11.0970     9.3660    24.4940     2.1330   -14.5000 
   75.8750    61.7670    14.5560    11.2710     9.4900    24.3740     2.1400   -14.6680 
   76.0000    62.3000    14.4650    11.3100     9.6820    24.0920     2.1580   -14.8120 
   76.1250    62.7610    14.3420    11.2840    10.1220    24.1120     2.1730   -14.9240 
   76.2500    63.8290    14.2460    11.2300    10.3070    24.3450     2.1790   -15.0210 
   76.3750    62.3420    14.1940    11.1520    10.3270    24.5530     2.1790   -15.0880 
   76.5000    59.2740    14.1610    11.0470    10.3250    24.7120     2.1800   -15.1350 
   76.6250    55.9550    14.1260    10.9130    10.3990    24.9860     2.1780   -15.1580 
   76.7500    53.6530    14.0740    10.7690    10.2350    25.3100     2.1730   -15.1630 
   76.8750    54.9780    14.0050    10.6520     9.8730    25.4930     2.1670   -15.1410 
   77.0000    58.7750    13.9210    10.5720     9.6330    25.5390     2.1640   -15.1000 
   77.1250    61.9380    13.8060    10.5150     9.5660    25.5720     2.1610   -15.0320 
   77.2500    61.8910    13.6350    10.4500     9.9040    25.6380     2.1540   -14.9280 
   77.3750    57.0900    13.3850    10.3400    10.0050    25.6700     2.1420   -14.7890 
   77.5000    52.6650    13.0980    10.2000     9.8730    25.5610     2.1340   -14.6180 
   77.6250    51.7300    12.8580    10.0810     9.4420    25.2450     2.1370   -14.4180 
   77.7500    52.6640    12.7910    10.0650     8.9930    24.8080     2.1550   -14.2040 
   77.8750    51.9430    13.0580    10.2690     8.9200    24.4350     2.1820   -13.9970 
   78.0000    51.1350    13.5450    10.6540     9.1920    24.2720     2.2060   -13.8140 
   78.1250    53.8900    13.9540    11.0460     9.5520    24.1610     2.2220   -13.6640 
   78.2500    59.7610    13.8360    11.1160    10.0350    24.0470     2.2310   -13.5530 
   78.3750    63.9880    12.6680    10.4040    10.4950    24.1240     2.2330   -13.4930 
   78.5000    65.8750    10.7390     9.0470    10.0820    24.4040     2.2320   -13.5080 
   78.6250    67.1640     8.6190     7.4280     8.2350    24.6950     2.2350   -13.6070 
   78.7500    68.5970     6.8900     5.9790     5.5010    24.9160     2.2460   -13.7870 
   78.8750    72.6640     5.9790     5.0450     4.3800    25.0180     2.2640   -14.0700 
   79.0000    80.2110     5.7780     4.6150     4.1340    25.0540     2.2810   -14.4230 
   79.1250    86.5620     6.1980     4.6560     4.5010    25.0690     2.2870   -14.8540 
   79.2500    85.5890     7.1250     5.1080     5.4020    25.0640     2.2790   -15.3400 
   79.3750    76.7430     8.3860     5.8960     6.5160    25.0290     2.2610   -15.8520 
   79.5000    67.8840     9.5950     6.7680     7.5840    25.0010     2.2410   -16.3390 
   79.6250    63.6180    10.4400     7.5030     8.0330    24.9790     2.2260   -16.7760 
   79.7500    63.5660    10.7540     7.9280     8.1930    24.9630     2.2210   -17.1430 
   79.8750    65.9410    10.5610     7.9620     8.0740    24.9400     2.2230   -17.3890 
   80.0000    68.2340    10.2250     7.8070     7.8220    24.9070     2.2200   -17.5410 
   80.1250    69.1440    10.0050     7.6410     7.4820    24.8260     2.2050   -17.5960 
   80.2500    68.0550    10.0610     7.6060     7.2870    24.6890     2.1820   -17.5600 
   80.3750    64.6010    10.4820     7.7980     7.7040    24.5780     2.1700   -17.4800 
   80.5000    62.0380    11.1180     8.1510     8.4680    24.5870     2.1770   -17.3690 
   80.6250    60.8360    11.7920     8.5610     9.1760    24.6260     2.1960   -17.2540 
   80.7500    59.7090    12.2810     8.8830     9.6380    24.5040     2.2140   -17.1290 
   80.8750    58.5090    12.3400     8.9410     9.4630    24.3080     2.2150   -17.0280 
   81.0000    58.2300    12.0230     8.7390     9.0930    24.1970     2.2050   -16.9410 
   81.1250    59.2010    11.4680     8.3480     8.7440    24.1770     2.1940   -16.8680 
   81.2500    61.5680    10.8610     7.8780     8.4420    24.2120     2.1870   -16.8020 
   81.3750    64.0070    10.3650     7.4360     8.1010    24.2790     2.1870   -16.7480 
   81.5000    66.9840    10.0090     7.0730     7.6390    24.2700     2.1950   -16.7150 
   81.6250    69.9620     9.7690     6.7980     7.2880    24.2290     2.2110   -16.7140 
   81.7500    70.2810     9.6050     6.6020     7.0800    24.1740     2.2280   -16.7430 
   81.8750    67.9500     9.5010     6.4770     6.9630    24.1820     2.2340   -16.8050 
   82.0000    66.2080     9.4390     6.4020     6.9590    24.4090     2.2310   -16.8850 
   82.1250    65.2640     9.4390     6.3780     7.0230    24.7950     2.2300   -16.9830 
   82.2500    64.2510     9.5540     6.4350     7.1890    25.1270     2.2370   -17.1240 
   82.3750    62.6780     9.9000     6.6470     7.3760    25.2830     2.2360   -17.2410 
   82.5000    59.8940    10.4900     7.0240     7.7430    25.3150     2.2150   -17.3270 
   82.6250    55.8340    11.2680     7.5480     9.2540    25.3080     2.1760   -17.3490 
   82.7500    52.7810    12.0680     8.1390    13.5330    25.3970     2.1310   -17.3220 
   82.8750    52.5900    12.5630     8.6230    20.6060    25.5420     2.0990   -17.2250 
   83.0000    52.4980    12.5920     8.8550    18.9350    25.4330     2.0860   -17.0700 
   83.1250    51.8490    12.1910     8.7920    12.5540    25.2560     2.0890   -16.8500 
   83.2500    51.6290    11.5810     8.5160     9.1860    25.2920     2.1020   -16.5180 
   83.3750    53.5720    11.0930     8.2080     8.4620    25.4410     2.1200   -16.1190 
   83.5000    56.7350    10.8760     8.0280     8.4140    25.4880     2.1380   -15.6310 
   83.6250    58.9300    10.8810     7.9950     8.3910    25.4560     2.1490   -15.0660 
   83.7500    58.5300    10.9190     8.0170     8.4470    25.4640     2.1480   -14.4460 
   83.8750    58.4930    10.7140     7.9010     8.4370    25.5670     2.1380   -13.7960 
   84.0000    64.0980    10.1690     7.5470     8.0090    25.6340     2.1380   -13.1250 
   84.1250    72.9820     9.3160     6.9610     6.9730    25.5400     2.1540   -12.4640 
   84.2500    79.0170     8.2860     6.2280     5.6630    25.3270     2.1850   -11.8420 
   84.3750    77.8880     7.2610     5.4720     4.9380    25.1620     2.2160   -11.3100 
   84.5000    76.4630     6.3680     4.7960     4.9760    25.0800     2.2410   -10.9060 
   84.6250    77.9790     5.6800     4.2540     5.2700    25.1240     2.2660   -10.6300 
