~V
VERS. 2.00: Ver 2.00
~W
STRT.M 54.0000:
STOP.M 246.0000:
STEP.M 0.1250:
NULL. -999.2500:
UWI. F10643:
~C
DEPT.M :
SP.MV :
GR.API :
RML.OHMM :
RI. :
RXO.OHMM :
CALI.CM :
DEN.GM/CC :
~A
# ...
  200.2500   -23.7850    41.7150   140.4220   133.8040   175.9290    24.0100     2.1740 
  200.3750   -23.8280    46.1180   117.6390   119.2990   204.9390    24.0160     2.1780 
  200.5000   -23.8800    50.9300    88.8350    94.7720   172.2970    24.1340     2.1950 
  200.6250   -23.9750    53.5790    65.2240    70.9120    98.5670    24.1640     2.2160 
  200.7500   -24.0890    54.8340    49.4510    53.0740    49.6620    24.0760     2.2310 
  200.8750   -24.2080    56.0660    40.5780    42.3200    30.1570    23.9190     2.2350 
  201.0000   -24.3670    57.5380    37.5330    38.1160    26.3410    23.9380     2.2260 
  201.1250   -24.5570    57.7060    38.0870    37.8820    27.9990    24.0240     2.2130 
  201.2500   -24.7560    56.7290    41.5460    40.7890    32.8130    24.1030     2.2040 
  201.3750   -25.0030    56.2990    47.4910    46.3950    41.5920    24.0890     2.2020 
  201.5000   -25.2360    57.7690    55.8530    54.6030    49.6290    23.9560     2.2040 
  201.6250   -25.4710    58.1930    65.6390    64.2560    51.4310    23.8190     2.2060 
  201.7500   -25.6980    55.8440    75.7730    74.1970    53.5570    23.7630     2.2030 
  201.8750   -25.8720    52.0680    84.5260    82.7900    64.2910    23.8900     2.1980 
  202.0000   -26.0560    50.0440    89.2050    87.5830    93.1760    24.1580     2.1950 
  202.1250   -26.1570    49.8560    89.8830    88.4540   109.5960    24.3410     2.1990 
  202.2500   -26.2210    50.9600    88.3740    86.6970    92.8210    24.3780     2.2090 
  202.3750   -26.2520    52.4920    87.6230    84.8960    68.6810    24.3230     2.2200 
  202.5000   -26.2160    52.2760    91.1130    86.6380    61.3390    24.2040     2.2220 
  202.6250   -26.1560    50.3750    99.5540    93.2260    71.4270    24.0750     2.2150 
  202.7500   -26.0770    47.7580   112.0900   104.1830    93.6100    23.9410     2.1990 
  202.8750   -25.9550    46.1880   125.1030   116.4730   124.5390    23.9130     2.1820 
  203.0000   -25.7800    46.4260   130.0700   122.9780   143.0850    24.0380     2.1710 
  203.1250   -25.5590    47.9000   123.4870   119.5960   148.6080    24.3020     2.1660 
  203.2500   -25.2650    48.9020   109.1140   107.8230   126.4720    24.4010     2.1680 
  203.3750   -24.8710    49.1010    94.2940    93.4820    92.9280    24.3340     2.1750 
  203.5000   -24.3430    49.6970    85.1520    83.0600    66.2390    24.1820     2.1830 
  203.6250   -23.7360    50.3530    82.2710    78.4680    57.6960    24.1530     2.1870 
  203.7500   -23.1070    50.4500    85.3770    79.8660    61.2260    24.2540     2.1810 
  203.8750   -22.5110    49.2020    93.7800    86.7200    79.4800    24.3310     2.1670 
  204.0000   -21.9600    47.8320   106.7560    98.3940   122.2520    24.3390     2.1520 
  204.1250   -21.4740    47.1940   121.4750   112.0460   145.7560    24.3440     2.1470 
  204.2500   -21.0840    47.0300   135.6100   125.3940   146.7310    24.3730     2.1520 
  204.3750   -20.7670    46.5870   147.2740   136.5800   149.0180    24.3130     2.1610 
  204.5000   -20.5980    44.8160   155.1920   144.2800   154.5120    24.2670     2.1650 
  204.6250   -20.4870    42.4260   159.9290   149.0940   163.6560    24.2740     2.1650 
  204.7500   -20.3990    40.8450   160.5580   150.6090   173.3010    24.3260     2.1630 
  204.8750   -20.3350    42.1340   154.4660   146.9630   177.2260    24.3570     2.1650 
  205.0000   -20.1990    45.7060   146.4900   134.7150   156.0750    24.3210     2.1740 
  205.1250   -20.0620    47.3730   123.4400   116.4740   119.0410    24.1850     2.1830 
  205.2500   -19.8750    47.6140   100.9090    96.8200    89.1480    23.9660     2.1880 
  205.3750   -19.6900    49.4210    83.6680    80.3450    63.0700    23.7180     2.1840 
  205.5000   -19.5140    51.2000    74.5980    70.7000    48.5340    23.6610     2.1690 
  205.6250   -19.3220    50.4030    71.8240    67.1250    47.0510    23.8410     2.1510 
  205.7500   -19.1670    48.1900    73.5610    68.3120    61.9040    24.1490     2.1380 
  205.8750   -19.0090    46.1760    77.1780    71.9420    90.9700    24.3600     2.1400 
  206.0000   -18.9020    45.0660    78.5320    74.2330   108.5190    24.4080     2.1630 
  206.1250   -18.8390    45.6430    75.1400    72.3700   104.4420    24.2760     2.2000 
  206.2500   -18.8070    47.0880    67.5900    66.2440    86.4060    24.0190     2.2430 
  206.3750   -18.8210    47.3710    58.9160    58.2550    61.3550    23.6450     2.2860 
  206.5000   -18.8720    48.2010    52.7500    51.8620    41.2950    23.4800     2.3200 
  206.6250   -18.9630    51.2680    50.0060    48.4460    36.6460    23.6060     2.3360 
  206.7500   -19.0720    54.8080    50.4240    48.0000    43.0190    24.0440     2.3280 
  206.8750   -19.1770    57.1930    53.2040    49.8960    65.8720    24.3880     2.3010 
  207.0000   -19.2970    57.8700    57.2110    53.2110    87.5810    24.5620     2.2740 
  207.1250   -19.3740    58.9730    60.7380    56.3540    86.3450    24.5210     2.2660 
  207.2500   -19.4460    60.1230    62.6810    58.2460    66.7110    24.4060     2.2850 
  207.3750   -19.4660    60.5160    62.7140    58.4670    49.5110    24.4090     2.3210 
  207.5000   -19.4570    58.5440    61.4010    57.3770    40.7830    24.4190     2.3550 
  207.6250   -19.4210    56.2040    60.1680    56.1980    41.4520    24.3830     2.3720 
  207.7500   -19.3390    56.8330    59.9230    55.7380    48.0920    24.2480     2.3750 
  207.8750   -19.2480    59.2710    61.2020    56.5270    52.3000    24.1620     2.3780 
  208.0000   -19.0810    59.3890    64.3620    58.9600    50.6160    24.0770     2.3900 
  208.1250   -18.9230    57.2520    68.7070    62.4710    48.5970    23.9700     2.4000 
  208.2500   -18.7330    55.7290    73.4980    66.4030    53.9250    23.9020     2.3970 
  208.3750   -18.5300    55.6590    77.7900    69.9270    62.9300    23.9920     2.3820 
  208.5000   -18.3410    53.8370    80.3270    71.9830    68.7820    24.1670     2.3670 
  208.6250   -18.1400    51.9580    80.8790    72.3730    61.6980    24.2450     2.3660 
  208.7500   -17.9530    53.4430    79.6580    71.2460    56.0850    24.3150     2.3860 
  208.8750   -17.7690    57.4990    77.2340    69.0440    59.9390    24.3460     2.4260 
  209.0000   -17.6180    58.5840    74.2330    66.2880    56.3140    24.2280     2.4780 
  209.1250   -17.4740    57.2990    71.3320    63.6080    51.4070    24.1160     2.5210 
  209.2500   -17.3390    55.8310    68.9500    61.3980    48.5790    23.9960     2.5430 
  209.3750   -17.2460    54.3880    67.4190    59.9640    54.8890    23.8480     2.5420 
  209.5000   -17.1380    53.0970    67.0820    59.6310    54.9240    23.7670     2.5310 
  209.6250   -17.0460    53.9790    67.5340    60.0860    53.6910    23.7780     2.5280 
  209.7500   -16.9760    56.0690    68.2370    60.8830    57.5540    23.9320     2.5400 
  209.8750   -16.9180    55.7220    68.6330    61.5000    73.2960    24.0230     2.5530 
  210.0000   -16.9070    54.2290    68.3850    61.5280    92.3250    24.0450     2.5500 
  210.1250   -16.8860    56.2910    67.7180    61.0670    82.2030    24.0510     2.5380 
  210.2500   -16.8970    59.2580    66.7290    60.1990    65.3730    24.0120     2.5340 
  210.3750   -16.8960    59.5610    65.3120    58.9100    60.2310    23.9340     2.5480 
  210.5000   -16.9040    57.3670    63.1570    57.0370    66.1410    23.8140     2.5700 
  210.6250   -16.9240    55.2890    60.3960    54.6970    73.9520    23.7940     2.5790 
  210.7500   -16.8940    54.3900    57.4270    52.1420    65.6760    23.6680     2.5700 
  210.8750   -16.8730    55.3950    54.9290    49.8540    49.7600    23.5420     2.5550 
  211.0000   -16.8040    56.9400    53.9330    48.6810    44.1740    23.4310     2.5520 
  211.1250   -16.7430    56.0150    54.6910    48.9650    42.4040    23.2650     2.5610 
  211.2500   -16.6640    53.9250    57.0820    50.7220    39.9470    22.9870     2.5750 
  211.3750   -16.5700    53.7260    60.4110    53.4580    42.5550    22.9200     2.5800 
