~V
VERS. 2.00: Ver 2.00
~W
STRT.M 55.0000:
STOP.M 253.0000:
STEP.M 0.1250:
NULL. -999.2500:
UWI. F10665:
~C
DEPT.M :
SP.MV :
DEN.GM/CC :
GR.API :
RML.OHMM :
RI. :
RXO.OHMM :
CALI.CM :
~A
# ...
  246.2500   -24.0560     2.2750    74.4630     5.8750     5.0100     6.1600    22.4870 
  246.3750   -23.7890     2.2700    74.4630     5.8620     4.9990     6.8350    22.4290 
  246.5000   -23.7020     2.2650    74.4630     5.8600     4.9960     7.4640    22.3950 
  246.6250   -23.7980     2.2610    74.4630     5.8620     4.9910     7.6040    22.3820 
  246.7500   -24.0230     2.2570    74.4630     5.8650     4.9830     7.8740    22.3850 
  246.8750   -24.2560     2.2520    74.4630     5.8670     4.9760     8.3910    22.3500 
  247.0000   -24.4410     2.2460    74.4630     5.8710     4.9740     8.9090    22.2300 
  247.1250   -24.5160     2.2390    74.4630     5.8780     4.9780     9.5000    22.0150 
  247.2500   -24.4900     2.2340    74.4630     5.8810     4.9840     9.5770    21.3400 
  247.3750   -24.3720     2.2350    74.4630     5.8740     4.9880     8.7150    19.5750 
  247.5000   -24.2700     2.2410    74.4630     5.8610     4.9900     8.1640    16.5730 
  247.6250   -24.2700     2.2350    74.4630     5.8530     4.9880     8.1070    14.5120 
  247.7500   -24.2700     2.2030    74.4630     5.8550     4.9860     7.9700    13.5160 
  247.8750   -24.2700     2.1450    74.4630     5.8630     4.9840     7.9400    13.1200 
  248.0000   -24.2700     2.0750    74.4630     5.8690     4.9830     8.1460    12.8390 
  248.1250   -24.2700     2.0160    74.4630     5.8610     4.9830     8.3330    12.5950 
  248.2500   -24.2700     1.9800    74.4630     5.8510     4.9830     8.2800    12.4490 
  248.3750   -24.2700     1.9640    74.4630     5.8510     4.9830     8.2360    12.3690 
  248.5000   -24.2700     1.9580    74.4630     5.8510     4.9830     8.1710    12.2910 
  248.6250   -24.2700     1.9510    74.4630     5.8510     4.9830     8.1550    12.2510 
  248.7500   -24.2700     1.9420    74.4630     5.8510     4.9830     8.1700    12.2180 
  248.8750   -24.2700     1.9300    74.4630     5.8510     4.9830     8.1280    12.1650 
  249.0000   -24.2700     1.9180    74.4630     5.8510     4.9830     8.0230    12.0830 
  249.1250   -24.2700     1.9070    74.4630     5.8510     4.9830     7.8430    12.0050 
  249.2500   -24.2700     1.9010    74.4630     5.8510     4.9830     7.8280    11.9980 
  249.3750   -24.2700     1.8990    74.4630     5.8510     4.9830     7.7740    12.0880 
  249.5000   -24.2700     1.9020    74.4630     5.8510     4.9830     7.6820    12.1890 
  249.6250  -999.2500     1.9020    74.4630     5.8510     4.9830     7.5890    12.2100 
  249.7500  -999.2500     1.8940    74.4630     5.8510     4.9830     7.5740    12.1450 
  249.8750  -999.2500     1.8800    74.4630     5.8510     4.9830     7.6240    12.0210 
  250.0000  -999.2500     1.8670    74.4630     5.8510     4.9830     7.3430    11.9240 
  250.1250  -999.2500     1.8620    74.4630     5.8510     4.9830     7.1260    11.8550 
  250.2500  -999.2500     1.8630    74.4630     5.8510     4.9830     6.9250    11.7700 
  250.3750  -999.2500     1.8660    74.4630     5.8510     4.9830     6.8890    11.5850 
  250.5000  -999.2500     1.8710    74.4630     5.8510     4.9830     6.9630    11.3160 
  250.6250  -999.2500     1.8750    74.4630     5.8510     4.9830     6.8200    10.9910 
  250.7500  -999.2500     1.8800    74.4630     5.8510     4.9830     6.7100    10.6440 
  250.8750  -999.2500     1.8850    74.4630     5.8510     4.9830     6.7380    10.4050 
  251.0000  -999.2500     1.8890    74.4630     5.8510     4.9830     6.7730    10.3150 
  251.1250  -999.2500     1.8920    74.4630     5.8510     4.9830     6.7740    10.3070 
  251.2500  -999.2500     1.8940    74.4630     5.8510     4.9830     6.7710    10.3070 
  251.3750  -999.2500     1.8940    74.4630     5.8510     4.9830     6.7700    10.3070 
  251.5000  -999.2500     1.8910    74.4630     5.8510     4.9830     6.7690    10.3070 
  251.6250  -999.2500     1.8860    74.4630     5.8510     4.9830     6.7690    10.3070 
  251.7500  -999.2500     1.8830    74.4630     5.8510     4.9830     6.7680    10.3070 
  251.8750  -999.2500     1.8820    74.4630     5.8510     4.9830     6.7680    10.3060 
  252.0000  -999.2500     1.8860    74.4630     5.8510     4.9830     6.7690    10.3050 
  252.1250  -999.2500  -999.2500    74.4630     5.8510     4.9830     6.7690    10.3030 
  252.2500  -999.2500  -999.2500    74.4630     5.8510     4.9830     6.7690    10.3030 
  252.3750  -999.2500  -999.2500    74.4630     5.8510     4.9830     6.7680    10.3010 
  252.5000  -999.2500  -999.2500    74.4630     5.8510     4.9830     6.7690    10.2980 
  252.6250  -999.2500  -999.2500    74.4630     5.8510     4.9830     6.7680    10.2970 
  252.7500  -999.2500  -999.2500    74.4630     5.8510     4.9830     6.7680    10.2970 
  252.8750  -999.2500  -999.2500    74.4630     5.8510     4.9830     6.7680    10.2970 
  253.0000  -999.2500  -999.2500    74.4630     5.8510     4.9830     6.7700    10.2970 
