~V
VERS. 2.00: Ver 2.00
~W
STRT.M 59.0000:
STOP.M 270.0000:
STEP.M 0.1250:
NULL. -999.2500:
UWI. F10667:
~C
DEPT.M :
GR.API :
RML.OHMM :
RI. :
RXO.OHMM :
CALI.CM :
DEN.GM/CC :
SP.MV :
~A
# ...
  250.2500    44.3950     4.9160     4.2880     4.3480    23.6140     2.3600   -10.3150 
  250.3750    49.2430     5.1910     4.4080     4.4050    23.6300     2.3560   -10.3190 
  250.5000    53.5480     5.6480     4.6550     4.9800    23.7050     2.3610   -10.3450 
  250.6250    56.3900     6.1150     4.9790     6.4100    23.8220     2.3730   -10.3730 
  250.7500    57.1420     6.3750     5.2520     7.7230    23.8740     2.3830   -10.3970 
  250.8750    56.1230     6.3180     5.3740     7.2340    23.8860     2.3850   -10.4540 
  251.0000    55.1380     5.9880     5.2980     6.0630    23.8840     2.3770   -10.5100 
  251.1250    55.5010     5.5660     5.0430     5.5320    23.8810     2.3640   -10.5270 
  251.2500    56.8040     5.2550     4.7510     4.9350    23.8800     2.3550   -10.5470 
  251.3750    56.9380     5.1220     4.5260     4.7010    23.8800     2.3570   -10.5350 
  251.5000    53.9300     5.1440     4.4320     4.7020    23.8800     2.3710   -10.5100 
  251.6250    48.3800     5.2540     4.4940     4.8220    23.8810     2.3910   -10.5330 
  251.7500    43.8840     5.3740     4.6320     5.1840    23.8910     2.4090   -10.5410 
  251.8750    42.5100     5.4760     4.7720     5.4710    23.9170     2.4180   -10.5250 
  252.0000    42.9730     5.5440     4.8480     5.3890    23.9470     2.4160   -10.5220 
  252.1250    41.9380     5.5530     4.8110     5.1720    23.9590     2.4030   -10.5330 
  252.2500    39.3640     5.5020     4.7050     4.9510    23.9640     2.3860   -10.5620 
  252.3750    38.1420     5.4020     4.5940     4.7640    23.9700     2.3700   -10.6000 
  252.5000    39.9520     5.2880     4.5410     4.6420    23.9820     2.3610   -10.6380 
  252.6250    43.9320     5.2160     4.5920     4.6590    23.9720     2.3620   -10.6640 
  252.7500    48.0210     5.2210     4.7120     4.8950    23.9430     2.3650   -10.6750 
  252.8750    50.2880     5.3080     4.8430     5.3590    23.9190     2.3660   -10.6770 
  253.0000    48.5060     5.4480     4.9200     5.7350    23.9100     2.3620   -10.6510 
  253.1250    43.2920     5.5660     4.8860     5.5580    23.8950     2.3610   -10.6140 
  253.2500    38.3740     5.5940     4.7680     5.1590    23.8730     2.3720   -10.5470 
  253.3750    34.9160     5.5010     4.6180     4.8910    23.8730     2.3960   -10.4660 
  253.5000    32.6440     5.3070     4.4930     4.6670    23.8830     2.4260   -10.3760 
  253.6250    32.5290     5.0790     4.4320     4.6240    23.8890     2.4510   -10.2870 
  253.7500    33.9000     4.9080     4.4140     4.5830    23.8890     2.4620   -10.2170 
  253.8750    35.0000     4.8350     4.4030     4.5220    23.8990     2.4590   -10.1610 
  254.0000    34.8750     4.8390     4.3770     4.4610    23.9250     2.4410   -10.1070 
  254.1250    34.9880     4.8370     4.3410     4.3840    23.9470     2.4070   -10.0710 
  254.2500    35.4650     4.7990     4.3250     4.3560    23.9530     2.3680   -10.0800 
  254.3750    34.4590     4.7570     4.3430     4.3530    23.9460     2.3400   -10.1070 
  254.5000    31.8270     4.7430     4.3840     4.3550    23.9170     2.3370   -10.1440 
  254.6250    29.8850     4.7630     4.4120     4.3420    23.8710     2.3690   -10.1840 
  254.7500    29.3210     4.7950     4.4080     4.4400    23.8190     2.4160   -10.2690 
  254.8750    29.6540     4.8380     4.3790     4.5160    23.8440     2.4590   -10.3680 
  255.0000    31.6540     4.8720     4.3560     4.4650    23.9690     2.4840   -10.5160 
  255.1250    35.9490     4.8960     4.3930     4.4190    24.0920     2.4840   -10.7210 
  255.2500    40.4960     4.9530     4.5080     4.4800    24.0250     2.4670   -10.9370 
  255.3750    45.7180     5.0870     4.6880     4.7990    23.8440     2.4420   -11.2180 
  255.5000    52.6510     5.2950     4.8870     5.6040    23.7250     2.4140   -11.5300 
  255.6250    58.0650     5.5030     5.0210     7.0910    23.6970     2.3870   -11.8700 
  255.7500    57.5680     5.6140     5.0510     7.8260    23.7080     2.3640   -12.1890 
  255.8750    53.8650     5.6030     5.0000     6.8960    23.7480     2.3480   -12.5030 
  256.0000    52.6920     5.5320     4.9500     5.3250    23.8240     2.3400   -12.8420 
  256.1250    56.7340     5.5490     5.0270     5.2210    23.8500     2.3380   -13.2060 
  256.2500    63.1780     5.7600     5.2700     5.9790    23.8200     2.3390   -13.5960 
  256.3750    70.1370     6.1870     5.6440     7.2230    23.7540     2.3380   -13.9430 
  256.5000    76.6820     6.7400     6.0540     8.5040    23.7140     2.3350   -14.2210 
  256.6250    81.1730     7.2020     6.3490     9.2630    23.7280     2.3310   -14.4380 
  256.7500    82.4560     7.4170     6.4710     8.6630    23.7460     2.3260   -14.6360 
  256.8750    80.0230     7.3880     6.4460     7.0020    23.7310     2.3190   -14.8300 
  257.0000    75.1420     7.2560     6.3710     5.8630    23.6760     2.3080   -14.9720 
  257.1250    72.8730     7.2300     6.3810     6.4050    23.6460     2.3000   -15.0410 
  257.2500    74.5690     7.3920     6.5400     7.4650    23.6570     2.3020   -15.0570 
  257.3750    77.8400     7.7150     6.8470     7.9820    23.7030     2.3160   -15.0330 
  257.5000    79.1280     8.1000     7.2500     8.3540    23.7610     2.3380   -15.0210 
  257.6250    77.2660     8.3940     7.6540     9.0860    23.7770     2.3550   -15.0250 
  257.7500    75.3130     8.5170     7.9660     9.6620    23.7460     2.3610   -15.0150 
  257.8750    76.2990     8.4650     8.1370     9.8100    23.6840     2.3560   -15.0180 
  258.0000    79.6870     8.3060     8.1660    10.0040    23.6150     2.3460   -15.0760 
  258.1250    80.4010     8.1570     8.0820    10.6760    23.5720     2.3390   -15.1520 
  258.2500    78.2090     8.0700     7.9640     9.3930    23.4830     2.3400   -15.1950 
  258.3750    76.5330     8.0180     7.8600     8.4570    23.2920     2.3480   -15.2690 
  258.5000    76.5550     7.9870     7.8020     8.1850    23.1190     2.3640   -15.3930 
  258.6250    77.2300     7.9890     7.8120     8.7570    23.0800     2.3810   -15.5290 
  258.7500    77.5670     8.0250     7.8750     8.8210    23.1600     2.3920   -15.6920 
  258.8750    77.4980     8.1050     7.9840     8.7390    23.2870     2.3950   -15.8510 
  259.0000    75.3120     8.2390     8.1280     9.1080    23.4280     2.3850   -16.0090 
  259.1250    71.6750     8.4460     8.2940     9.4240    23.4730     2.3650   -16.1730 
  259.2500    70.5420     8.5170     8.4500     9.3830    23.4460     2.3380   -16.3510 
  259.3750    72.7760     8.5120     8.5570     9.5090    23.4490     2.3100   -16.5020 
  259.5000    76.3280     8.4520     8.5710     9.5780    23.4780     2.2830   -16.5590 
  259.6250    77.9110     8.2920     8.4250     9.3310    23.4950     2.2610   -16.5400 
  259.7500    77.9110     8.0250     8.1270     8.4650    23.4810     2.2490   -16.4920 
  259.8750    77.9110     7.6900     7.7100     7.2790    23.4630     2.2510   -16.3880 
  260.0000    77.9110     7.3620     7.2450     6.5750    23.4540     2.2700   -16.2050 
  260.1250    77.9110     7.1360     6.8370     6.0770    23.4530     2.3050   -15.9670 
  260.2500    77.9110     7.0300     6.5460     5.7650    23.4420     2.3440   -15.7620 
  260.3750    77.9110     7.0340     6.3960     5.7690    23.4170     2.3760   -15.6080 
  260.5000    77.9110     7.1210     6.3860     6.1250    23.3990     2.3910   -15.5580 
  260.6250    77.9110     7.2740     6.5170     6.5360    23.3830     2.3820   -15.5990 
  260.7500    77.9110     7.4640     6.7470     6.7950    23.3700     2.3590   -15.7170 
  260.8750    77.9110     7.6770     7.0440     7.1070    23.3840     2.3300   -15.9260 
  261.0000    77.9110     7.8930     7.3680     7.6910    23.4570     2.3060   -16.2350 
  261.1250    77.9110     8.0980     7.6690     8.4060    23.5050     2.2940   -16.6260 
  261.2500    77.9110     8.3100     7.9320     8.9470    23.5140     2.2920   -16.9710 
  261.3750    77.9110     8.5720     8.1820     8.9350    23.4860     2.2970   -17.2380 
