~V
VERS. 2.00: Ver 2.00
~W
STRT.M 50.0000:
STOP.M 221.0000:
STEP.M 0.1250:
NULL. -999.2500:
UWI. F10611:
~C
DEPT.M :
SP.MV :
GR.API :
RML.OHMM :
RI. :
RXO.OHMM :
CALI.CM :
DEN.GM/CC :
~A
# ...
  128.7500   -20.1020    48.7820    45.2800    40.6120    33.8480    25.2470     2.5240 
  128.8750   -19.7620    46.5170    40.8730    36.8180    29.7450    25.2510     2.4980 
  129.0000   -19.4090    46.6020    37.4900    33.7920    28.9920    25.2250     2.4820 
  129.1250   -19.1240    49.6730    35.4100    31.8510    29.0690    25.2100     2.4680 
  129.2500   -18.8810    51.0120    34.2910    30.7730    26.9610    25.2370     2.4510 
  129.3750   -18.6800    49.0250    33.8950    30.4040    25.8260    25.2270     2.4340 
  129.5000   -18.5850    46.5200    33.9810    30.5580    25.5490    25.2160     2.4290 
  129.6250   -18.5620    46.7080    34.4410    31.1080    25.6380    25.2210     2.4460 
  129.7500   -18.6710    47.0460    35.2010    31.8960    26.7140    25.2290     2.4790 
  129.8750   -18.8610    46.5370    36.2480    32.8720    28.4390    25.2150     2.5180 
  130.0000   -19.1340    45.6280    37.4350    33.9300    31.2220    25.1920     2.5500 
  130.1250   -19.4980    43.7510    38.3780    34.8210    32.6790    25.1640     2.5690 
  130.2500   -19.9040    40.8480    38.7620    35.3170    34.1270    25.1000     2.5730 
  130.3750   -20.3780    40.3410    38.5030    35.3010    36.8990    25.0270     2.5560 
  130.5000   -20.8860    43.2340    37.8050    34.8640    37.4400    24.9580     2.5240 
  130.6250   -21.4340    45.7700    37.1730    34.3260    33.2070    24.8720     2.4890 
  130.7500   -22.0090    45.6360    37.0680    34.1030    29.7410    24.7890     2.4690 
  130.8750   -22.5940    45.2240    37.6620    34.4070    31.0650    24.7370     2.4740 
  131.0000   -23.1870    46.8430    38.8570    35.2440    34.5460    24.6410     2.4990 
  131.1250   -23.7530    49.4660    40.3340    36.4590    35.8200    24.6040     2.5290 
  131.2500   -24.2950    50.4120    41.5610    37.6230    35.3720    24.7650     2.5510 
  131.3750   -24.8000    48.1970    42.1230    38.3570    34.2810    24.8880     2.5620 
  131.5000   -25.2380    43.7930    41.8090    38.4110    32.4120    24.9590     2.5610 
  131.6250   -25.6270    41.5680    40.5840    37.6580    33.2090    25.1480     2.5460 
  131.7500   -25.8910    42.6250    38.8300    36.3730    34.0240    25.2500     2.5280 
  131.8750   -26.0910    44.7890    36.7620    34.7200    31.8760    25.2700     2.5200 
  132.0000   -26.2150    45.6490    34.6080    32.8820    28.0400    25.2460     2.5260 
  132.1250   -26.2620    45.1780    32.7180    31.1260    26.6060    25.2410     2.5430 
  132.2500   -26.2940    45.9700    31.3580    29.6940    26.1270    25.2530     2.5560 
  132.3750   -26.2660    47.1370    30.6780    28.7530    25.8560    25.2730     2.5540 
  132.5000   -26.2330    46.8660    30.6450    28.3500    25.8830    25.2740     2.5450 
  132.6250   -26.2020    45.3960    31.0970    28.4600    25.9340    25.3190     2.5420 
  132.7500   -26.1720    45.2450    31.7140    28.8660    25.8200    25.3650     2.5540 
  132.8750   -26.1550    45.5580    32.4030    29.4730    26.5070    25.3780     2.5780 
  133.0000   -26.1600    44.4450    33.1840    30.2220    26.4670    25.3450     2.5990 
  133.1250   -26.1550    43.0260    34.1730    31.1130    26.1500    25.3420     2.5980 
  133.2500   -26.1720    44.1190    35.3830    32.1440    27.3000    25.3970     2.5740 
  133.3750   -26.2160    45.6850    36.7080    33.2830    30.8630    25.4220     2.5390 
  133.5000   -26.2880    45.0250    37.8700    34.3520    33.5200    25.4040     2.5060 
  133.6250   -26.3630    43.4930    38.3390    34.9070    32.6050    25.3320     2.4920 
  133.7500   -26.4800    43.3680    37.9260    34.7060    31.9720    25.2770     2.5000 
  133.8750   -26.6160    44.0830    36.7270    33.7490    30.8120    25.2620     2.5270 
  134.0000   -26.7520    44.1270    35.1590    32.3570    27.8200    25.3050     2.5560 
  134.1250   -26.9260    43.2190    33.8190    31.0480    25.2050    25.3820     2.5710 
  134.2500   -27.0510    44.0760    32.9780    30.1160    24.5080    25.4140     2.5610 
  134.3750   -27.1670    45.7430    32.5950    29.5630    26.1830    25.3680     2.5330 
  134.5000   -27.2160    45.3210    32.4600    29.2500    29.0920    25.1640     2.4950 
  134.6250   -27.2000    43.2260    32.2390    28.9510    30.0870    24.7310     2.4590 
  134.7500   -27.1480    42.9760    31.7330    28.4840    26.9060    24.4560     2.4400 
  134.8750   -27.0230    44.0280    30.9990    27.8560    24.0680    24.3320     2.4460 
  135.0000   -26.8980    43.4680    30.2890    27.2320    22.7950    23.9910     2.4770 
  135.1250   -26.7070    42.2990    29.9580    26.8950    21.7130    23.3330     2.5220 
  135.2500   -26.5350    43.5770    30.0920    26.9420    20.3040    22.9080     2.5650 
  135.3750   -26.3720    45.5070    30.6400    27.3430    19.4030    22.6690     2.5950 
  135.5000   -26.2210    45.7780    31.4420    27.9760    19.1070    22.4770     2.6080 
  135.6250   -26.1200    43.8730    32.2360    28.6600    20.1010    22.4020     2.6110 
  135.7500   -26.0280    42.4450    32.7390    29.1690    21.6920    22.5350     2.6120 
  135.8750   -26.0010    43.1080    32.6740    29.2670    23.9570    22.8760     2.6130 
  136.0000   -26.0310    45.7210    31.7820    28.6800    26.2020    23.4630     2.6140 
  136.1250   -26.1170    47.1650    29.7970    27.0830    27.7690    24.2360     2.6070 
  136.2500   -26.2480    46.1170    27.0850    24.7690    26.3310    24.7640     2.5910 
  136.3750   -26.4070    44.0310    24.0620    22.1270    23.1790    24.8800     2.5710 
  136.5000   -26.6050    43.1260    21.1910    19.5890    18.9680    24.7830     2.5520 
  136.6250   -26.8620    44.2950    18.9650    17.5750    17.4340    24.8910     2.5360 
  136.7500   -27.1420    44.6700    17.4870    16.1560    16.3590    25.0570     2.5180 
  136.8750   -27.4230    42.8060    16.7660    15.3440    15.3850    25.1230     2.4990 
  137.0000   -27.6550    40.9120    16.7330    15.1120    14.9150    25.1610     2.4790 
  137.1250   -27.8780    42.1240    17.3850    15.5100    14.6890    25.1960     2.4600 
  137.2500   -28.0490    43.6890    18.5140    16.3830    15.8690    25.2650     2.4440 
  137.3750   -28.1780    43.1150    20.0120    17.6280    17.5840    25.3400     2.4290 
  137.5000   -28.2710    40.5170    21.7490    19.1180    18.9760    25.3800     2.4150 
  137.6250   -28.2820    37.9950    23.5490    20.7170    20.8510    25.3980     2.4070 
  137.7500   -28.2530    36.3530    25.1330    22.2200    22.6040    25.4170     2.4130 
  137.8750   -28.1650    34.7690    26.1830    23.3730    23.8920    25.4290     2.4380 
  138.0000   -28.0580    34.1210    26.4110    23.8640    24.3410    25.4370     2.4740 
  138.1250   -27.8750    36.9830    25.5940    23.3510    24.1180    25.4130     2.5100 
  138.2500   -27.6700    42.0130    24.1270    22.1260    23.4810    25.3300     2.5360 
  138.3750   -27.4570    44.9910    22.3700    20.5370    21.7740    25.2540     2.5510 
  138.5000   -27.2220    43.6400    20.6410    18.9330    19.2630    25.2310     2.5510 
  138.6250   -27.0080    41.8890    19.1710    17.5490    18.3720    25.2510     2.5360 
  138.7500   -26.8040    42.8220    17.9460    16.3630    18.6020    25.2590     2.5090 
  138.8750   -26.6310    44.6110    16.9180    15.3230    17.4490    25.2600     2.4790 
  139.0000   -26.4890    44.7690    16.0380    14.4150    14.7870    25.2580     2.4570 
  139.1250   -26.4190    44.6090    15.3240    13.7030    13.0600    25.2550     2.4550 
  139.2500   -26.4130    47.0120    14.8180    13.2020    12.5740    25.2610     2.4690 
  139.3750   -26.4390    50.8030    14.6100    12.9490    12.9610    25.2800     2.4860 
  139.5000   -26.5260    52.6670    14.7600    12.9780    14.0510    25.3080     2.4920 
  139.6250   -26.6100    50.9190    15.2840    13.3540    15.4710    25.3400     2.4770 
  139.7500   -26.7150    48.6390    16.0060    13.9900    17.2640    25.3740     2.4510 
  139.8750   -26.8340    48.5420    16.7940    14.7760    18.0830    25.3970     2.4300 
