~V
VERS. 2.00: Ver 2.00
~W
STRT.M 50.0000:
STOP.M 209.0000:
STEP.M 0.1250:
NULL. -999.2500:
UWI. F10692:
~C
DEPT.M :
DEN.GM/CC :
GR.API :
RML.OHMM :
RI. :
RXO.OHMM :
CALI.CM :
SP.MV :
~A
# ...
  117.5000     2.0490    52.7900    30.6920    32.5940    20.8820    24.6740   -27.3790 
  117.6250     2.0480    56.2180    29.5920    31.0790    20.2250    24.6750   -26.8900 
  117.7500     2.0590    57.9120    29.0010    30.2360    19.4180    24.6900   -26.4230 
  117.8750     2.0810    56.3890    28.6900    29.7710    18.4510    24.7200   -26.0100 
  118.0000     2.1110    54.1510    28.6190    29.5820    17.6990    24.7380   -25.6860 
  118.1250     2.1430    52.8930    28.8350    29.6700    17.3590    24.7330   -25.4910 
  118.2500     2.1650    51.7960    29.1820    29.8710    16.8580    24.7160   -25.4110 
  118.3750     2.1700    51.2950    29.4460    29.9750    17.0860    24.7090   -25.4250 
  118.5000     2.1690    51.0500    29.4330    29.7860    18.3720    24.7080   -25.5020 
  118.6250     2.1760    50.5400    29.0960    29.2270    18.8590    24.7090   -25.6050 
  118.7500     2.1850    51.8170    28.7760    28.6050    17.7570    24.7160   -25.6940 
  118.8750     2.1940    54.0660    28.8440    28.2540    16.5350    24.7330   -25.7470 
  119.0000     2.2070    53.2330    29.5570    28.4310    16.7110    24.7450   -25.7510 
  119.1250     2.2330    48.6220    30.9940    29.2760    18.8080    24.7490   -25.6890 
  119.2500     2.2650    45.3670    32.6540    30.4130    21.3240    24.7450   -25.5690 
  119.3750     2.2940    45.8310    33.9570    31.3480    22.4670    24.7290   -25.3900 
  119.5000     2.3100    48.9500    34.3630    31.5730    23.0470    24.6930   -25.1570 
  119.6250     2.3080    52.0410    33.5620    30.7640    22.4180    24.6760   -24.8740 
  119.7500     2.2940    52.3440    32.1550    29.4150    21.6560    24.6720   -24.5680 
  119.8750     2.2700    49.6080    30.6870    28.0050    20.5800    24.6700   -24.2540 
  120.0000     2.2310    45.8960    29.5320    26.8810    19.4560    24.6700   -23.9420 
  120.1250     2.1870    45.3290    28.8610    26.2280    20.3170    24.6930   -23.6340 
  120.2500     2.1580    48.2500    28.5490    25.9410    21.3950    24.7540   -23.3380 
  120.3750     2.1560    51.3320    28.6430    26.0350    22.8960    24.8350   -23.0620 
  120.5000     2.1830    51.1700    29.4330    26.6920    23.8930    24.9020   -22.8170 
  120.6250     2.2470    48.9140    31.6430    28.5180    24.3810    24.9510   -22.6180 
  120.7500     2.3430    46.9710    35.2910    31.7230    27.3980    24.9910   -22.4550 
  120.8750     2.4570    44.5580    39.6540    35.9470    35.8930    25.0600   -22.3230 
  121.0000     2.5560    41.4080    42.6560    39.4660    52.1090    25.1650   -22.2220 
  121.1250     2.5950    41.2220    40.4190    38.3440    61.3500    25.3220   -22.1630 
  121.2500     2.5700    44.4230    33.3200    32.2800    57.0150    25.3890   -22.1510 
  121.3750     2.4940    49.1140    24.5050    24.1590    39.6410    25.4060   -22.1910 
  121.5000     2.3960    53.3170    17.1440    17.1480    21.7400    25.4060   -22.2840 
  121.6250     2.3120    56.4210    12.7950    12.7860    12.5440    25.3970   -22.4160 
  121.7500     2.2660    60.5530    10.5260    10.2780     9.8420    25.3740   -22.5520 
  121.8750     2.2560    65.2970     9.6040     9.0120     9.1930    25.3450   -22.6630 
  122.0000     2.2690    68.6100     9.4230     8.5300     9.2350    25.3230   -22.7220 
  122.1250     2.2910    69.0950     9.5220     8.5270     9.5130    25.3110   -22.7000 
  122.2500     2.3140    68.6430     9.5950     8.6720     9.3890    25.3190   -22.6170 
  122.3750     2.3340    69.0650     9.6310     8.8640     8.7720    25.3210   -22.4970 
  122.5000     2.3400    69.8050     9.7310     9.1030     8.8060    25.3000   -22.3750 
  122.6250     2.3240    69.1550     9.9600     9.4070     9.4690    25.2480   -22.2800 
  122.7500     2.2960    67.7400    10.2190     9.7120     9.9560    25.2110   -22.2100 
  122.8750     2.2700    66.9960    10.4000     9.9410     9.7090    25.2190   -22.1520 
  123.0000     2.2580    67.3740    10.4170    10.0180     9.3720    25.2760   -22.0900 
  123.1250     2.2680    68.3490    10.1990     9.8650     8.9650    25.3410   -22.0210 
  123.2500     2.2860    69.9080     9.8090     9.5240     8.6380    25.3760   -21.9510 
  123.3750     2.3070    71.7680     9.3020     9.0430     8.4790    25.3780   -21.8830 
  123.5000     2.3270    72.0820     8.7240     8.4750     8.3830    25.3710   -21.8210 
  123.6250     2.3440    71.2070     8.1290     7.8850     7.9950    25.3860   -21.7690 
  123.7500     2.3520    72.4890     7.5800     7.3370     7.5650    25.3970   -21.7370 
  123.8750     2.3490    74.3830     7.1310     6.8690     7.1520    25.4020   -21.7500 
  124.0000     2.3360    75.5500     6.8340     6.5200     6.9490    25.4010   -21.8370 
  124.1250     2.3150    75.8180     6.7640     6.3480     7.0930    25.3900   -22.0470 
  124.2500     2.2960    74.5320     6.9040     6.3480     7.2540    25.3610   -22.3730 
  124.3750     2.2820    71.3760     7.2430     6.5160     7.4780    25.3160   -22.8040 
  124.5000     2.2720    70.0330     7.7480     6.8370     8.0320    25.2590   -23.3020 
  124.6250     2.2620    72.7640     8.3450     7.2710     8.7440    25.2100   -23.8020 
  124.7500     2.2570    73.3530     8.9060     7.7240     8.9140    25.1910   -24.2360 
  124.8750     2.2580    69.7050     9.3620     8.1430     8.9970    25.1870   -24.5530 
  125.0000     2.2620    64.9200     9.7570     8.5400     9.2060    25.1870   -24.7310 
  125.1250     2.2580    62.8030    10.3070     9.0360     9.4430    25.1870   -24.7610 
  125.2500     2.2440    63.8730    11.2440     9.7860     9.7760    25.1910   -24.7080 
  125.3750     2.2170    65.5460    12.7020    10.9160    10.6190    25.2120   -24.6170 
  125.5000     2.1870    64.2440    14.6240    12.4430    12.4540    25.2700   -24.5320 
  125.6250     2.1710    59.7280    16.6400    14.1680    15.0040    25.3390   -24.4940 
  125.7500     2.1750    57.6040    18.0870    15.5390    16.7660    25.3650   -24.5140 
  125.8750     2.1940    59.4890    18.4300    16.0080    16.6060    25.3320   -24.5870 
  126.0000     2.2200    62.9250    17.4850    15.3180    15.0830    25.2660   -24.6930 
  126.1250     2.2470    64.9000    15.4460    13.6080    13.1640    25.2110   -24.8000 
  126.2500     2.2720    64.3690    13.1350    11.6340    11.4860    25.1910   -24.8750 
  126.3750     2.2950    62.7440    11.1580     9.9090     9.9400    25.1870   -24.9060 
  126.5000     2.3130    63.3250     9.9880     8.7780     9.0640    25.1870   -24.8950 
  126.6250     2.3250    65.8030    10.1510     8.5830     8.8570    25.1870   -24.8660 
  126.7500     2.3290    65.1170    11.6590     9.3300     9.8010    25.1870   -24.8600 
  126.8750     2.3160    60.8650    14.6010    11.1700    13.0360    25.1940   -24.9050 
  127.0000     2.2770    54.6960    18.8820    14.2190    20.5070    25.2200   -25.0170 
  127.1250     2.2280    49.5170    23.9600    18.4290    25.7920    25.2750   -25.2050 
  127.2500     2.2010    46.0040    28.3950    22.7340    27.5710    25.3000   -25.4430 
  127.3750     2.1970    45.7520    31.0500    25.9960    28.6420    25.2700   -25.7110 
  127.5000     2.1850    49.1470    31.7850    27.6490    28.6820    25.2080   -25.9800 
  127.6250     2.1470    51.7580    31.6300    28.1200    28.3990    25.1450   -26.2010 
  127.7500     2.1070    52.4740    31.9610    28.5970    27.8350    25.1340   -26.3360 
  127.8750     2.0830    52.0290    33.1430    29.5400    27.7330    25.1640   -26.3590 
  128.0000     2.0710    50.5270    34.8920    30.8740    29.4980    25.2340   -26.2670 
  128.1250     2.0660    47.8430    36.5740    32.2000    34.1150    25.3940   -26.0730 
  128.2500     2.0700    47.3470    37.7780    33.2150    35.4780    25.5930   -25.8290 
  128.3750     2.0910    50.0010    38.5790    33.9600    32.6140    25.7050   -25.5660 
  128.5000     2.1220    52.1130    39.3370    34.7080    30.2010    25.7140   -25.3040 
  128.6250     2.1420    49.6290    40.4040    35.7590    28.9690    25.7140   -25.0530 
