~V
VERS. 2.00: Ver 2.00
~W
STRT.M 48.0000:
STOP.M 229.0000:
STEP.M 0.1250:
NULL. -999.2500:
UWI. F10623:
~C
DEPT.M :
GR.API :
RML.OHMM :
RI. :
RXO.OHMM :
CALI.CM :
DEN.GM/CC :
SP.MV :
~A
# ...
  171.7500    57.7450    34.7810    32.4220    34.3290    23.9780     2.2790    -8.5070 
  171.8750    61.3930    31.8890    29.9270    30.5150    23.8700     2.2740    -8.4520 
  172.0000    64.8040    29.6380    27.9500    26.9070    23.7960     2.2640    -8.3890 
  172.1250    65.2570    28.1880    26.6610    25.1090    23.7880     2.2550    -8.3160 
  172.2500    64.7200    27.3080    25.8860    24.8320    23.8320     2.2500    -8.2540 
  172.3750    64.4230    26.8220    25.4890    25.0090    23.8360     2.2460    -8.2020 
  172.5000    65.3740    26.5420    25.3060    24.8910    23.7260     2.2420    -8.1460 
  172.6250    65.7240    26.3010    25.1800    24.4760    23.4800     2.2350    -8.0750 
  172.7500    63.4630    25.9990    24.9950    24.0640    23.3080     2.2270    -8.0160 
  172.8750    61.0140    25.6180    24.7220    23.7690    23.4000     2.2210    -7.9850 
  173.0000    61.4580    25.1720    24.3680    23.6070    23.7100     2.2200    -7.9880 
  173.1250    64.1290    24.6680    23.9450    23.3370    24.0030     2.2240    -8.0240 
  173.2500    64.6840    24.1290    23.4790    23.0150    24.1180     2.2280    -8.0520 
  173.3750    62.5340    23.5850    22.9920    22.5190    24.1400     2.2310    -8.0620 
  173.5000    60.2830    23.0920    22.5270    22.0610    24.1180     2.2310    -8.0540 
  173.6250    60.9500    22.7490    22.1680    21.5640    24.1070     2.2310    -8.0290 
  173.7500    62.9750    22.5900    21.9630    21.2870    24.0830     2.2320    -7.9920 
  173.8750    64.6990    22.6150    21.9290    21.2950    24.0280     2.2350    -7.9390 
  174.0000    66.1730    22.7600    22.0320    21.8430    23.9430     2.2410    -7.8690 
  174.1250    66.2130    22.8970    22.1770    22.7170    23.8730     2.2480    -7.7830 
  174.2500    64.0480    22.8980    22.2370    23.4410    23.8750     2.2540    -7.6950 
  174.3750    61.7690    22.7020    22.1370    23.3950    23.9880     2.2590    -7.6040 
  174.5000    63.5000    22.3190    21.8580    22.3440    24.0810     2.2640    -7.5180 
  174.6250    67.2840    21.8230    21.4360    21.2660    24.1060     2.2690    -7.4460 
  174.7500    68.2880    21.3390    20.9800    20.6940    24.1230     2.2730    -7.3890 
  174.8750    66.7150    20.9290    20.5500    20.4420    24.1400     2.2770    -7.3540 
  175.0000    65.7770    20.6010    20.1640    20.1930    24.1460     2.2800    -7.3380 
  175.1250    67.3550    20.3200    19.7990    19.8960    24.1400     2.2810    -7.3380 
  175.2500    68.1260    20.0140    19.4010    19.4240    24.1320     2.2820    -7.3400 
  175.3750    66.6980    19.6420    18.9330    18.8020    24.1190     2.2850    -7.3540 
  175.5000    64.8880    19.1980    18.3890    18.2400    24.1010     2.2910    -7.3830 
  175.6250    65.2910    18.7210    17.8070    17.6770    24.0830     2.2970    -7.4310 
  175.7500    66.2500    18.3090    17.2760    17.0640    24.0720     2.3020    -7.5010 
  175.8750    67.3150    18.0660    16.8930    16.4400    24.0580     2.3040    -7.5810 
  176.0000    68.9650    18.1000    16.7540    16.0720    24.0320     2.3020    -7.6560 
  176.1250    67.5120    18.5600    17.0000    16.2400    23.9760     2.2960    -7.7150 
  176.2500    63.0520    19.4000    17.6030    16.6400    23.8930     2.2900    -7.7500 
  176.3750    59.8770    20.5540    18.5160    17.2440    23.8230     2.2850    -7.7840 
  176.5000    61.5060    21.8710    19.6200    18.2970    23.8160     2.2850    -7.8360 
  176.6250    64.0490    23.0820    20.6890    20.1020    23.8850     2.2880    -7.9000 
  176.7500    64.0820    23.9310    21.4830    21.3170    23.9190     2.2920    -7.9490 
  176.8750    63.7640    24.2620    21.8460    21.3940    23.9050     2.2970    -7.9770 
  177.0000    64.3390    24.0670    21.7400    20.5740    23.8280     2.3000    -7.9800 
  177.1250    65.1120    23.4830    21.2440    19.3680    23.6980     2.3020    -7.9710 
  177.2500    64.8730    22.8910    20.6720    18.3440    23.5720     2.3040    -7.9790 
  177.3750    65.0410    22.5820    20.2770    17.9020    23.5600     2.3030    -7.9780 
  177.5000    65.8420    22.7480    20.2460    17.9360    23.6330     2.3020    -7.9500 
  177.6250    65.4410    23.4890    20.7100    18.7020    23.6620     2.3000    -7.9040 
  177.7500    63.9800    24.5070    21.4650    19.9340    23.6360     2.3020    -7.8610 
  177.8750    61.9390    25.4440    22.2370    21.3650    23.6070     2.3090    -7.8300 
  178.0000    59.3710    25.9040    22.6910    22.8000    23.6540     2.3210    -7.8190 
  178.1250    57.1340    25.4900    22.4520    23.4630    23.7580     2.3360    -7.8080 
  178.2500    57.8270    24.4130    21.6230    22.5040    23.8110     2.3520    -7.7920 
  178.3750    60.5060    23.0580    20.4740    19.9340    23.8030     2.3640    -7.7830 
  178.5000    61.8830    21.9090    19.3960    17.0150    23.7630     2.3710    -7.8050 
  178.6250    61.2780    21.4480    18.8090    15.8320    23.7060     2.3710    -7.8760 
  178.7500    62.0150    21.6200    18.7490    16.4430    23.6430     2.3680    -7.9770 
  178.8750    65.4010    22.1810    19.0830    17.9760    23.5850     2.3610    -8.0890 
  179.0000    68.4910    22.7550    19.5530    19.4610    23.5990     2.3540    -8.1930 
  179.1250    68.0830    22.9060    19.8190    20.6320    23.6890     2.3480    -8.2890 
  179.2500    67.1030    22.5800    19.7590    20.6390    23.7850     2.3440    -8.3860 
  179.3750    66.5020    21.9950    19.4730    19.7810    23.8070     2.3420    -8.4800 
  179.5000    65.7690    21.5970    19.2660    18.8310    23.7780     2.3410    -8.5530 
  179.6250    65.8790    22.0330    19.6550    18.8950    23.7190     2.3490    -8.5810 
  179.7500    67.2860    23.4030    20.8090    19.9890    23.6300     2.3710    -8.5620 
  179.8750    68.4960    25.4130    22.5730    22.0880    23.5280     2.4130    -8.4920 
  180.0000    69.4280    27.3040    24.3810    25.2210    23.4570     2.4750    -8.3700 
  180.1250    69.8280    27.7100    25.0630    28.1620    23.4280     2.5430    -8.1820 
  180.2500    69.2400    25.9810    23.8930    29.2130    23.4320     2.5960    -7.9490 
  180.3750    67.4000    22.1830    20.7620    26.2650    23.4740     2.6160    -7.6960 
  180.5000    66.2600    17.2440    16.4200    18.7610    23.4550     2.5970    -7.4350 
  180.6250    65.7210    12.6300    12.2080    11.9220    23.4540     2.5460    -7.1790 
  180.7500    64.9500     9.1680     8.9500     7.8550    23.4750     2.4900    -6.9600 
  180.8750    65.2320     6.9690     6.7700     5.4800    23.4690     2.4430    -6.8080 
  181.0000    65.4160     5.8370     5.5210     4.5300    23.4230     2.4120    -6.7480 
  181.1250    64.7600     5.6000     5.0930     4.4270    23.3830     2.4010    -6.8190 
  181.2500    66.2790     5.8770     5.1800     4.7410    23.3670     2.4000    -6.9860 
  181.3750    71.0490     6.4880     5.6420     5.3340    23.4050     2.4070    -7.2270 
  181.5000    78.7120     7.2610     6.3410     6.1220    23.6070     2.4180    -7.5160 
  181.6250    84.4120     7.9960     7.1130     7.0780    23.9240     2.4320    -7.8350 
  181.7500    85.7350     8.5430     7.7840     7.8290    24.1390     2.4470    -8.1520 
  181.8750    84.0930     8.8420     8.2590     8.2530    24.2220     2.4590    -8.4500 
  182.0000    83.2550     8.9110     8.5100     8.4550    24.2510     2.4660    -8.7150 
  182.1250    86.9470     8.8210     8.5570     8.5850    24.2710     2.4670    -8.9400 
  182.2500    92.7630     8.7030     8.5120     8.6900    24.2820     2.4650    -9.1500 
  182.3750    98.4990     8.6220     8.4410     8.7250    24.2920     2.4610    -9.3490 
  182.5000   103.4630     8.6080     8.3820     8.6940    24.3060     2.4550    -9.5260 
  182.6250   105.1460     8.6680     8.3530     8.6710    24.3230     2.4470    -9.6700 
  182.7500   102.8420     8.7670     8.3450     8.6810    24.3170     2.4360    -9.7740 
  182.8750    98.5700     8.8760     8.3460     8.6830    24.2940     2.4270    -9.8540 
