~V
VERS. 2.00: Ver 2.00
~W
STRT.M 57.0000:
STOP.M 242.0000:
STEP.M 0.1250:
NULL. -999.2500:
UWI. F10636:
~C
DEPT.M :
GR.API :
RML.OHMM :
RI. :
RXO.OHMM :
CALI.CM :
DEN.GM/CC :
SP.MV :
~A
# ...
  203.2500    59.1870    57.3940    53.9060    63.5390    23.7980     2.2000    -9.4510 
  203.3750    59.4680    68.6280    64.4700    68.6610    23.5970     2.1980    -9.5600 
  203.5000    59.1570    80.0030    75.3620    72.0880    23.4740     2.2300    -9.6800 
  203.6250    57.8020    91.0640    86.2060    92.3130    23.4720     2.2860    -9.8110 
  203.7500    56.1130   101.8830    96.8230   130.6930    23.5230     2.3320    -9.9550 
  203.8750    55.1520   112.6290   107.1320   142.3380    23.5620     2.3490   -10.1210 
  204.0000    55.9370   123.6050   117.3220   139.7010    23.5550     2.3370   -10.2970 
  204.1250    57.1470   135.9490   128.5210   131.3200    23.5190     2.3200   -10.4670 
  204.2500    57.3550   151.1590   142.3220   119.0660    23.5040     2.3200   -10.6540 
  204.3750    57.3620   170.7230   160.2160   123.7600    23.5400     2.3370   -10.8260 
  204.5000    57.5280   194.8470   182.5640   165.7610    23.6280     2.3530   -10.9620 
  204.6250    57.0440   220.8980   207.5970   227.0550    23.7460     2.3410   -11.0550 
  204.7500    56.5320   243.1630   230.6040   264.3520    23.8600     2.3050   -11.1110 
  204.8750    56.8260   260.5110   247.8710   241.0360    23.9600     2.2560   -11.1310 
  205.0000    57.3160   274.8260   257.8310   214.8430    24.0480     2.2130   -11.1210 
  205.1250    57.5830   289.4250   260.6380   222.5330    24.1180     2.1930   -11.0780 
  205.2500    59.3740   287.1490   258.6560   255.1270    24.1690     2.1940   -11.0050 
  205.3750    61.8000   269.5470   250.5840   274.1970    24.2060     2.2050   -10.9040 
  205.5000    61.8400   238.1630   233.4040   265.7480    24.2400     2.2170   -10.7970 
  205.6250    60.5590   196.6480   204.3100   251.9230    24.2410     2.2190   -10.7090 
  205.7500    62.6580   155.3230   169.3830   232.4850    24.1800     2.2150   -10.6350 
  205.8750    68.3050   121.9180   135.4070   166.5230    24.0660     2.2070   -10.5620 
  206.0000    72.4630   100.3320   107.9230    95.3130    23.9500     2.2020   -10.4800 
  206.1250    71.5980    91.4370    90.7110    59.2870    23.9070     2.2020   -10.4140 
  206.2500    67.9830    85.9620    81.4440    55.9860    23.9380     2.2030   -10.3760 
  206.3750    63.7540    82.1690    78.2190    63.1000    24.0200     2.2030   -10.3790 
  206.5000    61.4320    81.2930    79.0740    79.3650    24.1290     2.2040   -10.4000 
  206.6250    61.0720    84.1670    82.4940    85.1330    24.2420     2.2080   -10.4340 
  206.7500    59.9070    90.1000    86.8430    87.8630    24.3330     2.2160   -10.4920 
  206.8750    57.7430    97.8810    91.7490    84.1300    24.3890     2.2260   -10.5870 
  207.0000    57.6640   107.0280    97.5460    80.5040    24.4150     2.2330   -10.7060 
  207.1250    59.7380   114.4560   105.4120    84.4020    24.4270     2.2340   -10.8180 
  207.2500    59.8150   126.5920   115.7080   113.8500    24.4430     2.2300   -10.9190 
  207.3750    58.0340   141.4590   128.2880   145.7120    24.4710     2.2220   -10.9970 
  207.5000    56.3730   156.1010   142.2770   160.8030    24.5110     2.2140   -11.0230 
  207.6250    56.8390   169.6870   156.1060   168.3040    24.5860     2.2080   -10.9470 
  207.7500    59.6670   179.7690   168.3780   177.2240    24.7260     2.2030   -10.7790 
  207.8750    62.5850   185.5480   178.4330   184.3760    24.8910     2.1990   -10.5330 
  208.0000    62.3590   187.6970   186.0820   198.3630    24.9770     2.1980   -10.2420 
  208.1250    58.6670   188.0920   190.7070   215.1220    24.9510     2.2000    -9.9460 
  208.2500    55.7530   187.8260   192.2550   215.7170    24.8800     2.2040    -9.6590 
  208.3750    55.6530   185.4650   190.2210   204.8400    24.7800     2.2100    -9.3900 
  208.5000    57.7340   180.4450   184.3760   197.7420    24.7030     2.2140    -9.1740 
  208.6250    58.7630   174.3440   174.8240   184.9960    24.6720     2.2160    -9.0680 
  208.7500    56.7470   166.3590   164.0070   176.1930    24.6680     2.2190    -9.0510 
  208.8750    54.1780   158.1480   154.5030   161.9550    24.6690     2.2230    -9.1030 
  209.0000    53.8140   151.4990   149.0870   145.3280    24.6850     2.2270    -9.2530 
  209.1250    54.7270   150.3510   151.6620   118.9110    24.7220     2.2270    -9.5080 
  209.2500    55.0710   158.5280   163.0220   116.9920    24.7660     2.2230    -9.8170 
  209.3750    55.5720   177.3420   183.5880   165.5610    24.7780     2.2140   -10.1460 
  209.5000    56.3070   205.4980   211.9040   247.4040    24.7540     2.2050   -10.4740 
  209.6250    56.2340   239.3290   243.6840   316.9580    24.7060     2.2020   -10.7680 
  209.7500    55.7200   270.5080   271.3630   314.7090    24.6880     2.2060   -11.0080 
  209.8750    55.4510   292.0730   289.4390   314.9650    24.7070     2.2170   -11.2010 
  210.0000    56.2080   300.9950   295.9250   323.2210    24.7610     2.2300   -11.3100 
  210.1250    57.4280   298.5990   292.1990   321.4580    24.8080     2.2390   -11.3170 
  210.2500    57.1800   292.0050   284.8270   320.9960    24.8510     2.2410   -11.2980 
  210.3750    56.2440   284.8730   277.5070   302.4930    24.8920     2.2380   -11.3010 
  210.5000    56.4520   278.6750   272.0060   277.7490    24.9310     2.2320   -11.3460 
  210.6250    56.6650   271.4170   267.1290   266.0960    24.8830     2.2260   -11.4650 
  210.7500    54.3540   258.0870   258.2560   271.5900    24.7070     2.2260   -11.6550 
  210.8750    52.8840   234.3360   240.7270   290.6600    24.4910     2.2380   -11.8990 
  211.0000    56.6560   200.2780   212.7180   303.0240    24.3110     2.2650   -12.1760 
  211.1250    63.8190   161.9360   176.9140   246.0430    24.1150     2.3040   -12.4740 
  211.2500    67.9570   127.8680   141.6180   152.9160    23.8870     2.3440   -12.7470 
  211.3750    69.4290   101.8050   112.0540    92.7240    23.7320     2.3780   -12.9380 
  211.5000    70.0940    84.1650    90.5300    72.5010    23.7430     2.4000   -13.0550 
  211.6250    70.3110    74.5170    77.9540    64.9080    23.9320     2.4120   -13.1530 
  211.7500    70.2550    69.8410    71.3720    58.0970    24.1510     2.4210   -13.2870 
  211.8750    70.6200    68.7890    69.1670    54.5720    24.2990     2.4340   -13.4440 
  212.0000    71.9020    70.2960    69.9160    58.9440    24.3430     2.4540   -13.5920 
  212.1250    72.4560    73.7390    72.6750    67.4820    24.3030     2.4780   -13.6990 
  212.2500    71.7120    78.2970    76.4600    79.6960    24.2540     2.4950   -13.7760 
  212.3750    68.6450    83.8180    81.1090    85.4890    24.2300     2.4970   -13.8610 
  212.5000    63.2720    90.3090    86.6760    83.1270    24.2060     2.4850   -13.9400 
  212.6250    59.2780    97.6510    93.1720    87.2850    24.1430     2.4720   -13.9190 
  212.7500    60.5830   104.7810    99.7270    99.9990    24.0470     2.4730   -13.7790 
  212.8750    65.9940   110.2940   105.1010   126.1600    23.9770     2.4950   -13.5600 
  213.0000    70.6110   112.9180   107.9910   160.2130    23.9310     2.5300   -13.3180 
  213.1250    71.3100   111.9520   107.3030   159.3310    23.9380     2.5610   -13.0740 
  213.2500    71.5480   108.9200   104.1860   139.4870    23.9810     2.5760   -12.8300 
  213.3750    72.4980   104.2780    99.4030   100.8720    24.0310     2.5720   -12.5990 
  213.5000    72.5400    96.7230    92.6650    80.9070    24.0880     2.5590   -12.4020 
  213.6250    70.7220    83.0790    81.7430    92.0340    24.1190     2.5510   -12.2480 
  213.7500    66.8090    64.8730    66.5960    96.9400    24.1290     2.5490   -12.1190 
  213.8750    60.5100    46.0200    49.2830    78.1920    24.1190     2.5450   -11.9840 
  214.0000    52.7360    30.3710    33.2140    43.6940    24.0870     2.5270   -11.8410 
  214.1250    46.1870    20.1690    21.6470    20.3330    24.0240     2.4950   -11.6810 
  214.2500    41.8360    13.8320    14.1780     8.7010    23.9480     2.4700   -11.5230 
  214.3750    39.3580    10.1110     9.7950     5.3890    23.8470     2.4650   -11.3660 
