~V
VERS. 2.00: Ver 2.00
~W
STRT.M 51.0000:
STOP.M 221.0000:
STEP.M 0.1250:
NULL. -999.2500:
UWI. F10616:
~C
DEPT.M :
GR.API :
RML.OHMM :
RI. :
RXO.OHMM :
CALI.CM :
DEN.GM/CC :
SP.MV :
~A
# ...
  174.7500    56.6890    44.7710    36.9860    35.5670    24.3960     2.1740   -12.6080 
  174.8750    55.9700    46.5250    38.3270    36.6410    24.8760     2.1850   -12.5540 
  175.0000    55.4040    48.0720    39.5390    37.6650    25.1130     2.1970   -12.5210 
  175.1250    55.3110    49.1940    40.4820    38.5880    25.2000     2.2060   -12.5160 
  175.2500    55.6520    49.4960    40.8490    39.6280    25.2050     2.2090   -12.5440 
  175.3750    55.2840    48.2140    40.0070    40.4010    25.2040     2.2070   -12.6190 
  175.5000    53.1430    45.4170    37.9390    40.6260    25.1980     2.2040   -12.7100 
  175.6250    51.7370    41.6300    35.0140    38.9480    25.2240     2.2060   -12.8140 
  175.7500    54.4790    37.8300    31.9800    34.4440    25.2410     2.2140   -12.9490 
  175.8750    59.6350    35.2950    29.8470    28.5030    25.2130     2.2180   -13.1160 
  176.0000    62.1710    34.4740    29.0250    25.3480    25.1850     2.2120   -13.2980 
  176.1250    61.5460    35.4330    29.6010    26.4300    25.1680     2.2060   -13.4800 
  176.2500    59.1890    38.0100    31.4560    30.4710    25.1450     2.2200   -13.6590 
  176.3750    55.5720    42.0940    34.5400    36.3320    25.0750     2.2870   -13.8320 
  176.5000    53.0190    46.6230    38.1620    42.0390    24.9800     2.3950   -13.9690 
  176.6250    51.8810    49.8370    41.0950    41.3590    24.7570     2.5180   -14.0730 
  176.7500    50.2760    49.1430    41.2450    39.1500    24.3360     2.6220   -14.0890 
  176.8750    47.7490    41.8990    36.0720    40.4070    23.9830     2.6740   -14.0160 
  177.0000    48.1890    31.0960    27.6630    48.0060    23.9680     2.6800   -13.8700 
  177.1250    51.6440    20.5860    19.1360    44.9410    24.1190     2.6400   -13.6370 
  177.2500    54.3480    12.9010    12.6120    22.7920    24.2760     2.5650   -13.3950 
  177.3750    54.8060     8.7220     8.7590    10.6630    24.4760     2.4770   -13.1140 
  177.5000    52.7960     6.5550     6.5450     6.4270    24.6490     2.4050   -12.8840 
  177.6250    48.7400     5.5930     5.4070     5.2820    24.7300     2.3660   -12.7090 
  177.7500    45.0420     5.3190     4.9660     5.2610    24.7840     2.3590   -12.5920 
  177.8750    45.0040     5.4700     5.0190     5.5300    24.8840     2.3730   -12.6080 
  178.0000    46.2240     5.8190     5.3110     5.4310    24.9760     2.3920   -12.7150 
  178.1250    45.9110     6.2980     5.7500     5.6720    25.0370     2.4080   -12.9460 
  178.2500    47.5920     6.8750     6.2900     6.1590    25.0440     2.4180   -13.2600 
  178.3750    54.6450     7.5170     6.9060     6.8150    25.0020     2.4180   -13.6540 
  178.5000    64.1470     8.1330     7.5260     7.6090    24.9710     2.4130   -14.0880 
  178.6250    72.0670     8.6340     8.0660     8.3090    24.9080     2.4080   -14.5540 
  178.7500    74.1590     8.9540     8.4440     8.6780    24.8510     2.4080   -15.0750 
  178.8750    69.6670     9.0740     8.6040     8.7160    24.8220     2.4150   -15.5730 
  179.0000    66.5820     9.1120     8.6220     8.6680    24.8260     2.4250   -16.0740 
  179.1250    70.5000     9.1560     8.5760     8.7170    24.8420     2.4360   -16.5570 
  179.2500    79.6290     9.2550     8.5360     8.9420    24.8720     2.4430   -16.9870 
  179.3750    87.8590     9.4080     8.5470     9.2230    24.9780     2.4400   -17.3950 
  179.5000    92.0090     9.5610     8.6010     9.3660    25.1900     2.4300   -17.7210 
  179.6250    91.9320     9.6810     8.6670     9.1740    25.4410     2.4140   -17.9830 
  179.7500    90.6320     9.7530     8.7120     8.9070    25.6260     2.3980   -18.1490 
  179.8750    93.1810     9.7800     8.7110     8.9320    25.6570     2.3820   -18.2640 
  180.0000    97.0320     9.7820     8.6760     9.0150    25.6270     2.3700   -18.3000 
  180.1250    97.0620     9.7630     8.6220     8.9590    25.5600     2.3620   -18.2720 
  180.2500    95.8280     9.7170     8.5540     8.8350    25.4750     2.3630   -18.2010 
  180.3750    99.7370     9.6180     8.4460     8.8190    25.3780     2.3710   -18.0380 
  180.5000   105.8780     9.4640     8.2770     8.8130    25.3020     2.3780   -17.8750 
  180.6250   107.2390     9.2600     8.0450     8.6660    25.2680     2.3810   -17.6990 
  180.7500   100.7640     9.0350     7.7720     8.4250    25.2440     2.3790   -17.5620 
  180.8750    93.1360     8.8730     7.5270     8.2270    25.2110     2.3710   -17.4530 
  181.0000    90.8560     8.9120     7.4070     8.0710    25.1800     2.3630   -17.4140 
  181.1250    93.0370     9.3340     7.5270     8.0450    25.1520     2.3620   -17.4430 
  181.2500    93.9280    10.3640     8.0250     8.3000    25.1390     2.3720   -17.5280 
  181.3750    92.1290    12.4640     9.2050     9.1360    25.1030     2.3960   -17.7370 
  181.5000    89.1180    15.8160    11.2500    11.1570    25.0460     2.4230   -17.9900 
  181.6250    83.0520    20.6390    14.4380    15.8560    24.9830     2.4400   -18.3110 
  181.7500    72.1470    26.9330    18.9660    23.7170    24.9800     2.4430   -18.6720 
  181.8750    62.9230    34.3660    24.8800    33.0980    24.9760     2.4380   -19.0250 
  182.0000    59.3560    41.7650    31.2380    43.4260    24.9330     2.4330   -19.3900 
  182.1250    58.5650    48.1870    37.1010    49.1690    24.8340     2.4250   -19.7050 
  182.2500    57.0460    53.1610    41.8350    48.2230    24.7620     2.4060   -19.9980 
  182.3750    56.4040    56.6500    45.1970    49.1250    24.7840     2.3710   -20.2290 
  182.5000    58.8790    59.1820    47.6210    50.7530    24.9440     2.3290   -20.4240 
  182.6250    62.7370    60.7310    49.1760    52.9780    25.0770     2.2890   -20.5680 
  182.7500    65.4930    61.0480    49.7580    56.3400    25.1020     2.2580   -20.6480 
  182.8750    64.9550    59.8040    49.1350    56.9060    25.0150     2.2390   -20.6990 
  183.0000    61.6420    57.6840    47.7710    55.3920    24.9310     2.2300   -20.6820 
  183.1250    58.4180    55.5080    46.2480    51.8480    24.8970     2.2270   -20.6300 
  183.2500    57.7170    54.0800    45.1980    44.5700    24.8790     2.2260   -20.5280 
  183.3750    57.7260    54.0730    45.2450    41.0320    24.9220     2.2230   -20.4190 
  183.5000    55.2570    55.1620    46.2790    44.0060    24.9560     2.2190   -20.2700 
  183.6250    52.6740    56.7500    47.9160    53.0040    24.9770     2.2160   -20.1300 
  183.7500    53.4380    57.9930    49.4780    57.4730    24.9830     2.2200   -20.0050 
  183.8750    56.8710    57.9380    50.0670    54.9430    25.0140     2.2340   -19.8810 
  184.0000    59.9770    56.8060    49.6070    50.2250    25.0790     2.2490   -19.7930 
  184.1250    62.9820    55.5580    48.6940    47.5780    25.1300     2.2560   -19.7320 
  184.2500    64.4550    55.6020    48.4460    47.6590    25.1440     2.2590   -19.7450 
  184.3750    62.6930    58.9340    50.5760    49.2950    25.1000     2.2810   -19.7780 
  184.5000    60.5990    66.3580    56.0350    50.6920    25.0220     2.3420   -19.8590 
  184.6250    60.0840    78.8530    66.0090    60.9300    24.9390     2.4300   -19.9640 
  184.7500    58.9170    97.1090    81.4820   110.3050    24.8780     2.4940   -20.0590 
  184.8750    53.8170   121.5580   103.1010   176.8730    24.8800     2.4770   -20.2150 
  185.0000    49.8360   148.2130   127.2370   190.7540    24.9510     2.4030   -20.3710 
  185.1250    50.0810   171.4730   149.2020   177.6430    25.0030     2.3150   -20.5410 
  185.2500    50.7300   185.3700   164.0760   165.9840    24.9660     2.2500   -20.6780 
  185.3750    48.8860   186.1860   168.2100   138.4380    24.7820     2.2250   -20.7960 
  185.5000    46.9540   179.4490   165.3370   135.4510    24.6540     2.2240   -20.8890 
  185.6250    48.0710   169.0620   158.5470   148.6940    24.7680     2.2310   -20.9370 
  185.7500    50.1690   157.3430   149.9300   160.1860    24.9910     2.2390   -20.9490 
  185.8750    49.8940   145.6200   140.6580   146.2710    25.1290     2.2450   -20.8820 
