~V
VERS. 2.00: Ver 2.00
~W
STRT.M 57.0000:
STOP.M 242.0000:
STEP.M 0.1250:
NULL. -999.2500:
UWI. F10636:
~C
DEPT.M :
GR.API :
RML.OHMM :
RI. :
RXO.OHMM :
CALI.CM :
DEN.GM/CC :
SP.MV :
~A
# ...
  214.5000    38.5690     7.9190     7.3880     4.7430    23.7730     2.4760   -11.2000 
  214.6250    38.4640     6.6080     6.2530     4.9830    23.7650     2.4790   -11.0440 
  214.7500    38.3340     5.9440     5.6930     4.8890    23.8110     2.4600   -10.9190 
  214.8750    39.1580     5.8850     5.4560     4.7980    23.8800     2.4230   -10.8310 
  215.0000    40.4810     6.1110     5.3990     5.1290    23.9520     2.3860   -10.7790 
  215.1250    40.5750     6.3170     5.4580     5.3990    23.9850     2.3640   -10.7570 
  215.2500    39.5600     6.3780     5.5560     5.3960    23.9970     2.3520   -10.7450 
  215.3750    38.2590     6.2670     5.6330     5.0250    24.0230     2.3440   -10.7420 
  215.5000    38.2750     6.0220     5.6350     4.8640    24.1000     2.3370   -10.7540 
  215.6250    41.6730     5.7410     5.5470     4.8870    24.2550     2.3300   -10.8030 
  215.7500    46.7020     5.5540     5.4510     4.9630    24.3330     2.3260   -10.8640 
  215.8750    49.8150     5.5500     5.4290     5.0890    24.3620     2.3260   -10.9250 
  216.0000    50.1290     5.7690     5.5410     5.3220    24.3590     2.3330   -10.9920 
  216.1250    50.8330     6.1890     5.7900     5.9910    24.3100     2.3520   -11.0960 
  216.2500    52.9310     6.6490     6.0660     6.9200    24.2080     2.3750   -11.2180 
  216.3750    55.1370     7.0290     6.2720     7.4330    24.0640     2.3910   -11.3400 
  216.5000    57.4780     7.2510     6.3500     7.3390    23.9310     2.3920   -11.4620 
  216.6250    59.2830     7.2910     6.2970     7.3090    23.9100     2.3810   -11.5570 
  216.7500    58.9510     7.2380     6.1910     7.1070    24.0070     2.3720   -11.6300 
  216.8750    56.0260     7.1460     6.0710     6.7230    24.1760     2.3710   -11.7080 
  217.0000    51.8960     7.0410     5.9410     6.7900    24.3480     2.3780   -11.7980 
  217.1250    48.5420     6.9220     5.7870     7.0620    24.4720     2.3890   -11.8640 
  217.2500    46.7030     6.7920     5.6200     6.8570    24.5460     2.3970   -11.9140 
  217.3750    46.5690     6.6710     5.4700     6.3520    24.5810     2.4050   -11.9640 
  217.5000    47.1990     6.5920     5.3670     5.7650    24.5900     2.4160   -12.0240 
  217.6250    48.4550     6.6160     5.3380     5.3600    24.5820     2.4300   -12.1140 
  217.7500    51.7340     6.7570     5.3720     5.5150    24.5710     2.4420   -12.2380 
  217.8750    58.2300     7.0030     5.4670     6.0730    24.5630     2.4480   -12.3610 
  218.0000    65.0600     7.3080     5.6220     6.7420    24.5500     2.4420   -12.4570 
  218.1250    67.6070     7.5940     5.8280     7.4810    24.5140     2.4270   -12.5560 
  218.2500    65.3900     7.7840     6.0230     7.6960    24.4600     2.4140   -12.6590 
  218.3750    62.1040     7.8450     6.1470     7.8000    24.4070     2.4080   -12.7700 
  218.5000    61.9500     7.8010     6.1750     7.7770    24.3690     2.4090   -12.8910 
  218.6250    65.4340     7.7590     6.1510     7.0210    24.3370     2.4080   -13.0220 
  218.7500    69.2500     7.8370     6.1840     6.7740    24.2800     2.3930   -13.1560 
  218.8750    69.8170     8.0870     6.3430     7.0700    24.1880     2.3640   -13.2810 
  219.0000    67.0680     8.4640     6.6200     8.2790    24.0800     2.3320   -13.3910 
  219.1250    63.5310     8.8000     6.8990     9.9270    23.9990     2.3120   -13.4730 
  219.2500    59.8820     8.9100     7.0170     9.5620    23.9650     2.3120   -13.5530 
  219.3750    56.6100     8.7120     6.8970     7.4770    23.9880     2.3270   -13.6410 
  219.5000    55.4270     8.2730     6.5790     5.9820    24.0590     2.3480   -13.7330 
  219.6250    57.1390     7.7920     6.2110     5.4460    24.1450     2.3650   -13.8060 
  219.7500    60.7860     7.4680     5.9620     5.5090    24.2040     2.3720   -13.8730 
  219.8750    66.5220     7.3850     5.9020     6.0480    24.2310     2.3690   -13.9680 
  220.0000    74.5500     7.5370     6.0220     7.0540    24.2350     2.3580   -14.1050 
  220.1250    80.2780     7.8720     6.2530     7.8210    24.2060     2.3430   -14.2910 
  220.2500    80.5880     8.2420     6.4740     7.6660    24.1340     2.3320   -14.4870 
  220.3750    79.3250     8.5250     6.6220     7.5010    24.0780     2.3270   -14.6450 
  220.5000    79.0240     8.6070     6.6600     7.6880    24.0970     2.3280   -14.7220 
  220.6250    78.9150     8.3860     6.5630     7.7740    24.1940     2.3300   -14.7110 
  220.7500    78.1020     7.9630     6.3640     7.2080    24.2670     2.3290   -14.6450 
  220.8750    76.1510     7.4830     6.1030     6.5330    24.3430     2.3220   -14.5610 
  221.0000    74.0540     7.1170     5.8510     6.3130    24.4610     2.3120   -14.4780 
  221.1250    73.4790     7.0810     5.7510     7.0230    24.5530     2.3040   -14.4160 
  221.2500    75.8580     7.4140     5.8930     7.0180    24.5970     2.3030   -14.4010 
  221.3750    78.9580     8.0920     6.3140     6.7140    24.5670     2.3140   -14.4500 
  221.5000    80.3100     8.9760     6.9470     7.5500    24.5060     2.3380   -14.5930 
  221.6250    80.7930     9.7560     7.5780     9.8700    24.4410     2.3650   -14.8210 
  221.7500    81.9200    10.1400     7.9510    10.7780    24.4110     2.3820   -15.0730 
  221.8750    84.2190    10.0310     7.9440     9.1000    24.4010     2.3800   -15.3060 
  222.0000    86.8480     9.5650     7.6140     7.4410    24.4000     2.3590   -15.5150 
  222.1250    86.6640     9.0220     7.1530     7.0540    24.4000     2.3330   -15.7090 
  222.2500    82.1270     8.6270     6.7800     6.9920    24.4010     2.3180   -15.8780 
  222.3750    76.6240     8.4300     6.5700     6.9010    24.4060     2.3210   -16.0340 
  222.5000    75.3360     8.3960     6.5100     7.0470    24.4360     2.3360   -16.1800 
  222.6250    78.3940     8.4790     6.5600     7.1620    24.5120     2.3530   -16.3410 
  222.7500    83.3360     8.6290     6.6660     6.8410    24.6040     2.3620   -16.5470 
  222.8750    88.1250     8.8500     6.8360     7.0000    24.6490     2.3590   -16.7980 
  223.0000    90.4100     9.1350     7.0860     7.7890    24.6450     2.3470   -17.0780 
  223.1250    90.8070     9.4470     7.4230     8.5480    24.5180     2.3350   -17.3220 
  223.2500    92.0060     9.7100     7.7750     8.4670    24.2660     2.3300   -17.5170 
  223.3750    92.9290     9.8690     8.0620     8.5260    24.0130     2.3350   -17.6480 
  223.5000    91.2780     9.8980     8.2190     9.1780    23.8690     2.3450   -17.7120 
  223.6250    88.8310     9.8070     8.2220     9.3020    23.8170     2.3490   -17.6680 
  223.7500    86.9100     9.6830     8.1710     9.2940    23.7860     2.3410   -17.4930 
  223.8750    85.8390     9.5840     8.1530     9.4300    23.8170     2.3220   -17.1710 
  224.0000    87.4440     9.5300     8.1970     8.9490    23.9120     2.2990   -16.6990 
  224.1250    89.2670     9.4640     8.2350     8.8430    23.9780     2.2830   -16.1160 
  224.2500    85.5420     9.2840     8.1440    10.2900    24.0300     2.2810   -15.4660 
  224.3750    77.1080     8.9130     7.8480    11.3020    24.0970     2.2930   -14.7480 
  224.5000    69.3150     8.3460     7.3570     9.7920    24.1980     2.3160   -13.9710 
  224.6250    65.6590     7.6740     6.7730     6.9380    24.3510     2.3430   -13.1960 
  224.7500    63.6180     7.0640     6.2530     6.0530    24.5200     2.3620   -12.4970 
  224.8750    62.0550     6.6180     5.8740     5.9910    24.6580     2.3720   -11.9080 
  225.0000    60.0020     6.3820     5.6510     5.8520    24.7180     2.3750   -11.4260 
  225.1250    59.2330     6.3730     5.5670     5.6630    24.6990     2.3770   -11.0340 
  225.2500    61.4490     6.4840     5.5430     5.6150    24.6770     2.3820   -10.7270 
  225.3750    63.0980     6.6150     5.5340     5.7400    24.6670     2.3850   -10.5250 
  225.5000    59.2780     6.6630     5.5100     5.9470    24.6580     2.3790   -10.4190 
  225.6250    51.5190     6.5390     5.4540     5.9650    24.5780     2.3580   -10.3940 
